~VERSION INFORMATION
 VERS.                2.0:   CWLS LOG ASCII STANDARD - VERSION 2.0
 WRAP.                 NO:   ONE LINE PER DEPTH STEP
~WELL INFORMATION
#MNEM.UNIT      DATA TYPE    INFORMATION
#----------   ------------   ------------------------------
 STRT.F            0.5000:   START DEPTH
 STOP.F         2271.5000:   STOP DEPTH
 STEP.F            0.5000:   STEP LENGTH
 NULL.          -999.2500:   NO VALUE
 COMP. BROWN JOHN E&C INC:   COMPANY
 WELL. NPR 3 STX-11 #27-11:   WELL
 FLD .             TEAPOT:   FIELD
 LOC .      S11 T38N R78W:   LOCATION
 CNTY.            NATRONA:   COUNTY
 STAT.            WYOMING:   STATE
 CTRY. UNITED STATES OF AMERICA:   COUNTRY
 SRVC.      Dresser Atlas:   SERVICE COMPANY
 DATE.        20-JAN-1993:   LOGDATE
 API .       490251108500:   API NUMBER
~CURVE INFORMATION
#MNEM.UNIT       API CODE    CURVE DESCRIPTION
#----------   ------------   ------------------------------
 DEPT.F                  :   
 ILD .OHMM   07 120 46 00:   INDUCTION LOG DEEP
 ILM .OHMM   07 120 44 00:   INDUCTION LOG MEDIUM
 GRR .GAPI   07 310 01 00:   GAMMA RAY FROM RES. LOG.
~PARAMETER INFORMATION
#MNEM.UNIT          VALUE    DESCRIPTION
#----------   ------------   ------------------------------
 PD  .                 GL:   PERMANENT DATUM
 EPD .F              5187:   ELEVATION PERMANENT DATUM
 LMF .                 KB:   LOG MEASURED FROM
 DAPD.F                12:   FEET ABOVE PERMANENT DATUM
 DMF .                 KB:   DRILLING MEASURED FROM
 EKB .F            5198.8:   KELLING BUSHING
 EDF .F            5197.8:   DRILLING FLOOR
 EGL .F              5187:   GROUND LEVEL
 DATE.            1-20-93:   RUN DATE
 RUN .                  1:   RUN NUMBER
 DD  .F              2279:   DEPTH DRILLER
 DL  .F              2279:   DEPTH LOGGER
 BLI .F              2271:   BOTTOM LOG INTERVAL
 TLI .F               692:   TOP LOG INTERVAL
 CS  .IN            8.625:   CASING SIZE
 CBD .F               689:   CASING BOTTOM DRILLER
 CBL .F               692:   CASING BOTTOM LOGGER
 BS  .IN            7.875:   BIT SIZE
 BSD .F              2279:   BIT SIZE AT DEPTH
 DFT .                OIL:   DRILLING FLUID TYPE
 BHT .F                92:   BOTTOM HOLE TEMPERATURE
 TCS .HRS               2:   TIME CURCULATED STOPPED
 MRT .F                92:   MAXIMUM RECORDED TEMPERATURE
 LUN .            HL-6274:   LOGGING UNIT NUMBER
 LUL .             CASPER:   LOGGING UNIT LOCATION
 ENGI.             RAUTIO:   RECORDING ENGINEER
 WITN.             STRONG:   WITNESSED BY
 CLNT.            A2DTECH:   CLIENT CODE
 ORIG.  2", 5", 20" PRINT:   ORIGIN OF DATA
 UWI .       490251108500:   UNIQUE WELL ID
 DICO. A2D Technologies, Inc.:   DIGITIZING COMPANY
~OTHER INFORMATION
~A    DEPT     ILD        ILM         GRR  
# ...
  819.5000     9.6035     9.3036   138.6161
  820.0000     9.5846     9.2784   140.7677
  820.5000     9.5657     9.2545   137.4474
  821.0000     9.5469     9.2307   133.2714
  821.5000     9.5285     9.2082   129.1270
  822.0000     9.4796     9.1856   126.7804
  822.5000     9.3539     9.1697   129.2345
  823.0000     9.2299     8.9183   133.5313
  823.5000     9.1075     8.7561   137.8184
  824.0000     8.9867     8.6310   139.3753
  824.5000     8.8676     8.5175   138.1995
  825.0000     8.7500     8.4055   137.1270
  825.5000     8.6340     8.2950   136.8270
  826.0000     8.5195     8.1859   136.5450
  826.5000     8.4065     8.0782   136.3446
  827.0000     8.2950     7.9720   137.6048
  827.5000     8.1850     7.8672   140.4648
  828.0000     8.1325     7.7637   141.2612
  828.5000     7.9825     7.6948   141.7922
  829.0000     7.9854     7.7146   143.2366
  829.5000     7.9846     7.7295   145.0361
  830.0000     7.9843     7.7444   145.6840
  830.5000     7.9849     7.7594   145.0798
  831.0000     7.9835     7.7662   144.8907
  831.5000     7.8113     7.5249   145.1227
  832.0000     7.6321     7.3207   144.5863
  832.5000     7.4572     7.1221   144.7589
  833.0000     7.2864     6.9289   147.6088
  833.5000     7.1196     6.7411   147.8469
  834.0000     6.9565     6.5564   147.2079
  834.5000     6.7350     6.4904   148.3971
  835.0000     6.4761     6.4425   149.5786
  835.5000     6.2232     6.3956   148.7396
  836.0000     6.1490     6.3490   145.6437
  836.5000     6.0745     6.3027   145.7917
  837.0000     6.0009     6.2568   147.7898
  837.5000     5.9152     6.2112   149.7950
  838.0000     5.7798     6.1661   151.8067
  838.5000     5.6474     5.9108   150.8611
  839.0000     5.5181     5.6670   147.3645
  839.5000     5.4127     5.5594   146.7647
  840.0000     5.3849     5.4683   149.0154
  840.5000     5.3573     5.4689   152.4191
  841.0000     5.3196     5.4689   154.7204
  841.5000     5.3455     5.4689   151.8135
  842.0000     5.3870     5.5353   148.5395
  842.5000     5.4187     5.6160   147.1353
  843.0000     5.5861     5.6979   146.4432
  843.5000     5.7520     5.7272   144.8349
  844.0000     5.9228     5.7843   143.1083
  844.5000     6.0533     5.8752   141.5434
  845.0000     6.1074     5.9523   142.2168
  845.5000     6.1117     5.9902   147.6255
  846.0000     6.1069     6.0281   153.5131
  846.5000     6.0971     6.0663   156.4402
  847.0000     6.0873     6.1047   153.1809
  847.5000     6.0777     6.1434   150.6519
  848.0000     6.0681     6.1824   149.6223
  848.5000     6.0577     6.2216   148.5433
  849.0000     6.0536     6.2610   147.7063
  849.5000     6.1287     6.3007   149.2856
  850.0000     6.1801     6.3407   152.4598
  850.5000     6.2318     6.3810   155.3063
  851.0000     6.2839     6.4213   157.9731
  851.5000     6.3364     6.4578   158.8623
  852.0000     6.3894     6.4139   155.1199
  852.5000     6.4428     6.3671   151.6696
  853.0000     6.4573     6.3206   152.9631
  853.5000     6.4573     6.2744   154.0960
  854.0000     6.4475     6.2286   151.7130
  854.5000     6.3813     6.1831   148.6168
  855.0000     6.3158     6.1380   145.4317
  855.5000     6.2510     6.1094   144.3937
  856.0000     6.2235     6.1256   144.1084
  856.5000     6.2232     6.1659   145.1473
  857.0000     6.2232     6.1567   146.7437
  857.5000     6.2232     6.1508   151.7808
  858.0000     6.2232     6.1448   156.6717
  858.5000     6.2232     6.1388   156.6577
  859.0000     6.2232     6.1329   153.5356
  859.5000     6.2232     6.1270   148.6663
  860.0000     6.2232     6.1211   145.2007
  860.5000     6.2232     6.1151   143.1171
  861.0000     6.2231     6.1095   143.8195
  861.5000     6.2146     6.1094   144.7086
  862.0000     6.1944     6.1093   143.0539
  862.5000     6.1743     6.1097   139.9549
  863.0000     6.1544     6.1227   141.1623
  863.5000     6.1345     6.1353   144.4568
  864.0000     6.1146     6.1480   146.9257
  864.5000     6.0949     6.1607   148.8105
  865.0000     6.0751     6.1734   149.6204
  865.5000     6.0533     6.1862   150.5517
  866.0000     6.0579     6.1989   151.6434
  866.5000     6.0631     6.2117   154.8751
  867.0000     6.0683     6.2246   158.5767
  867.5000     6.0736     6.2374   156.3132
  868.0000     6.0788     6.2503   152.3525
  868.5000     6.0840     6.2632   148.6770
  869.0000     6.0892     6.2761   147.2347
  869.5000     6.0945     6.2891   145.5462
  870.0000     6.0998     6.3021   144.8322
  870.5000     6.1050     6.3151   146.6813
  871.0000     6.1181     6.3282   148.8433
  871.5000     6.1770     6.3470   147.8254
  872.0000     6.2363     6.3981   146.8862
  872.5000     6.2962     6.4496   149.5684
  873.0000     6.3567     6.5014   152.4932
  873.5000     6.4177     6.5536   155.4587
  874.0000     6.4796     6.6063   153.5657
  874.5000     6.5291     6.6385   148.1378
  875.0000     6.5599     6.5533   146.5492
  875.5000     6.5908     6.4928   147.8732
  876.0000     6.6219     6.4573   148.1207
  876.5000     6.6531     6.4826   146.7136
  877.0000     6.6844     6.5077   145.3120
  877.5000     6.7159     6.5329   144.0244
  878.0000     6.7476     6.5582   144.5933
  878.5000     6.7793     6.5837   147.3321
  879.0000     6.8113     6.6092   148.8331
  879.5000     6.8434     6.6348   150.3025
  880.0000     6.8756     6.6605   152.7075
  880.5000     6.9080     6.6863   152.8148
  881.0000     6.9406     6.7123   147.3317
  881.5000     6.9733     6.7383   142.0376
  882.0000     7.0061     6.7622   139.5373
  882.5000     7.0165     6.7535   139.8875
  883.0000     7.0164     6.7454   141.0661
  883.5000     7.0165     6.7374   142.2874
  884.0000     7.0165     6.7294   142.7616
  884.5000     7.0165     6.7215   141.2658
  885.0000     7.0161     6.7140   139.8035
  885.5000     7.0165     6.7056   138.2699
  886.0000     7.0165     6.7001   138.3973
  886.5000     7.4397     7.1268   142.1141
  887.0000     7.9214     7.4654   145.7088
  887.5000     8.4353     7.8201   143.4983
  888.0000     8.9822     8.3288   140.3965
  888.5000     9.5643     8.9906   135.6583
  889.0000    10.1843     9.7050   130.7254
  889.5000    10.8338    10.4119   125.7058
  890.0000    11.4705    10.8465   123.0652
  890.5000    12.1444    11.2992   123.6789
  891.0000    12.8146    11.7709   122.9513
  891.5000    13.4848    12.2622   121.8152
  892.0000    14.1912    12.7741   122.2317
  892.5000    14.9347    13.3073   126.0737
  893.0000    15.7171    13.8628   126.6969
  893.5000    16.5405    14.4415   126.4923
  894.0000    17.0658    14.7704   126.4109
  894.5000    17.3990    15.0472   129.0491
  895.0000    17.6735    15.0934   131.8128
  895.5000    17.7420    15.0934   131.1040
  896.0000    17.8209    14.8968   128.6550
  896.5000    17.5844    14.6681   128.9265
  897.0000    17.2289    14.4429   129.8381
  897.5000    16.8806    14.2211   130.7701
  898.0000    16.5393    14.0028   131.7070
  898.5000    16.2049    13.8904   132.6660
  899.0000    15.9984    13.8904   131.2495
  899.5000    15.8502    13.8904   129.5615
  900.0000    15.7033    13.8904   127.8935
  900.5000    15.5578    13.8904   126.6829
  901.0000    15.4136    13.8904   127.3427
  901.5000    15.3508    13.8747   128.5573
  902.0000    15.3182    13.8453   129.7938
  902.5000    15.2858    13.8162   130.2510
  903.0000    15.2534    13.7867   128.1388
  903.5000    15.1964    13.7627   125.6479
  904.0000    14.9950    13.5175   123.1170
  904.5000    14.7962    13.2727   123.4117
  905.0000    14.6001    13.0324   125.6775
  905.5000    14.4127    12.7964   130.0226
  906.0000    14.0858    12.5449   131.0949
  906.5000    13.7761    12.2771   127.6404
  907.0000    13.4731    12.0136   123.9774
  907.5000    13.1768    11.7558   123.1022
  908.0000    12.8870    11.5037   123.3672
  908.5000    12.6035    11.2339   124.1668
  909.0000    12.3271    11.2052   125.5490
  909.5000    12.0526    11.1493   127.5577
  910.0000    11.9331    11.0937   129.4745
