~VERSION INFORMATION
 VERS.                2.0:   CWLS LOG ASCII STANDARD - VERSION 2.0
 WRAP.                 NO:   ONE LINE PER DEPTH STEP
~WELL INFORMATION
#MNEM.UNIT      DATA TYPE    INFORMATION
#----------   ------------   ------------------------------
 STRT.F           17.0000:   START DEPTH
 STOP.F          565.5000:   STOP DEPTH
 STEP.F            0.5000:   STEP LENGTH
 NULL.          -999.2500:   NO VALUE
 COMP. LAWRENCE/ALLISON INC:   COMPANY
 WELL. NPR 3 #83-56 SX 10:   WELL
 FLD .             TEAPOT:   FIELD
 LOC .      S10 T38N R78W:   LOCATION
 CNTY.            NATRONA:   COUNTY
 STAT.            WYOMING:   STATE
 CTRY. UNITED STATES OF AMERICA:   COUNTRY
 SRVC.           Gearhart:   SERVICE COMPANY
 DATE.        11-JUN-1986:   LOGDATE
 API .       490251108300:   API NUMBER
~CURVE INFORMATION
#MNEM.UNIT       API CODE    CURVE DESCRIPTION
#----------   ------------   ------------------------------
 DEPT.F                  :   
 GRR .GAPI   07 310 01 00:   GAMMA RAY FROM RES. LOG.
 RILD.OHMM   07 120 46 00:   INDUCTION LOG DEEP RESISTIVITY
 RILM.OHMM   07 120 44 00:   INDUCTION LOG MEDIUM RESISTIVITY
~PARAMETER INFORMATION
#MNEM.UNIT          VALUE    DESCRIPTION
#----------   ------------   ------------------------------
 PD  .                 GL:   PERMANENT DATUM
 EPD .F              5174:   ELEVATION PERMANENT DATUM
 LMF .                 KB:   LOG MEASURED FROM
 DMF .                 KB:   DRILLING MEASURED FROM
 EKB .F              5174:   KELLING BUSHING
 EGL .F              5174:   GROUND LEVEL
 DATE.            6-11-86:   RUN DATE
 RUN .                  1:   RUN NUMBER
 DD  .F               580:   DEPTH DRILLER
 DL  .F               576:   DEPTH LOGGER
 BLI .F               565:   BOTTOM LOG INTERVAL
 TLI .F                15:   TOP LOG INTERVAL
 CS  .IN            8.625:   CASING SIZE
 CBD .F                42:   CASING BOTTOM DRILLER
 CBL .F                42:   CASING BOTTOM LOGGER
 BS  .IN            7.875:   BIT SIZE
 BSD .F               580:   BIT SIZE AT DEPTH
 DFT .                AIR:   DRILLING FLUID TYPE
 TCS .HRS            0300:   TIME CURCULATED STOPPED
 TLAB.HRS            0445:   TIME LOGGER AT BOTTOM
 MRT .F                95:   MAXIMUM RECORDED TEMPERATURE
 LUN .               7609:   LOGGING UNIT NUMBER
 LUL .           GILLETTE:   LOGGING UNIT LOCATION
 ENGI.              BAUER:   RECORDING ENGINEER
 WITN.           JENNINGS:   WITNESSED BY
 CLNT.            A2DTECH:   CLIENT CODE
 ORIG.       2", 5" PRINT:   ORIGIN OF DATA
 UWI .       490251108300:   UNIQUE WELL ID
 DICO. A2D Technologies, Inc.:   DIGITIZING COMPANY
~OTHER INFORMATION
~A   DEPT       GRR      RILD       RILM   
# ...
  199.0000   127.3918     7.7642     7.9548
  199.5000   127.6403     7.7365     7.9548
  200.0000   125.3273     7.8163     7.9548
  200.5000   123.2340     7.8721     7.9545
  201.0000   122.9593     7.9284     7.9525
  201.5000   123.7538     7.9851     7.9548
  202.0000   124.6277     8.0421     8.1197
  202.5000   125.4966     8.0996     8.5362
  203.0000   126.1559     8.1575     9.4329
  203.5000   127.3514     8.2158    10.4220
  204.0000   129.6230     8.2805    11.5189
  204.5000   133.1683     8.3577    12.8853
  205.0000   130.2593     8.4355    12.7211
  205.5000   126.4628     8.5142    12.1714
  206.0000   122.6363     8.5936    11.1109
  206.5000   119.0263     8.6737    10.1504
  207.0000   120.2240     8.7545     9.2729
  207.5000   123.4252     8.8083     8.8903
  208.0000   126.5989     8.7573     8.8625
  208.5000   128.3527     8.7194     8.8242
  209.0000   126.0729     8.6816     8.7994
  209.5000   124.0884     8.6440     9.6862
  210.0000   124.7035     8.6066    10.8394
  210.5000   125.6921     8.5668    12.0311
  211.0000   126.6850     8.5668    12.6192
  211.5000   127.6681     8.5668    13.1199
  212.0000   128.6986     8.5668    13.1199
  212.5000   127.2878     8.5668    11.6829
  213.0000   124.8942     8.5668    10.4264
  213.5000   122.4901     8.5668     9.4439
  214.0000   120.8888     8.5691     9.0577
  214.5000   122.5682     8.5862     8.8903
  215.0000   126.0125     8.6033     8.9416
  215.5000   129.4869     8.6205     8.9859
  216.0000   130.5955     8.6379     9.0303
  216.5000   126.9371     8.6458     9.0750
  217.0000   123.3995     8.5827     9.1199
  217.5000   121.7230     8.5397     9.7174
  218.0000   123.3596     8.4969    10.8965
  218.5000   125.5464     8.4244    11.8918
  219.0000   127.7794     8.3444    12.5298
  219.5000   128.4550     8.2651    12.8266
  220.0000   125.5437     8.1866    12.9981
  220.5000   122.5899     8.1089    11.1335
  221.0000   120.5274     8.0323     9.8392
  221.5000   120.7160     7.9546     8.6421
  222.0000   120.8532     7.7456     8.1959
  222.5000   120.3356     7.5390     7.8087
  223.0000   118.7051     7.3379     7.6653
  223.5000   117.0639     7.1431     7.4532
  224.0000   116.3933     6.9993     7.2469
  224.5000   120.3177     6.8998     7.0721
  225.0000   124.8010     6.7876     6.9466
  225.5000   129.3102     6.6707     6.8889
  226.0000   131.1105     6.7412     6.8574
  226.5000   128.3496     6.8105     6.9151
  227.0000   126.1214     6.8587     7.0329
  227.5000   128.4658     6.9418     7.1542
  228.0000   133.8423     7.0756     7.2772
  228.5000   139.1952     7.1839     7.4023
  229.0000   138.8474     7.3430     7.5296
  229.5000   133.9825     7.5038     7.6589
  230.0000   129.9665     7.5925     7.7918
  230.5000   127.0348     7.6702     7.8870
  231.0000   127.2882     7.7490     7.9397
  231.5000   127.6491     7.8286     7.9914
  232.0000   127.2884     7.9091     8.0436
  232.5000   125.2154     7.9548     8.0959
  233.0000   125.0461     7.8907     8.1036
  233.5000   127.1664     7.8395     7.9591
  234.0000   129.0244     7.7887     7.8474
  234.5000   128.9407     7.7367     7.7372
  235.0000   130.6801     7.5377     7.6286
  235.5000   132.9158     7.3380     7.5246
  236.0000   134.0952     7.1437     7.2243
  236.5000   130.6445     6.8431     6.9440
  237.0000   127.1392     6.4538     6.6746
  237.5000   125.3431     6.1151     6.4156
  238.0000   125.5528     5.9899     6.1667
  238.5000   127.1989     5.8633     5.9271
  239.0000   128.5179     5.7415     5.6974
  239.5000   127.8571     5.6960     5.4911
  240.0000   126.9183     5.8998     5.4911
  240.5000   124.6062     6.0424     5.8151
  241.0000   122.5884     6.3260     6.1330
  241.5000   123.2353     6.6749     6.4683
  242.0000   124.1391     7.0432     6.8225
  242.5000   123.8600     7.4309     7.1937
  243.0000   124.2144     7.8108     7.5117
  243.5000   125.0319     8.0811     7.8267
  244.0000   124.3555     8.3423     8.1559
  244.5000   118.9043     8.5809     8.4991
  245.0000   117.4223     8.6666     8.6631
  245.5000   117.8409     8.7532     8.7488
  246.0000   122.5855     8.8407     8.8353
  246.5000   129.2413     8.9290     8.9226
  247.0000   136.0980     9.0391     9.0108
  247.5000   139.6331     9.1713     9.0999
  248.0000   139.0516     9.3055     9.1899
  248.5000   137.1398     9.4417     9.2807
  249.0000   131.5130     9.5744     9.3725
  249.5000   126.0307     9.5744     9.4651
  250.0000   121.1475     9.5744     9.5587
  250.5000   119.4576     9.5744     9.6532
  251.0000   120.3551     9.5742     9.7486
  251.5000   121.1876     9.5592     9.8443
  252.0000   123.4816     9.5213     9.7919
  252.5000   126.8679     9.4861     9.7280
  253.0000   128.1772     9.3039     9.6646
  253.5000   124.7327     9.1379     9.6015
  254.0000   121.3144     8.9731     9.5744
  254.5000   119.5914     8.8214     9.3329
  255.0000   124.1038     8.5648     9.0948
  255.5000   131.0809     8.0658     8.6456
  256.0000   137.1365     7.4651     7.9998
  256.5000   139.5957     6.9133     7.4022
  257.0000   138.8017     6.4023     6.8492
  257.5000   138.0224     5.8520     6.3375
  258.0000   137.3206     5.3314     5.8640
  258.5000   132.4023     4.8262     5.3903
  259.0000   125.8319     4.6301     4.9010
  259.5000   121.4839     4.4332     4.6221
  260.0000   119.0070     4.3313     4.4232
  260.5000   120.9399     4.2757     4.3155
  261.0000   126.4599     4.2757     4.2757
  261.5000   132.2440     4.3778     4.4665
  262.0000   138.0839     4.5268     4.6476
  262.5000   140.2211     4.7768     4.9028
  263.0000   139.6330     5.0406     5.1820
  263.5000   136.3849     5.3188     5.4771
  264.0000   133.1422     5.6136     5.7889
  264.5000   131.6079     5.8495     6.1369
  265.0000   131.5263     6.0392     6.2366
  265.5000   134.9736     6.2053     6.3437
  266.0000   139.0091     6.2597     6.4527
  266.5000   143.0677     6.3113     6.5634
  267.0000   145.0830     6.5092     6.6761
  267.5000   142.7793     6.7003     6.7951
  268.0000   139.6616     6.8962     7.0194
  268.5000   136.4950     7.0520     7.2602
  269.0000   135.4198     7.2940     7.5092
  269.5000   135.4087     7.5366     7.7668
  270.0000   136.1366     7.7873     8.0332
  270.5000   137.6486     8.1027     8.3088
  271.0000   138.8469     8.0797     8.6466
  271.5000   135.4396     8.0504     8.6034
  272.0000   132.1858     8.0238     8.5349
  272.5000   131.6904     8.0055     8.4669
  273.0000   140.6202     7.9872     8.3994
  273.5000   151.7419     7.9690     8.3325
  274.0000   156.9355     7.8909     8.2661
  274.5000   153.2587     7.6071     8.0103
  275.0000   147.2098     7.3335     7.7281
  275.5000   143.8840     7.0697     7.4546
  276.0000   142.4105     6.8155     7.1909
  276.5000   141.0565     6.5703     6.9367
  277.0000   143.1742     6.3340     6.6914
  277.5000   146.2969     6.1062     6.3754
  278.0000   147.6578     5.9872     6.1113
  278.5000   145.6154     5.8836     6.0281
  279.0000   142.4624     5.8591     5.9460
  279.5000   140.6961     5.8591     5.9136
  280.0000   139.2421     5.9136     6.0131
  280.5000   138.2933     6.1220     6.3024
  281.0000   140.0883     6.4459     6.7405
  281.5000   141.7950     6.7870     7.2090
  282.0000   142.0622     7.1464     7.7062
  282.5000   142.2755     7.5244     8.6377
  283.0000   142.8744     7.8018     9.7812
  283.5000   142.7538     7.9426    11.0721
  284.0000   141.6811     8.0869    12.4104
  284.5000   140.7372     8.1853    12.4104
  285.0000   143.1190     8.2211    11.3748
  285.5000   145.6686     8.2571    10.5635
  286.0000   147.5968     8.2932     9.8100
  286.5000   145.0524     8.3320     9.1103
  287.0000   142.3177     8.3149     8.7977
  287.5000   140.6763     8.2962     9.5159
  288.0000   143.5409     8.2776    10.5078
  288.5000   149.9696     8.2592    11.7615
  289.0000   154.0477     8.2408    13.3003
  289.5000   154.5108     8.2224    15.7655
