~VERSION INFORMATION
 VERS.                2.0:   CWLS LOG ASCII STANDARD - VERSION 2.0
 WRAP.                 NO:   ONE LINE PER DEPTH STEP
~WELL INFORMATION
#MNEM.UNIT      DATA TYPE    INFORMATION
#----------   ------------   ------------------------------
 STRT.F           35.0000:   START DEPTH
 STOP.F          474.0000:   STOP DEPTH
 STEP.F            0.5000:   STEP LENGTH
 NULL.          -999.2500:   NO VALUE
 COMP.    FENIX & SCISSON:   COMPANY
 WELL.        NPR #53-S-3:   WELL
 FLD .             TEAPOT:   FIELD
 LOC .       S3 T38N R78W:   LOCATION
 CNTY.            NATRONA:   COUNTY
 STAT.            WYOMING:   STATE
 CTRY. UNITED STATES OF AMERICA:   COUNTRY
 SRVC.       Schlumberger:   SERVICE COMPANY
 DATE.        21-FEB-1977:   LOGDATE
 API .       490251027800:   API NUMBER
~CURVE INFORMATION
#MNEM.UNIT       API CODE    CURVE DESCRIPTION
#----------   ------------   ------------------------------
 DEPT.F                  :   
 SPR .MV     07 010 01 00:   SPONTANEOUS POTENTIAL
 ILD .OHMM   07 120 46 00:   INDUCTION LOG DEEP
 ILM .OHMM   07 120 44 00:   INDUCTION LOG MEDIUM
 LL8 .OHMM   07 220 08 00:   LATEROLOG-8 RES.
 CALD.IN     45 280 60 00:   CALIPER FROM DENSITY LOG
 CORR.G/C3   45 356 01 00:   DENSITY CORRECTION
 RHOB.G/C3   45 350 01 00:   BULK DENSITY
 DPHI.DEC    45 890 12 00:   DENSITY POROSITY SANDSTONE
 GRD .GAPI   45 310 01 00:   GAMMA RAY FROM DENSITY LOG
~PARAMETER INFORMATION
#MNEM.UNIT          VALUE    DESCRIPTION
#----------   ------------   ------------------------------
 PD  .                 GL:   PERMANENT DATUM
 EPD .F              5163:   ELEVATION PERMANENT DATUM
 LMF .                 GL:   LOG MEASURED FROM
 DMF .                 KB:   DRILLING MEASURED FROM
 EKB .F              5167:   KELLING BUSHING
 EGL .F              5163:   GROUND LEVEL
 DATE.        21-FEB-1977:   RUN DATE
 RUN .                  1:   RUN NUMBER
 DD  .F               480:   DEPTH DRILLER
 DL  .F               475:   DEPTH LOGGER
 BLI .F               474:   BOTTOM LOG INTERVAL
 TLI .F                39:   TOP LOG INTERVAL
 CS  .IN            8.625:   CASING SIZE
 CBD .F                40:   CASING BOTTOM DRILLER
 CBL .F                39:   CASING BOTTOM LOGGER
 BS  .IN            7.875:   BIT SIZE
 BSD .F               480:   BIT SIZE AT DEPTH
 DFT .            KCL MUD:   DRILLING FLUID TYPE
 DFD .                8.6:   DRILLING FLUID DENSITY
 DFV .                 35:   DRILLING FLUID VISCOSITY
 DFPH.                8.0:   DRILLING FLUID PH
 DFL .                6.8:   DRILLING FLUID LOSS
 MSS .           FLOWLINE:   MUD SAMPLE SOURCE
 RMS .OHMM            .41:   RESISTIVITY MUD SAMPLE
 MST .F                70:   MUD SAMPLE TEMPERATURE
 RMF .OHMM            .46:   RESISTIVITY MUD FILTRATE SAMPLE
 MFST.F                70:   MUD FILTRATE SAMPLE TEMPERATURE
 MFSS.               MEAS:   MUD FILTRATE SAMPLE SOURCE
 TCS .HRS               1:   TIME CURCULATED STOPPED
 LUN .               7680:   LOGGING UNIT NUMBER
 LUL .               CSPR:   LOGGING UNIT LOCATION
 ENGI.             TAYLOR:   RECORDING ENGINEER
 WITN.               JAPP:   WITNESSED BY
 CLNT.            A2DTECH:   CLIENT CODE
 ORIG.           5" PRINT:   ORIGIN OF DATA
 UWI .       490251027800:   UNIQUE WELL ID
 DICO. A2D Technologies, Inc.:   DIGITIZING COMPANY
~OTHER INFORMATION
~A   DEPT      SPR        ILD        ILM        LL8       CALD       CORR       RHOB       DPHI         GRD  
# ...
  217.5000   -55.0432     7.1800     7.9850     9.4647     8.3227     0.0441     2.5248     0.0732    91.5741
  218.0000   -55.3284     6.9873     7.8784     9.5357     8.3240     0.0194     2.4941     0.1046    92.0407
  218.5000   -55.3063     6.7529     7.6686     8.8409     8.3253     0.0066     2.4684     0.1136    92.5073
  219.0000   -55.4422     6.4814     7.4118     8.3007     8.3266     0.0076     2.4646     0.1100    94.3212
  219.5000   -55.8687     6.2639     7.1637     7.7013     8.3280     0.0190     2.4729     0.1124    97.0334
  220.0000   -56.0000     5.8479     6.8287     7.1984     8.3296     0.0128     2.4518     0.1247    98.8473
  220.5000   -56.4299     5.4219     6.3756     6.8620     8.3309    -0.0037     2.4209     0.1377    97.4731
  221.0000   -56.4118     4.8897     5.9939     6.3190     8.3322     0.0158     2.4279     0.1300    96.1921
  221.5000   -56.9911     4.4012     5.7136     5.7789     8.3336     0.0226     2.4367     0.1268    96.2097
  222.0000   -57.1226     3.8793     4.8086     5.0702     8.3498     0.0137     2.4036     0.1482    96.2272
  222.5000   -57.2542     3.3998     4.0190     4.4793     8.3512     0.0122     2.3886     0.1603    95.1220
  223.0000   -57.4070     2.9770     3.5997     4.0402     8.3525     0.0145     2.3780     0.1663    92.2203
  223.5000   -57.5173     2.7034     3.2466     3.4242     8.3538     0.0220     2.3675     0.1741    88.8696
  224.0000   -57.4951     2.5414     2.9239     3.0043     8.3551     0.0288     2.3185     0.1994    87.7600
  224.5000   -57.3282     2.4732     2.6963     2.7282     8.3564     0.0221     2.2884     0.2184    89.3537
  225.0000   -57.0120     2.4570     2.6791     3.2678     8.3578     0.0334     2.2771     0.2404    88.2485
  225.5000   -56.6958     2.5450     2.7946     3.4555     8.3441     0.0234     2.2417     0.2588    85.4821
  226.0000   -56.2303     2.7287     3.0173     4.2251     8.3457     0.0129     2.2221     0.2481    87.6143
  226.5000   -55.6156     2.9870     3.2803     4.7877     8.3470     0.0027     2.2524     0.2210    91.4492
  227.0000   -55.1501     3.4320     3.4689     3.9997     8.3484     0.0185     2.3283     0.1938    95.5086
  227.5000   -54.9832     3.8092     3.9585     5.5555     8.3497     0.0028     2.3599     0.1666    98.4453
  228.0000   -54.9655     4.4070     4.5486     7.3127     8.3511     0.0156     2.3569     0.1423   101.1574
  228.5000   -54.6492     5.0636     5.1547     7.8949     8.3523     0.0081     2.3810     0.1408   103.6450
  229.0000   -54.4823     5.5052     5.6041     7.8992     8.3536     0.0014     2.4383     0.1341   105.4590
  229.5000   -54.3153     5.8236     5.9675     7.9035     8.3400     0.0172     2.4676     0.1193   105.4985
  230.0000   -54.2976     5.9982     6.3106     7.8523     8.3413     0.0503     2.4910     0.1064   105.4940
  230.5000   -54.1307     6.1587     6.5817     7.8024     8.3429     0.0361     2.4827     0.1006   108.0269
  231.0000   -54.1130     6.2475     6.8171     7.7529     8.3442     0.0249     2.4714     0.1096   105.3089
  231.5000   -54.2448     6.2938     6.9159     7.8120     8.3302     0.0136     2.4637     0.1150   103.9747
  232.0000   -54.0776     6.2969     6.9677     7.8705     8.3319     0.0189     2.4729     0.1096   104.8948
  232.5000   -54.2091     6.2133     6.9715     7.8748     8.3332     0.0317     2.4880     0.0963   104.6878
  233.0000   -54.1910     6.1308     6.9754     7.9337     8.3345     0.0408     2.4992     0.0890   102.6844
  233.5000   -54.3413     6.0077     6.9249     8.1607     8.3205     0.0378     2.5060     0.0857   101.1257
  234.0000   -54.7530     5.6869     6.7283     8.5701     8.3372     0.0296     2.4947     0.0932   105.1895
  234.5000   -55.0294     5.3832     6.4309     8.6942     8.3235     0.0424     2.4992     0.0926   108.3507
  235.0000   -55.4594     5.0957     6.0879     8.3861     8.3249     0.0372     2.4842     0.1073   110.6138
  235.5000   -55.8939     4.8236     5.6840     6.9812     8.3112     0.0199     2.4375     0.1223   111.5748
  236.0000   -56.1747     4.6296     5.1620     4.8388     8.3128     0.0117     2.4172     0.1377   115.5933
  236.5000   -56.3063     4.4743     4.7862     5.5595     8.3141     0.0140     2.4026     0.1564   116.5091
  237.0000   -56.1349     4.4456     4.6575     6.6122     8.3154     0.0193     2.3831     0.1630   114.0565
  237.5000   -56.1172     4.4812     4.6930     6.3910     8.3168     0.0103     2.3765     0.1654   103.2956
  238.0000   -55.9502     4.5794     4.7941     5.5302     8.3181     0.0217     2.4149     0.1388    99.0423
  238.5000   -55.7833     4.7715     4.9313     6.1805     8.3044     0.0274     2.4247     0.1342   101.3097
  239.0000   -55.3178     5.0455     5.1432     7.3002     8.3057     0.0450     2.4307     0.1303   101.3272
  239.5000   -54.8523     5.2619     5.3642     7.2539     8.3070     0.0352     2.4360     0.1246   104.0394
  240.0000   -54.5361     5.5257     5.6335     6.8672     8.3084     0.0163     2.4428     0.1197   106.7515
  240.5000   -54.3692     5.8430     5.9163     7.1620     8.3097     0.0120     2.4518     0.1176   108.5883
  241.0000   -54.0530     6.1359     6.1279     8.1720     8.3111     0.0173     2.4541     0.1221   109.4855
  241.5000   -53.8860     6.4435     6.4389     8.5820     8.3126     0.0181     2.4480     0.1248   109.5031
  242.0000   -53.7190     6.7198     6.7675     8.7666     8.2990     0.0129     2.4360     0.1178   109.5206
  242.5000   -53.4028     6.9597     7.1130     9.0863     8.3003     0.0137     2.4669     0.1079   105.4962
  243.0000   -53.2358     7.1585     7.6117     9.3546     8.3016     0.0182     2.4774     0.1021   105.5137
  243.5000   -53.2179     7.2116     7.8840     9.5526     8.3029     0.0228     2.4819     0.0982   104.8576
  244.0000   -53.2000     7.2652     8.0538     9.7473     8.3042     0.0206     2.4752     0.1045   102.4051
  244.5000   -53.1821     7.2185     8.0582     9.6186     8.3056     0.0146     2.4593     0.1144   102.4226
  245.0000   -53.1606     7.2220     8.0059     9.3613     8.3069     0.0094     2.4654     0.1132   103.7874
  245.5000   -53.1429     7.1756     7.9550     9.0481     8.3082     0.0064     2.4729     0.1098   105.4221
  246.0000   -53.1252     7.1217     7.9045     8.8672     8.3098     0.0065     2.4608     0.1137   106.5215
  246.5000   -53.2612     6.9390     7.8001     8.6899     8.3112     0.0103     2.4571     0.1155   106.3101
  247.0000   -53.5376     6.7997     7.6971     8.5740     8.3125     0.0155     2.4580     0.1155   107.9038
  247.5000   -53.8228     6.6172     7.4920     8.4037     8.3138     0.0321     2.4789     0.1084   110.3914
  248.0000   -53.9544     6.4843     7.3931     8.2928     8.3151     0.0246     2.4390     0.1163   112.2053
  248.5000   -54.2352     6.2236     7.2452     8.1259     8.3164     0.0097     2.4307     0.1260   112.8965
  249.0000   -54.3667     5.8912     7.0512     7.9096     8.3178     0.0037     2.4157     0.1323   112.2404
  249.5000   -54.6431     5.4620     6.8151     7.8052     8.3193     0.0135     2.4307     0.1266   107.9915
  250.0000   -54.7925     5.1534     6.3191     7.6691     8.3202     0.0165     2.4428     0.1229   105.7635
  250.5000   -54.8743     4.8348     5.6990     7.5388     8.3175     0.0218     2.4563     0.1175   106.5990
  251.0000   -54.7363     4.6898     5.1396     7.0970     8.3150     0.0263     2.4594     0.1181   106.3598
  251.5000   -54.7172     4.5093     4.6673     5.4224     8.3125     0.0309     2.4631     0.1144   105.6544
  252.0000   -54.5488     4.5123     4.5735     4.5327     8.3101     0.0196     2.4217     0.1234   104.2909
  252.5000   -54.2312     4.6095     4.6395     4.1668     8.3114     0.0107     2.4112     0.1442   102.9685
  253.0000   -53.7602     4.7744     4.7738     5.5836     8.2978     0.0235     2.4180     0.1415   104.1369
  253.5000   -53.4463     4.9795     4.9858     7.5265     8.2990     0.0310     2.4293     0.1285   105.2635
