~VERSION INFORMATION
 VERS.                2.0:   CWLS LOG ASCII STANDARD - VERSION 2.0
 WRAP.                 NO:   ONE LINE PER DEPTH STEP
~WELL INFORMATION
#MNEM.UNIT      DATA TYPE    INFORMATION
#----------   ------------   ------------------------------
 STRT.F           70.0000:   START DEPTH
 STOP.F          884.0000:   STOP DEPTH
 STEP.F            0.5000:   STEP LENGTH
 NULL.          -999.2500:   NO VALUE
 COMP. U S NAVY/INTEX OIL CO:   COMPANY
 WELL.   NPR#3 "S" #16-35:   WELL
 FLD .             TEAPOT:   FIELD
 LOC .      S35 T39N R78W:   LOCATION
 CNTY.            NATRONA:   COUNTY
 STAT.            WYOMING:   STATE
 CTRY. UNITED STATES OF AMERICA:   COUNTRY
 SRVC.         Lane Wells:   SERVICE COMPANY
 DATE.        21-MAR-1960:   LOGDATE
 API .       490250651800:   API NUMBER
~CURVE INFORMATION
#MNEM.UNIT       API CODE    CURVE DESCRIPTION
#----------   ------------   ------------------------------
 DEPT.F                  :   
 SPR .MV     05 010 01 00:   SPONTANEOUS POTENTIAL FROM RES.
 ASN .OHMM   05 040 16 00:   AMPLIFIED SHORT NORMAL 16"
 ILD .OHMM   05 120 46 00:   INDUCTION LOG DEEP
 CILD.MMHO   05 110 46 00:   CONDUCTIVITY INDUCTION LOG DEEP
 GR  .GAPI   30 310 01 00:   GAMMA RAY
~PARAMETER INFORMATION
#MNEM.UNIT          VALUE    DESCRIPTION
#----------   ------------   ------------------------------
 PD  .                 GL:   PERMANENT DATUM
 EPD .F              5091:   ELEVATION PERMANENT DATUM
 LMF .                 KB:   LOG MEASURED FROM
 DAPD.F                 5:   FEET ABOVE PERMANENT DATUM
 DMF .                 KB:   DRILLING MEASURED FROM
 EKB .F              5096:   KELLING BUSHING
 EGL .F              5091:   GROUND LEVEL
 DATE.          3-21-1960:   RUN DATE
 RUN .                  1:   RUN NUMBER
 DD  .F               913:   DEPTH DRILLER
 DL  .F               885:   DEPTH LOGGER
 BLI .F               883:   BOTTOM LOG INTERVAL
 TLI .F                70:   TOP LOG INTERVAL
 CS  .IN            8.625:   CASING SIZE
 CBD .F                12:   CASING BOTTOM DRILLER
 BS  .IN            7.875:   BIT SIZE
 BSD .F               913:   BIT SIZE AT DEPTH
 DFT .   GEL-OIL EMULSION:   DRILLING FLUID TYPE
 DFD .                9.9:   DRILLING FLUID DENSITY
 DFV .                 40:   DRILLING FLUID VISCOSITY
 MSS .           FLOWLINE:   MUD SAMPLE SOURCE
 RMS .OHMM              3:   RESISTIVITY MUD SAMPLE
 MST .F                64:   MUD SAMPLE TEMPERATURE
 RMF .OHMM            2.2:   RESISTIVITY MUD FILTRATE SAMPLE
 MFST.F                64:   MUD FILTRATE SAMPLE TEMPERATURE
 RMC .OHMM              4:   RESISTIVITY MUD CAKE
 MCST.F                64:   MUD CAKE SAMPLE TEMPERATURE
 MFSS.                MUD:   MUD FILTRATE SAMPLE SOURCE
 MCSS.              PRESS:   MUD CAKE SAMPLE SOURCE
 RMB .OHMM            2.7:   RESISTIVITY MUD AT BHT
 BHT .F                70:   BOTTOM HOLE TEMPERATURE
 MRT .F                70:   MAXIMUM RECORDED TEMPERATURE
 LUN .             L-4474:   LOGGING UNIT NUMBER
 LUL .             CASPER:   LOGGING UNIT LOCATION
 ENGI.             NELSON:   RECORDING ENGINEER
 WITN.          JORGENSEN:   WITNESSED BY
 CLNT.            A2DTECH:   CLIENT CODE
 ORIG.      2" & 5" PRINT:   ORIGIN OF DATA
 UWI .       490250651800:   UNIQUE WELL ID
 DICO. A2D Technologies, Inc.:   DIGITIZING COMPANY
~OTHER INFORMATION
~A   DEPT      SPR          ASN      ILD        CILD        GR   
# ...
  131.0000   -33.1027     6.0012     4.6432   245.0614  -999.2500
  131.5000   -33.2034     6.0293     4.6776   242.6204  -999.2500
  132.0000   -33.3081     6.0323     4.7119   240.1794  -999.2500
  132.5000   -33.4099     6.0387     4.7464   237.7383  -999.2500
  133.0000   -33.5132     6.0437     4.7807   236.3678  -999.2500
  133.5000   -33.6169     6.0491     4.8141   236.8394  -999.2500
  134.0000   -33.7178     6.0550     4.8175   237.3109  -999.2500
  134.5000   -33.8246     6.0593     4.8171   237.7825  -999.2500
  135.0000   -33.9202     6.0666     4.8171   238.2540  -999.2500
  135.5000   -34.0362     6.0685     4.8171   238.7256  -999.2500
  136.0000   -34.0042     6.0806     4.8170   239.1972  -999.2500
  136.5000   -33.8614     6.0285     4.8170   239.6687  -999.2500
  137.0000   -33.7422     5.9320     4.8169   240.1403  -999.2500
  137.5000   -33.6144     5.8559     4.8169   240.6119  -999.2500
  138.0000   -33.4870     5.7604     4.8169   241.0834  -999.2500
  138.5000   -33.3674     5.7139     4.8169   241.5550  -999.2500
  139.0000   -33.2255     5.7149     4.8169   242.0266  -999.2500
  139.5000   -33.1872     5.7495     4.8169   242.4996  -999.2500
  140.0000   -33.2870     5.8339     4.8169   242.9732  -999.2500
  140.5000   -33.3672     5.9085     4.8168   243.4052  -999.2500
  141.0000   -33.4584     5.9882     4.8168   242.9990  -999.2500
  141.5000   -33.5425     6.0651     4.8164   242.6301  -999.2500
  142.0000   -33.6336     6.1427     4.8170   242.2609  -999.2500
  142.5000   -33.6969     6.2221     4.8155   241.8893  -999.2500
  143.0000   -33.6539     6.2993     4.8180   240.1247  -999.2500
  143.5000   -33.6093     6.3140     4.8124   235.4020  -999.2500
  144.0000   -33.5632     6.2511     4.8545   230.6791  -999.2500
  144.5000   -33.5186     6.3697     4.9572   225.9575  -999.2500
  145.0000   -33.4728     6.6539     5.0537   221.2319  -999.2500
  145.5000   -33.4275     6.9164     5.1542   216.5062  -999.2500
  146.0000   -33.3820     7.1836     5.2522   211.7848  -999.2500
  146.5000   -33.3365     7.4072     5.3524   207.0730  -999.2500
  147.0000   -33.2910     7.6475     5.4498   202.3750  -999.2500
  147.5000   -33.2471     7.7172     5.5518   197.6478  -999.2500
  148.0000   -33.1972     7.4682     5.6453   192.9322  -999.2500
  148.5000   -33.1842     7.1986     5.7573   187.5750  -999.2500
  149.0000   -33.3722     7.0266     5.7906   190.2417  -999.2500
  149.5000   -33.5642     6.8480     5.7179   193.3283  -999.2500
  150.0000   -33.7448     6.7173     5.6598   196.4149  -999.2500
  150.5000   -33.9565     6.6378     5.5940   199.5015  -999.2500
  151.0000   -34.0628     6.5706     5.5320   202.5881  -999.2500
  151.5000   -33.9951     6.6100     5.4688   203.7815  -999.2500
  152.0000   -33.9541     6.6584     5.4048   205.5822  -999.2500
  152.5000   -33.8984     6.6435     5.3432   207.3829  -999.2500
  153.0000   -33.8505     6.5825     5.2730   207.3829  -999.2500
  153.5000   -33.7993     6.6013     5.2759   207.3829  -999.2500
  154.0000   -33.7457     6.7599     5.3121   205.7983  -999.2500
  154.5000   -33.7222     6.9610     5.3455   203.7815  -999.2500
  155.0000   -33.8855     7.1553     5.3803   203.7859  -999.2500
  155.5000   -34.0493     7.3539     5.4138   199.6375  -999.2500
  156.0000   -34.2163     7.5377     5.4531   195.3860  -999.2500
  156.5000   -34.3783     7.6957     5.5471   191.1284  -999.2500
  157.0000   -34.5472     7.8413     5.6420   186.8662  -999.2500
  157.5000   -34.7054     7.9942     5.7363   182.5971  -999.2500
  158.0000   -34.8856     8.1336     5.8321   178.3299  -999.2500
  158.5000   -34.9802     8.3035     5.9239   174.0723  -999.2500
  159.0000   -34.9679     8.3561     6.0255   171.2679  -999.2500
  159.5000   -34.9743     8.2292     6.1161   171.2871  -999.2500
  160.0000   -34.9705     8.1081     6.2207   175.2754  -999.2500
  160.5000   -34.9715     7.8299     6.2102   179.6679  -999.2500
  161.0000   -34.9751     7.5302     6.0744   184.0513  -999.2500
  161.5000   -34.9361     7.2312     5.9589   188.4249  -999.2500
  162.0000   -34.5912     6.9302     5.8323   192.7892  -999.2500
  162.5000   -34.2769     6.6426     5.7131   197.1463  -999.2500
  163.0000   -33.9231     6.4639     5.5874   201.5391  -999.2500
  163.5000   -33.8894     6.4700     5.4701   205.9073  -999.2500
  164.0000   -33.9088     6.6095     5.3357   210.9844  -999.2500
  164.5000   -33.9204     6.7415     5.2514   210.9844  -999.2500
  165.0000   -33.9335     6.8744     5.2372   210.9844  -999.2500
  165.5000   -33.9468     6.8705     5.2093   210.9844  -999.2500
  166.0000   -33.9600     6.8477     5.1883   210.9844  -999.2500
  166.5000   -33.9735     6.8296     5.1635   210.9844  -999.2500
  167.0000   -33.9871     6.8056     5.1407   210.9844  -999.2500
  167.5000   -34.0000     6.7923     5.1169   210.9844  -999.2500
  168.0000   -34.0138     6.7239     5.0936   210.9844  -999.2500
  168.5000   -34.0256     6.6185     5.0700   213.2488  -999.2500
  169.0000   -34.0403     6.5286     5.0464   215.1351  -999.2500
  169.5000   -34.0519     6.4313     5.0228   217.0213  -999.2500
  170.0000   -34.0558     6.3383     4.9993   218.9076  -999.2500
  170.5000   -33.8572     6.2520     4.9756   220.8129  -999.2500
  171.0000   -33.5978     6.3317     4.9521   222.7030  -999.2500
  171.5000   -33.3654     6.4251     4.9283   223.7523  -999.2500
  172.0000   -33.3287     6.5502     4.9050   224.0177  -999.2500
  172.5000   -33.3041     6.5118     4.8808   224.2815  -999.2500
  173.0000   -33.2786     6.3950     4.8584   224.5460  -999.2500
  173.5000   -33.2519     6.2963     4.8317   224.8112  -999.2500
  174.0000   -33.2266     6.1940     4.8153   225.0755  -999.2500
  174.5000   -33.2005     6.0828     4.8175   225.3779  -999.2500
  175.0000   -33.1750     6.0123     4.8165   226.9427  -999.2500
  175.5000   -33.1490     6.0076     4.8171   228.8233  -999.2500
  176.0000   -33.1232     5.9875     4.8172   230.7684  -999.2500
  176.5000   -33.0967     5.9795     4.8167   230.7837  -999.2500
  177.0000   -33.0716     5.9556     4.8180   230.8083  -999.2500
  177.5000   -33.0438     5.9494     4.8158   230.8316  -999.2500
  178.0000   -33.0210     5.8443     4.8206   230.8427  -999.2500
  178.5000   -32.9886     5.6718     4.7840   235.1411  -999.2500
  179.0000   -33.0157     5.5167     4.7208   238.9136  -999.2500
  179.5000   -33.0954     5.3581     4.6666   242.6861  -999.2500
  180.0000   -33.1645     5.1909     4.6086   246.4586  -999.2500
  180.5000   -33.2386     5.2037     4.5525   250.2311  -999.2500
  181.0000   -33.3101     5.2936     4.4956   254.0036  -999.2500
  181.5000   -33.3830     5.3741     4.4388   257.7761  -999.2500
  182.0000   -33.4555     5.4617     4.3825   261.5486  -999.2500
  182.5000   -33.5280     5.5296     4.3245   265.0060  -999.2500
  183.0000   -33.6007     5.5225     4.2795   264.2437  -999.2500
  183.5000   -33.6731     5.5019     4.2848   262.9862  -999.2500
  184.0000   -33.7453     5.5291     4.2922   261.7287  -999.2500
  184.5000   -33.8202     5.6593     4.3002   260.4712  -999.2500
  185.0000   -33.8716     5.7774     4.3075   259.2137  -999.2500
  185.5000   -33.7564     5.8491     4.3153   257.9562  -999.2500
  186.0000   -33.6303     5.9171     4.3228   256.6987  -999.2500
  186.5000   -33.5041     5.9783     4.3304   255.4412  -999.2500
  187.0000   -33.3788     5.9242     4.3379   254.2017  -999.2500
  187.5000   -33.2529     5.8710     4.3454   254.2017  -999.2500
  188.0000   -33.1268     5.9560     4.3531   254.2017  -999.2500
  188.5000   -33.0016     5.9983     4.3600   254.2017  -999.2500
  189.0000   -32.8753     5.8145     4.3708   254.2017  -999.2500
  189.5000   -32.7488     5.6157     4.4104   250.3060  -999.2500
  190.0000   -32.6383     5.5854     4.4465   247.0126  -999.2500
  190.5000   -32.7504     5.7092     4.4835   243.7725  -999.2500
  191.0000   -32.8948     5.9493     4.5197   240.5271  -999.2500
  191.5000   -33.0369     6.1922     4.5564   237.2733  -999.2500
