~VERSION INFORMATION
 VERS.                2.0:   CWLS LOG ASCII STANDARD - VERSION 2.0
 WRAP.                 NO:   ONE LINE PER DEPTH STEP
~WELL INFORMATION
#MNEM.UNIT      DATA TYPE    INFORMATION
#----------   ------------   ------------------------------
 STRT.F           14.0000:   START DEPTH
 STOP.F          500.0000:   STOP DEPTH
 STEP.F            0.1000:   STEP LENGTH
 NULL.          -999.2500:   NO VALUE
 COMP. LAWRENCE/ALLISON INC:   COMPANY
 WELL.    72-46 SX #10-10:   WELL
 FLD .             TEAPOT:   FIELD
 LOC .      S10 T38N R78W:   LOCATION
 CNTY.            NATRONA:   COUNTY
 STAT.            WYOMING:   STATE
 CTRY. UNITED STATES OF AMERICA:   COUNTRY
 SRVC.           Gearhart:   SERVICE COMPANY
 DATE.        22-MAY-1988:   LOGDATE
 API .       490251122600:   API NUMBER
~CURVE INFORMATION
#MNEM.UNIT       API CODE    CURVE DESCRIPTION
#----------   ------------   ------------------------------
 DEPT.F                  :   
 GRR .GAPI   07 310 01 00:   GAMMA RAY
 RILD.OHMM   07 120 46 00:   INDUCTION LOG DEEP RESISTIVITY
 RILM.OHMM   07 120 44 00:   INDUCTION LOG MEDIUM RESISTIVITY
~PARAMETER INFORMATION
#MNEM.UNIT          VALUE    DESCRIPTION
#----------   ------------   ------------------------------
 PD  .                 GL:   PERMANENT DATUM
 EPD .F              5173:   ELEVATION PERMANENT DATUM
 LMF .                 KB:   LOG MEASURED FROM
 DAPD.F              10.2:   FEET ABOVE PERMANENT DATUM
 DMF .                 KB:   DRILLING MEASURED FROM
 EKB .F            5183.2:   KELLING BUSHING
 EGL .F              5173:   GROUND LEVEL
 DATE.        22-MAY-1988:   RUN DATE
 RUN .                  1:   RUN NUMBER
 DD  .F               505:   DEPTH DRILLER
 DL  .F               504:   DEPTH LOGGER
 BLI .F               500:   BOTTOM LOG INTERVAL
 TLI .F                50:   TOP LOG INTERVAL
 CS  .IN            9.625:   CASING SIZE
 CBD .F                52:   CASING BOTTOM DRILLER
 CBL .F                50:   CASING BOTTOM LOGGER
 BS  .IN             8.75:   BIT SIZE
 BSD .F               505:   BIT SIZE AT DEPTH
 DFT .                AIR:   DRILLING FLUID TYPE
 TLAB.HRS            1339:   TIME LOGGER AT BOTTOM
 LUN .               7597:   LOGGING UNIT NUMBER
 LUL .           GILLETTE:   LOGGING UNIT LOCATION
 ENGI.          HUCKFELDT:   RECORDING ENGINEER
 WITN.             STRONG:   WITNESSED BY
 CLNT.            A2DTECH:   CLIENT CODE
 ORIG.           5" PRINT:   ORIGIN OF DATA
 UWI .       490251122600:   UNIQUE WELL ID
 DICO. A2D Technologies, Inc.:   DIGITIZING COMPANY
~OTHER INFORMATION
~A   DEPT       GRR      RILD       RILM   
# ...
  487.2000  -999.2500    10.3259    10.2847
  487.3000  -999.2500    10.3267    10.2846
  487.4000  -999.2500    10.3979    10.2845
  487.5000  -999.2500    10.3978    10.2843
  487.6000  -999.2500    10.3976    10.2841
  487.7000  -999.2500    10.3974    10.2952
  487.8000  -999.2500    10.3867    10.3559
  487.9000  -999.2500    10.3249    10.3558
  488.0000  -999.2500    10.3247    10.3557
  488.1000  -999.2500    10.3246    10.3555
  488.2000  -999.2500    10.3244    10.3553
  488.3000  -999.2500    10.3042    10.3552
  488.4000  -999.2500    10.2524    10.3551
  488.5000  -999.2500    10.2522    10.2987
  488.6000  -999.2500    10.2520    10.2827
  488.7000  -999.2500    10.2519    10.2826
  488.8000  -999.2500    10.2224    10.2824
  488.9000  -999.2500    10.1804    10.2823
  489.0000  -999.2500    10.1802    10.2821
  489.1000  -999.2500    10.1801    10.2820
  489.2000  -999.2500    10.1800    10.2819
  489.3000  -999.2500    10.1798    10.2817
  489.4000  -999.2500    10.1532    10.2816
  489.5000  -999.2500    10.1088    10.2814
  489.6000  -999.2500    10.1086    10.2813
  489.7000  -999.2500    10.1084    10.2812
  489.8000  -999.2500    10.1083    10.2810
  489.9000  -999.2500    10.1082    10.2808
  490.0000  -999.2500    10.1080    10.2663
  490.1000  -999.2500    10.1079    10.2090
  490.2000  -999.2500    10.1077    10.2089
  490.3000  -999.2500    10.0504    10.2088
  490.4000  -999.2500    10.0372    10.2086
  490.5000  -999.2500    10.0371    10.2084
  490.6000  -999.2500    10.0369    10.2083
  490.7000  -999.2500    10.0368    10.2082
  490.8000  -999.2500    10.0366    10.1495
  490.9000  -999.2500    10.0364    10.1369
  491.0000  -999.2500    10.0363    10.1367
  491.1000  -999.2500    10.0362    10.1366
  491.2000  -999.2500    10.0360    10.1365
  491.3000  -999.2500    10.0359    10.1363
  491.4000  -999.2500    10.0358    10.1361
  491.5000  -999.2500    10.0357    10.1360
  491.6000  -999.2500    10.0355    10.1042
  491.7000  -999.2500    10.0354    10.0652
  491.8000  -999.2500    10.0353    10.0651
  491.9000  -999.2500    10.0351    10.0649
  492.0000  -999.2500    10.0349    10.0647
  492.1000  -999.2500    10.0348    10.0646
  492.2000  -999.2500    10.0346    10.0645
  492.3000  -999.2500    10.0345    10.0644
  492.4000  -999.2500    10.0344    10.0642
  492.5000  -999.2500    10.0342    10.0641
  492.6000  -999.2500    10.0341    10.0640
  492.7000  -999.2500    10.0340    10.0638
  492.8000  -999.2500    10.0338    10.0636
  492.9000  -999.2500    10.0552    10.0635
  493.0000  -999.2500    10.1038    10.0634
  493.1000  -999.2500    10.1036    10.0632
  493.2000  -999.2500    10.1035    10.1122
  493.3000  -999.2500    10.1034    10.1335
  493.4000  -999.2500    10.1344    10.1333
  493.5000  -999.2500    10.1738    10.1332
  493.6000  -999.2500    10.1803    10.1330
  493.7000  -999.2500    10.2448    10.1329
  493.8000  -999.2500    10.2447    10.1328
  493.9000  -999.2500    10.2856    10.1675
  494.0000  -999.2500    10.3882    10.2035
  494.1000  -999.2500  -999.2500    10.2140
  494.2000  -999.2500  -999.2500    10.2747
  494.3000  -999.2500  -999.2500    10.2745
  494.4000  -999.2500  -999.2500    10.3199
  494.5000  -999.2500  -999.2500    10.3463
  494.6000  -999.2500  -999.2500    10.3670
  494.7000  -999.2500  -999.2500    10.4185
  494.8000  -999.2500  -999.2500    10.4183
  494.9000  -999.2500  -999.2500    10.4745
  495.0000  -999.2500  -999.2500    10.5351
  495.1000  -999.2500  -999.2500    10.5644
  495.2000  -999.2500  -999.2500    10.5642
  495.3000  -999.2500  -999.2500    10.5641
  495.4000  -999.2500  -999.2500    10.5639
  495.5000  -999.2500  -999.2500    10.5638
  495.6000  -999.2500  -999.2500    10.5636
  495.7000  -999.2500  -999.2500    10.5344
  495.8000  -999.2500  -999.2500    10.4735
  495.9000  -999.2500  -999.2500    10.4167
  496.0000  -999.2500  -999.2500    10.4165
  496.1000  -999.2500  -999.2500    10.3651
  496.2000  -999.2500  -999.2500    10.3052
  496.3000  -999.2500  -999.2500    10.2456
  496.4000  -999.2500  -999.2500    10.1864
  496.5000  -999.2500  -999.2500    10.1289
  496.6000  -999.2500  -999.2500    10.1288
  496.7000  -999.2500  -999.2500    10.0810
  496.8000  -999.2500  -999.2500    10.0228
  496.9000  -999.2500  -999.2500     9.9879
  497.0000  -999.2500  -999.2500     9.9878
  497.1000  -999.2500  -999.2500     9.9876
  497.2000  -999.2500  -999.2500     9.9875
  497.3000  -999.2500  -999.2500     9.9426
  497.4000  -999.2500  -999.2500     9.9177
  497.5000  -999.2500  -999.2500     9.8968
  497.6000  -999.2500  -999.2500     9.8484
  497.7000  -999.2500  -999.2500     9.8483
  497.8000  -999.2500  -999.2500     9.8481
  497.9000  -999.2500  -999.2500     9.8480
  498.0000  -999.2500  -999.2500     9.8479
  498.1000  -999.2500  -999.2500     9.8477
  498.2000  -999.2500  -999.2500     9.8476
  498.3000  -999.2500  -999.2500     9.8474
  498.4000  -999.2500  -999.2500     9.8992
  498.5000  -999.2500  -999.2500     9.9565
  498.6000  -999.2500  -999.2500    10.0140
  498.7000  -999.2500  -999.2500    10.0720
  498.8000  -999.2500  -999.2500    10.1348
  498.9000  -999.2500  -999.2500    10.2679
  499.0000  -999.2500  -999.2500    10.4772
  499.1000  -999.2500  -999.2500    10.7224
  499.2000  -999.2500  -999.2500    10.9438
  499.3000  -999.2500  -999.2500    11.1511
  499.4000  -999.2500  -999.2500    11.4114
  499.5000  -999.2500  -999.2500    11.7237
  499.6000  -999.2500  -999.2500    12.0102
  499.7000  -999.2500  -999.2500    12.1400
  499.8000  -999.2500  -999.2500    12.1690
  499.9000  -999.2500  -999.2500    12.2543
  500.0000  -999.2500  -999.2500    12.3964
