~VERSION INFORMATION
 VERS.                2.0:   CWLS LOG ASCII STANDARD - VERSION 2.0
 WRAP.                 NO:   ONE LINE PER DEPTH STEP
~WELL INFORMATION
#MNEM.UNIT      DATA TYPE    INFORMATION
#----------   ------------   ------------------------------
 STRT.F           80.0000:   START DEPTH
 STOP.F         1056.0000:   STOP DEPTH
 STEP.F            0.5000:   STEP LENGTH
 NULL.          -999.2500:   NO VALUE
 COMP. U S NAVY-INTEX OIL:   COMPANY
 WELL.      NPR 3 #68-S-2:   WELL
 FLD .        TEAPOT DOME:   FIELD
 LOC .       S2 T38N R78W:   LOCATION
 CNTY.            NATRONA:   COUNTY
 STAT.            WYOMING:   STATE
 CTRY. UNITED STATES OF AMERICA:   COUNTRY
 SRVC.       Schlumberger:   SERVICE COMPANY
 DATE.        21-JUL-1964:   LOGDATE
 API .       490250638800:   API NUMBER
~CURVE INFORMATION
#MNEM.UNIT       API CODE    CURVE DESCRIPTION
#----------   ------------   ------------------------------
 DEPT.F                  :   
 SPR .MV     05 010 01 00:   SPONTANEOUS POTENTIAL FROM RES.
 ASN .OHMM   05 041 16 00:   AMPLIFIED SHORT NORMAL 16"
 ILD .OHMM   05 120 46 00:   INDUCTION LOG DEEP
 CILD.MMHO   05 110 46 00:   CONDUCTIVITY INDUCTION LOG DEEP
 GR  .GAPI   30 310 01 00:   GAMMA RAY
 CALS.IN     60 280 50 00:   CALIPER FROM SONIC LOG
 DT  .US/F   60 520 00 00:   INTERVAL TRANSIT TIME
~PARAMETER INFORMATION
#MNEM.UNIT          VALUE    DESCRIPTION
#----------   ------------   ------------------------------
 PD  .                 GL:   PERMANENT DATUM
 EPD .F              5201:   ELEVATION PERMANENT DATUM
 LMF .                 KB:   LOG MEASURED FROM
 DAPD.F                 5:   FEET ABOVE PERMANENT DATUM
 DMF .                 KB:   DRILLING MEASURED FROM
 EKB .F              5206:   KELLING BUSHING
 EGL .F              5201:   GROUND LEVEL
 DATE.          8-12-1964:   RUN DATE
 RUN .                  1:   RUN NUMBER
 DD  .F              1055:   DEPTH DRILLER
 DL  .F              1057:   DEPTH LOGGER
 BLI .F              1055:   BOTTOM LOG INTERVAL
 TLI .F               450:   TOP LOG INTERVAL
 CS  .IN              4.5:   CASING SIZE
 BS  .IN             6.75:   BIT SIZE
 DFT .            GEL OIL:   DRILLING FLUID TYPE
 DFD .                9.3:   DRILLING FLUID DENSITY
 DFV .                 48:   DRILLING FLUID VISCOSITY
 DFPH.                 10:   DRILLING FLUID PH
 DFL .                 10:   DRILLING FLUID LOSS
 MSS .           FLOWLINE:   MUD SAMPLE SOURCE
 RMS .OHMM           1.07:   RESISTIVITY MUD SAMPLE
 MST .F                95:   MUD SAMPLE TEMPERATURE
 RMF .OHMM            .67:   RESISTIVITY MUD FILTRATE SAMPLE
 MFST.F                95:   MUD FILTRATE SAMPLE TEMPERATURE
 RMC .OHMM           1.44:   RESISTIVITY MUD CAKE
 MCST.F                95:   MUD CAKE SAMPLE TEMPERATURE
 MFSS.                 FP:   MUD FILTRATE SAMPLE SOURCE
 MCSS.                 FP:   MUD CAKE SAMPLE SOURCE
 TCS .HRS               1:   TIME CURCULATED STOPPED
 LUN .               4507:   LOGGING UNIT NUMBER
 LUL .               CSPR:   LOGGING UNIT LOCATION
 ENGI.             DANNER:   RECORDING ENGINEER
 WITN.         JORGENESEN:   WITNESSED BY
 CLNT.            A2DTECH:   CLIENT CODE
 ORIG.           2" PRINT:   ORIGIN OF DATA
 UWI .       490250638800:   UNIQUE WELL ID
 DICO. A2D Technologies, Inc.:   DIGITIZING COMPANY
~OTHER INFORMATION
~A   DEPT      SPR          ASN        ILD      CILD        GR       CALS         DT   
# ...
  762.5000   -32.5944     7.5600     6.1285   167.1324    59.8366     5.6370   101.6728
  763.0000   -32.5052     7.6145     6.2298   163.0266    63.2673     5.6525   100.9187
  763.5000   -32.4140     7.7405     6.3552   160.7401    64.7606     5.7125   100.4654
  764.0000   -32.3517     7.8519     6.4701   157.7973    68.9365     5.8918    99.8588
  764.5000   -32.4982     7.9751     6.5902   155.4949    65.8098     6.2797    99.1021
  765.0000   -32.6999     8.0562     6.7330   152.4677    60.7457     6.4143    98.7845
  765.5000   -32.9411     8.1554     6.8305   150.3217    62.9841     6.4745    97.5236
  766.0000   -33.0879     8.2780     6.9597   149.0923    70.2896     6.5054    95.7921
  766.5000   -33.0857     8.3779     7.0707   146.5805    72.9752     6.5364    94.9628
  767.0000   -33.0831     8.5759     7.1908   145.0718    70.7427     6.5523    94.7350
  767.5000   -32.8850     8.6709     7.3110   143.5082    71.0437     6.5656    94.6576
  768.0000   -32.6318     8.6963     7.3563   141.3371    65.0854     6.5810    94.8809
  768.5000   -32.6297     8.7424     7.4893   140.1573    59.5742     6.6113    95.4050
  769.0000   -32.4785     8.8865     7.5217   138.3399    58.0862     6.6266    96.0043
  769.5000   -32.6252     9.0718     7.5662   137.5856    61.6666     6.6569    96.7540
  770.0000   -32.6627     9.1844     7.4925   137.6239    65.0973     6.6573    96.9027
  770.5000   -32.7697     9.2821     7.4046   139.2894    66.4416     6.6726    97.3510
  771.0000   -32.7675     9.2599     7.3450   140.9053    63.1659     6.6731    97.5745
  771.5000   -32.7653     9.2337     7.2437   142.7482    60.9334     6.6735    97.2714
  772.0000   -32.7630     9.1826     7.1976   143.4821    62.4266     6.6740    97.1188
  772.5000   -32.7608     9.1016     7.1239   144.2153    68.2418     6.6744    97.4950
  773.0000   -32.7583     8.9984     7.1999   144.2039    70.1815     6.6749    97.7910
  773.5000   -32.7563     8.9107     7.2012   144.9383    67.8007     6.6753    97.7772
  774.0000   -32.6050     8.8153     7.2021   144.9243    66.1636     6.6757    97.4101
  774.5000   -32.6028     8.7886     7.2033   145.6584    66.6144     6.6762    97.0319
  775.0000   -32.6006     8.8756     7.2043   144.9033    71.9825     6.6766    96.5786
  775.5000   -32.5980     8.9545     7.2055   145.6362    68.1106     6.6771    96.1252
  776.0000   -32.5961     8.9931     7.2066   145.6250    61.4072     6.6775    95.7471
  776.5000   -32.5938     8.9694     7.2077   145.6123    63.3476     6.6779    95.7448
  777.0000   -32.7407     8.9457     7.2089   145.6027    63.7977     6.6784    95.8184
  777.5000   -32.7558     8.9070     7.2099   145.5913    60.2239     6.6788    95.8156
  778.0000   -32.8852     8.8807     7.2110   145.5804    52.3282     6.6793    95.5878
  778.5000   -32.8830     8.8384     7.1650   145.5692    49.6486     6.6797    95.4352
  779.0000   -33.0296     8.8058     7.1220   145.5563    45.0316     6.6802    95.3578
  779.5000   -32.9565     8.7583     6.9900   145.7999    44.5867     6.6807    95.2804
  780.0000   -32.8763     8.7136     6.9910   146.2798    59.4936     6.6812    95.3533
  780.5000   -32.8741     8.6869     6.9173   146.6604    62.6262     6.6816    95.5015
  781.0000   -32.7228     8.6513     6.9184   147.0909    70.3788     6.6820    95.6497
  781.5000   -32.5713     8.6124     6.9068   147.7344    68.2954     6.6825    95.8062
  782.0000   -32.5057     8.5652     6.8458   148.6956    64.7208     6.6829    95.9590
  782.5000   -32.4156     8.5202     6.8469   149.9435    65.9161     6.6983    96.0941
  783.0000   -32.1764     8.4632     6.8481   150.6671    64.5785     6.6837    96.0162
  783.5000   -32.0862     8.4170     6.8095   152.2185    63.8363     6.6693    96.0891
  784.0000   -31.9639     8.3286     6.7665   153.8989    62.7961     6.6548    96.1626
  784.5000   -31.8130     8.2356     6.7017   156.2589    61.6068     6.6106    96.3854
  785.0000   -31.8107     8.1425     6.6278   159.5601    60.7156     6.5811    96.6839
  785.5000   -31.5765     8.0595     6.5543   162.8088    61.0166     6.5667    97.8847
  786.0000   -31.4864     7.9793     6.4446   168.8253    65.0434     6.6119   100.4389
  786.5000   -31.3566     7.8200     6.2415   178.5201    67.4302     6.6422   102.1660
  787.0000   -31.3547     7.5670     5.8855   185.5283    62.6649     6.6575   104.1939
  787.5000   -31.2033     7.3088     5.5483   190.7540    59.5382     6.6580   103.8909
  788.0000   -31.2012     7.0261     5.2875   194.9904    61.7766     6.6435   103.2872
  788.5000   -31.1990     6.8236     5.1066   198.9472    67.8899     6.6440   102.9842
  789.0000   -31.1963     6.6367     4.9903   201.7638    70.4257     6.6295   102.6793
  789.5000   -31.1945     6.4192     4.9914   202.6168    65.8094     6.6299   101.9694
  790.0000   -31.1921     6.3823     5.0823   192.9301    61.7885     6.6304    99.8647
  790.5000   -31.2581     6.8923     5.2183   184.4679    59.2580     6.6282    99.9672
  791.0000   -31.3438     7.1416     5.4259   178.7722    58.6647     6.6164   100.1906
  791.5000   -31.5785     7.3275     5.7444   172.1390    58.9658     6.6169   100.2641
  792.0000   -31.7798     7.4459     5.9461   166.3295    65.3772     6.6174    99.7350
  792.5000   -31.9260     7.5723     6.1209   161.6241    65.0821     6.6178    99.9583
  793.0000   -31.9846     7.6682     6.1970   160.6027    64.1699     6.6182    99.8809
  793.5000   -32.0708     7.7452     6.2976   159.3709    66.5783     6.6037    99.5779
  794.0000   -32.0686     7.8084     6.3489   158.9534    72.4473     6.6042    99.2750
  794.5000   -32.0664     7.8372     6.4248   157.8608    70.9062     6.5897    99.1224
  795.0000   -32.2128     7.8696     6.4259   157.8478    66.4382     6.5753    99.1953
  795.5000   -32.2109     7.8840     6.4272   157.8385    66.2385     6.5758    99.4187
  796.0000   -32.3576     7.8692     6.4281   158.5709    65.4010     6.5762    99.7924
  796.5000   -32.4354     7.7946     6.4294   160.4303    68.6826     6.5766   100.3917
  797.0000   -32.5211     7.6940     6.3211   162.4283    70.6230     6.5621   101.0662
  797.5000   -32.6490     7.5682     6.2744   165.9763    69.4337     6.5626   101.5902
  798.0000   -32.7963     7.4675     6.1332   169.0722    70.7780     6.5631   101.4305
  798.5000   -32.6444     7.4024     6.0250   175.6279    70.6319     6.5784   101.3602
  799.0000   -32.4933     7.3609     5.6865   182.6111    73.1684     6.5938   102.1845
  799.5000   -32.3306     7.3279     5.3402   191.1967    68.9985     6.6389   102.0319
  800.0000   -32.2110     7.2564     4.8653   204.4189    59.9062     6.6542   102.2422
  800.5000   -32.2569     6.9232     4.5523   214.6121    59.4664     6.6618   103.3818
  801.0000   -32.3028     6.5900     4.3034   224.8053    63.0601     6.6692   104.6585
  801.5000   -32.2680     6.2714     4.1846   232.1429    63.5067     6.6692   105.5597
  802.0000   -32.0288     5.8780     4.0450   232.0833    64.7617     6.6542   105.3322
  802.5000   -31.7896     5.6848     4.0693   230.1836    65.1415     6.6542   105.1052
  803.0000   -31.5504     5.5186     4.2710   227.7482    60.6735     6.6515   104.7277
  803.5000   -31.4350     5.4359     4.4229   220.2381    66.8356     6.6393   103.5232
  804.0000   -31.8589     5.3841     4.6627   206.3860    68.2424     6.6244   100.5894
  804.5000   -32.3328     5.9241     4.9470   190.4319    66.9425     6.6244    99.3849
  805.0000   -32.7148     6.5015     5.2170   180.2079    67.3925     6.6095    98.7067
  805.5000   -32.9197     6.8241     5.5472   172.0432    67.6936     6.6095    98.4045
  806.0000   -32.9179     7.0256     5.8093   167.4107    70.0803     6.5946    98.3278
  806.5000   -32.9165     7.2715     6.0112   164.6128    67.6995     6.6095    98.4015
  807.0000   -32.9151     7.4994     6.2232   161.4583    63.2315     6.6244    98.5503
  807.5000   -32.9136     7.5766     6.2450   159.4495    68.4506     6.6393    98.6992
