~VERSION INFORMATION
 VERS.                2.0:   CWLS LOG ASCII STANDARD - VERSION 2.0
 WRAP.                 NO:   ONE LINE PER DEPTH STEP
~WELL INFORMATION
#MNEM.UNIT      DATA TYPE    INFORMATION
#----------   ------------   ------------------------------
 STRT.F           22.0000:   START DEPTH
 STOP.F          630.5000:   STOP DEPTH
 STEP.F            0.5000:   STEP LENGTH
 NULL.          -999.2500:   NO VALUE
 COMP. LAWRENCE/ALLISON INC:   COMPANY
 WELL.   16-61 SHX #11-11:   WELL
 FLD .             TEAPOT:   FIELD
 LOC .      S11 T38N R78W:   LOCATION
 CNTY.            NATRONA:   COUNTY
 STAT.            WYOMING:   STATE
 CTRY. UNITED STATES OF AMERICA:   COUNTRY
 SRVC.           Gearhart:   SERVICE COMPANY
 DATE.        13-JUN-1986:   LOGDATE
 API .       490251108900:   API NUMBER
~CURVE INFORMATION
#MNEM.UNIT       API CODE    CURVE DESCRIPTION
#----------   ------------   ------------------------------
 DEPT.F                  :   
 GRR .GAPI   07 310 01 00:   GAMMA RAY FROM RES. LOG.
 RILD.OHMM   07 120 46 00:   INDUCTION LOG DEEP RESISTIVITY
 RILM.OHMM   07 120 44 00:   INDUCTION LOG MEDIUM RESISTIVITY
~PARAMETER INFORMATION
#MNEM.UNIT          VALUE    DESCRIPTION
#----------   ------------   ------------------------------
 PD  .                 GL:   PERMANENT DATUM
 EPD .F              5185:   ELEVATION PERMANENT DATUM
 LMF .                 KB:   LOG MEASURED FROM
 DAPD.F                 5:   FEET ABOVE PERMANENT DATUM
 DMF .                 KB:   DRILLING MEASURED FROM
 EKB .F              5190:   KELLING BUSHING
 EGL .F              5185:   GROUND LEVEL
 DATE.            6-13-86:   RUN DATE
 RUN .                  1:   RUN NUMBER
 DD  .F               648:   DEPTH DRILLER
 DL  .F               640:   DEPTH LOGGER
 BLI .F               631:   BOTTOM LOG INTERVAL
 TLI .F                22:   TOP LOG INTERVAL
 CS  .IN            8.625:   CASING SIZE
 CBD .F                42:   CASING BOTTOM DRILLER
 CBL .F                47:   CASING BOTTOM LOGGER
 BS  .IN            7.875:   BIT SIZE
 BSD .F               648:   BIT SIZE AT DEPTH
 DFT .               FOAM:   DRILLING FLUID TYPE
 MSS .               TANK:   MUD SAMPLE SOURCE
 RMS .OHMM           1.85:   RESISTIVITY MUD SAMPLE
 MST .F                70:   MUD SAMPLE TEMPERATURE
 RMB .OHMM           1.55:   RESISTIVITY MUD AT BHT
 BHT .F                85:   BOTTOM HOLE TEMPERATURE
 TCS .HRS            1330:   TIME CURCULATED STOPPED
 TLAB.HRS            1600:   TIME LOGGER AT BOTTOM
 MRT .F                85:   MAXIMUM RECORDED TEMPERATURE
 LUN .               7609:   LOGGING UNIT NUMBER
 LUL .           GILLETTE:   LOGGING UNIT LOCATION
 ENGI.              BAUER:   RECORDING ENGINEER
 WITN.           JENNINGS:   WITNESSED BY
 CLNT.            A2DTECH:   CLIENT CODE
 ORIG.       2", 5" PRINT:   ORIGIN OF DATA
 UWI .       490251108900:   UNIQUE WELL ID
 DICO. A2D Technologies, Inc.:   DIGITIZING COMPANY
~OTHER INFORMATION
~A   DEPT       GRR      RILD       RILM   
# ...
  568.0000    96.8047    10.0773     9.6860
  568.5000    96.5186    10.2179     9.8612
  569.0000    95.1716    10.3605    10.0395
  569.5000    95.5449    10.5050    10.2210
  570.0000    96.6575    10.6515    10.4066
  570.5000   100.3520    10.8001    10.6243
  571.0000   104.1430    10.9508    10.8677
  571.5000   105.1909    11.1089    11.1158
  572.0000   104.5952    11.2703    11.3697
  572.5000   103.9373    11.4341    11.6292
  573.0000   107.9258    11.6003    11.8587
  573.5000   109.5493    11.7688    11.9918
  574.0000   108.8825    11.8578    12.1264
  574.5000   103.9515    11.9084    12.2626
  575.0000    99.1075    11.9593    12.3961
  575.5000    94.1041    12.0104    12.4934
  576.0000    92.7681    12.1246    12.5914
  576.5000    92.4880    12.3782    12.6902
  577.0000    90.8896    12.5007    12.7371
  577.5000    89.1314    12.5203    12.6746
  578.0000    87.6399    12.5362    12.6277
  578.5000    89.4699    12.5520    12.5811
  579.0000    91.4196    12.5679    12.5346
  579.5000    93.3533    12.5837    12.4882
  580.0000    95.0119    12.5998    12.4422
  580.5000    95.2092    12.6190    12.3867
  581.0000    95.8671    12.5608    12.4010
  581.5000    98.8406    12.4875    12.4191
  582.0000   100.4509    12.4151    12.4373
  582.5000    99.4099    12.3586    12.4553
  583.0000    97.4830    12.2919    12.4738
  583.5000    95.5819    12.2256    12.4920
  584.0000    94.4752    12.1598    12.5023
  584.5000    96.3607    12.0934    12.2315
  585.0000    98.1748    11.9995    12.1081
  585.5000    99.9783    11.8151    11.9860
  586.0000    99.9346    11.6350    11.8651
  586.5000    98.2512    11.4576    11.7454
  587.0000    95.9837    11.2830    11.6270
  587.5000    95.3695    11.1110    11.5097
  588.0000    99.3708    10.9416    11.2395
  588.5000   103.9083    10.7748    10.9593
  589.0000   108.5197    10.6106    10.7305
  589.5000   107.4585    10.4489    10.5989
  590.0000   105.6721    10.2896    10.4690
  590.5000   103.8983    10.1328    10.3406
  591.0000   102.1525    10.0403    10.2316
  591.5000   100.9947     9.9692    10.1397
  592.0000   101.0081     9.8986    10.0481
  592.5000   100.9554     9.8286     9.9573
  593.0000   103.2449     9.7590     9.8674
  593.5000   106.1084     9.6899     9.7782
  594.0000   109.0430     9.6249     9.7130
  594.5000   108.9187     9.5750     9.6827
  595.0000   108.7148     9.5252     9.6525
  595.5000   108.8130     9.4757     9.6224
  596.0000   109.0755     9.4460     9.5923
  596.5000   109.3213     9.3969     9.5624
  597.0000   108.9986     9.3485     9.5223
  597.5000   106.5386     9.2987     9.4699
  598.0000   104.1102     9.1839     9.4179
  598.5000   106.3178     9.0332     9.3700
  599.0000   109.8475     8.8861     9.1151
  599.5000   111.9309     8.7416     8.9441
  600.0000   113.6543     8.6659     9.0542
  600.5000   113.7020     8.6017     9.2940
  601.0000   112.7996     8.5380    10.2120
  601.5000   111.8965     8.4748    11.2207
  602.0000   111.1287     8.4258    12.1723
  602.5000   112.1746     8.3802    13.0976
  603.0000   113.3394     8.3170    12.3613
  603.5000   111.9687     8.1783    11.1184
  604.0000   109.2151     8.0212    10.0005
  604.5000   107.8667     7.8671     8.6173
  605.0000   111.2571     7.7791     8.0083
  605.5000   114.7102     7.7603     7.9050
  606.0000   116.0648     7.7421     7.8817
  606.5000   112.6400     7.7239     7.8518
  607.0000   108.5382     7.7071     7.8954
  607.5000   104.4282     7.7673     7.9613
  608.0000   103.2036     7.8238     8.0278
  608.5000   107.5455     7.9703     8.1527
  609.0000   111.5970     8.2098     8.4127
  609.5000   113.7600     8.4565     8.6811
  610.0000   115.5874     8.7106     8.9579
  610.5000   115.4925     8.9723     9.2437
  611.0000   112.6559     9.2419     9.5385
  611.5000   109.1098     9.5196     9.7452
  612.0000   105.4265     9.7433     9.8538
  612.5000   105.6933     9.8161     9.9636
  613.0000   106.9790     9.7118    10.0746
  613.5000   105.1328     9.6265    10.0939
  614.0000   103.4335     9.5418    10.0939
  614.5000   107.2247     9.4578     9.9908
  615.0000   112.4801     9.3747     9.9079
  615.5000  -999.2500     9.2923     9.9080
  616.0000  -999.2500     9.2740     9.9079
  616.5000  -999.2500     9.2608     9.9078
  617.0000  -999.2500     9.2476     9.9079
  617.5000  -999.2500     9.2344     9.8782
  618.0000  -999.2500     9.2212     9.8225
  618.5000  -999.2500     9.2081     9.7671
  619.0000  -999.2500     9.1623     9.7121
  619.5000  -999.2500     8.9632     9.6574
  620.0000  -999.2500     8.7683     9.5164
  620.5000  -999.2500     8.5431     9.3192
  621.0000  -999.2500     8.1982     8.9108
  621.5000  -999.2500     7.8672     8.4742
  622.0000  -999.2500     7.5496     8.0590
  622.5000  -999.2500     7.2487     7.7295
  623.0000  -999.2500     6.8311     7.2753
  623.5000  -999.2500     6.3242     6.9601
  624.0000  -999.2500     5.8505     6.5677
  624.5000  -999.2500     5.4130     5.9103
  625.0000  -999.2500     5.1161     5.3271
  625.5000  -999.2500     4.9321     4.8004
  626.0000  -999.2500     4.8855     4.1171
  626.5000  -999.2500     5.1525     3.4275
  627.0000  -999.2500  -999.2500     3.0568
  627.5000  -999.2500  -999.2500     2.8066
  628.0000  -999.2500  -999.2500     2.7170
  628.5000  -999.2500  -999.2500     2.7596
  629.0000  -999.2500  -999.2500     2.8133
  629.5000  -999.2500  -999.2500     2.8600
  630.0000  -999.2500  -999.2500     3.6285
  630.5000  -999.2500  -999.2500     4.3483
