~VERSION INFORMATION
 VERS.                2.0:   CWLS LOG ASCII STANDARD - VERSION 2.0
 WRAP.                 NO:   ONE LINE PER DEPTH STEP
~WELL INFORMATION
#MNEM.UNIT      DATA TYPE    INFORMATION
#----------   ------------   ------------------------------
 STRT.F          217.0000:   START DEPTH
 STOP.F         3170.0000:   STOP DEPTH
 STEP.F            0.5000:   STEP LENGTH
 NULL.          -999.2500:   NO VALUE
 COMP. FENIX & SCISSON INC:   COMPANY
 WELL.    51 TX 33 #51-33:   WELL
 FLD .             TEAPOT:   FIELD
 LOC .      S33 T39N R78W:   LOCATION
 CNTY.            NATRONA:   COUNTY
 STAT.            WYOMING:   STATE
 CTRY. UNITED STATES OF AMERICA:   COUNTRY
 SRVC.            Unknown:   SERVICE COMPANY
 DATE.        02-APR-1978:   LOGDATE
 API .       490251068600:   API NUMBER
~CURVE INFORMATION
#MNEM.UNIT       API CODE    CURVE DESCRIPTION
#----------   ------------   ------------------------------
 DEPT.F                  :   
 TGAS.UNITS  91 830 01 00:   TOTAL GAS FROM HOTWIRE
 ROP .MIN/FT 91 810 01 00:   RATE OF DRILLING PENETRATION
~PARAMETER INFORMATION
#MNEM.UNIT          VALUE    DESCRIPTION
#----------   ------------   ------------------------------
 DATE.         2-APR-1978:   RUN DATE
 RUN .                  1:   RUN NUMBER
 BLI .F              3150:   BOTTOM LOG INTERVAL
 TLI .F               250:   TOP LOG INTERVAL
 DFT .       CHEMICAL GEL:   DRILLING FLUID TYPE
 ENGI.            R. CABS:   RECORDING ENGINEER
 CLNT.            A2DTECH:   CLIENT CODE
 ORIG.           5" PRINT:   ORIGIN OF DATA
 UWI .       490251068600:   UNIQUE WELL ID
 DICO. A2D Technologies, Inc.:   DIGITIZING COMPANY
~OTHER INFORMATION
~A   DEPT       TGAS      ROP   
# ...
 1675.0000     2.2704     2.6352
 1675.5000     2.2230     2.6527
 1676.0000     2.1756     2.6523
 1676.5000     2.1282     2.6517
 1677.0000     2.0808     2.6514
 1677.5000     2.0334     2.6688
 1678.0000     1.9861     2.7045
 1678.5000     1.9387     2.0913
 1679.0000     1.8913     2.0910
 1679.5000     1.8439     2.0904
 1680.0000     1.7965     2.3603
 1680.5000     1.7604     2.3599
 1681.0000     1.7643     2.3594
 1681.5000     1.7395     2.3590
 1682.0000     1.7147     2.3404
 1682.5000     1.6900     2.3401
 1683.0000     1.6652     2.3215
 1683.5000     1.6404     2.3211
 1684.0000     1.6157     2.3027
 1684.5000     1.5909     2.3022
 1685.0000     1.5661     2.3018
 1685.5000     1.5391     2.2833
 1686.0000     1.5429     2.5892
 1686.5000     1.5447     2.5886
 1687.0000     1.5399     2.5883
 1687.5000     1.5350     2.6057
 1688.0000     1.5301     2.6054
 1688.5000     1.5253     2.6230
 1689.0000     1.5204     2.6407
 1689.5000     1.5156     3.2707
 1690.0000     1.5107     3.2702
 1690.5000     1.5058     3.2878
 1691.0000     1.5010     3.3053
 1691.5000     1.4985     3.3049
 1692.0000     1.5033     2.0792
 1692.5000     1.5065     2.0788
 1693.0000     1.5104     2.0964
 1693.5000     1.5143     2.1319
 1694.0000     1.5183     2.3297
 1694.5000     1.5222     2.3293
 1695.0000     1.5261     2.3288
 1695.5000     1.5300     2.3104
 1696.0000     1.5339     2.3098
 1696.5000     1.5378     2.3094
 1697.0000     1.5417     2.3089
 1697.5000     1.5457     2.2905
 1698.0000     1.5500     3.3712
 1698.5000     1.5538     3.3707
 1699.0000     1.5468     3.3703
 1699.5000     1.5392     3.3697
 1700.0000     1.5316     3.3693
 1700.5000     1.5240    29.3013
 1701.0000     1.5164    29.1231
 1701.5000     1.5088    29.1203
 1702.0000     1.5011    28.5944
 1702.5000     1.4973    24.7655
 1703.0000     1.4142    24.7613
 1703.5000     1.3310    24.7584
 1704.0000     1.2487    20.9281
 1704.5000     1.2526    20.7514
 1705.0000     1.2565    20.7472
 1705.5000     1.2604    20.7444
 1706.0000     1.2643    19.7571
 1706.5000     1.2683    19.7844
 1707.0000     1.2722    19.7838
 1707.5000     1.2761    19.7833
 1708.0000     1.2800    17.8704
 1708.5000     1.2624    17.8693
 1709.0000     1.2449    17.8676
 1709.5000     1.2274    17.8664
 1710.0000     1.2099    19.0026
 1710.5000     1.1924    19.0022
 1711.0000     1.1749    19.0015
 1711.5000     1.1574    19.0011
 1712.0000     1.1378    26.6125
 1712.5000     1.2286    26.7836
 1713.0000     1.2324    26.7794
 1713.5000     1.2299    26.9505
 1714.0000     1.2248    19.5539
 1714.5000     1.2197    19.5532
 1715.0000     1.2146    19.5528
 1715.5000     1.2095    19.5521
 1716.0000     1.2044    19.9128
 1716.5000     1.1994    19.9121
 1717.0000     1.1943    19.9117
 1717.5000     1.1892    19.9390
 1718.0000     1.1842    19.9383
 1718.5000     1.1890    19.9099
 1719.0000     1.1928    19.9094
 1719.5000     1.1966    19.2421
 1720.0000     1.2874    19.2139
 1720.5000     1.2912    19.2412
 1721.0000     1.3820    19.2405
 1721.5000     1.3858    19.5176
 1722.0000     1.5635    19.5450
 1722.5000     2.0173    19.5445
 1723.0000     4.0305    19.5438
 1723.5000     8.4653    19.5434
 1724.0000     9.7697    24.7891
 1724.5000     9.2041    36.6148
 1725.0000     5.8744    36.6119
 1725.5000     2.5477    36.6099
 1726.0000     1.7689    21.9924
 1726.5000     1.5988    21.8157
 1727.0000     1.4287    21.8115
 1727.5000     1.4326    21.9826
 1728.0000     1.4373    21.9784
 1728.5000     1.4411    21.9756
 1729.0000     1.6188    21.9713
 1729.5000     1.7965    22.1424
 1730.0000     1.9743    22.1382
 1730.5000     2.2389    21.9615
 1731.0000     2.6775    21.9573
 1731.5000     3.1161    22.4762
 1732.0000     3.6464    23.3430
 1732.5000     4.0804    23.5141
 1733.0000     4.2590    23.8577
 1733.5000     4.4367    24.0288
 1734.0000     4.4405    22.6333
 1734.5000     4.2694    22.6291
 1735.0000     3.9254    22.6263
 1735.5000     3.5814    25.5786
 1736.0000     3.3253    29.5758
 1736.5000     3.2422    29.5715
 1737.0000     2.9851    29.3948
 1737.5000     2.7281    29.5659
 1738.0000     2.4710    29.9095
 1738.5000     2.3879    30.1792
 1739.0000     2.4796    30.1763
 1739.5000     2.5704    29.8983
 1740.0000     2.7481    29.3737
 1740.5000     9.9713    25.6545
 1741.0000    17.1749     8.8074
 1741.5000    16.3097     2.0752
 1742.0000     8.2878     2.0836
 1742.5000     4.5072     2.0936
 1743.0000     2.9458     2.0839
 1743.5000     2.7748     2.0718
 1744.0000     2.6916     2.0597
 1744.5000     2.6085     2.0476
 1745.0000     2.7002     2.0421
 1745.5000     2.7910     2.0411
 1746.0000     2.7948     2.0402
 1746.5000     2.9726     2.0393
 1747.0000     2.9773     2.0381
 1747.5000     3.0681     2.0371
 1748.0000     3.1588     2.0362
 1748.5000     3.1626     2.0027
 1749.0000     3.2534     1.9613
 1749.5000     3.3442     1.9357
 1750.0000     3.4349     3.6911
 1750.5000     3.4388     3.6900
 1751.0000     3.5296     3.6565
 1751.5000     3.5464     3.6553
 1752.0000     3.7120     1.9633
 1752.5000     3.7158     1.9299
 1753.0000     3.8066     1.9289
 1753.5000     3.8974     1.8955
 1754.0000     3.9012     2.5777
 1754.5000     3.9050     2.6416
 1755.0000     3.9088     2.6404
 1755.5000     3.9996     2.6069
 1756.0000     4.0035     2.0856
 1756.5000     4.0951     2.0847
 1757.0000     4.0989     2.0512
 1757.5000     4.1027     2.0503
 1758.0000     4.1066     2.0494
 1758.5000     4.1104     2.0157
 1759.0000     4.1142     2.0147
 1759.5000     4.1180     2.0138
 1760.0000     4.1218     2.0129
 1760.5000     4.1257     2.0119
 1761.0000     4.1420     2.0110
 1761.5000     4.2673     2.0098
 1762.0000     4.1561     1.9763
 1762.5000     4.1519     1.9754
 1763.0000     4.1477     1.9745
 1763.5000     4.1435     3.1768
 1764.0000     4.1391     3.1431
 1764.5000     4.1340     3.1422
 1765.0000     4.1298     3.1413
 1765.5000     4.1256     4.6220
 1766.0000     4.1214     4.6214
 1766.5000     4.1172     4.6208
 1767.0000     4.2869     4.6201
 1767.5000     4.2928     4.3437
 1768.0000     4.4524     4.3234
 1768.5000     4.4471     4.3031
 1769.0000     4.5309     4.3026
 1769.5000     4.5257     4.7750
 1770.0000     4.5215     4.7743
 1770.5000     4.5173     4.7539
 1771.0000     4.5130     4.7534
 1771.5000     4.5958     4.8119
 1772.0000     4.5905     5.0873
 1772.5000     4.5863     5.0866
 1773.0000     4.5821     5.0860
 1773.5000     4.5779     5.0855
 1774.0000     4.5737     4.8483
 1774.5000     4.6565     4.8477
 1775.0000     4.6523     4.8472
 1775.5000     4.7350     4.3541
 1776.0000     4.7298     4.3733
 1776.5000     4.7255     4.4120
 1777.0000     4.7213     4.4312
 1777.5000     4.8921     4.0167
 1778.0000     4.8868     4.0360
 1778.5000     4.9696     4.0550
 1779.0000     4.9652     4.0542
 1779.5000     4.9601     4.0734
 1780.0000     5.0411     4.0925
 1780.5000     5.0362     4.0919
 1781.0000     5.0322     4.1112
 1781.5000     5.0283     1.9383
 1782.0000     5.0244     1.9373
 1782.5000     5.1017     1.9038
 1783.0000     5.0968     1.9359
 1783.5000     5.0929     1.8697
 1784.0000     5.0077     3.2020
 1784.5000     5.0037     3.2008
 1785.0000     4.9998     3.2324
 1785.5000     4.9956     3.2315
 1786.0000     4.9913     3.2303
 1786.5000     4.9861     3.2619
 1787.0000     4.9819     3.2609
 1787.5000     4.9777     3.2927
 1788.0000     4.9735     3.3566
 1788.5000     4.9693     3.4207
 1789.0000     4.9651     3.5173
 1789.5000     4.9609     3.6137
 1790.0000     4.9565     3.6778
 1790.5000     5.1172     3.7096
 1791.0000     5.1955     3.7412
 1791.5000     5.2729     3.7075
 1792.0000     5.2680     3.6741
 1792.5000     5.2640     3.6731
 1793.0000     5.2601     3.6719
 1793.5000     5.2561     3.6710
 1794.0000     5.4661     4.3518
 1794.5000     5.5995     4.3512
 1795.0000     5.8125     4.3507
 1795.5000     5.8302     4.3501
 1796.0000     5.8598     4.1326
