~VERSION INFORMATION
 VERS.                2.0:   CWLS LOG ASCII STANDARD - VERSION 2.0
 WRAP.                 NO:   ONE LINE PER DEPTH STEP
~WELL INFORMATION
#MNEM.UNIT      DATA TYPE    INFORMATION
#----------   ------------   ------------------------------
 STRT.F          660.0000:   START DEPTH
 STOP.F         2899.5000:   STOP DEPTH
 STEP.F            0.5000:   STEP LENGTH
 NULL.          -999.2500:   NO VALUE
 COMP. LAWRENCE/ALLISON INC:   COMPANY
 WELL. NPR #3 22 X 10 #22-10:   WELL
 FLD .             TEAPOT:   FIELD
 LOC .      S10 T38N R78W:   LOCATION
 CNTY.            NATRONA:   COUNTY
 STAT.            WYOMING:   STATE
 CTRY. UNITED STATES OF AMERICA:   COUNTRY
 SRVC.            Unknown:   SERVICE COMPANY
 DATE.        11-SEP-1986:   LOGDATE
 API .       490251106200:   API NUMBER
~CURVE INFORMATION
#MNEM.UNIT       API CODE    CURVE DESCRIPTION
#----------   ------------   ------------------------------
 DEPT.F                  :   
 ROP .MIN/FT 91 810 01 00:   RATE OF DRILLING PENETRATION
 TGAS.UNITS  91 830 01 00:   TOTAL GAS FROM HOTWIRE
~PARAMETER INFORMATION
#MNEM.UNIT          VALUE    DESCRIPTION
#----------   ------------   ------------------------------
 DATE.          9-11-1986:   RUN DATE
 DD  .F              2900:   DEPTH DRILLER
 TLI .F              1380:   TOP LOG INTERVAL
 WITN. R. HUSK/K. FREDERICK:   WITNESSED BY
 CLNT.            A2DTECH:   CLIENT CODE
 ORIG.           5" PRINT:   ORIGIN OF DATA
 UWI .       490251106200:   UNIQUE WELL ID
 DICO. A2D Technologies, Inc.:   DIGITIZING COMPANY
~OTHER INFORMATION
~A   DEPT      ROP         TGAS 
# ...
 1267.5000     1.1781   213.5236
 1268.0000     1.2434   212.3276
 1268.5000     1.1944   211.1313
 1269.0000     1.1224   209.9352
 1269.5000     1.0338   209.0071
 1270.0000     0.9808   208.0974
 1270.5000     0.9615   207.1875
 1271.0000     0.9739   206.5548
 1271.5000     0.9812   205.6173
 1272.0000     0.9836   204.7352
 1272.5000     0.9940   204.4258
 1273.0000     1.0000   204.3565
 1273.5000     1.0036   204.2873
 1274.0000     0.9830   204.2180
 1274.5000     0.9245   225.7722
 1275.0000     0.8541   221.8121
 1275.5000     0.7854   207.2804
 1276.0000     0.7201   203.8306
 1276.5000     0.6502   200.2601
 1277.0000     0.5649   196.2470
 1277.5000     0.5123   192.3722
 1278.0000     0.5022   189.2177
 1278.5000     0.5009   187.0518
 1279.0000     0.4998   185.2925
 1279.5000     0.4988   183.7086
 1280.0000     0.4977   182.3276
 1280.5000     0.4978   178.9100
 1281.0000     0.4988   176.6007
 1281.5000     0.4998   174.3679
 1282.0000     0.5008   173.1928
 1282.5000     0.5018   172.0810
 1283.0000     0.5028   171.3964
 1283.5000     0.5038   170.3099
 1284.0000     0.5251   169.8030
 1284.5000     0.6156   169.6471
 1285.0000     0.6932   169.0386
 1285.5000     0.7347   168.4301
 1286.0000     0.7566   167.8217
 1286.5000     0.7561   167.2133
 1287.0000     0.7568   166.4272
 1287.5000     0.7579   165.6327
 1288.0000     0.7591   165.5911
 1288.5000     0.7602   165.5496
 1289.0000     0.7614   165.5080
 1289.5000     0.7626   165.4664
 1290.0000     0.7637   165.4249
 1290.5000     0.7649   165.3833
 1291.0000     0.7660   165.3418
 1291.5000     0.7672   165.3002
 1292.0000     0.7683   165.2586
 1292.5000     0.7695   165.2171
 1293.0000     0.7707   165.1755
 1293.5000     0.7718   165.1339
 1294.0000     0.7730   165.0924
 1294.5000     0.7741   165.0508
 1295.0000     0.7753   165.0092
 1295.5000     0.7765   164.9677
 1296.0000     0.7776   164.9261
 1296.5000     0.7788   164.8846
 1297.0000     0.7799   164.8430
 1297.5000     0.7811   164.7934
 1298.0000     0.7822   164.7527
 1298.5000     0.7834   165.2663
 1299.0000     0.7846   165.2257
 1299.5000     0.7857   165.1850
 1300.0000     0.7869   165.1455
 1300.5000     0.7880   164.5645
 1301.0000     0.7892   164.5376
 1301.5000     0.7904   164.5105
 1302.0000     0.7915   164.4839
 1302.5000     0.7927   165.0112
 1303.0000     0.7938   165.0393
 1303.5000     0.7950   165.5116
 1304.0000     0.7961   165.4803
 1304.5000     0.7973   165.4526
 1305.0000     0.7985   165.4249
 1305.5000     0.7996   165.5414
 1306.0000     0.8008   165.9236
 1306.5000     0.8440   165.8959
 1307.0000     0.9075   196.7048
 1307.5000     0.9793   224.8903
 1308.0000     1.0498   225.1108
 1308.5000     1.1085   195.1124
 1309.0000     1.1746   166.1384
 1309.5000     1.2399   165.7297
 1310.0000     1.2277   168.9480
 1310.5000     1.1492   176.0980
 1311.0000     1.0818   173.6823
 1311.5000     1.0365   173.5160
 1312.0000     1.0354   173.3498
 1312.5000     1.0343   173.1835
 1313.0000     1.0443   173.0173
 1313.5000     1.0321   173.8022
 1314.0000     1.0213   174.9015
 1314.5000     0.9369   174.7352
 1315.0000     0.8414   175.7700
 1315.5000     0.7978   176.6194
 1316.0000     0.8136   177.8204
 1316.5000     0.8498   179.9540
 1317.0000     0.9116   217.3562
 1317.5000     1.0094   539.1121
 1318.0000     1.1120   598.0013
 1318.5000     1.2229   443.8171
 1319.0000     1.3131   323.9524
 1319.5000     1.4084   252.8563
 1320.0000     1.4825   226.0950
 1320.5000     1.3560   225.9348
 1321.0000     1.2223   225.7745
 1321.5000     1.0843   225.6096
 1322.0000     1.0435   225.4540
 1322.5000     1.1561   229.3400
 1323.0000     1.3003   311.6022
 1323.5000     1.4483   793.9227
 1324.0000     1.6031   899.0433
 1324.5000     1.7273   899.3612
 1325.0000     1.8367   899.6791
 1325.5000     1.9296   899.9971
 1326.0000     1.8486   894.0116
 1326.5000     1.6716   863.2275
 1327.0000     1.5435   838.3727
 1327.5000     1.4225   815.2079
 1328.0000     1.3499   792.8192
 1328.5000     1.3645   771.0952
 1329.0000     1.4211   767.8559
 1329.5000     1.4778   793.3292
 1330.0000     1.5164   792.4754
 1330.5000     1.5254   771.9099
 1331.0000     1.5313   756.1265
 1331.5000     1.5343   739.0711
 1332.0000     1.5094   726.8541
 1332.5000     1.4316   717.4300
 1333.0000     1.3317   706.2488
 1333.5000     1.2532   697.1910
 1334.0000     1.3074   692.5560
 1334.5000     1.3727   687.9208
 1335.0000     1.4270   683.2858
 1335.5000     1.4711   678.6071
 1336.0000     1.5133   673.7836
 1336.5000     1.5122   669.3804
 1337.0000     1.5111   674.1434
 1337.5000     1.5100   678.5239
 1338.0000     1.5088   764.7065
 1338.5000     1.5109  1344.5621
 1339.0000     1.5177  1791.5970
 1339.5000     1.5166  1791.3759
 1340.0000     1.5201  1681.5110
 1340.5000     1.5305  1278.3970
 1341.0000     1.5410   805.5639
 1341.5000     1.5454   698.0720
 1342.0000     1.6513   680.1691
 1342.5000     1.7640   671.1114
 1343.0000     1.8649   657.6312
 1343.5000     1.9557   644.1508
 1344.0000     2.0487   630.3668
 1344.5000     2.1535   620.9431
 1345.0000     2.2612   612.0239
 1345.5000     2.3554   606.5139
 1346.0000     2.4010   597.9543
 1346.5000     2.1604   593.1307
 1347.0000     1.6486   588.3076
 1347.5000     1.3467   582.0797
 1348.0000     1.3352   574.2380
 1348.5000     1.3973   569.4149
 1349.0000     1.4538   564.5911
 1349.5000     1.4906   559.7682
 1350.0000     1.4643   557.2482
 1350.5000     1.4062   557.0270
 1351.0000     1.3404   556.8060
 1351.5000     1.3113   556.5848
 1352.0000     1.3499   556.3636
 1352.5000     1.4282   556.1425
 1353.0000     1.4827   555.9214
 1353.5000     1.5483   555.6589
 1354.0000     1.5475   559.8690
 1354.5000     1.5467   617.1503
 1355.0000     1.5459   736.3481
 1355.5000     1.5562   877.6590
 1356.0000     1.5553   903.9821
 1356.5000     1.5545   885.4184
 1357.0000     1.5537   870.9974
 1357.5000     1.5528   854.6683
 1358.0000     1.5393   856.7124
 1358.5000     1.4722   878.7122
 1359.0000     1.4083   933.7197
 1359.5000     1.3372   988.7271
 1360.0000     1.2942  1043.7346
 1360.5000     1.2937  1097.0836
 1361.0000     1.2931  1143.8198
 1361.5000     1.2926  1187.0344
 1362.0000     1.2980  1235.0294
 1362.5000     1.3573  1283.0616
 1363.0000     1.4309  1326.3074
 1363.5000     1.4758  1372.9708
 1364.0000     1.5015  1417.5532
 1364.5000     1.4501  1458.7535
 1365.0000     1.3814  1506.4957
 1365.5000     1.3126  1553.4414
 1366.0000     1.2439  1611.5590
 1366.5000     1.1791  1659.9951
 1367.0000     1.1175  1712.8539
 1367.5000     1.0578  -999.2500
 1368.0000     1.0310  -999.2500
 1368.5000     1.0253  -999.2500
 1369.0000     1.0188  -999.2500
 1369.5000     1.0183  -999.2500
 1370.0000     1.0177  -999.2500
 1370.5000     1.0171  -999.2500
 1371.0000     1.0166  -999.2500
 1371.5000     1.0160  -999.2500
 1372.0000     1.0155  -999.2500
 1372.5000     1.0149  -999.2500
 1373.0000     1.0144  -999.2500
 1373.5000     1.0219  -999.2500
 1374.0000     0.7192  -999.2500
 1374.5000     0.2615   120.0342
 1375.0000     0.2613   119.9317
 1375.5000     0.2611   119.8292
 1376.0000     0.2610   119.7267
 1376.5000     0.2608   119.6242
 1377.0000     0.2606   119.5216
 1377.5000     0.2605   119.4191
 1378.0000     0.2603   119.3166
 1378.5000     0.2602   119.2141
 1379.0000     0.2600   119.1116
 1379.5000     0.2598   119.0091
 1380.0000     0.2597   118.9557
 1380.5000     0.2600   119.0058
 1381.0000     0.2606   119.0558
 1381.5000     0.2611   119.1058
 1382.0000     0.2616   119.1558
 1382.5000     0.2621   119.2059
 1383.0000     0.2627   119.2559
 1383.5000     0.2632   119.3059
 1384.0000     0.2637   119.3559
 1384.5000     0.2643   119.4060
 1385.0000     0.2648   119.4560
 1385.5000     0.2653   119.5060
 1386.0000     0.2658   119.5560
 1386.5000     0.2664   119.6060
 1387.0000     0.2669   119.6561
 1387.5000     0.2674   119.7061
 1388.0000     0.2680   119.7561
 1388.5000     0.2685   119.8062
