~VERSION INFORMATION
 VERS.                2.0:   CWLS LOG ASCII STANDARD - VERSION 2.0
 WRAP.                 NO:   ONE LINE PER DEPTH STEP
~WELL INFORMATION
#MNEM.UNIT      DATA TYPE    INFORMATION
#----------   ------------   ------------------------------
 STRT.F           31.0000:   START DEPTH
 STOP.F         1450.0000:   STOP DEPTH
 STEP.F            0.5000:   STEP LENGTH
 NULL.          -999.2500:   NO VALUE
 COMP. FENIX & SCISSON INC:   COMPANY
 WELL.    NPR-3 SX #86-14:   WELL
 FLD .             TEAPOT:   FIELD
 LOC .      S14 T38N R78W:   LOCATION
 CNTY.            NATRONA:   COUNTY
 STAT.            WYOMING:   STATE
 CTRY. UNITED STATES OF AMERICA:   COUNTRY
 SRVC.            Unknown:   SERVICE COMPANY
 DATE.        05-APR-1978:   LOGDATE
 API .       490251060800:   API NUMBER
~CURVE INFORMATION
#MNEM.UNIT       API CODE    CURVE DESCRIPTION
#----------   ------------   ------------------------------
 DEPT.F                  :   
 CALD.IN     45 280 60 00:   CALIPER
 GRD .GAPI   45 310 01 00:   GAMMA RAY FROM DENSITY LOG
 RHOB.G/C3   45 350 01 00:   BULK DENSITY
 CORR.G/C3   45 356 01 00:   DENSITY CORRECTION
 DPHI.DEC    45 890 12 00:   DENSITY POROSITY SANDSTONE
 SPR .MV     05 010 01 00:   SPONTANEOUS POTENTIAL FROM RES.
 SN  .OHMM   05 040 16 00:   SHORT NORMAL 16"
 ILD .OHMM   05 120 46 00:   INDUCTION LOG DEEP
~PARAMETER INFORMATION
#MNEM.UNIT          VALUE    DESCRIPTION
#----------   ------------   ------------------------------
 PD  .                 GL:   PERMANENT DATUM
 EPD .F              5367:   ELEVATION PERMANENT DATUM
 LMF .                 KB:   LOG MEASURED FROM
 DMF .                 KB:   DRILLING MEASURED FROM
 EKB .F              5371:   KELLING BUSHING
 EGL .F              5369:   GROUND LEVEL
 DATE.           4-5-1978:   RUN DATE
 RUN .                  1:   RUN NUMBER
 DD  .F              1455:   DEPTH DRILLER
 DL  .F              1446:   DEPTH LOGGER
 BLI .F              1440:   BOTTOM LOG INTERVAL
 TLI .F               100:   TOP LOG INTERVAL
 CS  .IN            8.625:   CASING SIZE
 CBD .F                40:   CASING BOTTOM DRILLER
 BS  .IN            7.875:   BIT SIZE
 BSD .F              1455:   BIT SIZE AT DEPTH
 DFT .                KCL:   DRILLING FLUID TYPE
 DFD .                8.6:   DRILLING FLUID DENSITY
 DFV .                 31:   DRILLING FLUID VISCOSITY
 DFPH.                 10:   DRILLING FLUID PH
 DFL .                8.4:   DRILLING FLUID LOSS
 MSS .           FLOWLINE:   MUD SAMPLE SOURCE
 RMS .OHMM            .95:   RESISTIVITY MUD SAMPLE
 MST .F                54:   MUD SAMPLE TEMPERATURE
 RMF .OHMM            .95:   RESISTIVITY MUD FILTRATE SAMPLE
 MFST.F                62:   MUD FILTRATE SAMPLE TEMPERATURE
 RMC .OHMM             .8:   RESISTIVITY MUD CAKE
 MCST.F                62:   MUD CAKE SAMPLE TEMPERATURE
 MFSS.               MEAS:   MUD FILTRATE SAMPLE SOURCE
 RMB .OHMM            .66:   RESISTIVITY MUD AT BHT
 BHT .F                78:   BOTTOM HOLE TEMPERATURE
 TCS .HRS               6:   TIME CURCULATED STOPPED
 MRT .F                78:   MAXIMUM RECORDED TEMPERATURE
 LUN .               2958:   LOGGING UNIT NUMBER
 LUL .               CASP:   LOGGING UNIT LOCATION
 ENGI.             MILLER:   RECORDING ENGINEER
 WITN.           MCGINLEY:   WITNESSED BY
 CLNT.            A2DTECH:   CLIENT CODE
 ORIG.        2" 5" PRINT:   ORIGIN OF DATA
 UWI .       490251060800:   UNIQUE WELL ID
 DICO. A2D Technologies, Inc.:   DIGITIZING COMPANY
~OTHER INFORMATION
~A   DEPT     CALD         GRD      RHOB       CORR       DPHI        SPR         SN        ILD   
# ...
  355.0000     8.1071    80.5101     2.4031     0.0136     0.1443    -1.7395     8.8244     7.1737
  355.5000     8.1094    79.4766     2.3908     0.0105     0.1448    -1.7224     8.7984     7.1318
  356.0000     8.1063    77.7453     2.3840     0.0073     0.1459    -1.7051     8.7778     7.2163
  356.5000     8.1032    76.1182     2.4118     0.0066     0.1406    -1.7377     8.7570     7.3868
  357.0000     8.1002    76.3860     2.4115     0.0076     0.1379    -1.8199     8.7436     7.5623
  357.5000     8.0972    79.8049     2.4107     0.0087     0.1456    -1.9021     8.7597     7.6814
  358.0000     8.0942    83.6738     2.4032     0.0096     0.1505    -1.9844     8.7721     7.6814
  358.5000     8.0912    85.6743     2.3863     0.0085     0.1551    -2.0666     8.7846     7.6814
  359.0000     8.0882    85.3812     2.3898     0.0049     0.1666    -2.1492     8.7971     7.6814
  359.5000     8.0852    83.6976     2.3661     0.0060     0.1645    -2.2311     8.8096     7.7528
  360.0000     8.0822    81.6025     2.3629     0.0085     0.1619    -2.2831     8.8244     7.7202
  360.5000     8.0792    80.0698     2.3698     0.0097     0.1603    -2.2076     8.7114     7.6670
  361.0000     8.0762    80.1015     2.3698     0.0084     0.1621    -2.1349     8.5761     7.6142
  361.5000     8.0732    80.0890     2.3744     0.0070     0.1640    -2.0625     8.4428     7.5618
  362.0000     8.0702    81.2430     2.3686     0.0049     0.1659    -1.9900     8.3117     7.5098
  362.5000     8.0672    81.5026     2.3652     0.0015     0.1765    -1.9144     8.2566     7.4581
  363.0000     8.0642    81.7581     2.3566    -0.0017     0.1806    -1.8963     8.2270     7.4025
  363.5000     8.0612    82.9274     2.3373     0.0019     0.1828    -1.8960     8.1953     7.3519
  364.0000     8.0582    83.4495     2.3346     0.0109     0.1744    -1.8962     8.0465     7.2972
  364.5000     8.0552    82.3599     2.3510     0.0156     0.1653    -1.8962     7.8915     7.2428
  365.0000     8.0522    82.0794     2.3627     0.0120     0.1660    -1.8962     7.8239     7.1889
  365.5000     8.0492    82.0274     2.3623     0.0100     0.1683    -1.8962     7.8966     7.1354
  366.0000     8.0462    81.9886     2.3602     0.0096     0.1663    -1.8962     7.7876     7.0822
  366.5000     8.0431    81.9414     2.3603     0.0091     0.1621    -1.8962     7.6059     7.0295
  367.0000     8.0401    81.5758     2.3659     0.0087     0.1579    -1.8962     7.5103     6.9774
  367.5000     8.0371    79.5261     2.3776     0.0083     0.1579    -1.8961     7.4636     6.9399
  368.0000     8.0341    77.4858     2.3808     0.0087     0.1558    -1.8955     7.4173     6.8725
  368.5000     8.0311    75.4223     2.3839     0.0104     0.1499    -1.9189     7.4009     7.1104
  369.0000     8.0300    74.3184     2.3996     0.0121     0.1475    -1.9450     7.5164     7.3020
  369.5000     8.0300    74.5961     2.3956     0.0138     0.1483    -1.9710     7.6459     7.4985
  370.0000     8.0300    76.1108     2.3922     0.0145     0.1470    -1.9970     7.7776     7.7528
  370.5000     8.0302    75.8133     2.3953     0.0151     0.1467    -2.0229     7.9116     7.7385
  371.0000     8.0351    75.2890     2.3946     0.0157     0.1473    -2.0484     7.9709     7.7194
  371.5000     8.0400    75.4706     2.3940     0.0160     0.1479    -2.0748     7.8932     7.7004
  372.0000     8.0448    77.1111     2.3935     0.0111     0.1507    -2.1448     7.8142     7.6814
  372.5000     8.0497    77.7663     2.3910     0.0059     0.1484    -2.4206     7.7191     7.5491
  373.0000     8.0545    76.8331     2.3904     0.0043     0.1443    -2.7333     7.5652     7.4196
  373.5000     8.0593    75.8809     2.3872     0.0080     0.1459    -3.8938     7.4288     7.2923
  374.0000     8.0642    75.0813     2.3782     0.0118     0.1519    -4.6719     7.2976     7.1671
  374.5000     8.0692    75.7599     2.3829     0.0100     0.1577    -5.1907     7.1687     7.0442
  375.0000     8.0662    78.4729     2.3803     0.0074     0.1626    -5.5937     7.0421     6.9232
  375.5000     8.0614    81.1554     2.3681     0.0048     0.1659    -5.6883     6.9183     6.8053
  376.0000     8.0565    82.6291     2.3602     0.0052     0.1659    -5.6893     6.7934     6.6613
  376.5000     8.0516    80.2540     2.3602     0.0071     0.1677    -5.7933     6.6643     6.4992
  377.0000     8.0542    77.8639     2.3603     0.0090     0.1695    -5.9861     6.5364     6.3405
  377.5000     8.0604    76.0502     2.3568     0.0109     0.1672    -6.1793     6.4112     6.1845
  378.0000     8.0668    76.9946     2.3684     0.0106     0.1596    -6.3704     6.3256     6.1287
  378.5000     8.0731    77.8626     2.3796     0.0062     0.1579    -6.4376     6.3256     6.0985
  379.0000     8.0794    76.9057     2.3716     0.0019     0.1705    -6.3078     6.3378     6.0684
  379.5000     8.0858    76.0798     2.3603    -0.0025     0.1726    -6.1826     6.3577     6.0398
  380.0000     8.0921    77.5788     2.3495    -0.0058     0.1747    -6.1284     6.3777     6.1085
  380.5000     8.0985    79.9385     2.3492    -0.0033     0.1751    -6.3300     6.3977     6.1750
  381.0000     8.1048    78.6220     2.3490    -0.0024     0.1772    -6.5240     6.4178     6.2097
  381.5000     8.1111    77.7032     2.3453    -0.0054     0.1779    -6.7171     6.4379     6.0398
  382.0000     8.1175    78.2165     2.3599    -0.0074     0.1711    -6.8918     6.4598     6.1246
  382.5000     8.1242    78.7436     2.3551     0.0029     0.1667    -6.9383     6.5106     6.2457
  383.0000     8.1277    79.2750     2.3562     0.0131     0.1611    -6.9936     6.5617     6.3447
  383.5000     8.1092    79.8039     2.3681     0.0162     0.1557    -7.0548     6.6133     6.3997
  384.0000     8.1062    80.2769     2.3793     0.0121     0.1515    -7.3956     6.6654     6.4552
  384.5000     8.1039    79.4490     2.3851     0.0081     0.1529    -8.2326     6.7177     6.5111
  385.0000     8.1016    77.5796     2.3848     0.0069     0.1559    -9.0936     6.7486     6.5676
  385.5000     8.0993    75.9263     2.3811     0.0083     0.1595   -10.1184     6.6990     6.6245
  386.0000     8.0970    76.3593     2.3725    -0.0011     0.1652   -11.0741     6.6642     6.6819
  386.5000     8.0947    77.6858     2.3602    -0.0134     0.1806   -11.3986     6.6294     6.7399
  387.0000     8.0924    78.0336     2.3476    -0.0127     0.1856   -11.6955     6.5950     6.7982
  387.5000     8.0901    76.1211     2.3267    -0.0040     0.1843   -12.1319     6.5640     6.8746
  388.0000     8.0878    74.3975     2.3306     0.0046     0.1844   -12.5709     6.5332     6.7888
  388.5000     8.0855    74.3459     2.3330     0.0132     0.1784   -12.8070     6.5054     6.6689
  389.0000     8.0832    76.0508     2.3428     0.0217     0.1728   -12.9936     6.4777     6.5511
  389.5000     8.0809    77.5363     2.3525     0.0284     0.1694   -13.0517     6.4499     6.4354
  390.0000     8.0786    77.6234     2.3599     0.0280     0.1665   -13.0156     6.4373     6.3218
  390.5000     8.0763    78.9810     2.3623     0.0268     0.1637   -12.9776     6.4288     6.2099
  391.0000     8.0740    79.4177     2.3647     0.0244     0.1614   -12.9371     6.4204     6.2007
  391.5000     8.0717    77.6697     2.3700     0.0167     0.1683   -12.9030     6.4121     6.1925
  392.0000     8.0694    75.9174     2.3590     0.0099     0.1722   -13.0985     6.4037     6.1840
  392.5000     8.0671    76.0456     2.3507     0.0134     0.1706   -14.2046     6.3950     6.1755
  393.0000     8.0648    77.5115     2.3533     0.0181     0.1691   -15.2832     6.3842     6.1669
  393.5000     8.0625    78.4978     2.3541     0.0199     0.1654   -16.3454     6.4517     6.1584
  394.0000     8.0602    76.8386     2.3609     0.0194     0.1641   -16.6349     6.5547     6.1525
  394.5000     8.0578    74.8019     2.3686     0.0189     0.1637   -16.8173     6.6748     6.4580
  395.0000     8.0555    73.9235     2.3695     0.0184     0.1603   -17.0008     6.8334     6.7179
