~VERSION INFORMATION
 VERS.                2.0:   CWLS LOG ASCII STANDARD - VERSION 2.0
 WRAP.                 NO:   ONE LINE PER DEPTH STEP
~WELL INFORMATION
#MNEM.UNIT      DATA TYPE    INFORMATION
#----------   ------------   ------------------------------
 STRT.F           30.0000:   START DEPTH
 STOP.F          677.0000:   STOP DEPTH
 STEP.F            0.5000:   STEP LENGTH
 NULL.          -999.2500:   NO VALUE
 COMP. FENIX & SCISSON INC:   COMPANY
 WELL. TEAPOT DOME #27 SX -2:   WELL
 FLD .             TEAPOT:   FIELD
 LOC .       S2 T38N R78W:   LOCATION
 CNTY.            NATRONA:   COUNTY
 STAT.            WYOMING:   STATE
 CTRY. UNITED STATES OF AMERICA:   COUNTRY
 SRVC.            Unknown:   SERVICE COMPANY
 DATE.        28-JAN-1978:   LOGDATE
 API .       490251056500:   API NUMBER
~CURVE INFORMATION
#MNEM.UNIT       API CODE    CURVE DESCRIPTION
#----------   ------------   ------------------------------
 DEPT.F                  :   
 ILD .OHMM   05 120 46 00:   INDUCTION LOG DEEP
 SN  .OHMM   05 040 16 00:   SHORT NORMAL 16"
 SPR .MV     05 010 01 00:   SPONTANEOUS POTENSIAL
 CALD.IN     45 280 60 00:   CALIPER FROM DENSITY LOG
 CORR.G/C3   45 356 01 00:   DENSITY CORRECTION
 DPHI.DEC    45 890 12 00:   DENSITY POROSITY SANDSTONE
 GRD .GAPI   45 310 01 00:   GAMMA RAY FROM DENSITY LOG
 RHOB.G/C3   45 350 01 00:   BULK DENSITY
~PARAMETER INFORMATION
#MNEM.UNIT          VALUE    DESCRIPTION
#----------   ------------   ------------------------------
 PD  .                 GL:   PERMANENT DATUM
 EPD .F              5147:   ELEVATION PERMANENT DATUM
 LMF .                 KB:   LOG MEASURED FROM
 DAPD.F                 4:   FEET ABOVE PERMANENT DATUM
 DMF .                 KB:   DRILLING MEASURED FROM
 EKB .F              5151:   KELLING BUSHING
 EGL .F              5147:   GROUND LEVEL
 DATE.        28-JAN-1978:   RUN DATE
 RUN .                  1:   RUN NUMBER
 DD  .F               675:   DEPTH DRILLER
 DL  .F               678:   DEPTH LOGGER
 BLI .F               677:   BOTTOM LOG INTERVAL
 TLI .F                40:   TOP LOG INTERVAL
 CS  .IN            8.625:   CASING SIZE
 CBD .F                40:   CASING BOTTOM DRILLER
 CBL .F                40:   CASING BOTTOM LOGGER
 BS  .IN            7.875:   BIT SIZE
 BSD .F               675:   BIT SIZE AT DEPTH
 DFT .                KCL:   DRILLING FLUID TYPE
 DFD .                8.6:   DRILLING FLUID DENSITY
 DFV .                .34:   DRILLING FLUID VISCOSITY
 DFPH.                9.5:   DRILLING FLUID PH
 MSS .           FLOWLINE:   MUD SAMPLE SOURCE
 RMS .OHMM           0.38:   RESISTIVITY MUD SAMPLE
 MST .F                60:   MUD SAMPLE TEMPERATURE
 RMF .OHMM           0.36:   RESISTIVITY MUD FILTRATE SAMPLE
 MFST.F                62:   MUD FILTRATE SAMPLE TEMPERATURE
 RMC .OHMM            0.7:   RESISTIVITY MUD CAKE
 MCST.F                63:   MUD CAKE SAMPLE TEMPERATURE
 MFSS.               MEAS:   MUD FILTRATE SAMPLE SOURCE
 MCSS.               MEAS:   MUD CAKE SAMPLE SOURCE
 RMB .OHMM           0.31:   RESISTIVITY MUD AT BHT
 BHT .F                76:   BOTTOM HOLE TEMPERATURE
 TCS .HRS               3:   TIME CURCULATED STOPPED
 MRT .F                76:   MAXIMUM RECORDED TEMPERATURE
 LUN .               2958:   LOGGING UNIT NUMBER
 LUL .             CASPER:   LOGGING UNIT LOCATION
 ENGI.           REYNOLDS:   RECORDING ENGINEER
 WITN.     MR. HARRINGTON:   WITNESSED BY
 CLNT.            A2DTECH:   CLIENT CODE
 ORIG.           5" PRINT:   ORIGIN OF DATA
 UWI .       490251056500:   UNIQUE WELL ID
 DICO. A2D Technologies, Inc.:   DIGITIZING COMPANY
~OTHER INFORMATION
~A   DEPT      ILD         SN        SPR       CALD       CORR       DPHI        GRD       RHOB   
# ...
  637.5000     7.7054     7.7093   -60.6840     8.6407     0.0579     0.1250    92.9398     2.4697
  638.0000     7.5106     7.5567   -60.6670     8.6437     0.0611     0.1328    93.7063     2.4489
  638.5000     7.2638     7.4071   -60.8037     8.6610     0.0628     0.1387    94.9166     2.4430
  639.0000     7.0238     7.0518   -60.7823     8.6480     0.0661     0.1446    97.1804     2.4297
  639.5000     6.8385     6.6903   -60.7653     8.6510     0.0738     0.1518    98.2316     2.4237
  640.0000     6.5554     6.2493   -60.5945     8.6534     0.0830     0.1741    98.7023     2.3985
  640.5000     5.8886     5.9183   -60.5774     8.6559     0.1132     0.1744   100.7496     2.3777
  641.0000     5.7717     5.6826   -60.5604     8.6588     0.1645     0.1753   103.6315     2.3673
  641.5000     5.7367     5.5701   -60.2444     8.6612     0.1707     0.1602   106.4797     2.3637
  642.0000     5.9432     5.8903   -60.0777     8.6482     0.1709     0.1477   105.9149     2.3721
  642.5000     6.2029     6.3577   -59.9070     8.6512     0.1696     0.1252   104.4625     2.4358
  643.0000     6.5556     6.7685   -59.5910     8.6536     0.1639     0.1051   102.8622     2.4666
  643.5000     6.8372     7.2058   -59.2750     8.6270     0.1416     0.0758    99.7826     2.5153
  644.0000     7.5863     7.6726   -59.2580     8.6294     0.1080     0.0805    95.8154     2.5326
  644.5000     7.9122     8.0567   -58.9417     8.6164     0.0925     0.0864    96.4407     2.5350
  645.0000     8.1431     8.2870   -58.9206     8.6194     0.0928     0.0864    96.4676     2.5194
  645.5000     8.4906     8.4655   -58.9036     8.6070     0.0855     0.0849    96.1987     2.5165
  646.0000     8.7343     8.5311   -58.8865     8.6100     0.0752     0.0866    95.6339     2.5166
  646.5000     8.9850     8.8965   -58.8695     8.6124     0.0679     0.0889    95.2066     2.5168
  647.0000     9.1167     9.0880   -58.8520     8.5994     0.0652     0.0874    94.9547     2.5161
  647.5000     9.2513     9.2837   -58.6816     8.6024     0.0639     0.0844    94.8270     2.5117
  648.0000     9.3876     9.4837   -58.6646     8.5899     0.0641     0.0843    94.8606     2.5171
  648.5000     9.5251     9.6246   -58.4980     8.5924     0.0643     0.0846    94.5849     2.5195
  649.0000     9.6646     9.8302   -58.4813     8.5954     0.0646     0.0848    94.9144     2.5173
  649.5000     9.7390     9.9730   -58.4634     8.5824     0.0631     0.0851    96.2737     2.5220
  650.0000     9.8817    10.0485   -58.4426     8.5700     0.0590     0.0857    96.5954     2.5195
  650.5000    10.0284    10.1245   -58.4255     8.5730     0.0518     0.0847    96.4781     2.5178
  651.0000    10.1753    10.3427   -58.4085     8.5606     0.0489     0.0875    94.1467     2.5160
  651.5000    10.3244    10.4225   -58.3914     8.5636     0.0492     0.0939    93.1396     2.5149
  652.0000    10.5480    10.5739   -58.5239     8.5660     0.0525     0.0941    92.5763     2.5173
  652.5000    10.7025    10.6539   -58.5025     8.5684     0.0557     0.0929    91.8651     2.5190
  653.0000    10.8614    10.7345   -58.4855     8.5708     0.0543     0.0917    90.4142     2.5213
  653.5000    10.8700    10.7417   -58.4684     8.5880     0.0500     0.0913    89.5621     2.5215
  654.0000    11.0292    10.7503   -58.6009     8.5733     0.0503     0.0925    89.2876     2.5208
  654.5000    11.1141    10.7574   -58.7333     8.5756     0.0565     0.0942    89.4710     2.5172
  655.0000    11.1228    10.7644   -58.8657     8.5782     0.0673     0.1000    90.0911     2.5121
  655.5000    11.2106    10.7715   -58.6949     8.5803     0.0765     0.1043    90.5633     2.4950
  656.0000    11.2195    10.8215   -58.5284     8.5825     0.0827     0.1054    90.7396     2.4877
  656.5000    11.2283    10.9015   -58.5112     8.5846     0.0859     0.1054    91.0710     2.4863
  657.0000    11.1579    10.9440   -58.4900     8.5867     0.0877     0.0976    91.2473     2.4879
  657.5000    11.0922    10.9518   -58.4729     8.5889     0.0896     0.0963    90.6840     2.4910
  658.0000    11.1014    10.8832   -58.4559     8.5911     0.0926     0.0988    89.6769     2.4986
  658.5000    11.1105    10.7432   -58.5889     8.5937     0.0909     0.1001    90.1491     2.5047
  659.0000    11.1207    10.4583   -58.5710     8.5958     0.0901     0.1019    90.7692     2.5093
  659.5000    11.2836    10.3916   -58.4004     8.5832     0.0827     0.1009    91.1440     2.5155
  660.0000    11.4489    10.2562   -58.5371     8.5853     0.0770     0.0988    92.4604     2.4977
  660.5000    11.3695    10.2646   -58.5158     8.5874     0.0788     0.0979    93.5243     2.4880
  661.0000    11.3103    10.2730   -58.6487     8.5748     0.0745     0.0960    93.8485     2.4934
  661.5000    11.1645    10.2798   -58.6308     8.5621     0.0672     0.0897    94.0248     2.4995
  662.0000    11.0967    10.2865   -58.6098     8.5648     0.0584     0.0912    93.6095     2.5116
  662.5000    11.0313    10.2226   -58.5928     8.5669     0.0571     0.0911    93.9408     2.5087
  663.0000    10.9645    10.1591   -58.5757     8.5690     0.0558     0.0908    94.2651     2.5059
  663.5000    10.7511    10.0284   -58.7085     8.5712     0.0546     0.0931    94.5893     2.5030
  664.0000    10.6838    10.0350   -58.6906     8.5585     0.0503     0.0895    94.3148     2.5076
  664.5000    10.3327     9.9727   -58.6698     8.5612     0.0445     0.0914    94.0473     2.5122
  665.0000    10.0602     9.9108   -58.8022     8.5633     0.0418     0.0954    94.8225     2.5131
  665.5000     9.7918     9.7816   -58.9346     8.5655     0.0435     0.0968    95.7456     2.5095
  666.0000     9.6043     9.7209   -59.0673     8.5522     0.0452     0.0986    95.9219     2.5036
  666.5000     9.5441     9.6532   -59.0493     8.5396     0.0455     0.0988    96.0982     2.5008
  667.0000     9.5535     9.5788   -59.0287     8.5274     0.0457     0.0969    95.8308     2.4994
  667.5000     9.5610     9.5423   -59.0116     8.5296     0.0459     0.0901    95.7041     2.4995
  668.0000     9.5687     9.5487   -58.9945     8.5322     0.0491     0.0951    95.5917     2.5071
  668.5000     9.6440     9.4899   -58.9775     8.5196     0.0508     0.0963    95.7939     2.5005
  669.0000     9.6516     9.4972   -58.8067     8.5217     0.0511     0.0920    96.3953     2.5006
  669.5000     9.5930     9.5034   -58.6402     8.5238     0.0513     0.0878    98.0509     2.5068
  670.0000     9.6003     9.3796   -58.6231     8.5260     0.0515     0.0927    97.1917     2.5121
  670.5000     9.6082     9.3214   -58.6061     8.4895     0.0517     0.1026    96.1846     2.5025
  671.0000     9.5498     9.2000   -58.5889     8.4414     0.0535     0.1044    96.2130     2.4907
  671.5000     9.5591     9.0801   -58.5677     8.3848     0.0567     0.1057    96.2485     2.4870
  672.0000     9.5660     8.9618   -58.5531     8.2980     0.0584     0.1083    96.7136     2.4827
  672.5000  -999.2500  -999.2500  -999.2500     8.0182     0.0587     0.1111    99.2639     2.4776
  673.0000  -999.2500  -999.2500  -999.2500     8.0055     0.0604     0.1126   100.2219     2.4702
  673.5000  -999.2500  -999.2500  -999.2500     7.9933     0.0636     0.1149  -999.2500     2.4644
  674.0000  -999.2500  -999.2500  -999.2500     7.9807     0.0653     0.1191  -999.2500     2.4645
  674.5000  -999.2500  -999.2500  -999.2500     7.9680     0.0685     0.1215  -999.2500     2.4654
  675.0000  -999.2500  -999.2500  -999.2500     7.9707     0.0688     0.1378  -999.2500     2.4647
  675.5000  -999.2500  -999.2500  -999.2500     7.9728     0.0690     0.1428  -999.2500     2.4491
  676.0000  -999.2500  -999.2500  -999.2500     7.9749     0.0707     0.1515  -999.2500     2.4261
  676.5000  -999.2500  -999.2500  -999.2500     7.9771     0.0724     0.1595  -999.2500     2.4165
  677.0000  -999.2500  -999.2500  -999.2500     7.9793     0.0726     0.1681  -999.2500     2.4029
