~VERSION INFORMATION
 VERS.                2.0:   CWLS LOG ASCII STANDARD - VERSION 2.0
 WRAP.                 NO:   ONE LINE PER DEPTH STEP
~WELL INFORMATION
#MNEM.UNIT      DATA TYPE    INFORMATION
#----------   ------------   ------------------------------
 STRT.F          664.0000:   START DEPTH
 STOP.F         1880.0000:   STOP DEPTH
 STEP.F            0.5000:   STEP LENGTH
 NULL.          -999.2500:   NO VALUE
 COMP. LAWRENCE/ALLISON INC:   COMPANY
 WELL.     NPR 3 TX #42-3:   WELL
 FLD .             TEAPOT:   FIELD
 LOC .       S3 T38N R78W:   LOCATION
 CNTY.            NATRONA:   COUNTY
 STAT.            WYOMING:   STATE
 CTRY. UNITED STATES OF AMERICA:   COUNTRY
 SRVC.            Unknown:   SERVICE COMPANY
 DATE.        23-JUN-1984:   LOGDATE
 API .       490251096800:   API NUMBER
~CURVE INFORMATION
#MNEM.UNIT       API CODE    CURVE DESCRIPTION
#----------   ------------   ------------------------------
 DEPT.F                  :   
 ROP .MIN/FT 91 810 01 00:   RAT OF DRILLING PENETRATION
 TGAS.UNITS  91 830 01 00:   TOTAL GAS FROM HOTWIRE
~PARAMETER INFORMATION
#MNEM.UNIT          VALUE    DESCRIPTION
#----------   ------------   ------------------------------
 EKB .F              5142:   KELLING BUSHING
 EGL .F              5132:   GROUND LEVEL
 DATE.            6-23-84:   RUN DATE
 BLI .F              1180:   BOTTOM LOG INTERVAL
 TLI .F               660:   TOP LOG INTERVAL
 CS  .IN            8.625:   CASING SIZE
 CBD .F               653:   CASING BOTTOM DRILLER
 LUN .               T-63:   LOGGING UNIT NUMBER
 ENGI.            JOHNSON:   RECORDING ENGINEER
 WITN.           SCHERGER:   WITNESSED BY
 CLNT.            A2DTECH:   CLIENT CODE
 ORIG.           5" PRINT:   ORIGIN OF DATA
 UWI .       490251096800:   UNIQUE WELL ID
 DICO. A2D Technologies, Inc.:   DIGITIZING COMPANY
~OTHER INFORMATION
~A   DEPT        ROP       TGAS 
# ...
  907.0000     1.4063    19.3617
  907.5000     1.5111    19.4649
  908.0000     1.6366    18.4909
  908.5000     1.7414    18.6199
  909.0000     1.8875    18.7231
  909.5000     1.9717    17.7491
  910.0000     1.7459    19.9809
  910.5000     1.5822    21.1355
  911.0000     1.4783    21.2387
  911.5000     1.3372    20.2906
  912.0000     1.3183    20.3972
  912.5000     1.3612    18.3942
  913.0000     1.4247    17.4460
  913.5000     1.4675    17.5750
  914.0000     1.4690    17.6782
  914.5000     1.3614    17.7814
  915.0000     1.1831    17.8846
  915.5000     1.0607    17.9878
  916.0000     0.9998    18.0910
  916.5000     1.0017    17.1170
  917.0000     1.0032    17.2460
  917.5000     0.9837    16.2978
  918.0000     1.0062    15.3496
  918.5000     1.0496    14.4014
  919.0000     1.1952    13.4532
  919.5000     1.3211    10.4022
  920.0000     1.3534     9.4756
  920.5000     1.4479     9.5535
  921.0000     1.4702    10.6827
  921.5000     1.5130    13.9148
  922.0000     1.5146    21.3525
  922.5000     1.5161    28.7903
  923.0000     1.4969    26.7653
  923.5000     1.3952    19.4834
  924.0000     1.3348    14.3042
  924.5000     1.2537    11.2084
  925.0000     1.1932     8.1516
  925.5000     1.1121     8.2295
  926.0000     1.0310     8.3074
  926.5000     1.0325     8.3853
  927.0000     1.0341     8.4638
  927.5000     1.0356     8.5426
  928.0000     1.0165     8.6215
  928.5000     1.0200     8.7003
  929.0000     1.1691     8.7941
  929.5000     1.3163     8.8720
  930.0000     1.4601     8.9499
  930.5000     1.4788     9.0278
  931.0000     1.4187     9.1057
  931.5000     1.3582     9.1835
  932.0000     1.2974    10.3063
  932.5000     1.2783    12.4870
  933.0000     1.2802    14.6677
  933.5000     1.2818    15.7973
  934.0000     1.2833    15.8748
  934.5000     1.2848    13.8500
  935.0000     1.3070    13.9311
  935.5000     1.3086    14.0252
  936.0000     1.2891    13.0322
  936.5000     1.2703    13.1295
  937.0000     1.1686    13.2074
  937.5000     1.0668    13.2853
  938.0000     1.0266    11.2409
  938.5000     0.9869    10.2674
  939.0000     1.0094     9.2939
  939.5000     1.0316     9.3912
  940.0000     0.9917     9.4691
  940.5000     1.0331     9.5289
  941.0000     1.0124     9.5941
  941.5000     1.0331     9.6592
  942.0000     1.0331     9.7244
  942.5000     1.0331     9.7896
  943.0000     1.0950     9.8547
  943.5000     1.2190     9.9199
  944.0000     1.2397     9.9850
  944.5000     1.0950    10.0502
  945.0000     0.9091    10.1154
  945.5000     0.7645    10.1805
  946.0000     0.7438    10.2457
  946.5000     0.8058    10.3108
  947.0000     0.9098    10.3760
  947.5000     1.0141    10.4412
  948.0000     1.0537    10.5063
  948.5000     1.0537    10.5715
  949.0000     1.0537    10.6366
  949.5000     1.0537    10.7018
  950.0000     1.0537    10.7670
  950.5000     1.1157    10.8321
  951.0000     1.2397    10.8973
  951.5000     1.4050    10.9624
  952.0000     1.5289    11.0276
  952.5000     1.3843    11.0928
  953.0000     1.3017    11.1579
  953.5000     1.2190    11.2241
  954.0000     1.1983   132.1629
  954.5000     1.1983   117.4687
  955.0000     1.1983    78.5923
  955.5000     1.1983    17.6407
  956.0000     1.1970    16.6083
  956.5000     1.3843    16.6401
  957.0000     1.6129    16.6656
  957.5000     1.7613    16.6910
  958.0000     1.9270    16.7173
  958.5000     2.0944    15.6905
  959.0000     2.2107    13.6131
  959.5000     2.2934    11.5357
  960.0000     2.4380     9.4733
  960.5000     2.5207    11.7049
  961.0000     2.5413    16.0392
  961.5000     2.5413    48.7614
  962.0000     2.4793   102.5117
  962.5000     2.1694    85.4706
  963.0000     1.6529    59.8410
  963.5000     1.2603    39.8460
  964.0000     1.1983    27.3579
  964.5000     1.3223    27.4866
  965.0000     1.4050    27.6154
  965.5000     1.4876    26.6606
  966.0000     1.5289    26.8215
  966.5000     1.5496    26.9502
  967.0000     1.4876    27.0789
  967.5000     1.4669    24.0535
  968.0000     1.4697    23.1309
  968.5000     1.6322    24.3137
  969.0000     1.7149    24.4451
  969.5000     1.8182    24.6006
  970.0000     1.7562    23.6458
  970.5000     1.6736    23.8068
  971.0000     1.5909    23.9355
  971.5000     1.5262    24.0642
  972.0000     1.4669    24.1930
  972.5000     1.4669    24.3217
  973.0000     1.4669    24.4505
  973.5000     1.4669    24.5792
  974.0000     1.4876    24.7079
  974.5000     1.5909    24.8394
  975.0000     1.6736    24.9708
  975.5000     1.7355    25.1264
  976.0000     1.8388    25.2551
  976.5000     1.9628    25.3839
  977.0000     1.9835    25.5126
  977.5000     2.0041    25.6414
  978.0000     2.0041    25.7701
  978.5000     2.0041    25.8988
  979.0000     2.0041    26.0276
  979.5000     1.9835    26.1563
  980.0000     1.9835    26.2851
  980.5000     1.9008    23.1822
  981.0000     1.7769    23.2465
  981.5000     1.6942    23.2979
  982.0000     1.6529    23.3492
  982.5000     1.6529    23.4006
  983.0000     1.6322    23.4520
  983.5000     1.6322    26.6576
  984.0000     1.6942    41.4286
  984.5000     1.7355    55.1483
  985.0000     1.8182    76.2277
  985.5000     1.9008    82.5875
  986.0000     1.9835    69.2881
  986.5000     2.1281    37.4929
  987.0000     2.2314    29.1330
  987.5000     2.3554    24.9788
  988.0000     2.4793    21.8632
  988.5000     2.3958    21.9274
  989.0000     2.2297    21.9788
  989.5000     2.0610    22.0302
  990.0000     1.9800    22.0816
  990.5000     1.9628    22.1330
  991.0000     1.9628    21.1329
  991.5000     1.9628    21.1857
  992.0000     1.9628    21.2486
  992.5000     1.8182    20.2357
  993.0000     1.5496    19.2357
  993.5000     1.3636    18.2357
  994.0000     1.1570    17.2357
  994.5000     1.2190    15.1971
  995.0000     1.3017    15.2485
  995.5000     1.3843    17.4027
  996.0000     1.3843    17.5236
  996.5000     1.4050    17.5055
  997.0000     1.4050    18.7327
  997.5000     1.4050    20.7754
  998.0000     1.3843    20.8268
  998.5000     1.4050    20.8781
  999.0000     1.5289    20.9295
  999.5000     1.6116    18.8781
 1000.0000     1.7973    20.8081
 1000.5000     1.7958    23.1583
 1001.0000     1.7736    22.1320
 1001.5000     1.7928    22.1583
 1002.0000     1.8946    22.1892
 1002.5000     2.0377    20.1054
 1003.0000     2.2042    19.0793
 1003.5000     2.3856    19.1110
 1004.0000     2.4878    21.2392
 1004.5000     2.4652    22.3160
 1005.0000     2.4017    22.3423
 1005.5000     2.3589    22.3729
 1006.0000     2.3368    22.3982
 1006.5000     2.3793    22.4236
 1007.0000     2.5193    21.3912
 1007.5000     2.5389    21.4229
 1008.0000     2.3510    20.3968
 1008.5000     1.9570    19.3707
 1009.0000     1.7075    19.4024
 1009.5000     1.4375    19.4277
 1010.0000     1.2293    19.4530
 1010.5000     1.2925    19.4784
 1011.0000     1.3710    19.5037
 1011.5000     1.4108    19.5298
 1012.0000     1.4300    19.5607
 1012.5000     1.4074    20.6375
 1013.0000     1.4270    20.6628
 1013.5000     1.4458    21.7395
 1014.0000     1.4442    22.8163
 1014.5000     1.4424   130.2429
 1015.0000     1.4202   252.2488
 1015.5000     1.4600   404.5575
 1016.0000     1.5415   376.1949
 1016.5000     1.6020   322.5988
 1017.0000     1.6622   249.0260
 1017.5000     1.6813   149.1682
 1018.0000     1.7005   101.2481
 1018.5000     1.6159    27.2604
 1019.0000     1.5111    27.2858
 1019.5000     1.4270    27.3111
 1020.0000     1.5211    27.3364
 1020.5000     1.5014    26.3087
 1021.0000     1.5034    26.3409
 1021.5000     1.5049    26.3667
 1022.0000     1.4857    26.3925
 1022.5000     1.3831    26.4183
 1023.0000     1.2801    26.4442
 1023.5000     1.2400    26.4699
 1024.0000     1.2207    26.4958
 1024.5000     1.2226    26.5216
 1025.0000     1.2242    26.6348
 1025.5000     1.2045    27.7928
 1026.0000     1.2065    27.6504
 1026.5000     1.1455    27.6826
 1027.0000     1.0429    27.7084
 1027.5000     0.9608    27.7342
 1028.0000     0.9627    28.8114
