~VERSION INFORMATION
 VERS.                2.0:   CWLS LOG ASCII STANDARD - VERSION 2.0
 WRAP.                 NO:   ONE LINE PER DEPTH STEP
~WELL INFORMATION
#MNEM.UNIT      DATA TYPE    INFORMATION
#----------   ------------   ------------------------------
 STRT.F            0.0000:   START DEPTH
 STOP.F          844.0000:   STOP DEPTH
 STEP.F            0.5000:   STEP LENGTH
 NULL.          -999.2500:   NO VALUE
 COMP. BROWN JOHN E&C INC:   COMPANY
 WELL. NAVAL PETROLEUM RESERVE 3 SX-1 #42-1-14:   WELL
 FLD .             TEAPOT:   FIELD
 LOC .      S14 T38N R78W:   LOCATION
 CNTY.            NATRONA:   COUNTY
 STAT.            WYOMING:   STATE
 CTRY. UNITED STATES OF AMERICA:   COUNTRY
 SRVC.     Atlas Wireline:   SERVICE COMPANY
 DATE.        11-JAN-1992:   LOGDATE
 API .       490252247700:   API NUMBER
~CURVE INFORMATION
#MNEM.UNIT       API CODE    CURVE DESCRIPTION
#----------   ------------   ------------------------------
 DEPT.F                  :   
 GRR .GAPI   07 310 01 00:   GAMMA RAY
 RFOC.OHMM   07 220 04 00:   RESISTIVITY FOCUSED LOG
 RILD.OHMM   07 120 46 00:   INDUCTION LOG DEEP RESISTIVITY
 RILM.OHMM   07 120 44 00:   INDUCTION LOG MEDIUM RESISTIVITY
 SPR .MV     07 010 01 00:   SPONTANEOUS POTENTIAL
~PARAMETER INFORMATION
#MNEM.UNIT          VALUE    DESCRIPTION
#----------   ------------   ------------------------------
 PD  .                 GL:   PERMANENT DATUM
 EPD .F              5201:   ELEVATION PERMANENT DATUM
 LMF .                 KB:   LOG MEASURED FROM
 DAPD.F                10:   FEET ABOVE PERMANENT DATUM
 DMF .                 KB:   DRILLING MEASURED FROM
 EKB .F              5211:   KELLING BUSHING
 EGL .F              5201:   GROUND LEVEL
 DATE.        11-JAN-1992:   RUN DATE
 RUN .                  1:   RUN NUMBER
 DD  .F               848:   DEPTH DRILLER
 DL  .F               847:   DEPTH LOGGER
 BLI .F               845:   BOTTOM LOG INTERVAL
 CS  .IN            10.75:   CASING SIZE
 CBD .F               101:   CASING BOTTOM DRILLER
 CBL .F               101:   CASING BOTTOM LOGGER
 BS  .IN             8.75:   BIT SIZE
 BSD .F               848:   BIT SIZE AT DEPTH
 DFT .               CHEM:   DRILLING FLUID TYPE
 DFD .                9.0:   DRILLING FLUID DENSITY
 DFV .                 40:   DRILLING FLUID VISCOSITY
 DFPH.                9.0:   DRILLING FLUID PH
 DFL .                8.4:   DRILLING FLUID LOSS
 MSS .           FLOWLINE:   MUD SAMPLE SOURCE
 RMS .OHMM           0.22:   RESISTIVITY MUD SAMPLE
 MST .F                78:   MUD SAMPLE TEMPERATURE
 RMF .OHMM           0.17:   RESISTIVITY MUD FILTRATE SAMPLE
 MFST.F                78:   MUD FILTRATE SAMPLE TEMPERATURE
 RMC .OHMM           0.28:   RESISTIVITY MUD CAKE
 MCST.F                78:   MUD CAKE SAMPLE TEMPERATURE
 MFSS.               MEAS:   MUD FILTRATE SAMPLE SOURCE
 MCSS.               CALC:   MUD CAKE SAMPLE SOURCE
 RMB .OHMM           0.14:   RESISTIVITY MUD AT BHT
 BHT .F               126:   BOTTOM HOLE TEMPERATURE
 TCS .HRS               3:   TIME CURCULATED STOPPED
 MRT .F               126:   MAXIMUM RECORDED TEMPERATURE
 LUN .            HL-6274:   LOGGING UNIT NUMBER
 LUL .         CASPER, WY:   LOGGING UNIT LOCATION
 ENGI.             ZIEGER:   RECORDING ENGINEER
 WITN.         MR. STRONG:   WITNESSED BY
 CLNT.            A2DTECH:   CLIENT CODE
 ORIG.           5" PRINT:   ORIGIN OF DATA
 UWI .       490252247700:   UNIQUE WELL ID
 DICO. A2D Technologies, Inc.:   DIGITIZING COMPANY
~OTHER INFORMATION
~A    DEPT      GRR      RFOC       RILD       RILM        SPR   
# ...
  732.0000    79.7117    11.3429    12.0616    12.4689   -14.0151
  732.5000    81.7994    11.2625    12.2288    12.6458   -13.5795
  733.0000    82.9920    11.1049    12.5837    12.9150   -13.4313
  733.5000    82.3769    11.0140    13.1072    13.4690   -13.1342
  734.0000    82.6657    11.1793    13.5702    14.3439   -13.1371
  734.5000    83.2576    12.4980    13.8547    15.0741   -12.8385
  735.0000    83.5435    14.8778    14.0474    15.2782   -12.8422
  735.5000    81.6183    16.9846    14.0438    15.0680   -12.8451
  736.0000    75.7096    17.3579    14.0410    14.8612   -12.8487
  736.5000    74.8001    16.7429    13.9278    14.5558   -12.8516
  737.0000    76.8877    15.0318    13.5531    14.1570   -13.1553
  737.5000    78.3777    13.1125    13.2694    13.6735   -13.1582
  738.0000    78.6667    11.4031    12.8115    13.2891   -13.3115
  738.5000    79.5746    10.8580    12.4561    12.7554   -13.4648
  739.0000    80.7425    11.0866    11.9426    12.2342   -13.9188
  739.5000    81.6347    11.1624    11.6113    11.9716   -14.0722
  740.0000    79.2179    11.0832    11.3579    11.6545   -14.3765
  740.5000    76.8039    10.7660    11.2078    11.5747   -14.5298
  741.0000    75.2908    10.4055    11.2055    11.5766   -14.9840
  741.5000    76.4814    10.4041    11.2033    11.5782   -15.1373
  742.0000    79.2672    10.5492    11.2795    11.6608   -15.2906
  742.5000    80.9590    10.5474    11.1987    11.6624   -15.2935
  743.0000    80.3468    10.6942    11.1965    11.6640   -15.2964
  743.5000    77.9329    10.5446    11.1941    11.5848   -15.2993
  744.0000    77.6239    10.5333    11.1135    11.5058   -15.1519
  744.5000    80.3121    10.3230    10.9572    11.4270   -15.0044
  745.0000    82.4027    10.1786    10.8030    11.3491   -14.7073
  745.5000    81.4873    10.1065    10.6510    11.2717   -14.7102
  746.0000    79.3737    10.0348    10.6489    11.1173   -14.7131
  746.5000    78.4641    10.0335    10.7965    11.0415   -14.7160
  747.0000    79.9540    10.1024    10.6445    10.9662   -14.7189
  747.5000    79.9396    10.1010    10.5678    10.8918   -14.7218
  748.0000    79.0270    10.0996    10.5657    10.8933   -14.7067
  748.5000    80.2139    10.0980    10.5636    10.8946   -14.5773
  749.0000    81.1032    10.0967    10.5614    10.9725   -14.4298
  749.5000    81.3949    10.0952    10.5593    10.9740   -14.1319
  750.0000    82.5783    10.0939    10.6311    11.0523   -13.8343
  750.5000    83.1595     9.9527    10.6289    10.9452   -13.5321
  751.0000    81.3254     9.9513    10.6263    10.8201   -13.5307
  751.5000    79.4978     9.9496    10.6242    10.7434   -13.5292
  752.0000    80.1203    10.0182    10.6220    10.7420   -13.5278
  752.5000    83.9442    10.0871    10.5460    10.7406   -13.5263
  753.0000    86.9214    10.0855    10.5438    10.8143   -13.5245
  753.5000    85.9947    10.0840    10.4683    10.8128   -13.6738
  754.0000    83.8667    10.0125    10.3933    10.7361   -13.8227
  754.5000    81.4384     9.9416    10.3185    10.7344   -13.9713
  755.0000    82.3071     9.9399    10.3164    10.7330   -14.1206
  755.5000    84.6837     9.9386    10.3143    10.7315   -14.4195
  756.0000    88.8621    10.0769    10.3122    10.7617   -14.7188
  756.5000    90.9448    10.0755    10.3101    10.8038   -15.1681
  757.0000    91.2292    10.0742    10.2363    10.8023   -15.4674
  757.5000    89.9449    10.0728    10.2342    10.7254   -15.7671
  758.0000    88.4521    10.0714    10.2316    10.6494   -15.7653
  758.5000    88.1324     9.9302    10.2296    10.5004   -15.7639
  759.0000    90.5025     9.7913    10.2277    10.4990   -15.6120
  759.5000    92.8791     9.6543    10.2256    10.4246   -15.6105
  760.0000    95.5955     9.5192    10.2234    10.3845   -15.6087
  760.5000    94.9231     9.6517    10.2213    10.3490   -15.6073
  761.0000    92.4949     9.7860    10.2192    10.3478   -15.7562
  761.5000    91.5682     9.9222    10.2167    10.3464   -15.9055
  762.0000    92.4432    10.0684    10.2146    10.3448   -16.0541
  762.5000    93.3183    10.1999    10.1415    10.3434   -16.2030
  763.0000    93.8866    10.2700    10.1394    10.3420   -16.2015
  763.5000    93.5605    10.1263    10.1374    10.3406   -16.3501
  764.0000    93.2344    10.0545    10.0638    10.3389   -16.3486
  764.5000    93.8156     9.9138     9.9926    10.3377   -16.3474
  765.0000    92.8825     9.8435     9.9902    10.3361   -16.3457
  765.5000    91.9550     9.8422    10.0582    10.3347   -16.4950
  766.0000    92.5241     9.9097     9.9864    10.3333   -16.6436
  766.5000    93.9997     9.9081     9.9841    10.3319   -16.7925
  767.0000    93.6736     9.9763     9.9821    10.3302   -16.4899
  767.5000    91.2454    10.0450     9.9801    10.3288   -16.4885
  768.0000    90.0180    10.0433     9.9780    10.3274   -16.5058
  768.5000    90.8870    10.0419     9.9061    10.3261   -16.6363
  769.0000    91.4682     9.9705     9.9041    10.2529   -16.7850
  769.5000    91.1356     9.8998     9.8332    10.1802   -16.7835
  770.0000    90.5092     9.8986     9.8312    10.1788   -16.7820
  770.5000    89.8828     9.8971     9.6930    10.1771   -16.7883
  771.0000    91.0582     9.8270     9.6222    10.1758   -17.0795
  771.5000    92.2336     9.7574     9.4221    10.1037   -17.0782
  772.0000    93.4025     9.6208     9.2891    10.0321   -17.0766
  772.5000    94.2776     9.4859     9.0947     9.9610   -16.9247
  773.0000    94.5526     9.2882     8.9668     9.8216   -16.9233
  773.5000    93.5926     9.0313     8.7791     9.6165   -16.7714
  774.0000    92.0915     8.8430     8.4835     9.3506   -16.7696
  774.5000    91.4651     8.7803     8.1837     8.9660   -16.7682
  775.0000    93.2411     8.7792     7.8829     8.4191   -16.7667
  775.5000    94.7168     8.7134     7.2138     7.4244   -16.7653
  776.0000    96.2042     8.5349     6.4499     6.4565   -16.7638
  776.5000    97.6617     8.2989     5.9303     5.4412   -16.9128
  777.0000   100.3386     7.4732     5.6462     4.8487   -17.0617
  777.5000   104.5169     6.1034     5.5281     4.5848   -17.3606
  778.0000   115.9025     4.2753     5.4886     4.8474   -17.6599
  778.5000   123.9848     4.5200     5.5644     5.2334   -18.1096
  779.0000   125.7629     5.8100     5.6415     5.5331   -18.5593
  779.5000   115.8208     8.0638     5.8408     5.8538   -18.8586
  780.0000   100.4796     8.8900     6.2183     6.3156   -19.4586
  780.5000    98.9520     9.2047     6.8741     6.8185   -19.7579
  781.0000    99.2203     8.9499     7.9363     7.6228   -19.9068
  781.5000    98.2936     8.9486     8.7496     8.4627   -20.2058
  782.0000    95.2648     9.2004     9.2504     9.0100   -20.3551
  782.5000    92.2424     9.3938     9.5770     9.3286   -20.0525
  783.0000    95.8137     9.5592     9.5090     9.4584   -19.9007
  783.5000   100.5863     9.7250     9.5733     9.4661   -20.0496
  784.0000    99.9598     9.8603     9.6384     9.5221   -20.2105
  784.5000    98.7328     9.9277     9.7715     9.5875   -20.6478
  785.0000    99.9082     9.9205     9.8384     9.6533   -21.0975
  785.5000   101.3839     9.8557     9.9743     9.7193   -21.5472
  786.0000   102.5905     9.8799    10.1125     9.7860   -21.8465
  786.5000   103.4343    10.0614    10.2526     9.8529   -22.1462
  787.0000   103.4020    10.2014    10.4676     9.9900   -22.5955
  787.5000   103.3762    10.4158    10.6529    10.1529   -23.0451
  788.0000   101.5486    10.5608    10.9110    10.3419   -23.4948
  788.5000    97.6066    10.7190    11.2173    10.5593   -23.6437
  789.0000    98.4875    10.9328    11.3727    10.7812   -23.7927
  789.5000    99.6629    10.7794    11.6111    11.0164   -23.9416
  790.0000   100.2441    10.7030    11.8545    11.1609   -23.9398
  790.5000    99.0106    11.0045    11.9352    11.2376   -24.0887
  791.0000    98.6767    11.1580    11.9327    11.3147   -24.0872
  791.5000    99.6066    11.1561    11.8467    11.2342   -24.2358
  792.0000   100.7350    10.9185    11.8443    11.3113   -24.2344
  792.5000    99.5015    10.7629    11.7595    11.3095   -24.5340
