~VERSION INFORMATION
 VERS.                2.0:   CWLS LOG ASCII STANDARD - VERSION 2.0
 WRAP.                 NO:   ONE LINE PER DEPTH STEP
~WELL INFORMATION
#MNEM.UNIT      DATA TYPE    INFORMATION
#----------   ------------   ------------------------------
 STRT.F            0.0000:   START DEPTH
 STOP.F          717.5000:   STOP DEPTH
 STEP.F            0.5000:   STEP LENGTH
 NULL.          -999.2500:   NO VALUE
 COMP. LAWRENCE/ALLISON INC:   COMPANY
 WELL. NPR 3 #27-64-SX-11-WP:   WELL
 FLD .             TEAPOT:   FIELD
 LOC .      S11 T38N R78W:   LOCATION
 CNTY.            NATRONA:   COUNTY
 STAT.            WYOMING:   STATE
 CTRY. UNITED STATES OF AMERICA:   COUNTRY
 SRVC.      Dresser Atlas:   SERVICE COMPANY
 DATE.        15-SEP-1984:   LOGDATE
 API .       490251097500:   API NUMBER
~CURVE INFORMATION
#MNEM.UNIT       API CODE    CURVE DESCRIPTION
#----------   ------------   ------------------------------
 DEPT.F                  :   
 CALD.IN     45 280 60 00:   CALIPER FROM DENSITY LOG
 CNC .DEC    42 890 03 00:   COMPENSATED NEUTRON POROSITY SANDSTONE
 CORR.G/C3   45 356 01 00:   DENSITY CORRECTION
 DEN .G/C3   45 350 01 00:   BULK DENSTIY
 PORD.DEC    45 890 12 00:   POROSITY DENSITY SANDSTONE
 GRR .GAPI   07 310 01 00:   GAMMA RAY FROM RESISTIVITY
 RFOC.OHMM   07 220 01 00:   RESISTIVITY FOCUSED LOG
 RILD.OHMM   07 120 46 00:   RESISTIVITY INDUCTION LOG DEEP
 RILM.OHMM   07 120 44 00:   RESITIVITY INDUCTION LOG MEDIUM
 SPR .MV     07 010 01 00:   SPONTANEOUS POTENTIAL FROM RES.
~PARAMETER INFORMATION
#MNEM.UNIT          VALUE    DESCRIPTION
#----------   ------------   ------------------------------
 PD  .                 GL:   PERMANENT DATUM
 EPD .F              5198:   ELEVATION PERMANENT DATUM
 LMF .                 GL:   LOG MEASURED FROM
 DMF .                 GL:   DRILLING MEASURED FROM
 EGL .F              5198:   GROUND LEVEL
 DATE.        15-SEP-1984:   RUN DATE
 RUN .                  1:   RUN NUMBER
 DD  .F               736:   DEPTH DRILLER
 DL  .F               722:   DEPTH LOGGER
 BLI .F               704:   BOTTOM LOG INTERVAL
 TLI .F                42:   TOP LOG INTERVAL
 CS  .IN            8.625:   CASING SIZE
 CBD .F                42:   CASING BOTTOM DRILLER
 CBL .F                42:   CASING BOTTOM LOGGER
 BS  .IN            7.875:   BIT SIZE
 BSD .F               736:   BIT SIZE AT DEPTH
 DFT .          KCL WATER:   DRILLING FLUID TYPE
 MSS .           FLOWLINE:   MUD SAMPLE SOURCE
 RMS .OHMM           0.22:   RESISTIVITY MUD SAMPLE
 MST .F                70:   MUD SAMPLE TEMPERATURE
 RMB .OHMM           0.17:   RESISTIVITY MUD AT BHT
 BHT .F                90:   BOTTOM HOLE TEMPERATURE
 TCS .HRS               5:   TIME CURCULATED STOPPED
 MRT .F                90:   MAXIMUM RECORDED TEMPERATURE
 LUN .               6274:   LOGGING UNIT NUMBER
 LUL .               GLTE:   LOGGING UNIT LOCATION
 ENGI.             RAUTIO:   RECORDING ENGINEER
 WITN.            JOHNSON:   WITNESSED BY
 CLNT.            A2DTECH:   CLIENT CODE
 ORIG.         2.5" PRINT:   ORIGIN OF DATA
 UWI .       490251097500:   UNIQUE WELL ID
 DICO. A2D Technologies, Inc.:   DIGITIZING COMPANY
~OTHER INFORMATION
~A    DEPT    CALD        CNC       CORR        DEN       PORD         GRR      RFOC       RILD       RILM        SPR   
# ...
   33.5000  -999.2500  -999.2500  -999.2500  -999.2500  -999.2500    89.1303  -999.2500  -999.2500  -999.2500  -999.2500
   34.0000  -999.2500  -999.2500  -999.2500  -999.2500  -999.2500    88.4955  -999.2500  -999.2500  -999.2500  -999.2500
   34.5000  -999.2500  -999.2500  -999.2500  -999.2500  -999.2500    89.0440  -999.2500  -999.2500  -999.2500  -999.2500
   35.0000  -999.2500  -999.2500  -999.2500  -999.2500  -999.2500    88.9941  -999.2500  -999.2500  -999.2500  -999.2500
   35.5000  -999.2500  -999.2500  -999.2500  -999.2500  -999.2500    89.2495  -999.2500  -999.2500  -999.2500  -999.2500
   36.0000  -999.2500  -999.2500  -999.2500  -999.2500  -999.2500    90.0765  -999.2500  -999.2500  -999.2500  -999.2500
   36.5000  -999.2500  -999.2500  -999.2500  -999.2500  -999.2500    90.0334  -999.2500  -999.2500  -999.2500  -999.2500
   37.0000  -999.2500  -999.2500  -999.2500  -999.2500  -999.2500    89.9882  -999.2500  -999.2500  -999.2500  -999.2500
   37.5000  -999.2500  -999.2500  -999.2500  -999.2500  -999.2500    89.1765  -999.2500  -999.2500  -999.2500  -999.2500
   38.0000  -999.2500     0.0181  -999.2500  -999.2500  -999.2500    88.4221  -999.2500  -999.2500  -999.2500  -999.2500
   38.5000  -999.2500     0.0186  -999.2500  -999.2500  -999.2500    86.8807  -999.2500  -999.2500  -999.2500  -999.2500
   39.0000  -999.2500     0.0175  -999.2500  -999.2500  -999.2500    85.0624  -999.2500  -999.2500  -999.2500  -999.2500
   39.5000  -999.2500     0.0116  -999.2500  -999.2500  -999.2500    83.7919  -999.2500  -999.2500  -999.2500  -999.2500
   40.0000  -999.2500     0.0062  -999.2500  -999.2500  -999.2500    82.4458  -999.2500  -999.2500  -999.2500  -999.2500
   40.5000  -999.2500     0.0057  -999.2500  -999.2500  -999.2500    80.8264  -999.2500  -999.2500  -999.2500  -999.2500
   41.0000  -999.2500     0.0065  -999.2500  -999.2500  -999.2500    79.5429  -999.2500  -999.2500  -999.2500  -999.2500
   41.5000  -999.2500     0.0085  -999.2500  -999.2500  -999.2500    81.2749  -999.2500  -999.2500  -999.2500  -999.2500
   42.0000     8.7036     0.0114    -0.9824     2.0379     0.6999    86.0197  -999.2500  -999.2500  -999.2500  -999.2500
   42.5000     8.7609     0.0195    -0.6053  -999.2500     0.6999    89.0187  -999.2500  -999.2500  -999.2500  -999.2500
   43.0000     8.9961     0.0463    -0.0205  -999.2500     0.6999    88.8284  -999.2500  -999.2500  -999.2500  -999.2500
   43.5000     9.2016     0.2863     0.2649  -999.2500     0.6998    86.9980  -999.2500  -999.2500  -999.2500  -999.2500
   44.0000     9.2296     0.2994     0.2575  -999.2500     0.6482    86.9548  1431.1644     3.1118     2.9925    78.8008
   44.5000     9.1985     0.2994     0.2251  -999.2500     0.6425    86.9117   355.8948     3.0263     3.0199    79.1489
   45.0000     9.2973     0.2994     0.2019  -999.2500     0.6457    90.6706   586.6732    14.3934     3.4348    78.0729
   45.5000     9.4649     0.2989     0.2009  -999.2500     0.6540    93.2209  9647.6787    31.0455     4.0324    75.9777
   46.0000    10.0799    -0.0283     0.1948  -999.2500     0.6634    94.4531  9635.1436    14.4879     4.4955    74.4339
   46.5000    10.4901    -0.0354     0.1799  -999.2500     0.6635    95.0016  9623.9072     9.6685     4.8769    73.1844
   47.0000    10.5216    -0.0218     0.1471  -999.2500     0.6583    94.3668  9612.0430     7.2483     5.2307    71.2249
   47.5000    10.5197     0.3116     0.1024  -999.2500     0.6499    93.7278  9600.1934     7.4364     5.4588    67.2889
   48.0000    10.4293     0.5258     0.0665  -999.2500     0.6434    93.4517  9587.1523     8.5219     5.8883    64.8978
   48.5000    10.1615     0.2934     0.0635  -999.2500     0.6310    92.4407  9576.5205     9.5017     6.0469    62.1114
   49.0000     9.8937     0.1552     0.1550  -999.2500     0.5721    91.8058  9564.7334     7.5847     5.4133    57.5483
   49.5000     9.7442     0.0370     0.2960  -999.2500     0.4618    90.5793  8125.6138     4.8365     3.5374    51.2890
   50.0000     9.6243     0.0163     0.1612  -999.2500     0.4447    87.8698  1553.8555     2.9554     2.1817    45.2622
   50.5000     9.5043     0.0086     0.0927  -999.2500     0.4394    79.8471    61.4445     2.1545     1.2873    39.6167
   51.0000     9.5666     0.0063    -0.0500  -999.2500     0.4554    65.4457    19.4089     1.9237     0.9852    35.2722
   51.5000     9.6561     0.0063    -0.2284  -999.2500     0.5252    50.7402    10.0329     1.7046     0.8821    29.5454
   52.0000     9.7550     0.0324    -0.2880  -999.2500     0.6974    45.9633     3.8199     1.5191     0.9333    24.9822
   52.5000    10.0126     0.1193    -0.2706  -999.2500     0.6987    45.3285     2.5475     1.3845     1.0077    19.6853
   53.0000    14.3481     0.2068    -0.1685  -999.2500     0.6993    48.2485     2.0404     1.2742     1.1242    19.0694
   53.5000    14.5240     0.3832    -0.0612  -999.2500     0.6994    54.4940     2.4016     1.2387     1.2544    22.6736
   54.0000    14.4929     0.5206     0.0035  -999.2500     0.6987    60.0898     3.4260     1.3131     1.3606    24.5010
   54.5000    14.1840     0.4911     0.0506  -999.2500     0.6533    65.6856     4.0351     1.7031     1.4989    25.5000
   55.0000    13.0439     0.4526     0.0833  -999.2500     0.6237    71.2814     4.4171     2.1666     1.6613    26.0611
   55.5000    11.3413     0.4396     0.1139  -999.2500     0.6110    75.8030     4.5240     2.5519     1.8633    25.4451
   56.0000     9.0391     0.4722     0.1330  -999.2500     0.5930    75.1681     4.3628     3.0056     2.2192    24.7890
   56.5000     7.2291     0.4831     0.0705  -999.2500     0.5577    72.7160     4.1254     3.3388     2.5779    24.1312
   57.0000     6.8618     0.4906     0.0228  -999.2500     0.4693    70.0710     3.8410     3.7626     3.1202    23.5917
   57.5000     6.6354     0.4596     0.0316  -999.2500     0.4232    68.2692     3.7212     4.2219     3.6811    22.9693
   58.0000     6.5805     0.4007     0.0672     2.0107     0.3948    66.0983     3.8373     4.8381     4.3575    22.3534
   58.5000     6.9599     0.3931     0.0819     2.0210     0.3901    64.2800     4.3362     5.3944     5.2354    21.1055
   59.0000     7.2376     0.3878     0.0814     2.0298     0.3865    64.2367     4.8388     6.0513     6.2506    19.4024
   59.5000     7.4359     0.3896     0.0568     2.0534     0.3841    64.1893     5.3863     6.5249     6.5070    17.2653
   60.0000     7.7571     0.4020     0.0406     2.0889     0.3663    64.1420     6.1614     6.2057     5.8739    14.5522
   60.5000     8.1105     0.4116     0.0309     2.0947     0.3480    62.9025     6.8758     5.6776     5.2451    10.9777
   61.0000     8.5232     0.4211     0.0431     2.0976     0.3476    60.4925     7.4569     5.1540     4.6034     8.1716
   61.5000     9.0542     0.4049     0.0893     2.0902     0.3527    59.8577     8.3751     4.7214     3.9559     4.9588
   62.0000     9.4076     0.3820     0.1615     2.0575     0.3652    60.5089     8.7704     4.2349     3.2622     2.0783
   62.5000     9.6428     0.4266     0.1927     2.0048     0.4212    61.5465     8.4031     3.6284     2.6028    -0.6657
   63.0000     9.6092     0.4815     0.1908     2.0025     0.4992    62.6653     7.2191     2.8484     2.2775    -4.1637
   63.5000     9.5460     0.5720     0.1610     2.0024     0.5170    64.3973     6.0221     2.4816     2.1131   -10.4855
   64.0000     9.4828     0.6720     0.1014     2.0009     0.5172    68.4962     5.3457     2.3103     2.0665   -14.9476
   64.5000     9.4587     0.6999     0.0359     2.0008     0.5052    75.9172     5.1400     2.2118     2.0646   -16.8274
   65.0000     9.4157     0.6988     0.0178     1.9993     0.4981    80.6509     6.0108     2.1444     2.0626   -18.2544
   65.5000     9.3963     0.6555     0.0661     1.9992     0.4934    83.2012     6.2562     2.0976     2.1309   -17.8274
   66.0000     9.3651     0.5149     0.0864     1.9991     0.5241    83.6923     6.4229     2.1541     2.2869   -17.4233
   66.5000     9.6590     0.3633     0.0836     1.9990     0.5172    81.8684     6.4145     2.2765     2.5600   -17.1517
