~VERSION INFORMATION
 VERS.                2.0:   CWLS LOG ASCII STANDARD - VERSION 2.0
 WRAP.                 NO:   ONE LINE PER DEPTH STEP
~WELL INFORMATION
#MNEM.UNIT      DATA TYPE    INFORMATION
#----------   ------------   ------------------------------
 STRT.F          906.5000:   START DEPTH
 STOP.F         2710.5000:   STOP DEPTH
 STEP.F            0.5000:   STEP LENGTH
 NULL.          -999.2500:   NO VALUE
 COMP.   FLUOR DANIEL INC:   COMPANY
 WELL. NAVAL PETROLEUM RESERVE 3 X-4 #77-4:   WELL
 FLD .             TEAPOT:   FIELD
 LOC .       S4 T38N R78W:   LOCATION
 CNTY.            NATRONA:   COUNTY
 STAT.            WYOMING:   STATE
 CTRY. UNITED STATES OF AMERICA:   COUNTRY
 SRVC.            Unknown:   SERVICE COMPANY
 DATE.        21-JUN-1995:   LOGDATE
 API .       490252273600:   API NUMBER
~CURVE INFORMATION
#MNEM.UNIT       API CODE    CURVE DESCRIPTION
#----------   ------------   ------------------------------
 DEPT.F                  :   
 TGAS.UNITS  91 830 01 00:   TOTAL GAS FROM HOTWIRE
 ROP .MIN/FT 91 810 01 00:   RAT OF DRILLING PENETRATION
~PARAMETER INFORMATION
#MNEM.UNIT          VALUE    DESCRIPTION
#----------   ------------   ------------------------------
 EKB .F              5291:   KELLING BUSHING
 EGL .F              5281:   GROUND LEVEL
 DATE.            6-21-95:   RUN DATE
 DD  .F              2711:   DEPTH DRILLER
 CBD .F               893:   CASING BOTTOM DRILLER
 ENGI.               HUSK:   RECORDING ENGINEER
 WITN.              TOWER:   WITNESSED BY
 CLNT.            A2DTECH:   CLIENT CODE
 ORIG.           5" PRINT:   ORIGIN OF DATA
 UWI .       490252273600:   UNIQUE WELL ID
 DICO. A2D Technologies, Inc.:   DIGITIZING COMPANY
~OTHER INFORMATION
~A   DEPT      TGAS         ROP 
# ...
 1757.0000   233.6524     1.9751
 1757.5000   233.6546     1.9342
 1758.0000   233.6568     1.4758
 1758.5000   233.6591     1.4665
 1759.0000   233.6613     1.4672
 1759.5000   233.6635     1.4563
 1760.0000   233.6658     0.7313
 1760.5000   233.6680     0.7326
 1761.0000   233.6702     0.7339
 1761.5000   233.6725     0.7352
 1762.0000   233.6747     0.7364
 1762.5000   233.6769     0.7377
 1763.0000   233.6792     0.7389
 1763.5000   233.6814     0.7402
 1764.0000   233.6836     0.7415
 1764.5000   233.6859     0.7427
 1765.0000   233.6881     0.7440
 1765.5000   233.6903     0.7453
 1766.0000   233.6926     0.9795
 1766.5000   233.6948     0.9687
 1767.0000   233.6970     0.9580
 1767.5000   233.6992     0.9472
 1768.0000   233.7015     1.0533
 1768.5000   233.7037     1.0536
 1769.0000   233.7059     1.0539
 1769.5000   233.7082     1.0541
 1770.0000   233.7104     0.8192
 1770.5000   233.7126     0.8248
 1771.0000   233.7149     0.8303
 1771.5000   233.7171     0.8359
 1772.0000   233.7193     0.8415
 1772.5000   233.7216     0.8471
 1773.0000   233.7238     0.8527
 1773.5000   233.7260     0.8583
 1774.0000   233.7283     0.8639
 1774.5000   233.7305     0.6715
 1775.0000   233.7327     0.6718
 1775.5000   233.7349     0.6834
 1776.0000   233.7372     0.9218
 1776.5000   233.7394     0.9221
 1777.0000   233.7416     0.9337
 1777.5000   233.7439     0.9340
 1778.0000   233.7461     0.9456
 1778.5000   233.7483     0.9459
 1779.0000   233.7506     0.9462
 1779.5000   233.7528     0.9350
 1780.0000   233.7550     0.7766
 1780.5000   233.7573     0.7763
 1781.0000   233.7595     0.7988
 1781.5000   233.7617     0.7984
 1782.0000   233.7640     0.8095
 1782.5000   233.7662     0.8092
 1783.0000   233.7684     0.8203
 1783.5000   233.7706     0.8200
 1784.0000   233.7729     0.8197
 1784.5000   233.7751     0.8194
 1785.0000   233.7773     0.8191
 1785.5000   233.7796     0.8188
 1786.0000   233.7818     0.7052
 1786.5000   233.7840     0.6822
 1787.0000   233.7863     0.6820
 1787.5000   233.7885     0.6817
 1788.0000   233.7907     0.7071
 1788.5000   233.7930     0.7831
 1789.0000   233.7952     0.7942
 1789.5000   233.7974     0.7939
 1790.0000   233.7997     0.7823
 1790.5000   233.8019     1.1562
 1791.0000   233.8041     1.1559
 1791.5000   233.8064     1.1669
 1792.0000   233.8086     1.1780
 1792.5000   233.8108     1.0804
 1793.0000   233.8130     0.9506
 1793.5000   233.8153     0.9504
 1794.0000   233.8175     0.9615
 1794.5000   233.8197     0.9725
 1795.0000   233.8220     1.0629
 1795.5000   233.8242     1.4709
 1796.0000   233.8264     1.4705
 1796.5000   233.8287     0.9197
 1797.0000   233.8309     0.7557
 1797.5000   233.8331     0.7441
 1798.0000   233.8354     0.7551
 1798.5000   233.8376     0.7434
 1799.0000   233.8398     0.7432
 1799.5000   233.8421     0.7882
 1800.0000   233.8443     0.8447
 1800.5000   233.8465     0.8330
 1801.0000   233.8488     0.8214
 1801.5000   233.8510     0.8098
 1802.0000   233.8532     0.8863
 1802.5000   233.8555     0.9140
 1803.0000   233.8577     0.9417
 1803.5000   233.8599     0.9694
 1804.0000   233.8622     1.6020
 1804.5000   233.8644     1.6017
 1805.0000   233.8666     1.6014
 1805.5000   233.8689     1.7599
 1806.0000   233.8711     1.9864
 1806.5000   233.8733     1.9861
 1807.0000   233.8755     1.9858
 1807.5000   233.8778     1.9855
 1808.0000   233.8800     1.9853
 1808.5000   233.8822     0.7596
 1809.0000   233.8845     0.7488
 1809.5000   233.8867     0.7599
 1810.0000   233.8889     0.6689
 1810.5000   233.8912     0.6459
 1811.0000   233.8934     0.6571
 1811.5000   233.8956     0.6681
 1812.0000   233.8979     0.6565
 1812.5000   233.9001     0.6562
 1813.0000   233.9023     0.6446
 1813.5000   233.9046     0.6329
 1814.0000   233.9068     0.6326
 1814.5000   233.9090     0.6437
 1815.0000   233.9112     0.6434
 1815.5000   233.9135     0.6431
 1816.0000   233.9157     1.0510
 1816.5000   233.9179     1.0507
 1817.0000   233.9202     1.0505
 1817.5000   233.9224     1.0001
 1818.0000   233.9246     0.7664
 1818.5000   233.9269     0.7661
 1819.0000   233.9291     0.7772
 1819.5000   233.9313     0.7656
 1820.0000   233.9336     0.7539
 1820.5000   233.9358     0.7766
 1821.0000   233.9380     0.7766
 1821.5000   233.9403     0.7766
 1822.0000   233.9425     0.7766
 1822.5000   233.9447     0.7766
 1823.0000   233.9469     0.7766
 1823.5000   233.9492     0.7653
 1824.0000   233.9514     1.1395
 1824.5000   233.9536     1.1395
 1825.0000   233.9559     1.1395
 1825.5000   233.9581     1.1168
 1826.0000   233.9603     0.8220
 1826.5000   233.9626     0.8220
 1827.0000   233.9648     0.8220
 1827.5000   233.9670     0.8107
 1828.0000   233.9693     0.7653
 1828.5000   233.9715     0.6859
 1829.0000   233.9737     0.6859
 1829.5000   233.9760     0.6859
 1830.0000   233.9782     0.6859
 1830.5000   233.9804     0.6973
 1831.0000   233.9827     0.6859
 1831.5000   233.9849     0.6859
 1832.0000   233.9871     0.6973
 1832.5000   233.9893     0.6973
 1833.0000   233.9916     0.6859
 1833.5000   233.9938     0.6859
 1834.0000   233.9960     0.6973
 1834.5000   233.9983     0.7086
 1835.0000   234.0005     0.7086
 1835.5000   234.0027     0.6973
 1836.0000   234.0050     0.6973
 1836.5000   234.0072     0.6859
 1837.0000   234.0094     0.6973
 1837.5000   234.0117     0.6973
 1838.0000   234.0139     0.7086
 1838.5000   234.0161     0.7086
 1839.0000   234.0184     0.7086
 1839.5000   234.0206     0.7086
 1840.0000   234.0228     0.5385
 1840.5000   234.0251     0.5499
 1841.0000   234.0273     0.5499
 1841.5000   234.0295     0.5612
 1842.0000   234.0318     0.5612
 1842.5000   234.0340     0.5612
 1843.0000   234.0362     0.5499
 1843.5000   234.0385     0.5499
 1844.0000   234.0407     0.5499
 1844.5000   234.0429     0.5499
 1845.0000   234.0451     0.5612
 1845.5000   234.0474     0.7540
 1846.0000   234.0496     0.7540
 1846.5000   234.0518     0.7653
 1847.0000   234.0541     0.7653
 1847.5000   234.0563     0.7766
 1848.0000   234.0585     0.7766
 1848.5000   234.0608     0.7766
 1849.0000   234.0630     0.7766
 1849.5000   234.0652     0.7653
 1850.0000   234.0675     0.7540
 1850.5000   234.0697     0.7426
 1851.0000   234.0719     0.7426
 1851.5000   234.0742     1.1395
 1852.0000   234.0764     1.1395
 1852.5000   234.0786     1.1395
 1853.0000   234.0808     1.1395
 1853.5000   234.0831     1.1395
 1854.0000   234.0853     0.8220
 1854.5000   234.0875     0.8220
 1855.0000   234.0898     0.8333
 1855.5000   234.0920     0.8220
 1856.0000   234.0942     0.8220
 1856.5000   234.0965     0.8333
 1857.0000   234.0987     0.8333
 1857.5000   234.1009     0.8333
 1858.0000   234.1032     0.8447
 1858.5000   234.1054     0.8447
 1859.0000   234.1076     0.8447
 1859.5000   234.1099     0.9694
 1860.0000   234.1121     0.9807
 1860.5000   234.1143     0.9807
 1861.0000   234.1165     0.9921
 1861.5000   234.1188     0.9921
 1862.0000   234.1210     0.7880
 1862.5000   234.1232     0.7993
 1863.0000   234.1255     0.7993
 1863.5000   234.1277     0.7993
 1864.0000   234.1299     0.7993
 1864.5000   234.1322     0.8107
 1865.0000   234.1344     0.8220
 1865.5000   234.1366     1.9218
 1866.0000   234.1389     1.9218
 1866.5000   234.1411     1.9331
 1867.0000   234.1433     1.9331
 1867.5000   234.1456     1.9331
 1868.0000   234.1478     1.5915
 1868.5000   234.1500     1.5816
 1869.0000   234.1523     1.5816
 1869.5000   234.1545     1.5816
 1870.0000   234.1567     1.3209
 1870.5000   234.1590     0.7313
 1871.0000   234.1612     0.7540
 1871.5000   234.1634     0.7653
 1872.0000   234.1656     0.7766
 1872.5000   234.1679     0.7766
 1873.0000   234.1701     0.7766
 1873.5000   234.1723     0.7426
 1874.0000   234.1746     0.7313
 1874.5000   234.1768     0.7086
 1875.0000   234.1790     0.6859
 1875.5000   234.1813     0.6859
 1876.0000   234.1835     0.6746
 1876.5000   234.1857     0.5952
 1877.0000   234.1880     0.5499
 1877.5000   234.1902     0.5499
 1878.0000   234.1924     0.5726
