~VERSION INFORMATION
 VERS.                2.0:   CWLS LOG ASCII STANDARD - VERSION 2.0
 WRAP.                 NO:   ONE LINE PER DEPTH STEP
~WELL INFORMATION
#MNEM.UNIT      DATA TYPE    INFORMATION
#----------   ------------   ------------------------------
 STRT.F            0.0000:   START DEPTH
 STOP.F          500.0000:   STOP DEPTH
 STEP.F            0.5000:   STEP LENGTH
 NULL.          -999.2500:   NO VALUE
 COMP. Fluor Daniel (NPOSR) Inc:   COMPANY
 WELL.  NPR ##3 72-4-X-10:   WELL
 FLD .             TEAPOT:   FIELD
 LOC .      S10 T38N R78W:   LOCATION
 CNTY.            NATRONA:   COUNTY
 STAT.            WYOMING:   STATE
 CTRY. UNITED STATES OF AMERICA:   COUNTRY
 SRVC.      Western Atlas:   SERVICE COMPANY
 DATE.        28-APR-1996:   LOGDATE
 API .       490252278000:   API NUMBER
~CURVE INFORMATION
#MNEM.UNIT       API CODE    CURVE DESCRIPTION
#----------   ------------   ------------------------------
 DEPT.F                  :   
 GRR .GAPI   07 310 01 00:   GAMMA RAY FROM RES. LOG.
 RILD.OHMM   07 120 46 00:   INDUCTION LOG DEEP RESISTIVITY
 RILM.OHMM   07 120 44 00:   INDUCTION LOG MEDIUM RESISTIVITY
~PARAMETER INFORMATION
#MNEM.UNIT          VALUE    DESCRIPTION
#----------   ------------   ------------------------------
 PD  .                 GL:   PERMANENT DATUM
 EPD .F            5165.5:   ELEVATION PERMANENT DATUM
 LMF .                 KB:   LOG MEASURED FROM
 DAPD.F                10:   FEET ABOVE PERMANENT DATUM
 DMF .                 KB:   DRILLING MEASURED FROM
 EKB .F            5175.5:   KELLING BUSHING
 EDF .F            5174.5:   DRILLING FLOOR
 EGL .F            5165.5:   GROUND LEVEL
 DATE.        28-APR-1996:   RUN DATE
 RUN .                  1:   RUN NUMBER
 DD  .F               505:   DEPTH DRILLER
 DL  .F               506:   DEPTH LOGGER
 BLI .F               497:   BOTTOM LOG INTERVAL
 CS  .IN            9.625:   CASING SIZE
 CBD .F                95:   CASING BOTTOM DRILLER
 CBL .F                96:   CASING BOTTOM LOGGER
 BS  .IN             8.75:   BIT SIZE
 BSD .F               505:   BIT SIZE AT DEPTH
 DFT .                AIR:   DRILLING FLUID TYPE
 MRT .F                80:   MAXIMUM RECORDED TEMPERATURE
 LUN .            HL-6530:   LOGGING UNIT NUMBER
 LUL .             CASPER:   LOGGING UNIT LOCATION
 ENGI.             RAUTIO:   RECORDING ENGINEER
 WITN.              HARDY:   WITNESSED BY
 CLNT.            A2DTECH:   CLIENT CODE
 ORIG.       2", 5" PRINT:   ORIGIN OF DATA
 UWI .       490252278000:   UNIQUE WELL ID
 DICO. A2D Technologies, Inc.:   DIGITIZING COMPANY
~OTHER INFORMATION
~A    DEPT      GRR      RILD       RILM   
# ...
  455.0000   114.2626     6.5588     7.5407
  455.5000   112.9444     7.3475     8.0154
  456.0000   112.7636     8.2332     8.6358
  456.5000   112.7496     8.8243     9.3041
  457.0000   112.9153     9.2792     9.6325
  457.5000   112.5567     9.5745     9.8043
  458.0000   111.8053     9.6958     9.9782
  458.5000   114.8777     9.8359    10.1554
  459.0000   119.0478    10.0191    10.3359
  459.5000   123.3416    10.2058    10.5196
  460.0000   125.1764    10.3959    10.7066
  460.5000   124.8335    10.5896    10.8969
  461.0000   122.7307    10.7868    11.0906
  461.5000   123.0970    10.9833    11.2878
  462.0000   126.3540    11.1726    11.4883
  462.5000   128.7590    11.3652    11.6463
  463.0000   127.9728    11.5611    11.7865
  463.5000   126.6533    11.7604    11.9284
  464.0000   122.8639    11.9631    12.0719
  464.5000   117.6139    12.0548    12.2172
  465.0000   114.7260    12.1346    12.3443
  465.5000   113.4183    12.2148    12.4261
  466.0000   113.1537    12.2956    12.5082
  466.5000   112.2427    12.3661    12.5909
  467.0000   110.5896    12.4590    12.6742
  467.5000   109.8971    12.5526    12.7580
  468.0000   110.9348    12.6469    12.8424
  468.5000   111.9531    12.7419    12.9273
  469.0000   112.2408    12.8376    13.0128
  469.5000   110.6336    12.9341    13.0989
  470.0000   107.4129    13.0218    13.1421
  470.5000   104.0899    13.0218    12.8981
  471.0000   101.0422    13.0217    12.7134
  471.5000   101.5950    12.8646    12.5495
  472.0000   103.2208    12.6658    12.5495
  472.5000   104.2380    12.7715    12.5495
  473.0000   104.6056    12.8899    12.5896
  473.5000   105.3730    13.0094    12.7244
  474.0000   104.7947    13.1300    12.8606
  474.5000   102.1140    13.0334    12.9018
  475.0000    98.1950    12.7783    12.6075
  475.5000    94.1602    12.4390    12.1353
  476.0000    90.9680    12.1568    11.4431
  476.5000    88.9333    11.9917    10.7905
  477.0000    87.9312    11.8289    10.6995
  477.5000    88.2638    11.6683    10.6686
  478.0000    90.4812    11.5098    10.6379
  478.5000    92.8726    11.3535    10.5321
  479.0000    94.5344    11.1994    10.3958
  479.5000    94.4188    11.0473    10.2610
  480.0000    94.2192    10.8973    10.1280
  480.5000    94.7058    10.7493     9.9968
  481.0000    99.7904    10.6033     9.8673
  481.5000   105.2480    10.4826     9.7395
  482.0000   105.8772    10.3862     9.6133
  482.5000   103.6035    10.2908     9.4887
  483.0000   100.6694    10.1962     9.4271
  483.5000    99.3599    10.1027     9.3491
  484.0000    98.4782    10.0469     9.2632
  484.5000    98.6256    10.0284     9.2547
  485.0000    99.6345    10.0099     9.2547
  485.5000   100.2210     9.9914     9.3357
  486.0000    99.0303     9.9730     9.3070
  486.5000    97.2598     9.9383     9.2594
  487.0000    96.6555     9.8875     9.2121
  487.5000    95.9286     9.8369     9.1697
  488.0000    95.4872     9.7866     9.0595
  488.5000    97.1164     9.6554     8.8434
  489.0000   103.3644     9.5172     8.6319
  489.5000   107.3676     9.3810     8.4255
  490.0000   105.9246     9.2121     8.2724
  490.5000   102.7138     9.0734     8.2323
  491.0000    99.7604     8.9546     8.1924
  491.5000    98.2105     8.8372     8.1526
  492.0000  -999.2500     8.7213     8.0414
  492.5000  -999.2500     8.6071     7.9863
  493.0000  -999.2500     8.5960     7.9311
  493.5000  -999.2500     8.5960     7.8768
  494.0000  -999.2500     8.5960     7.7772
  494.5000  -999.2500     8.3848     7.5741
  495.0000  -999.2500     8.0906     7.2100
  495.5000  -999.2500     7.8067     6.8348
  496.0000  -999.2500     7.5336     6.4792
  496.5000  -999.2500     7.3478     6.1421
  497.0000  -999.2500     7.4160     6.0533
  497.5000  -999.2500     7.4159     6.0533
  498.0000  -999.2500     7.4160     6.0532
  498.5000  -999.2500     7.4160     6.0533
  499.0000  -999.2500     7.4160     6.0533
  499.5000  -999.2500     7.4160     6.0533
  500.0000  -999.2500     7.4160     6.0533
