~VERSION INFORMATION
 VERS.                2.0:   CWLS LOG ASCII STANDARD - VERSION 2.0
 WRAP.                 NO:   ONE LINE PER DEPTH STEP
~WELL INFORMATION
#MNEM.UNIT      DATA TYPE    INFORMATION
#----------   ------------   ------------------------------
 STRT.F           64.0000:   START DEPTH
 STOP.F          795.0000:   STOP DEPTH
 STEP.F            0.5000:   STEP LENGTH
 NULL.          -999.2500:   NO VALUE
 COMP. LAWRENCE/ALLISON INC:   COMPANY
 WELL.      23-61 SX #2-2:   WELL
 FLD .             TEAPOT:   FIELD
 LOC .       S2 T38N R78W:   LOCATION
 CNTY.            NATRONA:   COUNTY
 STAT.            WYOMING:   STATE
 CTRY. UNITED STATES OF AMERICA:   COUNTRY
 SRVC.              Welex:   SERVICE COMPANY
 DATE.        14-AUG-1985:   LOGDATE
 API .       490251103800:   API NUMBER
~CURVE INFORMATION
#MNEM.UNIT       API CODE    CURVE DESCRIPTION
#----------   ------------   ------------------------------
 DEPT.F                  :   
 SPR .MV     07 010 01 00:   SPONTANEOUS POTENTIAL
 ILD .OHMM   07 120 46 00:   INDUCTION LOG DEEP
 ILM .OHMM   07 120 44 00:   INDUCTION LOG MEDIUM
 SGRD.OHMM   07 221 05 00:   SHALLOW SHORT GUARD RESISTIVITY
 DPHI.DEC    45 890 12 00:   DENSITY POROSITY SANDSTONE
 NPHI.DEC    42 890 03 00:   NEUTRON POROSITY SANDSTONE
 GRD .GAPI   45 310 01 00:   GAMMA RAY FROM DENSITY LOG
 CALD.IN     45 280 60 00:   CALIPER FROM DENSITY
 CORR.G/C3   45 356 01 00:   DENSITY CORRECTION
 RHOB.G/C3   45 350 01 00:   BULK DENSITY
~PARAMETER INFORMATION
#MNEM.UNIT          VALUE    DESCRIPTION
#----------   ------------   ------------------------------
 PD  .                 GL:   PERMANENT DATUM
 EPD .F              5112:   ELEVATION PERMANENT DATUM
 LMF .                 GL:   LOG MEASURED FROM
 DMF .                 GL:   DRILLING MEASURED FROM
 EGL .F              5112:   GROUND LEVEL
 DATE.        14-AUG-1985:   RUN DATE
 RUN .                  1:   RUN NUMBER
 DD  .F               800:   DEPTH DRILLER
 DL  .F               797:   DEPTH LOGGER
 BLI .F               795:   BOTTOM LOG INTERVAL
 TLI .F                76:   TOP LOG INTERVAL
 CS  .IN            8.625:   CASING SIZE
 CBD .F                76:   CASING BOTTOM DRILLER
 CBL .F                76:   CASING BOTTOM LOGGER
 BS  .IN            7.875:   BIT SIZE
 BSD .F               800:   BIT SIZE AT DEPTH
 DFT .                KCL:   DRILLING FLUID TYPE
 MSS .               TANK:   MUD SAMPLE SOURCE
 RMS .OHMM           0.22:   RESISTIVITY MUD SAMPLE
 MST .F                64:   MUD SAMPLE TEMPERATURE
 MFSS.               MEAS:   MUD FILTRATE SAMPLE SOURCE
 TCS .HRS            2230:   TIME CURCULATED STOPPED
 TLAB.HRS            0200:   TIME LOGGER AT BOTTOM
 LUN .               1892:   LOGGING UNIT NUMBER
 LUL .             CASPER:   LOGGING UNIT LOCATION
 ENGI.         T. QUINLAN:   RECORDING ENGINEER
 WITN.        N. JENNINGS:   WITNESSED BY
 CLNT.            A2DTECH:   CLIENT CODE
 ORIG.        2" 5" PRINT:   ORIGIN OF DATA
 UWI .       490251103800:   UNIQUE WELL ID
 DICO. A2D Technologies, Inc.:   DIGITIZING COMPANY
 R1  . POROSITY WITH SANDSTONE:   REMARKS 1
~OTHER INFORMATION
~A   DEPT      SPR        ILD        ILM       SGRD       DPHI       NPHI         GRD      CALD       CORR       RHOB   
# ...
  499.5000   -55.6054     3.7760     4.0208     4.7868     0.1709     0.3596   119.3428     7.9497     0.0448     2.3872
  500.0000   -55.5478     3.7216     4.0912     6.3837     0.1533     0.3455   115.5502     7.9494     0.0652     2.4110
  500.5000   -54.8487     3.7451     4.2848     6.1885     0.1449     0.3269   112.8849     7.9536     0.0719     2.4370
  501.0000   -54.5590     3.8756     4.4879     5.8894     0.1485     0.3246   108.5296     7.9578     0.0505     2.4332
  501.5000   -54.4096     4.0956     4.8095     6.0098     0.1483     0.3283   105.8541     7.9619     0.0467     2.4353
  502.0000   -53.8117     4.3280     5.1543     7.3014     0.1380     0.3307   107.1553     7.9645     0.0444     2.4504
  502.5000   -53.8117     4.6056     5.4471     7.7166     0.1329     0.3295   111.9202     7.9657     0.0390     2.4602
  503.0000   -53.8117     4.9354     5.6769     7.5502     0.1314     0.3265   114.0064     7.9669     0.0374     2.4609
  503.5000   -53.8117     5.2520     5.9163     7.8128     0.1314     0.3226   113.7117     7.9680     0.0373     2.4608
  504.0000   -53.3632     5.6674     6.0805     8.7906     0.1317     0.3200   111.9290     7.9692     0.0342     2.4599
  504.5000   -53.2138     5.8649     6.3368     9.3555     0.1327     0.3164   111.6335     7.9704     0.0289     2.4591
  505.0000   -51.5695     6.0694     6.6040    10.0229     0.1339     0.3140   112.2324     7.9716     0.0227     2.4560
  505.5000   -49.3274     6.2809     6.7872    10.3715     0.1376     0.3116   113.1282     7.9728     0.0181     2.4498
  506.0000   -47.2347     6.4547     6.9754    10.1496     0.1412     0.3095   114.9169     7.9740     0.0104     2.4437
  506.5000   -46.1883     6.4958     7.1689    10.0720     0.1449     0.3095   115.5150     7.9752     0.0066     2.4366
  507.0000   -46.0389     6.4918     7.3164     9.9256     0.1480     0.3108   115.2204     7.9764     0.0042     2.4314
  507.5000   -46.0389     6.4877     7.3124     9.8497     0.1474     0.3117   114.3304     7.9776     0.0057     2.4384
  508.0000   -46.0389     6.4818     7.2070     9.7065     0.1450     0.3108   114.3334     7.9788     0.0071     2.4434
  508.5000   -46.0389     6.3869     7.1529     9.4988     0.1438     0.3097   115.2353     7.9800     0.0086     2.4395
  509.0000   -46.9357     6.3413     7.0993     9.2955     0.1450     0.3094   117.6369     7.9812     0.0085     2.4379
  509.5000   -48.4305     6.2400     6.9947     9.0967     0.1454     0.3106   117.5745     7.9824     0.0099     2.4378
  510.0000   -49.6263     6.1533     6.8929     8.9644     0.1457     0.3128   116.4284     7.9836     0.0129     2.4377
  510.5000   -50.2242     6.0211     6.7454     8.7726     0.1457     0.3155   115.5385     7.9847     0.0160     2.4376
  511.0000   -50.2242     5.9256     6.5601     8.5252     0.1450     0.3159   115.2438     7.9859     0.0214     2.4376
  511.5000   -50.9716     5.6530     6.3760     8.5193     0.1402     0.3132   115.2475     7.9871     0.0308     2.4481
  512.0000   -52.0179     5.4558     6.1844     8.4542     0.1357     0.3123   115.5480     7.9883     0.0383     2.4578
  512.5000   -52.3169     5.3023     5.9258     8.2158     0.1380     0.3145   116.7414     7.9895     0.0367     2.4426
  513.0000   -51.7190     5.1173     5.6855     7.9841     0.1444     0.3196   117.9348     7.9902     0.0329     2.4243
  513.5000   -50.9716     5.0082     5.3802     7.5982     0.1562     0.3291   120.0211     7.9900     0.0305     2.4099
  514.0000   -51.2706     5.0050     5.1209     6.6967     0.1671     0.3445   122.4050     7.9899     0.0251     2.3992
  514.5000   -52.9148     5.0369     5.0825     5.7800     0.1717     0.3524   124.7889     7.9897     0.0190     2.3923
  515.0000   -50.5232     5.0338     5.3713     5.7358     0.1720     0.3549   126.2799     7.9896     0.0151     2.3985
  515.5000   -48.7294     5.1730     5.6765     6.1891     0.1648     0.3433   127.4733     7.9894     0.0173     2.4159
  516.0000   -48.4305     5.3161     5.8347     7.8956     0.1555     0.3304   128.6667     7.9893     0.0211     2.4314
  516.5000   -50.0747     5.4632     5.9957     9.1992     0.1462     0.3220   126.2887     7.9891     0.0210     2.4503
  517.0000   -51.5695     5.7331     5.9923     9.5858     0.1358     0.3166   120.8873     7.9890     0.0201     2.4547
  517.5000   -52.3169     5.9338     6.0732     9.7139     0.1358     0.3136   117.8719     7.9888     0.0178     2.4516
  518.0000   -48.5800     6.2696     6.2853     9.6395     0.1395     0.3094   115.5832     7.9887     0.0147     2.4440
  518.5000   -47.5336     6.4430     6.4596     9.3677     0.1443     0.3124   115.2885     7.9885     0.0123     2.4355
  519.0000   -46.7862     6.5762     6.5468     9.2961     0.1492     0.3173   116.4827     7.9884     0.0115     2.4271
  519.5000   -46.6368     6.6181     6.6815     9.4861     0.1529     0.3198   117.6761     7.9882     0.0138     2.4240
  520.0000   -47.3842     6.5670     6.7246     9.8848     0.1499     0.3183   119.1664     7.9881     0.0168     2.4330
  520.5000   -47.5336     6.5629     6.8640     9.9482     0.1457     0.3150   116.7891     7.9879     0.0190     2.4390
  521.0000   -47.3842     6.6058     7.0533     9.9401     0.1424     0.3123   117.9825     7.9878     0.0203     2.4427
  521.5000   -47.2347     6.6479     7.0494     9.9332     0.1400     0.3102   123.9378     7.9876     0.0225     2.4472
  522.0000   -46.0389     6.5965     7.0958     9.9217     0.1376     0.3134   134.0598     7.9875     0.0224     2.4501
  522.5000   -46.6368     6.5924     7.1415     9.7763     0.1357     0.3186   140.0151     7.9874     0.0231     2.4538
  523.0000   -48.1315     6.5882     7.0870     9.6329     0.1337     0.3209   137.6371     7.9872     0.0245     2.4568
  523.5000   -47.9821     6.5841     7.0830     9.4917     0.1331     0.3212   131.6876     7.9871     0.0252     2.4574
  524.0000   -47.5336     6.5800     7.0791     9.3612     0.1325     0.3173   120.3810     7.9869     0.0259     2.4589
  524.5000   -46.7862     6.5759     7.0752     9.3547     0.1332     0.3141   117.7054     7.9867     0.0274     2.4586
  525.0000   -46.3378     6.5718     7.0712     9.3481     0.1350     0.3120   119.1964     7.9866     0.0280     2.4546
  525.5000   -46.1883     6.5677     7.0673     9.2767     0.1375     0.3126   121.3006     7.9864     0.0287     2.4503
  526.0000   -45.5904     6.6560     7.0634     9.1405     0.1387     0.3141   120.9167     7.9863     0.0301     2.4532
  526.5000   -44.9925     6.6984     7.0595     9.0706     0.1339     0.3139   117.9075     7.9861     0.0331     2.4592
  527.0000   -44.8430     6.7411     7.0555     9.0643     0.1315     0.3127   115.6367     7.9860     0.0345     2.4637
  527.5000   -44.9925     6.7368     7.0516     9.1215     0.1294     0.3106   115.0444     7.9858     0.0345     2.4674
  528.0000   -45.4410     6.7326     6.9987     9.2448     0.1273     0.3082   115.6433     7.9857     0.0298     2.4650
  528.5000   -45.5904     6.6816     6.9948     9.3031     0.1316     0.3101   116.8367     7.9855     0.0252     2.4528
  529.0000   -46.7862     6.4018     6.7985     9.2950     0.1364     0.3169   115.3516     7.9854     0.0221     2.4490
  529.5000   -49.0284     6.0029     6.6077     9.3552     0.1389     0.3218   112.9736     7.9853     0.0220     2.4527
  530.0000   -51.7190     5.5137     6.1161     9.2176     0.1347     0.3265   112.3805     7.9851     0.0250     2.4495
  530.5000   -52.9148     5.0738     5.3913     8.9576     0.1426     0.3293   117.7413     7.9850     0.0249     2.4335
  531.0000   -53.2138     4.8921     4.9902     7.5341     0.1626     0.3339   122.5062     7.9848     0.0226     2.3979
  531.5000   -53.3632     4.7620     4.8164     5.1481     0.1735     0.3478   125.7829     7.9846     0.0202     2.3826
  532.0000   -53.2138     4.6604     4.7140     4.6074     0.1790     0.3545   127.5715     7.9845     0.0239     2.3793
  532.5000   -52.9148     4.6575     4.7114     5.7907     0.1700     0.3591   123.1102     7.9844     0.0299     2.4129
