~VERSION INFORMATION
 VERS.                2.0:   CWLS LOG ASCII STANDARD - VERSION 2.0
 WRAP.                 NO:   ONE LINE PER DEPTH STEP
~WELL INFORMATION
#MNEM.UNIT      DATA TYPE    INFORMATION
#----------   ------------   ------------------------------
 STRT.F           26.0000:   START DEPTH
 STOP.F          543.5000:   STOP DEPTH
 STEP.F            0.5000:   STEP LENGTH
 NULL.          -999.2500:   NO VALUE
 COMP. LAWRENCE/ALLISON INC:   COMPANY
 WELL. NPR 3 #68-61-STX-3:   WELL
 FLD .             TEAPOT:   FIELD
 LOC .       S3 T38N R78W:   LOCATION
 CNTY.            NATRONA:   COUNTY
 STAT.            WYOMING:   STATE
 CTRY. UNITED STATES OF AMERICA:   COUNTRY
 SRVC.           Gearhart:   SERVICE COMPANY
 DATE.        30-MAY-1987:   LOGDATE
 API .       490251112800:   API NUMBER
~CURVE INFORMATION
#MNEM.UNIT       API CODE    CURVE DESCRIPTION
#----------   ------------   ------------------------------
 DEPT.F                  :   
 GRR .GAPI   07 310 01 00:   GAMMA RAY FROM RES. LOG.
 RILD.OHMM   07 120 46 00:   INDUCTION LOG DEEP RESISTIVITY
 RILM.OHMM   07 120 44 00:   INDUCTION LOG MEDIUM
~PARAMETER INFORMATION
#MNEM.UNIT          VALUE    DESCRIPTION
#----------   ------------   ------------------------------
 PD  .                 GL:   PERMANENT DATUM
 EPD .F              5176:   ELEVATION PERMANENT DATUM
 LMF .                 KB:   LOG MEASURED FROM
 DAPD.F                 8:   FEET ABOVE PERMANENT DATUM
 DMF .                 KB:   DRILLING MEASURED FROM
 EKB .F              5184:   KELLING BUSHING
 EDF .F              5182:   DRILLING FLOOR
 EGL .F              5176:   GROUND LEVEL
 DATE.          5-30-1987:   RUN DATE
 RUN .                  1:   RUN NUMBER
 DD  .F               550:   DEPTH DRILLER
 DL  .F               552:   DEPTH LOGGER
 BLI .F               544:   BOTTOM LOG INTERVAL
 TLI .F                30:   TOP LOG INTERVAL
 CS  .IN            8.625:   CASING SIZE
 CBD .F                50:   CASING BOTTOM DRILLER
 CBL .F                49:   CASING BOTTOM LOGGER
 BS  .IN            7.875:   BIT SIZE
 BSD .F               550:   BIT SIZE AT DEPTH
 DFT .                AIR:   DRILLING FLUID TYPE
 TLAB.HRS            0735:   TIME LOGGER AT BOTTOM
 MRT .F                80:   MAXIMUM RECORDED TEMPERATURE
 LUN .               7597:   LOGGING UNIT NUMBER
 LUL .           GILLETTE:   LOGGING UNIT LOCATION
 ENGI.         WEATHERMON:   RECORDING ENGINEER
 WITN.             STRONG:   WITNESSED BY
 CLNT.            A2DTECH:   CLIENT CODE
 ORIG.       2", 5" PRINT:   ORIGIN OF DATA
 UWI .       490251112800:   UNIQUE WELL ID
 DICO. A2D Technologies, Inc.:   DIGITIZING COMPANY
~OTHER INFORMATION
~A   DEPT       GRR      RILD       RILM   
# ...
  117.0000   111.4668    12.3261    12.1250
  117.5000   110.7960    12.3497    12.1567
  118.0000   110.8322    12.3679    12.1885
  118.5000   111.8365    12.3860    12.2076
  119.0000   112.8572    12.4041    12.1234
  119.5000   113.8759    12.4224    12.0565
  120.0000   114.7626    12.4425    11.9901
  120.5000   113.7379    12.3653    11.8928
  121.0000   110.0389    12.2125    11.7645
  121.5000   106.3953    12.0615    11.5413
  122.0000   103.2003    11.9124    11.6412
  122.5000   103.6275    11.7651    11.5684
  123.0000   107.0903    11.6196    11.4065
  123.5000   109.5820    11.4758    11.1598
  124.0000   108.2302    11.4246    10.9599
  124.5000   106.4044    11.3392    10.7636
  125.0000   106.7001    11.2542    10.7054
  125.5000   109.6070    11.1699    10.6853
  126.0000   112.4679    11.0863    10.6630
  126.5000   111.9081    11.0032    10.6407
  127.0000   110.6808    10.9208    10.6185
  127.5000   110.3359    10.8390    10.5964
  128.0000   110.3190    10.7576    10.5743
  128.5000   107.9210    10.6770    10.5522
  129.0000   106.2303    10.6132    10.5301
  129.5000   106.7161    10.7054    10.5082
  130.0000   108.4097    10.7972    10.4638
  130.5000   109.9111    10.6811    10.4171
  131.0000   109.3384    10.6474    10.3706
  131.5000   108.1519    10.6131    10.3242
  132.0000   106.8818    10.5792    10.2844
  132.5000   104.7407    10.5454    10.2328
  133.0000   102.5376    10.5116    10.1814
  133.5000   100.4383    10.4780    10.1303
  134.0000   100.1905    10.4445    10.0794
  134.5000   104.1777    10.4111    10.0292
  135.0000   111.2152    10.2251     9.8738
  135.5000   112.8868    10.0259     9.5794
  136.0000   109.9616     9.8306     9.2946
  136.5000   107.4891     9.6392     9.1676
  137.0000   108.6627     9.4514     9.0989
  137.5000   111.0424     9.2673     9.0138
  138.0000   113.3751     9.0867     8.9008
  138.5000   112.1478     8.9098     8.7233
  139.0000   110.1267     8.7875     8.5489
  139.5000   109.0901     8.6795     8.3840
  140.0000   110.3687     8.6294     8.3844
  140.5000   111.9230     8.6243     8.3845
  141.0000   110.2473     8.7139     8.3845
  141.5000   108.3389     8.7962     8.3845
  142.0000   106.4175     8.8793     8.5002
  142.5000   106.2327     8.9547     8.6683
  143.0000   107.4864     9.0180     8.8770
  143.5000   108.7460     9.1093     8.9383
  144.0000   109.3724     9.2015     9.0000
  144.5000   109.7508     9.2946     9.0621
  145.0000   110.1198     9.3887     9.1246
  145.5000   110.5459     9.4741     9.1876
  146.0000   114.1923     9.5050     9.2510
  146.5000   118.0145     9.5394     9.3148
  147.0000   118.8574     9.5740     9.3791
  147.5000   119.6983     9.6087     9.3855
  148.0000   120.4761     9.6434     9.3855
  148.5000   118.6907     9.6784     9.3855
  149.0000   116.1989     9.7136     9.3855
  149.5000   113.6971     9.7453     9.3855
  150.0000   111.5861     9.6893     9.3837
  150.5000   112.1303     9.6275     9.3661
  151.0000   114.1979     9.5660     9.3483
  151.5000   115.1450     9.5050     9.3306
  152.0000   114.2561     9.4445     9.3129
  152.5000   114.6090     9.3842     9.2866
  153.0000   119.2764     9.3244     9.2070
  153.5000   123.9921     9.2977     9.1246
  154.0000   125.4295     9.3238     9.1508
  154.5000   123.1485     9.3465     9.1856
  155.0000   120.3191     9.3693     9.2205
  155.5000   117.5949     9.3920     9.2555
  156.0000   115.4176     9.4149     9.2979
  156.5000   113.1468     9.4377     9.2750
  157.0000   113.2726     9.4612     9.2368
  157.5000   116.0944     9.4749     9.1987
  158.0000   118.8657     9.4006     9.1609
  158.5000   120.4856     9.3284     9.1246
  159.0000   119.4669     9.2569     9.0049
  159.5000   118.2975     9.1861     8.8908
  160.0000   117.1903     9.1158     8.7781
  160.5000   118.3700     9.0460     8.6659
  161.0000   119.7426     8.9780     8.5601
  161.5000   121.0819     8.8871     8.4121
  162.0000   121.7598     8.7478     8.3422
  162.5000   119.3196     8.6324     8.2707
  163.0000   116.7075     8.3845     8.1998
  163.5000   114.2383     8.3845     8.0752
  164.0000   112.5069     8.0782     7.6072
  164.5000   111.5166     7.7568     7.2821
  165.0000   113.3932     7.4202     7.1604
  165.5000   115.8923     7.2821     7.0872
  166.0000   118.0881     7.1826     7.0126
  166.5000   117.3656     7.1465     7.0261
  167.0000   116.7745     7.2043     7.0499
  167.5000   117.6925     7.2821     7.0750
  168.0000   118.8343     7.4343     7.1970
  168.5000   119.9954     7.6555     7.4055
  169.0000   120.3923     7.8832     7.5680
  169.5000   120.0238     8.1197     7.6995
  170.0000   116.7797     8.3823     7.8333
  170.5000   113.2382     8.4162     7.9694
  171.0000   111.4872     8.4442     8.0752
  171.5000   113.2514     8.4739     8.1840
  172.0000   115.1548     8.5036     8.3061
  172.5000   114.2843     8.5436     8.2318
  173.0000   112.9467     8.5014     8.1514
  173.5000   111.8733     8.4380     8.0745
  174.0000   115.3035     8.3752     8.0031
  174.5000   119.6079     8.3128     7.9324
  175.0000   119.2336     8.2043     7.8728
  175.5000   118.7521     8.0752     7.6930
  176.0000   118.3766     7.7736     7.3897
  176.5000   120.4268     7.4662     7.0975
  177.0000   123.1713     7.1709     6.8193
  177.5000   124.3452     6.8874     6.5459
  178.0000   122.6092     6.6150     6.2826
  178.5000   120.9210     6.3246     6.0299
  179.0000   120.8388     6.3843     5.8665
  179.5000   120.8503     6.3843     5.8902
  180.0000   120.8844     6.4240     6.0314
  180.5000   118.4891     6.6550     6.1760
  181.0000   119.7535     6.8621     6.3741
  181.5000   121.4183     7.1364     6.6725
  182.0000   121.1067     7.4237     6.9831
  182.5000   118.3070     7.7226     7.3078
  183.0000   120.0913     8.0336     7.6478
  183.5000   122.1301     8.2674     7.8708
  184.0000   123.3258     8.3583     8.0213
  184.5000   121.8680     8.4501     8.1748
  185.0000   120.2195     8.5430     8.3311
  185.5000   119.1489     8.6369     8.4237
  186.0000   118.0127     8.7318     8.4831
  186.5000   117.5730     8.8278     8.5427
  187.0000   119.2602     8.9248     8.6028
  187.5000   120.8604     9.0229     8.6634
  188.0000   121.1186     9.1239     8.7168
  188.5000   119.2535     9.2945     8.8206
  189.0000   119.0357     9.3399     8.9257
  189.5000   120.6528     9.3825     8.9700
  190.0000   122.1224     9.4271     8.9990
  190.5000   121.2015     9.4718     9.0281
  191.0000   120.0222     9.5168     9.0573
  191.5000   118.8905     9.5620     9.0866
  192.0000   119.7138     9.6074     9.1160
  192.5000   120.6693     9.6530     9.1455
  193.0000   120.5258     9.6988     9.1751
  193.5000   118.5865     9.7451     9.2108
  194.0000   116.6633     9.6515     9.1256
  194.5000   114.7381     9.5573     9.0199
  195.0000   115.1214     9.4645     8.9155
  195.5000   116.9273     9.3726     8.8122
  196.0000   119.7889     9.2817     8.7102
  196.5000   123.1649     9.1916     8.6093
  197.0000   124.1213     9.1236     8.5096
  197.5000   124.0358     8.8578     8.4111
  198.0000   120.9506     8.6517     8.3137
  198.5000   116.8779     8.4486     8.2174
  199.0000   114.4833     8.2178     8.1222
  199.5000   115.6317     7.9997     8.0282
  200.0000   120.9957     7.5724     7.9529
  200.5000   121.7507     7.0410     7.7045
  201.0000   119.2767     6.4644     7.1970
  201.5000   116.8052     5.7619     6.7072
  202.0000   116.0377     5.1357     6.0973
  202.5000   120.2692     4.5776     5.3568
  203.0000   123.8781     4.0801     4.7054
  203.5000   124.5716     3.6367     4.1334
  204.0000   124.8942     3.3476     3.6307
  204.5000   122.6824     3.1824     3.1889
  205.0000   120.3007     3.0254     2.8011
  205.5000   115.5648     2.9264     2.7156
  206.0000   109.7974     2.9863     2.6883
  206.5000   104.4654     3.0733     2.8004
  207.0000   105.6060     3.1540     2.8900
  207.5000   110.6756     3.4271     2.9843
