~VERSION INFORMATION
 VERS.                2.0:   CWLS LOG ASCII STANDARD - VERSION 2.0
 WRAP.                 NO:   ONE LINE PER DEPTH STEP
~WELL INFORMATION
#MNEM.UNIT      DATA TYPE    INFORMATION
#----------   ------------   ------------------------------
 STRT.F           30.0000:   START DEPTH
 STOP.F          759.0000:   STOP DEPTH
 STEP.F            0.5000:   STEP LENGTH
 NULL.          -999.2500:   NO VALUE
 COMP. FENIX & SCISSON INC:   COMPANY
 WELL.    NPR ##3 15-S-14:   WELL
 FLD .             TEAPOT:   FIELD
 LOC .      S14 T38N R78W:   LOCATION
 CNTY.            NATRONA:   COUNTY
 STAT.            WYOMING:   STATE
 CTRY. UNITED STATES OF AMERICA:   COUNTRY
 SRVC.              Welex:   SERVICE COMPANY
 DATE.        23-FEB-1977:   LOGDATE
 API .       490251027600:   API NUMBER
~CURVE INFORMATION
#MNEM.UNIT       API CODE    CURVE DESCRIPTION
#----------   ------------   ------------------------------
 DEPT.F                  :   
 GURD.OHMM   07 220 05 00:   SHALLOW SHORT GUARD RESISTIVITY
 ILD .OHMM   07 120 46 00:   INDUCTION LOG DEEP
 ILM .OHMM   07 120 44 00:   INDUCTION LOG MEDIUM
 SPR .MV     07 010 01 00:   SPONTANEOUS POTENTIAL
 CALD.IN     45 280 60 00:   CALIPER FROM DENSITY LOG
 CORR.G/C3   45 356 01 00:   DENSITY CORRECTION
 DPHI.DEC    45 890 12 00:   DENSITY POROSITY SANDSTONE
 GRD .GAPI   45 310 01 00:   GAMMA RAY FROM DENSITY LOG
 RHOB.G/C3   45 350 01 00:   BULK DENSITY
~PARAMETER INFORMATION
#MNEM.UNIT          VALUE    DESCRIPTION
#----------   ------------   ------------------------------
 PD  .                 GL:   PERMANENT DATUM
 EPD .F            5229.2:   ELEVATION PERMANENT DATUM
 LMF .                 GL:   LOG MEASURED FROM
 DMF .                 GL:   DRILLING MEASURED FROM
 EGL .F            5229.2:   GROUND LEVEL
 DATE.        23-FEB-1977:   RUN DATE
 RUN .                  1:   RUN NUMBER
 DD  .F               764:   DEPTH DRILLER
 DL  .F               762:   DEPTH LOGGER
 BLI .F               760:   BOTTOM LOG INTERVAL
 TLI .F                40:   TOP LOG INTERVAL
 CS  .IN            8.625:   CASING SIZE
 CBD .F                40:   CASING BOTTOM DRILLER
 CBL .F                40:   CASING BOTTOM LOGGER
 BS  .IN            7.875:   BIT SIZE
 BSD .F               764:   BIT SIZE AT DEPTH
 DFT .           CHEM/GEL:   DRILLING FLUID TYPE
 DFD .                9.4:   DRILLING FLUID DENSITY
 DFV .                 50:   DRILLING FLUID VISCOSITY
 DFPH.               11.0:   DRILLING FLUID PH
 DFL .               12.2:   DRILLING FLUID LOSS
 MSS .           FLOWLINE:   MUD SAMPLE SOURCE
 RMS .OHMM           0.23:   RESISTIVITY MUD SAMPLE
 MST .F                38:   MUD SAMPLE TEMPERATURE
 RMF .OHMM           0.15:   RESISTIVITY MUD FILTRATE SAMPLE
 MFST.F                38:   MUD FILTRATE SAMPLE TEMPERATURE
 RMC .OHMM           0.54:   RESISTIVITY MUD CAKE
 MCST.F                38:   MUD CAKE SAMPLE TEMPERATURE
 MFSS.               MEAS:   MUD FILTRATE SAMPLE SOURCE
 MCSS.               MEAS:   MUD CAKE SAMPLE SOURCE
 RMB .OHMM           .148:   RESISTIVITY MUD AT BHT
 BHT .F                59:   BOTTOM HOLE TEMPERATURE
 TCS .HRS               2:   TIME CURCULATED STOPPED
 MRT .F                59:   MAXIMUM RECORDED TEMPERATURE
 LUN .               8611:   LOGGING UNIT NUMBER
 LUL .           GILLETTE:   LOGGING UNIT LOCATION
 ENGI.             C.DOAK:   RECORDING ENGINEER
 WITN.         STUEBINGER:   WITNESSED BY
 CLNT.            A2DTECH:   CLIENT CODE
 ORIG.           5" PRINT:   ORIGIN OF DATA
 UWI .       490251027600:   UNIQUE WELL ID
 DICO. A2D Technologies, Inc.:   DIGITIZING COMPANY
~OTHER INFORMATION
~A   DEPT     GURD        ILD        ILM        SPR         CALD      CORR      DPHI         GRD        RHOB 
# ...
   66.5000     8.6188     3.6013     5.4878    -2.9445     8.6637     0.1362     0.1864   101.9684     2.3403
   67.0000     8.4999     3.7535     5.8796    -2.7934     8.6461     0.1243     0.1993    98.0805     2.3171
   67.5000     8.0423     3.9392     6.2129    -2.6422     8.5734     0.1078     0.2014    94.6411     2.3118
   68.0000     7.8225     4.1628     6.4304    -2.4910     8.6033     0.0958     0.1903    92.0985     2.3360
   68.5000     8.4957     4.3687     6.7017    -2.3398     8.6481     0.0943     0.1403    96.2824     2.3879
   69.0000     8.7964     4.6166     6.9363    -2.0264     8.6480     0.1003     0.1270    98.6726     2.4309
   69.5000     8.0958     4.7458     7.2290    -1.5880     8.6178     0.1063     0.1227   101.2122     2.4406
   70.0000     7.8745     4.7458     7.5340    -1.2625     8.6027     0.1078     0.1245   103.4529     2.4361
   70.5000     7.9286     4.6486     7.6378    -0.9863     8.5875     0.1078     0.1287   102.3094     2.4383
   71.0000     8.0385     4.4583     7.5765    -0.5357     8.5724     0.1093     0.1281    99.5633     2.4406
   71.5000     7.4496     4.3042     7.0766    -0.3846     8.5573     0.1108     0.1296    99.4127     2.4353
   72.0000     6.8563     4.0495     6.4678    -0.3831     8.5271     0.1108     0.1335   100.9056     2.4226
   72.5000     6.2238     3.7535     6.0352    -0.3816     8.5107     0.1101     0.1404   104.9400     2.4098
   73.0000     5.7542     3.5275     5.6315    -0.5299     8.4944     0.1088     0.1500   108.9745     2.3956
   73.5000     5.2719     3.3612     5.3280    -0.5284     8.4817     0.1073     0.1623   110.1688     2.3797
   74.0000     5.0926     3.2249     4.9716    -0.6766     8.4665     0.1048     0.1709   112.8579     2.3643
   74.5000     5.0572     3.1156     4.8021    -0.9746     8.4664     0.1018     0.1838   116.4439     2.3408
   75.0000     5.2346     3.0729     4.8015    -0.9731     8.4513     0.0988     0.1961   120.6278     2.3146
   75.5000     6.9005     3.0729     5.2354    -0.9713     8.4511     0.0943     0.2052   123.9566     2.3034
   76.0000     6.9480     3.2039     6.1983    -0.8201     8.4510     0.0898     0.2078   123.6141     2.3011
   76.5000     6.6653     3.4138     6.4155    -0.6689     8.4508     0.0853     0.1925   120.1746     2.3063
   77.0000     6.4832     3.6513     6.1966    -0.5178     8.4507     0.0868     0.1824   112.9983     2.3333
   77.5000     6.5737     3.8585     5.9854    -0.5163     8.4505     0.0943     0.1677   106.4198     2.3565
   78.0000     6.6695     4.1341     6.1099    -0.5148     8.4504     0.0998     0.1569   103.1299     2.3722
   78.5000     6.8029     4.3990     6.3238    -0.3640     8.4502     0.1048     0.1459   101.3347     2.3879
   79.0000     6.8971     4.4910     6.5002    -0.6616     8.4501     0.1078     0.1444   101.9311     2.4031
   79.5000     6.9926     4.5221     6.6354    -1.1093     8.4499     0.1093     0.1441   105.5171     2.4090
   80.0000     7.0408     4.5534     6.7766    -1.4072     8.4498     0.1078     0.1405   106.5720     2.4103
   80.5000     7.1381     4.5534     6.8750    -1.8673     8.4496     0.1078     0.1354   107.1824     2.4141
   81.0000     7.2371     4.5221     6.9135    -2.4770     8.4495     0.1078     0.1315   110.5172     2.4200
   81.5000     7.2365     4.4601     6.8648    -3.3485     8.4493     0.1078     0.1276   112.8353     2.4290
   82.0000     7.0876     4.3687     6.6767    -3.9459     8.4342     0.1078     0.1243   112.6843     2.4410
   82.5000     6.7969     4.2498     6.4491    -4.3935     8.4340     0.1093     0.1219   110.7397     2.4470
   83.0000     6.5158     4.1057     6.1015    -4.9908     8.4189     0.1093     0.1258   107.8982     2.4425
   83.5000     6.3444     3.9940     5.7726    -5.4385     8.4187     0.1093     0.1318   105.6546     2.4350
   84.0000     6.4768     3.8853     5.6926    -6.0358     8.4036     0.1108     0.1369   103.5604     2.4229
   84.5000     6.4318     3.8057     5.7313    -7.2319     8.3885     0.1123     0.1414   101.0179     2.4129
   85.0000     6.1277     3.7021     5.6027    -8.1287     8.3733     0.1108     0.1462    99.9701     2.4034
   85.5000     5.6789     3.5520     5.3102    -8.8757     8.3581     0.1108     0.1519   101.3139     2.4004
   86.0000     5.2994     3.4553     5.1648    -9.3234     8.3580     0.1108     0.1582   102.5242     2.3937
   86.5000     5.1191     3.3368     5.1641    -9.4840     8.3429     0.1063     0.1633   103.2542     2.3824
   87.0000     5.1542     3.2438     5.1992    -9.7695     8.3427     0.1033     0.1684   103.5517     2.3689
   87.5000     5.3751     3.1372     5.2347   -10.0675     8.3426     0.1003     0.1726   104.1477     2.3584
   88.0000     5.5222     3.0308     5.1620   -10.3650     8.3424     0.1063     0.1744   104.7442     2.3562
   88.5000     5.5217     2.9280     5.0905   -10.6633     8.3423     0.1123     0.1735   104.5932     2.3666
   89.0000     5.2971     2.8093     4.9854   -11.1106     8.3421     0.1183     0.1630   103.0970     2.3771
   89.5000     5.0817     2.6954     4.8123   -11.4085     8.3420     0.1213     0.1656   102.1987     2.3718
   90.0000     4.8414     2.5683     4.6191   -11.8562     8.3418     0.1243     0.1723   103.8415     2.3618
   90.5000     4.5492     2.4641     4.4004   -12.0044     8.3417     0.1272     0.1771   106.3812     2.3516
   91.0000     4.2452     2.3642     4.1632   -12.3023     8.3415     0.1272     0.1825   106.2302     2.3448
   91.5000     4.0167     2.3318     3.9936   -12.4506     8.3264     0.1213     0.1912   106.7010     2.3351
   92.0000     3.9887     2.3480     3.9112   -12.4491     8.3112     0.1138     0.2023   108.4235     2.3133
   92.5000     4.1035     2.3971     3.8837   -12.2979     8.3111     0.1093     0.2176   110.5603     2.2886
   93.0000     4.6429     2.4641     3.9372   -11.8473     8.3109     0.1048     0.2323   110.7086     2.2729
   93.5000     4.9064     2.5861     4.0751   -11.3964     8.2958     0.1033     0.2332   110.4079     2.2504
   94.0000     5.1849     2.7517     4.4029   -11.0956     8.2806     0.1018     0.2152   109.3601     2.2579
   94.5000     5.4792     2.9280     4.8529   -10.7947     8.2805     0.1018     0.2035   106.8175     2.2930
   95.0000     5.7503     3.1807     5.3331   -10.6435     8.2654     0.1033     0.1781   103.6770     2.3468
   95.5000     5.9112     3.5275     5.5580   -10.9415     8.2652     0.1033     0.1607    99.4902     2.3841
   96.0000     5.8936     3.7535     5.6739   -11.2398     8.2501     0.1048     0.1443    97.5456     2.4114
   96.5000     5.8292     3.7798     5.5183   -11.8371     8.2499     0.1063     0.1386    96.7947     2.4136
   97.0000     5.7886     3.6999     5.4418   -12.7335     8.2798     0.1078     0.1413    96.9447     2.4091
   97.5000     5.6636     3.5766     5.3295   -13.3308     8.2796     0.1108     0.1464    98.1387     2.4038
   98.0000     5.4014     3.4315     5.2194   -13.9281     8.2795     0.1123     0.1412   100.8278     2.4075
   98.5000     5.1105     3.2473     5.0063   -14.3882     8.2943     0.1123     0.1389   104.8623     2.4143
   99.0000     4.8689     3.0729     4.8281   -14.8234     8.2941     0.1138     0.1455   109.9430     2.4075
   99.5000     4.6387     2.8879     4.5753   -15.4204     8.3240     0.1138     0.1503   114.2764     2.4000
  100.0000     4.4194     2.7328     4.3587   -16.0177     8.3238     0.1168     0.1581   118.3108     2.3910
  100.5000     4.2396     2.6040     4.1811   -16.1677     8.3387     0.1168     0.1704   119.9536     2.3809
  101.0000     4.1238     2.4984     4.0386   -16.7665     8.3535     0.1123     0.1820   120.5501     2.3625
  101.5000     4.0669     2.4472     3.9826   -17.2156     8.3534     0.1094     0.1898   120.5486     2.3348
  102.0000     4.1232     2.4821     3.9821   -16.6168     8.3532     0.1050     0.1970   118.7175     2.3138
  102.5000     4.2384     2.5533     3.9816   -15.8683     8.3681     0.1006     0.2021   119.6188     2.3055
