~VERSION INFORMATION
 VERS.                2.0:   CWLS LOG ASCII STANDARD - VERSION 2.0
 WRAP.                 NO:   ONE LINE PER DEPTH STEP
~WELL INFORMATION
#MNEM.UNIT      DATA TYPE    INFORMATION
#----------   ------------   ------------------------------
 STRT.F           32.0000:   START DEPTH
 STOP.F          502.0000:   STOP DEPTH
 STEP.F            0.5000:   STEP LENGTH
 NULL.          -999.2500:   NO VALUE
 COMP.    FENIX & SCISSON:   COMPANY
 WELL. NPR # #3 65-36-SX-3-FP:   WELL
 FLD .             TEAPOT:   FIELD
 LOC .       S3 T38N R78W:   LOCATION
 CNTY.            NATRONA:   COUNTY
 STAT.            WYOMING:   STATE
 CTRY. UNITED STATES OF AMERICA:   COUNTRY
 SRVC.              Welex:   SERVICE COMPANY
 DATE.        15-JUN-1980:   LOGDATE
 API .       490251082600:   API NUMBER
~CURVE INFORMATION
#MNEM.UNIT       API CODE    CURVE DESCRIPTION
#----------   ------------   ------------------------------
 DEPT.F                  :   
 CALD.IN     45 280 60 00:   CALIPER FROM DENSITY LOG
 CORR.G/C3   45 356 01 00:   DENSITY CORRECTION
 DPHI.DEC    45 890 12 00:   DENSITY POROSITY SANDSTONE
 GRD .GAPI   45 310 01 00:   GAMMA RAY FROM DENSITY LOG
 RHOB.G/C3   45 350 01 00:   BULK DENSITY
 NPHI.DEC    42 890 03 00:   NEUTRON POROSITY SANDSTONE
 ILD .OHMM   07 120 46 00:   INDUCTION LOG DEEP
 ILM .OHMM   07 120 44 00:   INDUCTION LOG MEDIUM
 SGRD.OHMM   07 220 05 00:   SHALLOW GUARD RESISTIVITY
 SPR .MV     07 010 01 00:   SPONTANEOUS POTENTIAL FROM RES.
~PARAMETER INFORMATION
#MNEM.UNIT          VALUE    DESCRIPTION
#----------   ------------   ------------------------------
 PD  .                 GL:   PERMANENT DATUM
 EPD .F              5159:   ELEVATION PERMANENT DATUM
 LMF .                 KB:   LOG MEASURED FROM
 DAPD.F                 5:   FEET ABOVE PERMANENT DATUM
 DMF .                 KB:   DRILLING MEASURED FROM
 EKB .F              5164:   KELLING BUSHING
 EGL .F              5159:   GROUND LEVEL
 DATE.            6-15-80:   RUN DATE
 RUN .                  1:   RUN NUMBER
 DD  .F               505:   DEPTH DRILLER
 DL  .F               504:   DEPTH LOGGER
 BLI .F               502:   BOTTOM LOG INTERVAL
 TLI .F                30:   TOP LOG INTERVAL
 BS  .IN            9.875:   BIT SIZE
 BSD .F               505:   BIT SIZE AT DEPTH
 DFT .             2% KCL:   DRILLING FLUID TYPE
 DFD .                9.4:   DRILLING FLUID DENSITY
 DFV .                 51:   DRILLING FLUID VISCOSITY
 DFPH.                 12:   DRILLING FLUID PH
 DFL .                5.6:   DRILLING FLUID LOSS
 MSS .           FLOWLINE:   MUD SAMPLE SOURCE
 RMS .OHMM            .36:   RESISTIVITY MUD SAMPLE
 MST .F                65:   MUD SAMPLE TEMPERATURE
 RMF .OHMM            .29:   RESISTIVITY MUD FILTRATE SAMPLE
 MFST.F                65:   MUD FILTRATE SAMPLE TEMPERATURE
 RMC .OHMM            .42:   RESISTIVITY MUD CAKE
 MCST.F                65:   MUD CAKE SAMPLE TEMPERATURE
 MFSS.           MEASURED:   MUD FILTRATE SAMPLE SOURCE
 MCSS.           MEASURED:   MUD CAKE SAMPLE SOURCE
 RMB .OHMM            .32:   RESISTIVITY MUD AT BHT
 BHT .F                74:   BOTTOM HOLE TEMPERATURE
 TCS .HRS               2:   TIME CURCULATED STOPPED
 MRT .F                74:   MAXIMUM RECORDED TEMPERATURE
 LUN .               1892:   LOGGING UNIT NUMBER
 LUL .             CASPER:   LOGGING UNIT LOCATION
 ENGI.               REIN:   RECORDING ENGINEER
 WITN.              AMEND:   WITNESSED BY
 CLNT.            A2DTECH:   CLIENT CODE
 ORIG.       2", 5" PRINT:   ORIGIN OF DATA
 UWI .       490251082600:   UNIQUE WELL ID
 DICO. A2D Technologies, Inc.:   DIGITIZING COMPANY
~OTHER INFORMATION
~A   DEPT     CALD       CORR       DPHI        GRD       RHOB       NPHI         ILD         ILM       SGRD      SPR   
# ...
  266.5000     9.9721     0.0675     0.1091    94.7616     2.4790     0.2996    10.6569     9.2343     7.4459   -55.2546
  267.0000     9.9733     0.0721     0.1103    93.1535     2.4634     0.3002    10.8014     9.0500     7.5473   -55.1060
  267.5000     9.9744     0.0662     0.1105    92.4264     2.4657     0.3004    10.8733     8.8630     7.3397   -55.2440
  268.0000     9.9754     0.0723     0.1108    92.1416     2.4732     0.3001    10.8699     8.5470     6.9441   -55.3806
  268.5000     9.9763     0.0830     0.1125    92.1523     2.4687     0.2997    10.7925     8.0441     6.2603   -55.6619
  269.0000     9.9773     0.0862     0.1205    92.4577     2.4653     0.3012     8.7733     7.6637     5.7218   -56.2297
  269.5000     9.9865     0.0863     0.1268    94.2381     2.4544     0.3155     8.4739     7.4471     5.4509   -56.5109
  270.0000    10.0098     0.0787     0.1432    98.2308     2.4281     0.3212     8.3557     7.3500     5.0515   -56.5043
  270.5000    10.0250     0.0620     0.1555    99.5686     2.3940     0.3253     8.4109     7.3486     4.9126   -55.9246
  271.0000    10.0404     0.0564     0.1599   101.7915     2.3624     0.3256     9.7859     7.8171     4.8441   -55.0597
  271.5000    10.0414     0.0583     0.1605   101.0644     2.3590     0.3216    11.8665     9.8122     4.9101   -54.4814
  272.0000    10.0425     0.0627     0.1538    97.5350     2.3702     0.3090    12.0281    10.2247     5.1158   -53.6152
  272.5000    10.0435     0.0402     0.1442    94.5956     2.3718     0.3059    12.0243    10.4363     5.4045   -53.1801
  273.0000    10.0447     0.0086     0.1306    94.3084     2.3950     0.3062    12.3574    10.5065     5.7095   -52.7450
  273.5000    10.0456     0.0027     0.1225    95.3539     2.4430     0.3061    13.7941    10.4319     6.2428   -51.8788
  274.0000    10.0466     0.0149     0.1182    96.6918     2.4498     0.3004    13.7906    10.6473     7.0173   -51.5870
  274.5000    10.0478     0.0482     0.1086    97.1447     2.4603     0.3002    13.6924    11.4840     7.7264   -51.1519
  275.0000    10.0487     0.0589     0.1049    97.3026     2.4716     0.3000    13.5006    12.0494     8.6843   -51.0020
  275.5000    10.0498     0.0575     0.1043    97.6080     2.4768     0.2998    13.3123    12.8177     9.1120   -50.9967
  276.0000    10.0507     0.0637     0.1009    97.3235     2.4866     0.2996    13.3089    12.8152     9.1082   -50.9914
  276.5000    10.0518     0.0699     0.0985    96.4490     2.4919     0.3002    13.3976    12.9014     8.9815   -51.1294
  277.0000    10.0528     0.0821     0.0994    94.9567     2.4897     0.3004    13.5793    12.8983     8.9792   -51.2674
  277.5000    10.0540     0.0792     0.1029    94.0683     2.4770     0.3001    13.8788    13.3482     8.9769   -51.1175
  278.0000    10.0550     0.0823     0.1040    93.0443     2.4883     0.2952    15.0501    14.4966     9.6145   -50.5378
  278.5000    10.0561     0.1006     0.0983    91.1312     2.4891     0.2877    16.0095    15.7431    10.6593   -49.8162
  279.0000    10.0571     0.1022     0.1015    85.7257     2.4869     0.2798    17.3841    15.8498    11.1875   -49.3811
  279.5000    10.0286     0.1068     0.1066    80.8747     2.4832     0.2729    19.8139    15.8460    11.9778   -48.6581
  280.0000     9.9938     0.1190     0.1097    77.0503     2.4675     0.2665    19.2689    15.8422    13.3713   -48.3663
  280.5000     9.9717     0.0995     0.1214    76.0283     2.4339     0.2638    27.1907    16.0599    15.2619   -48.2178
  281.0000     9.9726     0.0981     0.1259    75.4488     2.4309     0.2655    36.3126    16.1672    16.6622   -47.9246
  281.5000     9.9736     0.1073     0.1244    74.8692     2.4355     0.2718    32.5120    16.8458    18.3459   -47.4895
  282.0000     9.9746     0.1256     0.1207    72.8147     2.4445     0.2732    25.0111    17.0773    19.6756   -46.9112
  282.5000     9.9757     0.1211     0.1366    71.3503     2.4206     0.2864    25.3519    17.1914    20.7578   -45.7584
  283.0000     9.9767     0.1304     0.1482    72.2456     2.4072     0.3008    25.8752    16.9519    21.3328   -45.1801
  283.5000     9.9777     0.1139     0.1637    77.4183     2.3698     0.3013    26.2277    16.7165    21.7731   -44.8883
  284.0000     9.9935     0.1019     0.1715    78.9037     2.3369     0.3096    26.0393    16.7134    21.7661   -44.8816
  284.5000    10.0093     0.1020     0.1657    79.7990     2.3482     0.3081    25.3246    18.0258    21.0233   -44.3033
  285.0000    10.0104     0.1021     0.1663    80.6944     2.3579     0.3014    25.1426    19.5767    19.2150   -43.8682
  285.5000    10.0262     0.1001     0.1722    81.5898     2.3535  -999.2500    25.1363    23.9047    18.4317   -43.1453
  286.0000    10.0271     0.0900     0.1794    81.6002     2.3376  -999.2500    25.3037    25.9602    17.9259   -42.7102
  286.5000     9.9840     0.0889     0.1829    80.2832     2.3286  -999.2500    26.7300    26.3168    17.9202   -42.2751
  287.0000     9.9618     0.0890     0.1847    79.2612     2.3205  -999.2500    33.5499    26.3106    17.9156   -42.1252
  287.5000     9.9416     0.0906     0.1864    78.5342     2.3185  -999.2500    35.1997    26.3043    17.9111   -42.1199
  288.0000     9.9429     0.0908     0.1873    76.9222     2.3177  -999.2500    33.9963    26.8488    17.6602   -42.2579
  288.5000     9.9289     0.0939     0.1881    75.4577     2.3133  -999.2500    33.5222    28.9586    17.2943   -42.1080
  289.0000     9.9301     0.0955     0.1875    73.6982     2.3096  -999.2500    34.9386    33.2318    17.0531   -41.8162
  289.5000     9.9163     0.0972     0.1880    72.1549     2.3067  -999.2500    36.1449    33.4569    17.4040   -41.6676
  290.0000     9.9028     0.0988     0.1907    70.8948     2.3075     0.3007    35.8852    33.4489    18.5133   -41.6610
  290.5000     9.8891     0.0974     0.1894    70.7770     2.3075     0.2945    34.6037    35.0943    19.8296   -42.0855
  291.0000     9.8751     0.0885     0.1870    70.9351     2.3038     0.2865    31.8984    41.1165    20.6605   -42.3668
  291.5000     9.8614     0.0795     0.1854    71.3899     2.3069     0.2792    24.2046    40.8262    21.2327   -42.5047
  292.0000     9.8775     0.0615     0.1887    72.1358     2.3141     0.2722    22.5308    38.0974    22.4309   -42.4981
  292.5000     9.8785     0.0435     0.1979    72.7362     2.3010     0.2668    20.6437    36.0463    25.3864   -42.4928
  293.0000     9.8943     0.0406     0.2045    75.1065     2.2808     0.2653    19.9392    33.8713    27.3795   -42.1997
  293.5000     9.9099     0.0513     0.2083    75.8544     2.2809     0.2607    19.6599    34.8100    27.9447   -41.7646
  294.0000     9.9131     0.0711     0.2089    75.5698     2.2689     0.2583    19.6900    35.7781    28.5194   -41.3295
  294.5000     9.9430     0.0848     0.2064    74.9903     2.2690     0.2630    19.9240    34.5576    28.7113   -40.7498
  295.0000     9.9720     0.1045     0.1980    74.5582     2.2832     0.2663    20.1942    33.6097    27.9215   -40.4580
  295.5000     9.9730     0.1107     0.1859    74.4185     2.2908     0.2677    20.1878    33.6033    26.4149   -40.5960
  296.0000     9.9593     0.1108     0.1772    74.4316     2.3065     0.2674    20.3223    31.7941    24.4796   -40.7340
  296.5000     9.9456     0.1170     0.1636    74.5895     2.3455     0.2613    20.8839    31.1374    23.3204   -40.9308
  297.0000     9.9319     0.1594     0.1459    74.7474     2.3852     0.2601    21.7603    33.5825    22.6789   -41.2951
  297.5000     9.9329     0.1640     0.1419    75.3478     2.4032     0.2616    22.8304    31.7744    22.3626   -41.8629
  298.0000     9.9635     0.1748     0.1239    75.9482     2.4100     0.2675    24.7915    26.1904    21.8993   -42.1433
  298.5000     9.9322     0.2066     0.1100    76.9911     2.4565     0.2705    26.5542    24.7803    21.5926   -42.2808
  299.0000     9.9349     0.2384     0.1085    78.3290     2.4700     0.2740    27.8600    23.7717    21.5871   -42.4188
  299.5000     9.9381     0.2144     0.1237    79.2243     2.4244     0.2743    29.2282    18.8001    21.7309   -42.2689
