~VERSION INFORMATION
 VERS.                2.0:   CWLS LOG ASCII STANDARD - VERSION 2.0
 WRAP.                 NO:   ONE LINE PER DEPTH STEP
~WELL INFORMATION
#MNEM.UNIT      DATA TYPE    INFORMATION
#----------   ------------   ------------------------------
 STRT.F           70.0000:   START DEPTH
 STOP.F          960.0000:   STOP DEPTH
 STEP.F            0.5000:   STEP LENGTH
 NULL.          -999.2500:   NO VALUE
 COMP. U S NAVY/INTEX OIL CO:   COMPANY
 WELL.      NPR 3 #26S-35:   WELL
 FLD .             TEAPOT:   FIELD
 LOC .      S35 T39N R78W:   LOCATION
 CNTY.            NATRONA:   COUNTY
 STAT.            WYOMING:   STATE
 CTRY. UNITED STATES OF AMERICA:   COUNTRY
 SRVC.         Lane Wells:   SERVICE COMPANY
 DATE.        19-MAR-1960:   LOGDATE
 API .       490250651600:   API NUMBER
~CURVE INFORMATION
#MNEM.UNIT       API CODE    CURVE DESCRIPTION
#----------   ------------   ------------------------------
 DEPT.F                  :   
 ASN .OHMM   05 041 16 00:   AMPLIFIED SHORT NORMAL 16"
 ILD .OHMM   05 120 46 00:   INDUCTION LOG DEEP
 CILD.MMHO   05 110 00 00:   CONDUCTIVITY INDUCTION LOG
 SPR .MV     05 010 01 00:   SPONTANEOUS POTENTIAL FROM RES.
~PARAMETER INFORMATION
#MNEM.UNIT          VALUE    DESCRIPTION
#----------   ------------   ------------------------------
 PD  .                 GL:   PERMANENT DATUM
 EPD .F              5095:   ELEVATION PERMANENT DATUM
 LMF .                 KB:   LOG MEASURED FROM
 DAPD.F                 5:   FEET ABOVE PERMANENT DATUM
 DMF .                 KB:   DRILLING MEASURED FROM
 EKB .F              5101:   KELLING BUSHING
 EGL .F              9096:   GROUND LEVEL
 DATE.          3-19-1960:   RUN DATE
 RUN .                  1:   RUN NUMBER
 DD  .F               977:   DEPTH DRILLER
 DL  .F               959:   DEPTH LOGGER
 BLI .F               957:   BOTTOM LOG INTERVAL
 TLI .F                70:   TOP LOG INTERVAL
 CS  .IN            8.625:   CASING SIZE
 CBD .F                12:   CASING BOTTOM DRILLER
 BS  .IN            7.875:   BIT SIZE
 BSD .F               977:   BIT SIZE AT DEPTH
 DFT .   GEL-OIL EMULSION:   DRILLING FLUID TYPE
 DFD .                9.4:   DRILLING FLUID DENSITY
 DFV .                 40:   DRILLING FLUID VISCOSITY
 DFPH.                7.5:   DRILLING FLUID PH
 DFL .                8.2:   DRILLING FLUID LOSS
 MSS .           FLOWLINE:   MUD SAMPLE SOURCE
 RMS .OHMM            2.2:   RESISTIVITY MUD SAMPLE
 MST .F                64:   MUD SAMPLE TEMPERATURE
 RMF .OHMM            1.5:   RESISTIVITY MUD FILTRATE SAMPLE
 MFST.F                64:   MUD FILTRATE SAMPLE TEMPERATURE
 RMC .OHMM            3.1:   RESISTIVITY MUD CAKE
 MCST.F                64:   MUD CAKE SAMPLE TEMPERATURE
 MFSS.                MUD:   MUD FILTRATE SAMPLE SOURCE
 MCSS.              PRESS:   MUD CAKE SAMPLE SOURCE
 RMB .OHMM            2.0:   RESISTIVITY MUD AT BHT
 BHT .F                71:   BOTTOM HOLE TEMPERATURE
 MRT .F                71:   MAXIMUM RECORDED TEMPERATURE
 LUN .             L-4474:   LOGGING UNIT NUMBER
 LUL .             CASPER:   LOGGING UNIT LOCATION
 ENGI.             NELSON:   RECORDING ENGINEER
 WITN.          JORGENSBN:   WITNESSED BY
 CLNT.            A2DTECH:   CLIENT CODE
 ORIG.      2" & 5" PRINT:   ORIGIN OF DATA
 UWI .       490250651600:   UNIQUE WELL ID
 DICO. A2D Technologies, Inc.:   DIGITIZING COMPANY
~OTHER INFORMATION
~A   DEPT        ASN        ILD      CILD       SPR   
# ...
  873.0000    12.3521    12.1482    99.7886   -42.7478
  873.5000    12.2088    11.9852   103.2852   -42.3163
  874.0000    12.0714    11.7773   106.7818   -41.9912
  874.5000    11.9317    11.5337   110.2854   -41.8002
  875.0000    11.7915    11.3048   111.4744   -41.2058
  875.5000    11.6544    11.0731   112.6659   -41.2920
  876.0000    11.5120    10.8363   113.8573   -41.7335
  876.5000    11.4448    10.6541   115.0488   -41.3809
  877.0000    11.4343    10.5793   116.2402   -41.2034
  877.5000    11.4149    10.5150   117.4197   -41.1797
  878.0000    11.4001    10.4515   117.4197   -41.1342
  878.5000    11.3827    10.3881   117.4197   -41.0983
  879.0000    11.3667    10.3241   117.4197   -41.0668
  879.5000    11.3501    10.2873   117.4197   -41.0610
  880.0000    11.3337    10.2704   117.4197   -41.0689
  880.5000    11.3172    10.2511   117.4197   -41.0535
  881.0000    11.3006    10.2330   117.4197   -41.0867
  881.5000    11.2841    10.2116   117.4152   -40.7613
  882.0000    11.2674    10.1795   117.4131   -40.1639
  882.5000    11.2510    10.1393   117.4118   -40.0754
  883.0000    11.2341    10.1018   117.6291   -40.3034
  883.5000    11.2182    10.0607   117.9755   -40.4833
  884.0000    11.2002    10.0355   118.3232   -40.6923
  884.5000    11.1911    10.0526   118.6709   -40.8524
  885.0000    11.1923    10.0677   119.0173   -40.7056
  885.5000    11.1917    10.0850   119.2033   -40.5047
  886.0000    11.1919    10.0989   119.2033   -40.3215
  886.5000    11.1917    10.1186   119.2033   -40.1220
  887.0000    11.1917    10.0949   119.2033   -39.9440
  887.5000    11.1916    10.0350   119.2033   -39.7252
  888.0000    11.1914    10.0477   119.2033   -39.6808
  888.5000    11.1954    10.0761   119.2033   -39.8580
  889.0000    11.2632    10.1042   119.2033   -40.0046
  889.5000    11.3521    10.1299   119.2033   -40.1695
  890.0000    11.4368    10.1513   119.2033   -40.3213
  890.5000    11.5242    10.1745   119.3750   -40.4856
  891.0000    11.6073    10.2008   119.7473   -40.6333
  891.5000    11.6691    10.2023   120.1197   -40.8117
  892.0000    11.7173    10.1753   120.4920   -40.8465
  892.5000    11.7651    10.1528   120.8643   -40.7127
  893.0000    11.8048    10.1280   121.2125   -40.6033
  893.5000    11.6867    10.1044   121.5586   -40.4817
  894.0000    11.5270    10.0803   121.9058   -40.3653
  894.5000    11.3743    10.0562   122.2528   -40.2491
  895.0000    11.2202    10.0325   122.5986   -40.1272
  895.5000    11.0629    10.0078   122.7785   -40.0184
  896.0000    10.9329     9.9853   122.7784   -39.8797
  896.5000    10.9227     9.9578   122.7772   -39.8392
  897.0000    10.9240     9.9431   122.7705   -39.9779
  897.5000    10.9231     9.9567   122.7705   -40.0989
  898.0000    10.9242     9.9682   122.7705   -40.2337
  898.5000    10.9226     9.9796   122.7705   -40.3551
  899.0000    10.9253     9.9932   122.7705   -40.4915
  899.5000    10.9194    10.0015   121.5120   -40.4879
  900.0000    10.9611    10.0197   120.3636   -40.4081
  900.5000    11.0853    10.0176   119.2152   -40.3391
  901.0000    11.2077    10.1336   118.0668   -40.2775
  901.5000    11.3321    10.3301   116.9183   -40.1856
  902.0000    11.4590    10.4883   115.6361   -40.3672
  902.5000    11.6481    10.6783   113.7896   -40.9477
  903.0000    11.9730    10.9810   111.6997   -41.2975
  903.5000    12.2989    11.3262   109.6097   -41.3849
  904.0000    12.6793    12.0010   105.5557   -41.5232
  904.5000    13.6073    12.6853    99.2859   -41.6293
  905.0000    14.5325    13.3556    93.0160   -41.8305
  905.5000    15.3749    14.1098    87.0987   -42.8465
  906.0000    16.1743    15.0175    84.6298   -44.1507
  906.5000    16.9737    16.0944    82.2924   -45.4474
  907.0000    17.4716    16.5575    79.9549   -47.0452
  907.5000    17.7913    16.6559    78.1807   -48.1420
  908.0000    18.2372    16.7101    78.1807   -48.1896
  908.5000    18.1192    16.6195    78.1569   -48.1548
  909.0000    17.9004    16.5556    78.4478   -48.1106
  909.5000    17.6918    16.4861    79.1195   -48.0443
  910.0000    17.4904    16.4158    79.7893   -48.3677
  910.5000    17.2828    16.3484    80.4599   -49.3096
  911.0000    17.0855    16.2575    81.1320   -49.4864
  911.5000    16.9072    16.0187    81.8038   -48.7697
  912.0000    16.7312    15.7471    82.4737   -48.1288
  912.5000    16.5554    15.6409    83.1302   -47.5401
  913.0000    16.5227    15.6525    83.7277   -47.4213
  913.5000    16.5123    15.6482    84.2212   -47.3669
  914.0000    16.4924    15.6040    84.7146   -47.1921
  914.5000    16.4840    15.5580    85.3151   -46.9360
  915.0000    16.4562    15.4782    84.5422   -46.7076
  915.5000    16.4967    15.6135    83.5553   -46.4424
  916.0000    16.8526    15.9955    82.5684   -46.0321
  916.5000    17.1974    16.3922    81.5815   -45.5535
  917.0000    17.5676    16.5382    80.5945   -45.0826
  917.5000    17.8025    16.4849    79.6076   -44.2034
  918.0000    17.9254    16.2791    78.6207   -43.4198
  918.5000    17.6574    15.6956    79.6099   -42.5938
  919.0000    17.3151    15.4037    82.1886   -42.6471
  919.5000    16.6602    15.2346    84.7674   -42.8770
  920.0000    15.8544    14.5724    87.3461   -43.1022
  920.5000    15.2338    13.9540    89.9248   -43.1421
  921.0000    14.8847    13.3266    92.5035   -42.9107
  921.5000    14.5373    13.1460    94.2331   -42.7228
  922.0000    14.1495    13.1985    94.2331   -42.5115
  922.5000    14.1255    13.2033    94.2331   -42.3411
  923.0000    14.0983    13.2389    94.2331   -42.5323
  923.5000    14.0762    13.2058    94.2331   -42.7049
  924.0000    14.0591    13.1245    94.2331   -43.2112
  924.5000    14.0394    13.0499    94.2331   -43.7684
  925.0000    14.0204    12.9722    94.2331   -43.8696
  925.5000    14.0026    12.8882    94.2331   -44.0081
  926.0000    13.9806    12.7601    94.2331   -44.0605
  926.5000    13.9681    12.6166    94.2331   -43.7028
  927.0000    13.9083    12.4729    95.8098   -43.2649
  927.5000    13.7754    12.3328    97.5862   -42.9021
  928.0000    13.5271    12.1805    99.3627   -43.0099
  928.5000    13.2419    12.0143   101.1391   -43.1888
  929.0000    12.9976    11.8167   102.9156   -43.3655
  929.5000    13.1430    11.5958   104.6920   -43.3838
  930.0000    13.0801    11.3910   106.4685   -43.1202
  930.5000    12.7852    11.1571   108.2449   -42.7220
  931.0000    12.4999    10.9381   110.0214   -42.8396
  931.5000    12.2107    10.7440   112.0690   -43.0676
  932.0000    11.9233    10.4991   113.4439   -43.3122
  932.5000    11.7445    10.3554   115.6915   -43.2607
  933.0000    11.6402    10.3090   117.9427   -42.9488
  933.5000    11.5301    10.2470   119.6851   -42.6859
  934.0000    11.4231    10.1921   120.7609   -42.4130
  934.5000    11.3158    10.1343   121.8278   -42.1152
  935.0000    11.2062    10.0757   122.8917   -41.9310
  935.5000    11.1119    10.0335   123.9291   -41.9196
  936.0000    11.1222    10.0325   124.6152   -41.8753
  936.5000    11.1455    10.0323   124.7628   -41.8485
  937.0000    11.1659    10.0326   124.9105   -41.8124
  937.5000    11.1892    10.0325   125.0582   -41.7602
  938.0000    11.1923    10.0326   125.2058   -41.3941
  938.5000    11.1917    10.0325   125.3535   -41.0968
  939.0000    11.1921    10.0327   125.5012   -41.2558
  939.5000    11.1918    10.0324   125.6488   -41.4243
  940.0000    11.1922    10.0330   125.7965   -41.5953
  940.5000    11.1914    10.0318   125.9442   -41.7627
  941.0000    11.1927    10.0404   126.0919   -41.9344
  941.5000    11.1900    10.0627   126.2395   -42.0998
  942.0000    11.2107    10.0839   126.3872   -42.2728
  942.5000    11.2508    10.1060   126.5349   -42.2861
  943.0000    11.2872    10.1274   126.6825   -42.2123
  943.5000    11.3237    10.1496   126.8302   -42.1620
  944.0000    11.3628    10.1705   126.9779   -42.0990
  944.5000    11.3954    10.1940   127.1255   -42.0470
  945.0000    11.4427    10.2060   127.2732   -41.9806
  945.5000    11.4242    10.1681   127.4209   -41.9872
