~VERSION INFORMATION
 VERS.                2.0:   CWLS LOG ASCII STANDARD - VERSION 2.0
 WRAP.                 NO:   ONE LINE PER DEPTH STEP
~WELL INFORMATION
#MNEM.UNIT      DATA TYPE    INFORMATION
#----------   ------------   ------------------------------
 STRT.F            0.5000:   START DEPTH
 STOP.F         3087.0000:   STOP DEPTH
 STEP.F            0.5000:   STEP LENGTH
 NULL.          -999.2500:   NO VALUE
 COMP. DEPARTMENT OF ENERGY:   COMPANY
 WELL.    NPR-3 #201-A-29:   WELL
 FLD . TEAPOT NAVAL RESERVE:   FIELD
 LOC .      S29 T39N R78W:   LOCATION
 CNTY.            NATRONA:   COUNTY
 STAT.            WYOMING:   STATE
 CTRY. UNITED STATES OF AMERICA:   COUNTRY
 SRVC.      NL McCullough:   SERVICE COMPANY
 DATE.        24-JUN-1965:   LOGDATE
 API .       490251144400:   API NUMBER
~CURVE INFORMATION
#MNEM.UNIT       API CODE    CURVE DESCRIPTION
#----------   ------------   ------------------------------
 DEPT.F                  :   
 GRR .GAPI   30 310 01 00:   GAMMA RAY
 CALI.IN     30 280 01 00:   CALIPER
~PARAMETER INFORMATION
#MNEM.UNIT          VALUE    DESCRIPTION
#----------   ------------   ------------------------------
 PD  .                 GL:   PERMANENT DATUM
 LMF .                 GL:   LOG MEASURED FROM
 EDF .F              5012:   DRILLING FLOOR
 DATE.        24-JUN-1965:   RUN DATE
 RUN .                  1:   RUN NUMBER
 DD  .F              2782:   DEPTH DRILLER
 DL  .F              2772:   DEPTH LOGGER
 BLI .F              2770:   BOTTOM LOG INTERVAL
 TLI .F              2300:   TOP LOG INTERVAL
 CS  .IN            6.625:   CASING SIZE
 CBD .F              2756:   CASING BOTTOM DRILLER
 ENGI.         COWLTHORPE:   RECORDING ENGINEER
 WITN.             HUDSON:   WITNESSED BY
 CLNT.            A2DTECH:   CLIENT CODE
 ORIG.           5" PRINT:   ORIGIN OF DATA
 UWI .       490251144400:   UNIQUE WELL ID
 DICO. A2D Technologies, Inc.:   DIGITIZING COMPANY
~OTHER INFORMATION
~A    DEPT     GRR         CALI 
    0.5000  -999.2500     5.0069
    1.0000  -999.2500     5.2703
    1.5000  -999.2500     5.9068
    2.0000  -999.2500     6.2925
    2.5000  -999.2500     6.3276
    3.0000  -999.2500     6.3286
    3.5000  -999.2500     6.3309
    4.0000  -999.2500     6.3336
    4.5000  -999.2500     6.3362
    5.0000  -999.2500     6.3388
    5.5000  -999.2500     6.3414
    6.0000  -999.2500     6.3441
    6.5000  -999.2500     6.3449
    7.0000  -999.2500     6.3449
    7.5000  -999.2500     6.3449
    8.0000  -999.2500     6.3449
    8.5000  -999.2500     6.3449
    9.0000  -999.2500     6.3449
    9.5000  -999.2500     6.3449
   10.0000  -999.2500     6.3449
   10.5000  -999.2500     6.3449
   11.0000  -999.2500     6.3449
   11.5000  -999.2500     6.3449
   12.0000  -999.2500     6.3449
   12.5000  -999.2500     6.3449
   13.0000  -999.2500     6.3449
   13.5000  -999.2500     6.3449
   14.0000  -999.2500     6.3449
   14.5000  -999.2500     6.3449
   15.0000  -999.2500     6.3449
   15.5000  -999.2500     6.3449
   16.0000  -999.2500     6.3448
   16.5000  -999.2500     6.3449
   17.0000  -999.2500     6.3444
   17.5000  -999.2500     6.3683
   18.0000  -999.2500     6.3853
   18.5000  -999.2500     6.3865
   19.0000  -999.2500     6.3877
   19.5000  -999.2500     6.3888
   20.0000  -999.2500     6.3899
   20.5000  -999.2500     6.3910
   21.0000  -999.2500     6.3922
   21.5000  -999.2500     6.3933
   22.0000  -999.2500     6.3944
   22.5000  -999.2500     6.3956
   23.0000  -999.2500     6.3967
   23.5000  -999.2500     6.3978
   24.0000  -999.2500     6.3990
   24.5000  -999.2500     6.4001
   25.0000  -999.2500     6.4012
   25.5000  -999.2500     6.4024
   26.0000  -999.2500     6.4035
   26.5000  -999.2500     6.4046
   27.0000  -999.2500     6.4048
   27.5000  -999.2500     6.4048
   28.0000  -999.2500     6.4048
   28.5000  -999.2500     6.4048
   29.0000  -999.2500     6.4048
   29.5000  -999.2500     6.4048
   30.0000  -999.2500     6.4048
   30.5000  -999.2500     6.4048
   31.0000  -999.2500     6.4048
   31.5000  -999.2500     6.4047
   32.0000  -999.2500     6.4046
   32.5000  -999.2500     6.4051
   33.0000  -999.2500     6.4443
   33.5000  -999.2500     6.4448
   34.0000  -999.2500     6.4447
   34.5000  -999.2500     6.4447
   35.0000  -999.2500     6.4447
   35.5000  -999.2500     6.4447
   36.0000  -999.2500     6.4447
   36.5000  -999.2500     6.4447
   37.0000  -999.2500     6.4447
   37.5000  -999.2500     6.4447
   38.0000  -999.2500     6.4447
   38.5000  -999.2500     6.4447
   39.0000  -999.2500     6.4449
   39.5000  -999.2500     6.4451
   40.0000  -999.2500     6.4307
   40.5000  -999.2500     6.3653
   41.0000  -999.2500     6.3649
   41.5000  -999.2500     6.3647
   42.0000  -999.2500     6.3648
   42.5000  -999.2500     6.3648
   43.0000  -999.2500     6.3648
   43.5000  -999.2500     6.3648
   44.0000  -999.2500     6.3648
   44.5000  -999.2500     6.3648
   45.0000  -999.2500     6.3648
   45.5000  -999.2500     6.3648
   46.0000  -999.2500     6.3648
   46.5000  -999.2500     6.3648
   47.0000  -999.2500     6.3648
   47.5000  -999.2500     6.3648
   48.0000  -999.2500     6.3648
   48.5000  -999.2500     6.3648
   49.0000  -999.2500     6.3648
   49.5000  -999.2500     6.3648
   50.0000  -999.2500     6.3648
   50.5000  -999.2500     6.3648
   51.0000  -999.2500     6.3648
   51.5000  -999.2500     6.3648
   52.0000  -999.2500     6.3648
   52.5000  -999.2500     6.3648
   53.0000  -999.2500     6.3648
   53.5000  -999.2500     6.3648
   54.0000  -999.2500     6.3648
   54.5000  -999.2500     6.3648
   55.0000  -999.2500     6.3648
   55.5000  -999.2500     6.3648
   56.0000  -999.2500     6.3648
   56.5000  -999.2500     6.3648
   57.0000  -999.2500     6.3648
   57.5000  -999.2500     6.3654
   58.0000  -999.2500     6.3664
   58.5000  -999.2500     6.3674
   59.0000  -999.2500     6.3684
   59.5000  -999.2500     6.3695
   60.0000  -999.2500     6.3705
   60.5000  -999.2500     6.3715
   61.0000  -999.2500     6.3725
   61.5000  -999.2500     6.3735
   62.0000  -999.2500     6.3745
   62.5000  -999.2500     6.3756
   63.0000  -999.2500     6.3766
   63.5000  -999.2500     6.3776
   64.0000  -999.2500     6.3786
   64.5000  -999.2500     6.3797
   65.0000  -999.2500     6.3807
   65.5000  -999.2500     6.3817
   66.0000  -999.2500     6.3827
   66.5000  -999.2500     6.3837
   67.0000  -999.2500     6.3847
   67.5000  -999.2500     6.3848
   68.0000  -999.2500     6.3848
   68.5000  -999.2500     6.3848
   69.0000  -999.2500     6.3848
   69.5000  -999.2500     6.3848
   70.0000  -999.2500     6.3848
   70.5000  -999.2500     6.3848
   71.0000  -999.2500     6.3848
   71.5000  -999.2500     6.3848
   72.0000  -999.2500     6.3848
   72.5000  -999.2500     6.3848
   73.0000  -999.2500     6.3848
   73.5000  -999.2500     6.3848
   74.0000  -999.2500     6.3848
   74.5000  -999.2500     6.3848
   75.0000  -999.2500     6.3848
   75.5000  -999.2500     6.3848
   76.0000  -999.2500     6.3848
   76.5000  -999.2500     6.3848
   77.0000  -999.2500     6.3848
   77.5000  -999.2500     6.3847
   78.0000  -999.2500     6.3828
   78.5000  -999.2500     6.3809
   79.0000  -999.2500     6.3790
   79.5000  -999.2500     6.3770
   80.0000  -999.2500     6.3751
   80.5000  -999.2500     6.3731
   81.0000  -999.2500     6.3712
   81.5000  -999.2500     6.3692
   82.0000  -999.2500     6.3673
   82.5000  -999.2500     6.3653
   83.0000  -999.2500     6.3634
   83.5000  -999.2500     6.3615
   84.0000  -999.2500     6.3595
   84.5000  -999.2500     6.3576
   85.0000  -999.2500     6.3556
   85.5000  -999.2500     6.3537
   86.0000  -999.2500     6.3517
   86.5000  -999.2500     6.3498
   87.0000  -999.2500     6.3479
   87.5000  -999.2500     6.3459
   88.0000  -999.2500     6.3453
   88.5000  -999.2500     6.3464
   89.0000  -999.2500     6.3474
   89.5000  -999.2500     6.3485
   90.0000  -999.2500     6.3495
   90.5000  -999.2500     6.3506
   91.0000  -999.2500     6.3517
   91.5000  -999.2500     6.3527
   92.0000  -999.2500     6.3538
   92.5000  -999.2500     6.3548
   93.0000  -999.2500     6.3559
   93.5000  -999.2500     6.3569
   94.0000  -999.2500     6.3580
   94.5000  -999.2500     6.3590
   95.0000  -999.2500     6.3601
   95.5000  -999.2500     6.3611
   96.0000  -999.2500     6.3622
   96.5000  -999.2500     6.3632
   97.0000  -999.2500     6.3643
   97.5000  -999.2500     6.3653
   98.0000  -999.2500     6.3664
   98.5000  -999.2500     6.3674
   99.0000  -999.2500     6.3684
   99.5000  -999.2500     6.3695
  100.0000  -999.2500     6.3705
  100.5000  -999.2500     6.3715
  101.0000  -999.2500     6.3726
  101.5000  -999.2500     6.3736
  102.0000  -999.2500     6.3746
  102.5000  -999.2500     6.3756
  103.0000  -999.2500     6.3767
  103.5000  -999.2500     6.3777
  104.0000  -999.2500     6.3787
  104.5000  -999.2500     6.3798
  105.0000  -999.2500     6.3808
  105.5000  -999.2500     6.3818
  106.0000  -999.2500     6.3829
  106.5000  -999.2500     6.3839
  107.0000  -999.2500     6.3845
  107.5000  -999.2500     6.3821
  108.0000  -999.2500     6.3797
  108.5000  -999.2500     6.3773
  109.0000  -999.2500     6.3750
  109.5000  -999.2500     6.3726
  110.0000  -999.2500     6.3702
  110.5000  -999.2500     6.3678
  111.0000  -999.2500     6.3654
  111.5000  -999.2500     6.3630
  112.0000  -999.2500     6.3607
  112.5000  -999.2500     6.3583
  113.0000  -999.2500     6.3559
  113.5000  -999.2500     6.3535
  114.0000  -999.2500     6.3511
  114.5000  -999.2500     6.3488
  115.0000  -999.2500     6.3464
  115.5000  -999.2500     6.3451
  116.0000  -999.2500     6.3460
  116.5000  -999.2500     6.3469
  117.0000  -999.2500     6.3478
  117.5000  -999.2500     6.3487
  118.0000  -999.2500     6.3496
  118.5000  -999.2500     6.3504
  119.0000  -999.2500     6.3513
  119.5000  -999.2500     6.3522
  120.0000  -999.2500     6.3531
  120.5000  -999.2500     6.3540
  121.0000  -999.2500     6.3548
  121.5000  -999.2500     6.3557
