~VERSION INFORMATION
 VERS.                2.0:   CWLS LOG ASCII STANDARD - VERSION 2.0
 WRAP.                 NO:   ONE LINE PER DEPTH STEP
~WELL INFORMATION
#MNEM.UNIT      DATA TYPE    INFORMATION
#----------   ------------   ------------------------------
 STRT.F           34.0000:   START DEPTH
 STOP.F          638.0000:   STOP DEPTH
 STEP.F            0.5000:   STEP LENGTH
 NULL.          -999.2500:   NO VALUE
 COMP. FENIX & SCISSON INC:   COMPANY
 WELL. S N.P.R. #3 #33-34:   WELL
 FLD .             TEAPOT:   FIELD
 LOC .      S34 T39N R78W:   LOCATION
 CNTY.            NATRONA:   COUNTY
 STAT.            WYOMING:   STATE
 CTRY. UNITED STATES OF AMERICA:   COUNTRY
 SRVC.       Schlumberger:   SERVICE COMPANY
 DATE.        18-MAR-1977:   LOGDATE
 API .       490251030400:   API NUMBER
~CURVE INFORMATION
#MNEM.UNIT       API CODE    CURVE DESCRIPTION
#----------   ------------   ------------------------------
 DEPT.F                  :   
 LL8 .OHMM   07 220 08 00:   LATEROLOG-8 RES.
 ILD .OHMM   07 120 46 00:   INDUCTION LOG DEEP
 ILM .OHMM   07 120 44 00:   INDUCTION LOG MEDIUM
 SPR .MV     07 010 01 00:   SPONTANEOUS POTENTIAL
 GRD .GAPI   45 310 01 00:   GAMMA RAY FROM DENSITY LOG
 CALD.IN     45 280 60 00:   CALIPER FROM DENSITY LOG
 RHOB.G/C3   45 350 01 00:   BULK DENSITY
 CORR.G/C3   45 356 01 00:   DENSITY CORRECTION
 DPHI.DEC    45 890 12 00:   DENSITY POROSITY SANDSTONE
~PARAMETER INFORMATION
#MNEM.UNIT          VALUE    DESCRIPTION
#----------   ------------   ------------------------------
 PD  .                 GL:   PERMANENT DATUM
 EPD .F              5081:   ELEVATION PERMANENT DATUM
 LMF .                 KB:   LOG MEASURED FROM
 DAPD.F                 5:   FEET ABOVE PERMANENT DATUM
 DMF .                 KB:   DRILLING MEASURED FROM
 EKB .F              5086:   KELLING BUSHING
 EGL .F              5081:   GROUND LEVEL
 DATE.            3-18-77:   RUN DATE
 RUN .                  1:   RUN NUMBER
 DD  .F               631:   DEPTH DRILLER
 DL  .F               637:   DEPTH LOGGER
 BLI .F               631:   BOTTOM LOG INTERVAL
 TLI .F                45:   TOP LOG INTERVAL
 CS  .IN            8.625:   CASING SIZE
 CBD .F                40:   CASING BOTTOM DRILLER
 CBL .F                45:   CASING BOTTOM LOGGER
 BS  .IN            7.875:   BIT SIZE
 BSD .F               631:   BIT SIZE AT DEPTH
 DFT .            KCL MUD:   DRILLING FLUID TYPE
 DFD .                8.7:   DRILLING FLUID DENSITY
 DFV .                 31:   DRILLING FLUID VISCOSITY
 DFPH.                  8:   DRILLING FLUID PH
 DFL .                8.2:   DRILLING FLUID LOSS
 MSS .                PIT:   MUD SAMPLE SOURCE
 RMS .OHMM            .27:   RESISTIVITY MUD SAMPLE
 MST .F                60:   MUD SAMPLE TEMPERATURE
 RMF .OHMM            .25:   RESISTIVITY MUD FILTRATE SAMPLE
 MFST.F                60:   MUD FILTRATE SAMPLE TEMPERATURE
 MFSS.                  M:   MUD FILTRATE SAMPLE SOURCE
 TCS .HRS            0400:   TIME CURCULATED STOPPED
 TLAB.HRS            0530:   TIME LOGGER AT BOTTOM
 LUN .               7711:   LOGGING UNIT NUMBER
 LUL .               CSPR:   LOGGING UNIT LOCATION
 ENGI.             SAYLER:   RECORDING ENGINEER
 WITN.         STUEBINGER:   WITNESSED BY
 CLNT.            A2DTECH:   CLIENT CODE
 ORIG.        2" 5" PRINT:   ORIGIN OF DATA
 UWI .       490251030400:   UNIQUE WELL ID
 DICO. A2D Technologies, Inc.:   DIGITIZING COMPANY
~OTHER INFORMATION
~A   DEPT      LL8        ILD        ILM        SPR         GRD      CALD       RHOB       CORR       DPHI   
# ...
  107.0000    11.1560    12.4415    13.2596   -40.1632    80.6428     8.3354     2.3959     0.0087     0.1551
  107.5000    11.6532    12.6200    13.4262   -39.4588    80.8878     8.3347     2.3906     0.0064     0.1586
  108.0000    12.2087    12.8011    13.5948   -38.7541    80.8191     8.3340     2.3911     0.0088     0.1562
  108.5000    12.3240    12.9848    13.7656   -38.0510    80.7422     8.3334     2.3917     0.0115     0.1562
  109.0000    12.3202    13.1711    13.9385   -37.3473    80.0054     8.3327     2.3923     0.0143     0.1574
  109.5000    12.2630    13.3601    14.1136   -36.6171    78.3214     8.3320     2.3875     0.0171     0.1566
  110.0000    12.1818    13.5518    14.2909   -36.2897    76.6558     8.3314     2.3797     0.0143     0.1614
  110.5000    12.1012    13.7463    14.4704   -36.0885    75.2380     8.3307     2.3729     0.0103     0.1671
  111.0000    12.0209    13.9436    14.6522   -36.0549    74.9934     8.3301     2.3719     0.0068     0.1699
  111.5000    11.9414    14.1437    14.8362   -36.2315    75.3894     8.3294     2.3765     0.0129     0.1674
  112.0000    11.8848    14.3466    15.0226   -36.4179    77.0233     8.3288     2.3885     0.0194     0.1594
  112.5000    13.0929    14.5525    15.2208   -36.6027    78.7050     8.3281     2.4016     0.0247     0.1514
  113.0000    14.2549    14.7613    15.1790   -36.7865    80.4103     8.3275     2.4147     0.0200     0.1434
  113.5000    14.8070    14.9731    15.1235   -36.9686    80.7141     8.3268     2.4280     0.0152     0.1355
  114.0000    14.1221    15.1880    15.0683   -37.0535    81.0574     8.3262     2.4317     0.0143     0.1318
  114.5000    13.2629    15.5026    15.0132   -36.8241    81.4869     8.3255     2.4192     0.0125     0.1389
  115.0000    12.9007    15.4792    14.9583   -36.6895    81.2604     8.3249     2.3986     0.0070     0.1504
  115.5000    12.9642    15.4376    14.9037   -36.3829    81.0534     8.3242     2.3838     0.0035     0.1622
  116.0000    13.0307    15.3961    14.8492   -35.9188    81.2015     8.3236     2.3825     0.0051     0.1616
  116.5000    13.0975    15.3544    14.7949   -35.4516    82.0040     8.3229     2.3882     0.0068     0.1598
  117.0000    13.1646    15.3129    14.7408   -34.9803    82.7957     8.3223     2.3807     0.0085     0.1606
  117.5000    13.2321    15.2715    14.6869   -34.5096    83.5791     8.3216     2.3854     0.0105     0.1622
  118.0000    13.2612    15.2302    14.6333   -34.0390    83.9329     8.3210     2.3921     0.0167     0.1588
  118.5000    13.1566    15.1890    14.5798   -33.5685    83.2565     8.3203     2.3944     0.0200     0.1558
  119.0000    13.0678    15.1479    14.5265   -33.0978    81.6765     8.3197     2.3891     0.0210     0.1585
  119.5000    12.9796    15.1069    14.4734   -32.6272    80.0785     8.3190     2.3878     0.0248     0.1594
  120.0000    12.8919    15.0661    14.4205   -32.1575    78.6130     8.3184     2.3965     0.0323     0.1556
  120.5000    12.8050    15.0254    14.3673   -31.6841    77.8584     8.3177     2.4027     0.0314     0.1514
  121.0000    12.7186    14.9847    14.3143   -31.4750    77.8094     8.3171     2.3942     0.0249     0.1522
  121.5000    12.6714    14.9437    14.2731   -31.3763    78.6492     8.3164     2.3854     0.0185     0.1590
  122.0000    12.7236    15.1173    14.4963   -31.2792    79.9840     8.3176     2.3884     0.0152     0.1598
  122.5000    12.7827    15.2955    14.6889   -31.1833    80.9298     8.3204     2.3975     0.0143     0.1554
  123.0000    12.6386    15.4757    14.8834   -31.0869    80.9155     8.3231     2.4059     0.0136     0.1498
  123.5000    12.3986    15.6581    15.0816   -30.9900    79.7243     8.3259     2.3976     0.0113     0.1482
  124.0000    12.2087    15.8427    15.0560   -30.8965    77.4234     8.3287     2.3863     0.0084     0.1608
  124.5000    13.4167    16.0294    15.0304   -30.8935    75.1060     8.3315     2.3854     0.0096     0.1626
  125.0000    14.5183    16.2183    15.0048   -30.8939    74.6922     8.3343     2.4049     0.0109     0.1479
  125.5000    15.2208    16.4095    14.9792   -30.8935    76.0983     8.3371     2.4167     0.0121     0.1414
  126.0000    14.4391    16.6028    14.9436   -30.8332    77.5051     8.3399     2.4113     0.0100     0.1434
  126.5000    13.2299    16.7986    14.9631   -30.6791    78.4917     8.3427     2.3940     0.0049     0.1540
  127.0000    12.7827    16.9950    15.0112   -30.5259    76.7551     8.3455     2.3776     0.0067     0.1639
  127.5000    13.0359    16.9259    15.0595   -30.3722    74.7764     8.3483     2.3692     0.0112     0.1697
  128.0000    13.2495    16.8577    15.1080   -30.2204    74.8373     8.3511     2.3622     0.0157     0.1755
  128.5000    13.4665    16.7898    15.1566   -30.1102    75.5125     8.3538     2.3577     0.0166     0.1786
  129.0000    13.5313    16.7221    15.2053   -30.1897    76.2086     8.3553     2.3560     0.0126     0.1791
  129.5000    13.5610    16.6548    15.2542   -30.2647    76.9209     8.3525     2.3542     0.0084     0.1794
  130.0000    13.5907    16.5876    15.3033   -30.3391    77.8163     8.3498     2.3525     0.0041     0.1802
  130.5000    13.6206    16.5208    15.3613   -30.4139    79.3632     8.3471     2.3507     0.0049     0.1818
  131.0000    13.6504    16.4543    15.3242   -30.4882    81.2203     8.3444     2.3508     0.0081     0.1842
  131.5000    13.6804    16.3880    15.2793   -30.5621    83.0889     8.3418     2.3568     0.0106     0.1795
  132.0000    13.7104    16.3219    15.2344   -30.6387    83.3479     8.3391     2.3617     0.0088     0.1762
  132.5000    13.7577    16.2561    15.1897   -30.7981    80.7821     8.3364     2.3591     0.0061     0.1771
  133.0000    13.5948    16.1024    15.1452   -31.2823    78.9791     8.3337     2.3563     0.0035     0.1791
  133.5000    13.2245    15.8992    15.1007   -31.7604    79.5516     8.3311     2.3535     0.0023     0.1805
  134.0000    12.8653    15.6986    15.0564   -32.2376    80.5453     8.3284     2.3533     0.0015     0.1813
  134.5000    12.5157    15.5005    15.0122   -32.7166    80.0779     8.3257     2.3545     0.0049     0.1804
  135.0000    12.3186    15.3049    14.9682   -33.2514    79.0794     8.3230     2.3566     0.0103     0.1781
  135.5000    12.3227    15.1118    14.9437   -33.9879    79.7474     8.3204     2.3624     0.0153     0.1759
  136.0000    12.3214    14.6384    14.6715   -34.7212    81.9095     8.3177     2.3691     0.0176     0.1717
  136.5000    12.3214    14.1292    13.7297   -35.4533    84.0656     8.3150     2.3759     0.0145     0.1662
  137.0000    12.3214    13.5226    12.8465   -36.4333    85.1126     8.3123     2.3827     0.0094     0.1614
  137.5000    12.1110    12.6129    12.0201   -37.7291    86.4060     8.3097     2.3990     0.0158     0.1552
  138.0000    10.9914    11.7650    11.2469   -39.0206    88.0816     8.3070     2.4212     0.0292     0.1429
  138.5000     9.6417    10.9732    10.5234   -40.3120    89.0578     8.3043     2.4430     0.0350     0.1306
  139.0000     8.4578    10.2349     9.8465   -41.6039    90.3909     8.3016     2.4522     0.0277     0.1198
  139.5000     7.9792     9.5464     9.2131   -42.8981    93.3911     8.2990     2.4609     0.0195     0.1158
  140.0000     7.6203     8.9043     8.6204   -44.1888    96.3635     8.2963     2.4611     0.0072     0.1144
  140.5000     7.3656     8.3053     8.0659   -45.3591    99.0712     8.2938     2.4522     0.0006     0.1177
  141.0000     7.2982     7.9274     7.7118   -45.6386   100.2745     8.2914     2.4508     0.0059     0.1194
  141.5000     7.2982     7.8549     7.6413   -45.9821   100.7889     8.2890     2.4594     0.0073     0.1170
  142.0000     7.2982     7.9552     7.7487   -46.1957   100.5326     8.2866     2.4525     0.0014     0.1189
  142.5000     7.4316     8.0725     7.8745   -46.2503   100.0731     8.2842     2.4574     0.0095     0.1174
  143.0000     7.6355     8.1916     8.0024   -46.5154    99.6111     8.2818     2.4713     0.0166     0.1109
