~VERSION INFORMATION
 VERS.                2.0:   CWLS LOG ASCII STANDARD - VERSION 2.0
 WRAP.                 NO:   ONE LINE PER DEPTH STEP
~WELL INFORMATION
#MNEM.UNIT      DATA TYPE    INFORMATION
#----------   ------------   ------------------------------
 STRT.F          100.0000:   START DEPTH
 STOP.F         1196.0000:   STOP DEPTH
 STEP.F            0.5000:   STEP LENGTH
 NULL.          -999.2500:   NO VALUE
 COMP. DEPARTMENT OF ENERGY:   COMPANY
 WELL.     NRP ##3 77S-11:   WELL
 FLD .             TEAPOT:   FIELD
 LOC .      S11 T38N R78W:   LOCATION
 CNTY.            NATRONA:   COUNTY
 STAT.            WYOMING:   STATE
 CTRY. UNITED STATES OF AMERICA:   COUNTRY
 SRVC.       Schlumberger:   SERVICE COMPANY
 DATE.        18-AUG-1959:   LOGDATE
 API .       490250632900:   API NUMBER
~CURVE INFORMATION
#MNEM.UNIT       API CODE    CURVE DESCRIPTION
#----------   ------------   ------------------------------
 DEPT.F                  :   
 SPR .MV     05 010 01 00:   SPONTANEOUS POTENTIAL FROM RES.
 ASN .OHMM   05 041 16 00:   AMPLIFIED SHORT NORMAL 16"
 ILD .OHMM   05 120 46 00:   INDUCTION LOG DEEP
 CILD.MMHO   05 110 46 00:   CONDUCTIVITY INDUCTION LOG DEEP
~PARAMETER INFORMATION
#MNEM.UNIT          VALUE    DESCRIPTION
#----------   ------------   ------------------------------
 PD  .                 GL:   PERMANENT DATUM
 EPD .F              5258:   ELEVATION PERMANENT DATUM
 LMF .                 KB:   LOG MEASURED FROM
 DAPD.F                 4:   FEET ABOVE PERMANENT DATUM
 DMF .                 KB:   DRILLING MEASURED FROM
 EKB .F              5262:   KELLING BUSHING
 EGL .F              5258:   GROUND LEVEL
 DATE.            8-18-59:   RUN DATE
 RUN .                  1:   RUN NUMBER
 DD  .F              1200:   DEPTH DRILLER
 DL  .F              1201:   DEPTH LOGGER
 BLI .F              1196:   BOTTOM LOG INTERVAL
 TLI .F               100:   TOP LOG INTERVAL
 CBD .F                17:   CASING BOTTOM DRILLER
 BS  .IN             6.75:   BIT SIZE
 BSD .F              1200:   BIT SIZE AT DEPTH
 DFT . GEL-OIL-PHDS-CAUSTIC:   DRILLING FLUID TYPE
 DFD .               10.8:   DRILLING FLUID DENSITY
 DFV .                 60:   DRILLING FLUID VISCOSITY
 DFPH.                  9:   DRILLING FLUID PH
 DFL .                  4:   DRILLING FLUID LOSS
 RMS .OHMM            1.8:   RESISTIVITY MUD SAMPLE
 MST .F                90:   MUD SAMPLE TEMPERATURE
 RMF .OHMM            1.5:   RESISTIVITY MUD FILTRATE SAMPLE
 MFST.F                90:   MUD FILTRATE SAMPLE TEMPERATURE
 RMC .OHMM              2:   RESISTIVITY MUD CAKE
 MCST.F                90:   MUD CAKE SAMPLE TEMPERATURE
 TCS .HRS               1:   TIME CURCULATED STOPPED
 LUN .               2523:   LOGGING UNIT NUMBER
 LUL .               CSPR:   LOGGING UNIT LOCATION
 ENGI.             KNOBEL:   RECORDING ENGINEER
 WITN.             MARTIN:   WITNESSED BY
 CLNT.            A2DTECH:   CLIENT CODE
 ORIG.     1", 2.5" PRINT:   ORIGIN OF DATA
 UWI .       490250632900:   UNIQUE WELL ID
 DICO. A2D Technologies, Inc.:   DIGITIZING COMPANY
~OTHER INFORMATION
~A   DEPT      SPR          ASN        ILD      CILD  
# ...
  611.0000   -39.5676    12.8062    11.7873    72.1226
  611.5000   -39.3715    12.9327    12.0000    70.9942
  612.0000   -39.4105    13.0413    12.1987    69.8658
  612.5000   -39.6327    13.1686    12.3736    68.7373
  613.0000   -39.9230    13.3009    12.5533    67.6089
  613.5000   -40.1662    13.4040    12.7504    66.4805
  614.0000   -40.3203    13.5374    12.9433    65.3521
  614.5000   -40.4792    13.6819    13.1148    64.2237
  615.0000   -40.8304    13.7395    13.2923    63.0952
  615.5000   -41.4413    13.9406    13.5051    61.9668
  616.0000   -42.1456    14.5338    13.7090    60.8384
  616.5000   -42.7591    15.2247    13.8487    59.7100
  617.0000   -43.3341    15.7585    14.0040    58.5816
  617.5000   -43.9990    16.3530    14.2854    57.6241
  618.0000   -44.6224    16.9958    14.6104    54.5922
  618.5000   -44.8977    17.5144    14.8158    52.3050
  619.0000   -44.7555    18.1463    15.0572    47.8369
  619.5000   -44.4555    18.7410    15.7854    43.8874
  620.0000   -44.2051    19.3357    17.2224    39.9379
  620.5000   -43.9599    19.8763    19.1190    36.3475
  621.0000   -43.7001    22.7067    21.0749    31.0284
  621.5000   -43.6450    25.3012    22.8427    27.6135
  622.0000   -43.9669    27.8958    24.4212    24.4539
  622.5000   -44.4278    30.4903    26.1045    21.2943
  623.0000   -44.5568    33.0848    28.1763    18.1348
  623.5000   -44.1779    35.6007    30.1831    15.0709
  624.0000   -43.5733    33.2065    30.9034    18.0851
  624.5000   -43.1309    30.8826    29.6154    21.0106
  625.0000   -43.0489    28.5588    27.0751    23.9362
  625.5000   -43.4483    26.2350    24.6037    28.3245
  626.0000   -44.5009    23.9112    22.5388    32.7128
  626.5000   -46.1441    21.5873    20.3051    37.1235
  627.0000   -47.8116    19.1696    17.7713    41.3187
  627.5000   -48.7995    18.2465    15.8295    45.9138
  628.0000   -48.9455    17.2262    15.0299    50.3467
  628.5000   -48.7006    16.9961    14.9759    52.0036
  629.0000   -48.4855    16.7512    14.9320    53.2521
  629.5000   -48.2499    16.5064    14.7753    55.0527
  630.0000   -47.8181    16.2615    14.6809    56.2560
  630.5000   -47.3528    15.9894    14.5601    58.0892
  631.0000   -47.1236    15.2638    14.4437    59.2693
  631.5000   -46.9199    14.4476    14.4305    61.3179
  632.0000   -46.1236    13.5159    14.1385    69.7673
  632.5000   -44.4735    12.8092    13.2379    80.3317
  633.0000   -42.4279    10.8657    12.0471    90.0196
  633.5000   -40.5461     9.9823    10.8341   100.7116
  634.0000   -38.8052     9.1276     9.5260   110.2438
  634.5000   -36.9052     8.0457     8.4472   120.6895
  635.0000   -35.0090     7.7052     7.8706   130.8314
  635.5000   -33.6981     7.8144     7.6368   140.9732
  636.0000   -33.1966     7.6521     7.4485   153.3688
  636.5000   -33.1060     7.5316     7.1262   151.4574
  637.0000   -32.9922     7.6390     6.7487   149.0000
  637.5000   -32.8649     7.7522     6.4869   146.5426
  638.0000   -32.9296     7.8376     6.4152   144.0851
  638.5000   -33.1705     7.8068     6.4832   140.9574
  639.0000   -33.3981     7.6556     6.5839   142.2340
  639.5000   -33.5414     7.5400     6.6347   143.9894
  640.0000   -33.6904     7.4475     6.6304   145.7447
  640.5000   -33.9000     7.2941     6.6150   147.5000
  641.0000   -34.1039     7.1732     6.6167   149.8227
  641.5000   -34.2021     7.2084     6.6297   148.8045
  642.0000   -34.1722     7.2883     6.6470   147.2999
  642.5000   -34.0748     7.4091     6.6695   145.7953
  643.0000   -33.9790     7.5164     6.6992   144.2908
  643.5000   -33.9036     7.5805     6.7338   142.7862
  644.0000   -33.8307     7.5813     6.7690   141.2817
  644.5000   -33.7460     7.5257     6.7913   139.1844
  645.0000   -33.6559     7.4471     6.7860   140.4255
  645.5000   -33.5725     7.3723     6.7544   142.4734
  646.0000   -33.4988     7.3096     6.7162   144.5213
  646.5000   -33.4215     7.2616     6.6856   146.5692
  647.0000   -33.3255     7.2228     6.6585   148.6170
  647.5000   -33.2306     7.1730     6.6244   151.5957
  648.0000   -33.1956     7.1070     6.5869   152.0745
  648.5000   -33.2558     7.0643     6.5591   153.3688
  649.0000   -33.3723     7.0935     6.5359   153.3688
  649.5000   -33.4804     7.1896     6.4943   153.3688
  650.0000   -33.5716     7.2963     6.4423   148.0497
  650.5000   -33.6804     7.3808     6.4317   146.2766
  651.0000   -33.7975     7.4696     6.4949   144.5036
  651.5000   -33.8558     7.5847     6.6056   142.7305
  652.0000   -33.8150     7.6798     6.7376   138.8475
  652.5000   -33.7120     7.6932     6.9105   136.2145
  653.0000   -33.6098     7.6495     7.1268   133.5816
  653.5000   -33.5274     7.6459     7.3094   132.0922
  654.0000   -33.4449     7.7271     7.3728   132.0922
  654.5000   -33.3512     7.8357     7.3338   132.0922
  655.0000   -33.2574     7.9056     7.3002   132.0922
  655.5000   -33.1723     7.9462     7.3565   132.0922
  656.0000   -33.0873     7.9992     7.4901   130.0532
  656.5000   -32.9931     8.0642     7.6186   128.5904
  657.0000   -32.8987     8.1170     7.6686   127.1277
  657.5000   -32.8169     8.1661     7.6342   125.6649
  658.0000   -32.7357     8.2344     7.5670   124.2021
  658.5000   -32.6311     8.2969     7.5119   123.2270
  659.0000   -32.5235     8.2900     7.4691   125.1418
  659.5000   -32.5007     8.1873     7.4214   126.5780
  660.0000   -32.6497     8.0358     7.3678   128.0142
  660.5000   -32.9546     7.9010     7.3162   129.4503
  661.0000   -33.2790     7.7963     7.2673   130.8865
  661.5000   -33.4678     7.6827     7.2178   132.3227
  662.0000   -33.4718     7.5385     7.1686   133.7589
  662.5000   -33.3666     7.4083     7.1187   135.1950
  663.0000   -33.2557     7.3617     7.0651   136.6312
  663.5000   -33.1760     7.4050     7.0152   138.0674
  664.0000   -33.0991     7.4638     6.9858   139.1844
  664.5000   -33.0013     7.4711     6.9835   139.4909
  665.0000   -32.9016     7.4429     6.9962   139.7416
  665.5000   -32.8228     7.4416     7.0075   139.9924
  666.0000   -32.7462     7.4887     7.0139   140.2432
  666.5000   -32.6391     7.5514     7.0208   140.4939
  667.0000   -32.5268     7.6003     7.0301   140.7447
  667.5000   -32.4934     7.6434     7.0395   140.9574
  668.0000   -32.5948     7.6975     7.0474   139.8345
  668.5000   -32.7965     7.7535     7.0551   138.8593
  669.0000   -33.0202     7.7790     7.0637   137.8842
  669.5000   -33.2199     7.7489     7.0728   136.9090
  670.0000   -33.3994     7.6761     7.0813   135.9338
  670.5000   -33.5887     7.6117     7.0887   134.9586
  671.0000   -33.8095     7.6067     7.0966   133.9834
  671.5000   -34.0365     7.6716     7.1066   133.0083
  672.0000   -34.1923     7.7773     7.1161   132.0922
  672.5000   -34.2192     7.8905     7.1217   131.1613
  673.0000   -34.1493     7.9895     7.1278   130.2837
  673.5000   -34.0673     8.0504     7.1417   129.4060
  674.0000   -34.0139     8.0440     7.1549   128.5461
  674.5000   -33.9667     7.9519     7.1425   131.0084
  675.0000   -33.9028     7.7801     7.0899   133.4220
  675.5000   -33.8346     7.5603     7.0112   135.8356
  676.0000   -33.7795     7.3445     6.9323   138.2491
  676.5000   -33.7281     7.1844     6.8627   140.6627
  677.0000   -33.6615     7.0956     6.7934   143.0762
  677.5000   -33.5880     7.0528     6.7173   145.4898
  678.0000   -33.5447     7.0327     6.6410   148.0497
  678.5000   -33.5580     7.0436     6.5719   149.3688
  679.0000   -33.6145     7.0953     6.5031   150.7731
  679.5000   -33.6791     7.1567     6.4232   152.1773
  680.0000   -33.7334     7.1760     6.3418   153.5816
  680.5000   -33.7825     7.1404     6.2894   155.1418
  681.0000   -33.8364     7.0825     6.2848   155.1418
  681.5000   -33.8965     7.0252     6.3138   155.1418
  682.0000   -33.9545     6.9587     6.3481   155.1418
  682.5000   -34.0038     6.8886     6.3728   155.1418
  683.0000   -34.0523     6.8661     6.3903   155.1418
  683.5000   -34.1164     6.9386     6.4128   153.1797
