~VERSION INFORMATION
 VERS.                2.0:   CWLS LOG ASCII STANDARD - VERSION 2.0
 WRAP.                 NO:   ONE LINE PER DEPTH STEP
~WELL INFORMATION
#MNEM.UNIT      DATA TYPE    INFORMATION
#----------   ------------   ------------------------------
 STRT.F            0.0000:   START DEPTH
 STOP.F         3994.5000:   STOP DEPTH
 STEP.F            0.5000:   STEP LENGTH
 NULL.          -999.2500:   NO VALUE
 COMP. LAWRENCE/ALLISON INC:   COMPANY
 WELL. STX 10 #36SHX10-10:   WELL
 FLD .         LOST HILLS:   FIELD
 LOC .      S10 T38N R78W:   LOCATION
 CNTY.            NATRONA:   COUNTY
 STAT.            WYOMING:   STATE
 CTRY. UNITED STATES OF AMERICA:   COUNTRY
 SRVC.              Welex:   SERVICE COMPANY
 DATE.        20-MAR-1980:   LOGDATE
 API .       490251095600:   API NUMBER
~CURVE INFORMATION
#MNEM.UNIT       API CODE    CURVE DESCRIPTION
#----------   ------------   ------------------------------
 DEPT.F                  :   
 GRD .GAPI   45 310 01 00:   GAMMA RAY FROM DENSITY LOG
 CALD.IN     45 280 60 00:   CALIPER
 RHOB.G/C3   45 350 01 00:   BULK DENSITY
 CORR.G/C3   45 356 01 00:   DENSITY CORRECTION
 DPHI.DEC    45 890 12 00:   DENSITY POROSITY SANDSTONE
 GR  .GAPI   81 310 01 00:   GAMMA RAY FROM CEMENT LOG
~PARAMETER INFORMATION
#MNEM.UNIT          VALUE    DESCRIPTION
#----------   ------------   ------------------------------
 PD  .                 GL:   PERMANENT DATUM
 EPD .F              5224:   ELEVATION PERMANENT DATUM
 LMF .                 KB:   LOG MEASURED FROM
 DAPD.F                10:   FEET ABOVE PERMANENT DATUM
 DMF .                 KB:   DRILLING MEASURED FROM
 EKB .F              5234:   KELLING BUSHING
 EGL .F              5224:   GROUND LEVEL
 DATE.            3-20-80:   RUN DATE
 RUN .                  1:   RUN NUMBER
 DD  .F              1000:   DEPTH DRILLER
 DL  .F               954:   DEPTH LOGGER
 BLI .F               952:   BOTTOM LOG INTERVAL
 TLI .F               654:   TOP LOG INTERVAL
 CS  .IN            9.625:   CASING SIZE
 BS  .IN             8.75:   BIT SIZE
 BSD .F              1000:   BIT SIZE AT DEPTH
 DFT .                OIL:   DRILLING FLUID TYPE
 TCS .HRS               2:   TIME CURCULATED STOPPED
 MRT .F                94:   MAXIMUM RECORDED TEMPERATURE
 ENGI.            TOTHILL:   RECORDING ENGINEER
 WITN.           DINSMORE:   WITNESSED BY
 CLNT.            A2DTECH:   CLIENT CODE
 ORIG.           5" PRINT:   ORIGIN OF DATA
 UWI .       490251095600:   UNIQUE WELL ID
 DICO. A2D Technologies, Inc.:   DIGITIZING COMPANY
~OTHER INFORMATION
~A    DEPT     GRD       CALD       RHOB       CORR       DPHI          GR  
# ...
  676.0000    80.5265     9.7170     2.4791     0.0523     0.0984  -999.2500
  676.5000    79.9406     9.6780     2.4832     0.0581     0.0956  -999.2500
  677.0000    79.3484     9.6390     2.4813     0.0606     0.0961  -999.2500
  677.5000    78.4571     9.5998     2.4887     0.0619     0.0930  -999.2500
  678.0000    77.9136     9.5629     2.4963     0.0618     0.0882  -999.2500
  678.5000    77.4229     9.5469     2.5038     0.0651     0.0834  -999.2500
  679.0000    76.9244     9.5293     2.5112     0.0696     0.0786  -999.2500
  679.5000    76.4268     9.5116     2.5151     0.0687     0.0772  -999.2500
  680.0000    75.9216     9.4938     2.5114     0.0624     0.0792  -999.2500
  680.5000    75.2447     9.4761     2.5200     0.0679     0.0741  -999.2500
  681.0000    75.7188     9.4620     2.5230     0.0721     0.0720  -999.2500
  681.5000    75.3276     9.4625     2.5048     0.0558     0.0846  -999.2500
  682.0000    74.3260     9.4623     2.4990     0.0499     0.0866  -999.2500
  682.5000    73.3292     9.4475     2.4929     0.0527     0.0888  -999.2500
  683.0000    72.3200     9.3721     2.4840     0.0417     0.0962  -999.2500
  683.5000    72.2088     9.2985     2.4751     0.0318     0.1036  -999.2500
  684.0000    73.1909     9.2250     2.4660     0.0247     0.1054  -999.2500
  684.5000    74.1967     9.1508     2.4668     0.0272     0.1010  -999.2500
  685.0000    75.1952     9.1261     2.4833     0.0417     0.0954  -999.2500
  685.5000    76.0588     9.1293     2.4887     0.0502     0.0920  -999.2500
  686.0000    75.6209     9.1329     2.4885     0.0440     0.0926  -999.2500
  686.5000    74.6408     9.1365     2.4856     0.0456     0.0951  -999.2500
  687.0000    73.6740     9.1401     2.4648     0.0237     0.1076  -999.2500
  687.5000    72.7066     9.1433     2.4543     0.0082     0.1114  -999.2500
  688.0000    72.1714     9.1675     2.4572     0.0087     0.1160  -999.2500
  688.5000    72.1821     9.2016     2.4531     0.0009     0.1231  -999.2500
  689.0000    72.4866     9.2360     2.4446     0.0011     0.1248  -999.2500
  689.5000    72.4772     9.2705     2.4371    -0.0060     0.1189  -999.2500
  690.0000    72.7143     9.3049     2.4644     0.0125     0.1097  -999.2500
  690.5000    73.8371     9.3289     2.4826     0.0261     0.1004  -999.2500
  691.0000    74.8518     9.3403     2.4887     0.0349     0.0932  -999.2500
  691.5000    75.1732     9.3662     2.4950     0.0425     0.0894  -999.2500
  692.0000    75.4329     9.3832     2.4994     0.0473     0.0880  -999.2500
  692.5000    74.8428     9.3995     2.4893     0.0389     0.0931  -999.2500
  693.0000    73.5449     9.4155     2.4762     0.0291     0.1007  -999.2500
  693.5000    72.2705     9.4314     2.4731     0.0308     0.1026  -999.2500
  694.0000    72.2807     9.4470     2.4803     0.0409     0.0970  -999.2500
  694.5000    73.7836     9.4659     2.4780     0.0476     0.0966  -999.2500
  695.0000    75.2646     9.5375     2.4762     0.0461     0.1010  -999.2500
  695.5000    76.3603     9.6546     2.4860     0.0541     0.0970  -999.2500
  696.0000    76.1965     9.7881     2.4831     0.0619     0.0934  -999.2500
  696.5000    75.5749     9.9231     2.4842     0.0628     0.0968  -999.2500
  697.0000    74.9769    10.0582     2.4728     0.0599     0.1016  -999.2500
  697.5000    74.3799    10.1929     2.4789     0.0721     0.0962  -999.2500
  698.0000    73.7827    10.3181     2.4914     0.0857     0.0889  -999.2500
  698.5000    73.3332    10.3879     2.5054     0.0993     0.0808  -999.2500
  699.0000    74.0723    10.4546     2.5194     0.1130     0.0715  -999.2500
  699.5000    74.8742    10.5198     2.5244     0.1037     0.0790  -999.2500
  700.0000    75.7015    10.5743     2.4973     0.0701     0.0912  -999.2500
  700.5000    75.2443    10.3182     2.4947     0.0563     0.0866  -999.2500
  701.0000    74.2371     9.9830     2.4947     0.0531     0.0905  -999.2500
  701.5000    73.3656     9.7866     2.4877     0.0438     0.0942  -999.2500
  702.0000    74.7657     9.7712     2.5005     0.0513     0.0848  -999.2500
  702.5000    74.5430     9.7596     2.5135     0.0644     0.0767  -999.2500
  703.0000    73.5254     9.7485     2.5204     0.0730     0.0757  -999.2500
  703.5000    72.5432     9.7369     2.5122     0.0667     0.0791  -999.2500
  704.0000    72.2947     9.7256     2.5060     0.0693     0.0782  -999.2500
  704.5000    73.6035     9.6906     2.5192     0.0736     0.0738  -999.2500
  705.0000    74.8842     9.6369     2.5238     0.0657     0.0714  -999.2500
  705.5000    76.1684     9.5832     2.5109     0.0466     0.0811  -999.2500
  706.0000    77.4531     9.5294     2.4932     0.0264     0.0942  -999.2500
  706.5000    78.7580     9.4757     2.4774     0.0067     0.0976  -999.2500
  707.0000    79.4404     9.4219     2.4732     0.0095     0.1011  -999.2500
  707.5000    79.9992     9.3682     2.4734     0.0067     0.1038  -999.2500
  708.0000    79.5607     9.3140     2.4966     0.0257     0.0806  -999.2500
  708.5000    78.4932     9.2752     2.5131     0.0463     0.0777  -999.2500
  709.0000    77.4151     9.2395     2.5213     0.0533     0.0711  -999.2500
  709.5000    76.3359     9.2038     2.5331     0.0646     0.0644  -999.2500
  710.0000    75.2559     9.1682     2.5403     0.0795     0.0579  -999.2500
  710.5000    74.3537     9.1324     2.5279     0.0646     0.0724  -999.2500
  711.0000    73.5553     9.1038     2.5063     0.0414     0.0866  -999.2500
  711.5000    72.7503     9.0842     2.4896     0.0283     0.0910  -999.2500
  712.0000    72.5202     9.0918     2.4958     0.0297     0.0917  -999.2500
  712.5000    72.7315     9.0989     2.4849     0.0177     0.0977  -999.2500
  713.0000    72.5649     9.1055     2.4786     0.0101     0.1006  -999.2500
  713.5000    72.1268     9.1122     2.4865     0.0180     0.0951  -999.2500
  714.0000    72.4390     9.1190     2.4944     0.0274     0.0899  -999.2500
  714.5000    73.5416     9.1257     2.4976     0.0369     0.0850  -999.2500
  715.0000    74.6150     9.0972     2.4941     0.0318     0.0923  -999.2500
  715.5000    75.6924     9.0652     2.4823     0.0229     0.0982  -999.2500
  716.0000    76.7706     9.0332     2.4921     0.0280     0.0925  -999.2500
  716.5000    77.7769     9.0010     2.4938     0.0333     0.0898  -999.2500
  717.0000    78.7254     8.9680     2.4824     0.0199     0.0994  -999.2500
  717.5000    79.6864     8.9660     2.4712     0.0064     0.1034  -999.2500
  718.0000    79.7209     8.9662     2.4566    -0.0086     0.1166  -999.2500
  718.5000    78.6641     8.9663     2.4533    -0.0084     0.1110  -999.2500
  719.0000    77.3430     8.9663     2.4683     0.0048     0.1032  -999.2500
  719.5000    76.0407     8.9663     2.4809     0.0174     0.0955  -999.2500
  720.0000    75.4353     8.9662     2.4874     0.0242     0.0913  -999.2500
  720.5000    76.3854     8.9661     2.4801     0.0163     0.0977  -999.2500
  721.0000    77.3366     8.9667     2.4830     0.0180     0.0974  -999.2500
  721.5000    77.2934     8.9892     2.4683     0.0084     0.1058  -999.2500
  722.0000    76.9861     9.0135     2.4587     0.0028     0.1126  -999.2500
  722.5000    76.6705     9.0377     2.4708     0.0113     0.1049  -999.2500
  723.0000    76.3580     9.0619     2.4804     0.0196     0.0982  -999.2500
  723.5000    76.0444     9.0861     2.4878     0.0275     0.0934  -999.2500
  724.0000    76.8052     9.1104     2.4907     0.0344     0.0886  -999.2500
  724.5000    78.0961     9.1413     2.4991     0.0419     0.0836  -999.2500
  725.0000    79.4026     9.1835     2.5088     0.0468     0.0799  -999.2500
  725.5000    79.8092     9.2255     2.5063     0.0391     0.0814  -999.2500
  726.0000    79.3227     9.2676     2.5144     0.0471     0.0762  -999.2500
  726.5000    79.5371     9.3032     2.5103     0.0377     0.0794  -999.2500
  727.0000    78.1080     9.3350     2.5253     0.0472     0.0715  -999.2500
  727.5000    75.7095     9.3667     2.5349     0.0575     0.0639  -999.2500
