~VERSION INFORMATION
 VERS.                2.0:   CWLS LOG ASCII STANDARD - VERSION 2.0
 WRAP.                 NO:   ONE LINE PER DEPTH STEP
~WELL INFORMATION
#MNEM.UNIT      DATA TYPE    INFORMATION
#----------   ------------   ------------------------------
 STRT.F           30.5000:   START DEPTH
 STOP.F          692.0000:   STOP DEPTH
 STEP.F            0.5000:   STEP LENGTH
 NULL.          -999.2500:   NO VALUE
 COMP. FENIX & SCISSON INC:   COMPANY
 WELL.   27-S-11-WP #3-11:   WELL
 FLD .  TEAPOT DOME NPR-3:   FIELD
 LOC .      S11 T38N R78W:   LOCATION
 CNTY.            NATRONA:   COUNTY
 STAT.            WYOMING:   STATE
 CTRY. UNITED STATES OF AMERICA:   COUNTRY
 SRVC.       Schlumberger:   SERVICE COMPANY
 DATE.        18-FEB-1978:   LOGDATE
 API .       490251058100:   API NUMBER
~CURVE INFORMATION
#MNEM.UNIT       API CODE    CURVE DESCRIPTION
#----------   ------------   ------------------------------
 DEPT.F                  :   
 CALD.IN     45 280 60 00:   CALIPER FROM DENSITY LOG
 CORR.G/C3   45 356 01 00:   DENSITY CORRECTION
 DPHI.DEC    45 890 12 00:   DENSITY POROSITY SANDSTONE
 GRD .GAPI   45 310 01 00:   GAMMA RAY FROM DENSITY LOG
 RHOB.G/C3   45 350 01 00:   BULK DENSITY
 ILD .OHMM   05 110 46 00:   INDUCTION LOG DEEP
 SN  .OHMM   05 040 16 00:   SHORT NORMAL 16"
 SPR .MV     05 010 01 00:   SPONTANEOUS POTENSIAL FROM RES.
~PARAMETER INFORMATION
#MNEM.UNIT          VALUE    DESCRIPTION
#----------   ------------   ------------------------------
 PD  .                 GL:   PERMANENT DATUM
 EPD .F              5195:   ELEVATION PERMANENT DATUM
 LMF .                 KB:   LOG MEASURED FROM
 DAPD.F                 4:   FEET ABOVE PERMANENT DATUM
 DMF .                 KB:   DRILLING MEASURED FROM
 EKB .F              5199:   KELLING BUSHING
 EGL .F              5195:   GROUND LEVEL
 DATE.        18-FEB-1978:   RUN DATE
 RUN .                  1:   RUN NUMBER
 DD  .F               690:   DEPTH DRILLER
 DL  .F               695:   DEPTH LOGGER
 BLI .F               688:   BOTTOM LOG INTERVAL
 TLI .F                40:   TOP LOG INTERVAL
 CS  .IN            8.625:   CASING SIZE
 CBD .F                40:   CASING BOTTOM DRILLER
 CBL .F                40:   CASING BOTTOM LOGGER
 BS  .IN            7.875:   BIT SIZE
 BSD .F               690:   BIT SIZE AT DEPTH
 DFT .       LIGNO/ SULF.:   DRILLING FLUID TYPE
 DFD .                8.8:   DRILLING FLUID DENSITY
 DFV .                 33:   DRILLING FLUID VISCOSITY
 DFPH.               10.0:   DRILLING FLUID PH
 DFL .                5.0:   DRILLING FLUID LOSS
 MSS .           FLOWLINE:   MUD SAMPLE SOURCE
 RMS .OHMM            1.7:   RESISTIVITY MUD SAMPLE
 MST .F                66:   MUD SAMPLE TEMPERATURE
 RMF .OHMM            2.0:   RESISTIVITY MUD FILTRATE SAMPLE
 MFST.F                58:   MUD FILTRATE SAMPLE TEMPERATURE
 RMC .OHMM            3.0:   RESISTIVITY MUD CAKE
 MCST.F                60:   MUD CAKE SAMPLE TEMPERATURE
 MFSS.               MEAS:   MUD FILTRATE SAMPLE SOURCE
 RMB .OHMM           1.65:   RESISTIVITY MUD AT BHT
 BHT .F                68:   BOTTOM HOLE TEMPERATURE
 TCS .HRS               2:   TIME CURCULATED STOPPED
 MRT .F                68:   MAXIMUM RECORDED TEMPERATURE
 LUN .               2958:   LOGGING UNIT NUMBER
 LUL .             CASPER:   LOGGING UNIT LOCATION
 ENGI.            POINTER:   RECORDING ENGINEER
 WITN.           MCGINLEY:   WITNESSED BY
 CLNT.            A2DTECH:   CLIENT CODE
 ORIG.           5" PRINT:   ORIGIN OF DATA
 UWI .       490251058100:   UNIQUE WELL ID
~OTHER INFORMATION
~A   DEPT     CALD       CORR       DPHI         GRD      RHOB        ILD         SN        SPR   
# ...
  314.0000     7.7790     0.0402     0.1257    86.8688     2.4312     7.7720     8.7883   -34.6305
  314.5000     7.8391     0.0311     0.1203    87.6285     2.4365     7.5480     8.5362   -33.2868
  315.0000     7.8989     0.0263     0.1167    89.7452     2.4447     7.4338     8.4083   -32.6940
  315.5000     7.8968     0.0232     0.1161    90.6179     2.4523     7.4245     8.3404   -32.5642
  316.0000     7.8951     0.0184     0.1146    89.3537     2.4538     7.4153     8.3312   -32.8973
  316.5000     7.9241     0.0153     0.1135    85.9817     2.4519     7.4583     8.2639   -33.2248
  317.0000     7.9377     0.0136     0.1132    86.5688     2.4566     7.5537     8.2548   -33.7047
  317.5000     7.9518     0.0134     0.1133    88.8378     2.4621     7.6508     8.2456   -33.8798
  318.0000     7.9497     0.0147     0.1130    90.1894     2.4617     7.7488     8.2943   -33.5955
  318.5000     7.9480     0.0145     0.1140    90.1649     2.4608     7.7935     8.2850   -33.1540
  319.0000     7.9463     0.0143     0.1149    89.2230     2.4592     7.7836     8.2758   -32.7281
  319.5000     7.9446     0.0142     0.1159    87.9752     2.4553     7.8337     8.3834   -32.5982
  320.0000     7.9429     0.0140     0.1159    88.1036     2.4545     7.8738     8.6095   -33.0838
  320.5000     7.9412     0.0153     0.1154    88.8436     2.4543     7.8636     8.6627   -33.7161
  321.0000     7.9395     0.0151     0.1151    90.1952     2.4542     7.8517     8.6508   -34.0436
  321.5000     7.9378     0.0165     0.1155    91.8526     2.4542     7.8970     8.6412   -34.0662
  322.0000     7.9361     0.0178     0.1161    94.1217     2.4534     8.0545     8.6316   -34.0888
  322.5000     7.9344     0.0192     0.1155    96.8494     2.4525     8.1604     8.6850   -33.8009
  323.0000     7.9327     0.0205     0.1129    97.7625     2.4532     8.2625     8.6730   -33.5186
  323.5000     7.9310     0.0249     0.1059    95.4242     2.4599     8.2522     8.7243   -33.8518
  324.0000     7.9293     0.0278     0.0990    87.6015     2.4758     8.3024     8.8375   -34.6366
  324.5000     7.8972     0.0306     0.0981    85.8951     2.4826     8.2316     8.8922   -34.8116
  325.0000     7.8315     0.0289     0.1009    86.3293     2.4825     8.2214     8.8799   -35.4440
  325.5000     7.7534     0.0287     0.1049    89.0570     2.4824     8.2111     8.8700   -35.6190
  326.0000     7.7213     0.0270     0.1068    92.0906     2.4793     8.2009     8.8602   -35.1843
  326.5000     7.7047     0.0268     0.1074    93.4422     2.4723     8.1906     8.8504   -34.2923
  327.0000     7.6891     0.0281     0.1081    93.2648     2.4669     8.1804     8.8406   -34.0091
  327.5000     7.6720     0.0280     0.1087    92.7815     2.4676     8.1702     8.8309   -34.6423
  328.0000     7.6704     0.0293     0.1088    91.0751     2.4682     8.1600     8.8211   -34.6649
  328.5000     7.6687     0.0291     0.1085    90.2860     2.4682     8.1498     8.8113   -34.2302
  329.0000     7.6977     0.0305     0.1082    90.5673     2.4681     8.1397     8.8015   -34.0945
  329.5000     7.8189     0.0303     0.1069    92.0718     2.4680     8.1295     8.7916   -32.8775
  330.0000     7.9401     0.0316     0.1009    92.9709     2.4679     8.0065     8.7818   -32.6212
  330.5000     7.9384     0.0314     0.0996    92.4815     2.4815     7.9965     8.7720   -33.0595
  331.0000     7.9367     0.0328     0.1064    91.3866     2.4799     7.9866     8.8862   -34.5013
  331.5000     7.9350     0.0341     0.1091    90.7505     2.4706     7.9766     8.9387   -34.5239
  332.0000     7.9333     0.0339     0.1049    89.0440     2.4690     7.9666     8.9908   -34.5465
  332.5000     7.9316     0.0337     0.1052    88.2549     2.4735     7.9566     8.9791   -33.9594
  333.0000     7.9149     0.0335     0.1098    88.5362     2.4780     7.9466     8.9692   -33.3722
  333.5000     7.9282     0.0318     0.1102    89.5820     2.4718     7.9366     8.9593   -33.5473
  334.0000     7.9265     0.0317     0.1081    89.7165     2.4709     7.9266     8.9493   -34.0272
  334.5000     7.9248     0.0315     0.1094    89.6859     2.4686     7.9146     8.9394   -34.9644
  335.0000     7.9231     0.0374     0.1124    89.6614     2.4647     7.9047     8.9296   -35.2919
  335.5000     7.8599     0.0493     0.1091    89.6368     2.4752     7.8949     8.7957   -34.7047
  336.0000     7.7661     0.0537     0.1019    89.6123     2.4820     7.8850     8.7247   -34.1176
  336.5000     7.7644     0.0505     0.1029    89.8997     2.4758     7.8203     8.6543   -33.8297
  337.0000     7.7627     0.0503     0.1132    90.4807     2.4620     7.7560     8.5245   -34.6201
  337.5000     7.7610     0.0502     0.1175    92.5968     2.4543     7.7463     8.4557   -35.7098
  338.0000     7.7900     0.0469     0.1182    95.3246     2.4550     7.7367     8.3874   -35.8848
  338.5000     7.8804     0.0437     0.1188    96.3704     2.4541     7.6196     8.3782   -35.4501
  339.0000     7.9099     0.0373     0.1189    96.8107     2.4495     7.5570     8.2526   -33.9482
  339.5000     7.9078     0.0312     0.1189    96.7801     2.4448     7.4950     8.1288   -33.6660
  340.0000     7.9061     0.0280     0.1193    96.7556     2.4508     7.4334     8.1197   -33.8516
  340.5000     7.9044     0.0278     0.1193    96.4252     2.4546     7.3724     8.1106   -34.3216
  341.0000     7.9256     0.0292     0.1194    96.4007     2.4491     7.2102     8.1015   -34.3445
  341.5000     7.9471     0.0335     0.1191    96.3762     2.4513     7.0024     8.0907   -34.0613
  342.0000     7.8225     0.0440     0.1173    95.5871     2.4581     6.7060     7.9694   -33.3274
  342.5000     7.7440     0.0544     0.1137    93.4219     2.4618     6.3775     7.5271   -32.8870
  343.0000     7.7269     0.0588     0.1132    89.8806     2.4602     6.1937     7.2602   -32.7628
  343.5000     7.6945     0.0616     0.1157    89.0915     2.4563     6.1428     7.0028   -32.6273
  344.0000     7.6467     0.0736     0.1163    89.0670     2.4638     6.1351     6.8978   -32.6556
  344.5000     7.5836     0.0932     0.1163    89.0425     2.4668     6.1707     6.8902   -34.3550
  345.0000     7.5976     0.1036     0.1167    89.1770     2.4568     6.1628     6.9309   -34.5301
  345.5000     7.6416     0.1095     0.1179    90.0637     2.4392     6.1551     7.0702   -35.4673
  346.0000     7.6710     0.1094     0.1201    92.9444     2.4376     6.1474     7.3652   -35.1850
  346.5000     7.6693     0.1046     0.1226    97.9658     2.4435     6.2295     7.7265   -34.5922
  347.0000     7.7291     0.0786     0.1257    98.5590     2.4328     6.3553     7.8839   -34.3100
  347.5000     7.7616     0.0632     0.1285    98.5283     2.4236     6.4906     7.8181   -34.1801
  348.0000     7.8039     0.0600     0.1188    96.2102     2.4486     6.7079     7.8094   -34.2084
  348.5000     7.8469     0.0614     0.1076    95.7270     2.4668     6.8331     7.8559   -36.5176
  349.0000     7.8759     0.0627     0.1076    96.3141     2.4697     6.9208     7.8469   -36.5402
  349.5000     7.8742     0.0610     0.1095    95.8308     2.4658     6.9100     7.8382   -35.3433
  350.0000     7.8725     0.0623     0.1111    95.6534     2.4619     6.8532     7.9399   -35.0610
  350.5000     7.9015     0.0611     0.1102    98.0789     2.4608     6.9434     7.6611   -34.7719
  351.0000     7.9152     0.0635     0.1060    98.6732     2.4660     6.9327     7.7109   -34.4964
  351.5000     7.8981     0.0603     0.1050    98.4914     2.4736     6.9749     7.7586   -34.9985
  352.0000     7.8964     0.0465     0.1103    97.0921     2.4682     6.9641     7.8076   -34.5142
  352.5000     7.9101     0.0357     0.1161    93.3993     2.4529     6.9555     7.7477   -34.2594
  353.0000     7.9084     0.0340     0.1201    91.5413     2.4516     6.8984     7.6883   -33.9827
  353.5000     7.9067     0.0323     0.1119    92.1298     2.4603     6.8418     7.6771   -33.0972
  354.0000     7.9050     0.0322     0.1056    93.3356     2.4731     6.7857     7.5709   -33.4634
