~VERSION INFORMATION
 VERS.                2.0:   CWLS LOG ASCII STANDARD - VERSION 2.0
 WRAP.                 NO:   ONE LINE PER DEPTH STEP
~WELL INFORMATION
#MNEM.UNIT      DATA TYPE    INFORMATION
#----------   ------------   ------------------------------
 STRT.F           30.0000:   START DEPTH
 STOP.F          480.0000:   STOP DEPTH
 STEP.F            0.5000:   STEP LENGTH
 NULL.          -999.2500:   NO VALUE
 COMP. FENIX & SCISSON INC:   COMPANY
 WELL.   51-SX-10 #NPR-10:   WELL
 FLD .             TEAPOT:   FIELD
 LOC .      S10 T38N R78W:   LOCATION
 CNTY.            NATRONA:   COUNTY
 STAT.            WYOMING:   STATE
 CTRY. UNITED STATES OF AMERICA:   COUNTRY
 SRVC.              Welex:   SERVICE COMPANY
 DATE.        13-MAR-1977:   LOGDATE
 API .       490251031000:   API NUMBER
~CURVE INFORMATION
#MNEM.UNIT       API CODE    CURVE DESCRIPTION
#----------   ------------   ------------------------------
 DEPT.F                  :   
 SGRD.OHMM   07 220 05 00:   SHALLOW GUARD RESISTIVITY
 ILD .OHMM   07 120 46 00:   INDUCTION LOG DEEP
 ILM .OHMM   07 120 44 00:   INDUCTION LOG MEDIUM
 SPR .MV     07 010 01 00:   SPONTANEOUS POTENTIAL
 RHOB.G/C3   45 350 01 00:   BULK DENSITY
 DPOR.DEC    45 890 12 00:   DENSITY POROSITY SANDSTONE
 CORR.G/C3   45 356 01 00:   DENSITY CORRECTION
 GRD .GAPI   45 310 01 00:   GAMMA RAY FROM DENSITY LOG
 CALD.IN     45 280 60 00:   CALIPER FROM DENSITY LOG
~PARAMETER INFORMATION
#MNEM.UNIT          VALUE    DESCRIPTION
#----------   ------------   ------------------------------
 PD  .                 GL:   PERMANENT DATUM
 EPD .F              5216:   ELEVATION PERMANENT DATUM
 LMF .                 GL:   LOG MEASURED FROM
 DMF .                 GL:   DRILLING MEASURED FROM
 EGL .F              5216:   GROUND LEVEL
 DATE.            3-13-77:   RUN DATE
 RUN .                  1:   RUN NUMBER
 DD  .F               490:   DEPTH DRILLER
 DL  .F               485:   DEPTH LOGGER
 BLI .F               483:   BOTTOM LOG INTERVAL
 TLI .F                35:   TOP LOG INTERVAL
 CS  .IN            8.625:   CASING SIZE
 CBD .F                40:   CASING BOTTOM DRILLER
 CBL .F                36:   CASING BOTTOM LOGGER
 BS  .IN            7.875:   BIT SIZE
 BSD .F               490:   BIT SIZE AT DEPTH
 DFT .            KCL MUD:   DRILLING FLUID TYPE
 DFD .                8.9:   DRILLING FLUID DENSITY
 DFV .                 34:   DRILLING FLUID VISCOSITY
 MSS .            MUD PIT:   MUD SAMPLE SOURCE
 RMS .OHMM            .43:   RESISTIVITY MUD SAMPLE
 MST .F                60:   MUD SAMPLE TEMPERATURE
 RMF .OHMM            .37:   RESISTIVITY MUD FILTRATE SAMPLE
 MFST.F                60:   MUD FILTRATE SAMPLE TEMPERATURE
 RMC .OHMM            .47:   RESISTIVITY MUD CAKE
 MCST.F                60:   MUD CAKE SAMPLE TEMPERATURE
 MFSS.           FANN KIT:   MUD FILTRATE SAMPLE SOURCE
 MCSS.           FANN KIT:   MUD CAKE SAMPLE SOURCE
 RMB .OHMM            .40:   RESISTIVITY MUD AT BHT
 BHT .F                63:   BOTTOM HOLE TEMPERATURE
 TCS .HRS             1.5:   TIME CURCULATED STOPPED
 MRT .F                63:   MAXIMUM RECORDED TEMPERATURE
 LUN .               8611:   LOGGING UNIT NUMBER
 LUL .             CASPER:   LOGGING UNIT LOCATION
 ENGI.               DOAK:   RECORDING ENGINEER
 WITN.         STUEBINGER:   WITNESSED BY
 CLNT.            A2DTECH:   CLIENT CODE
 ORIG.       2", 5" PRINT:   ORIGIN OF DATA
 UWI .       490251031000:   UNIQUE WELL ID
 DICO. A2D Technologies, Inc.:   DIGITIZING COMPANY
~OTHER INFORMATION
~A   DEPT     SGRD        ILD        ILM        SPR       RHOB       DPOR        CORR       GRD       CALD   
   30.0000  -999.2500  -999.2500  -999.2500  -999.2500  -999.2500  -999.2500    -0.2010   102.1000  -999.2500
   30.5000  -999.2500  -999.2500  -999.2500  -999.2500  -999.2500  -999.2500    -0.1850   102.3500  -999.2500
   31.0000  -999.2500  -999.2500  -999.2500  -999.2500  -999.2500  -999.2500    -0.1549   102.7071  -999.2500
   31.5000  -999.2500  -999.2500  -999.2500  -999.2500  -999.2500  -999.2500    -0.1283   103.0432  -999.2500
   32.0000  -999.2500  -999.2500  -999.2500  -999.2500  -999.2500  -999.2500    -0.0911   104.9593     7.8445
   32.5000  -999.2500  -999.2500  -999.2500  -999.2500  -999.2500  -999.2500    -0.0328   108.6980     7.7398
   33.0000  -999.2500  -999.2500  -999.2500  -999.2500     2.0091  -999.2500     0.0265   112.4084     7.6392
   33.5000  -999.2500  -999.2500  -999.2500  -999.2500     2.0853  -999.2500     0.0849   116.1312     7.5412
   34.0000  -999.2500  -999.2500  -999.2500  -999.2500     2.1609     0.2617     0.1114   119.8737     7.5855
   34.5000  -999.2500  -999.2500  -999.2500  -999.2500     2.2484     0.2036     0.0798   123.6667     7.9698
   35.0000  -999.2500  -999.2500  -999.2500  -999.2500     2.3825     0.1454     0.0603   129.2060     8.3732
   35.5000  -999.2500  -999.2500  -999.2500  -999.2500     2.4798     0.0969     0.0813   135.5347     9.2251
   36.0000    10.4544     0.3292     5.0013   -23.6490     2.4996     0.0890     0.0907   139.2712     8.4931
   36.5000    10.5311     0.2394     6.9973   -23.4333     2.5017     0.0894     0.0926   140.6166     7.8629
   37.0000    11.5211     0.3046     7.4870   -23.2141     2.5036     0.0862     0.0918   141.2976     7.8780
   37.5000    12.5492     0.4849     7.2135   -22.8977     2.5036     0.0846     0.0910   141.9355     7.8817
   38.0000    12.9069     0.7816     7.6544   -22.1943     2.5010     0.0871     0.0902   142.5786     7.8877
   38.5000    13.0212     2.9242     8.2845   -21.5094     2.5018     0.0882     0.0895   143.1866     7.8934
   39.0000    12.4485     6.5624     8.1888   -20.8255     2.5033     0.0870     0.0897   145.8422     7.8992
   39.5000    11.8735     6.6385     8.1092   -20.1415     2.5001     0.0858     0.0916   148.7556     7.9049
   40.0000    11.7324     6.4957     8.0582   -19.4577     2.4966     0.0881     0.0935   151.3727     7.9102
   40.5000    11.5492     6.4117     8.1721   -18.8617     2.4932     0.0910     0.0944   152.3793     7.9100
   41.0000    11.6354     6.3287     8.2571   -18.3905     2.4887     0.0940     0.0912   148.7643     7.9100
   41.5000    11.7538     6.2232     8.3431   -17.9179     2.4839     0.0969     0.0879   144.1673     7.9100
   42.0000    11.8735     7.1143     8.4308   -17.4460     2.4791     0.0998     0.0847   140.4254     7.9100
   42.5000    11.9835     8.1361     8.5125   -16.9915     2.4742     0.1027     0.0815   136.6765     7.9100
   43.0000    12.4773     8.1957     8.6217   -16.6266     2.4764     0.1030     0.0815   132.9139     7.9100
   43.5000    13.4990     8.2549     8.7318   -16.2596     2.4799     0.1015     0.0821   129.1415     7.9100
   44.0000    14.5463     8.3522     8.8373   -15.8924     2.4800     0.1002     0.0826   125.3705     7.9100
   44.5000    14.3452     8.6402     9.3230   -15.5248     2.4794     0.0988     0.0832   123.5033     7.9100
   45.0000    14.0191     8.9347     9.8115   -15.1518     2.4838     0.0974     0.0838   124.6177     7.9100
   45.5000    14.5463     9.1738    10.5348   -14.8357     2.4888     0.0960     0.0844   126.2842     7.9100
   46.0000    14.4393     8.5569    10.2526   -14.5313     2.4865     0.0958     0.0850   127.5361     7.9100
   46.5000    14.3082     7.9864     9.5946   -14.3415     2.4820     0.0988     0.0855   125.6714     7.9100
   47.0000    14.1785     7.8802     9.0621   -14.8913     2.4774     0.1018     0.0861   123.4025     7.9100
   47.5000    14.0233     7.7798     8.9317   -15.1228     2.4729     0.1040     0.0867   121.0083     7.9100
   48.0000    14.7429     7.6796     8.8031   -14.6362     2.4686     0.1056     0.0862   122.5898     7.9100
   48.5000    16.2499     7.5803     8.6764   -14.1633     2.4646     0.1093     0.0827   125.0491     7.9100
   49.0000    14.3092     7.5338     8.5170   -13.6883     2.4607     0.1126     0.0794   127.9941     7.9100
   49.5000     9.8982     7.5063     8.5916   -13.1978     2.4565     0.1130     0.0759   130.9078     7.9100
   50.0000    11.1885     7.4788     8.6951   -12.8404     2.4622     0.1103     0.0762   132.4776     7.9100
   50.5000    13.3741     7.4515     8.8005   -12.5066     2.4715     0.1058     0.0778   133.9911     7.9100
   51.0000    13.2691     7.4160     8.9072   -12.1577     2.4811     0.1012     0.0795   135.0112     7.9100
   51.5000    13.2640     7.5876     9.0150   -12.1992     2.4904     0.0966     0.0812   136.0427     7.9100
   52.0000    13.7308     7.8413     9.1242   -12.4721     2.4938     0.0930     0.0828   136.5165     7.9100
   52.5000    14.4332     8.1041     9.2347   -12.8751     2.4908     0.0944     0.0828   136.4598     7.9100
   53.0000    14.9547     8.1462     9.3465   -13.2734     2.4856     0.0972     0.0825   135.6207     7.9100
   53.5000    14.3368     8.1605     9.4271   -13.6727     2.4803     0.1000     0.0822   134.8070     7.9100
   54.0000    14.1491     8.1748     9.3469   -14.0719     2.4771     0.1020     0.0820   134.0000     7.9100
   54.5000    14.2436     8.1892     9.2737   -14.4713     2.4793     0.1032     0.0817   133.1929     7.9100
   55.0000    14.3314     8.2076     9.2011   -14.8691     2.4752     0.1044     0.0814   132.3793     7.9100
   55.5000    14.4127     8.1973     9.1290   -15.2695     2.4717     0.1057     0.0811   131.5421     7.9100
   56.0000    13.7904     8.1813     9.0575   -15.4578     2.4755     0.1036     0.0818   131.5590     7.9100
   56.5000    13.3869     8.1654     8.9866   -15.4463     2.4794     0.1010     0.0830   131.6396     7.9100
   57.0000    13.6201     8.1494     8.9162   -15.4316     2.4832     0.0985     0.0843   131.6655     7.9100
   57.5000    13.8058     8.1334     8.8373   -15.4161     2.4871     0.0966     0.0855   130.9732     7.9100
   58.0000    13.9941     8.1175     8.9498   -15.4010     2.4844     0.0977     0.0867   130.2997     7.9100
   58.5000    14.0191     8.1016     9.0809   -15.3859     2.4808     0.1008     0.0879   129.6310     7.9100
   59.0000    13.8207     8.0857     9.2139   -15.3708     2.4773     0.1039     0.0892   128.9761     7.9100
   59.5000    13.5204     8.0699     9.3405   -15.3556     2.4737     0.1062     0.0904   128.5901     7.9100
   60.0000    13.2377     8.0582     9.3187   -15.3405     2.4741     0.1023     0.0916   129.0188     7.9100
   60.5000    13.0214     8.0582     9.2983   -15.3254     2.4815     0.0986     0.0928   129.5933     7.9100
   61.0000    14.9547     8.0582     9.2780   -15.3102     2.4887     0.0950     0.0948   130.8086     7.9100
   61.5000    13.7291     8.0582     9.2576   -15.2947     2.4959     0.0913     0.0968   131.2628     7.9100
   62.0000    12.7828     8.0582     9.2374   -15.2807     2.5031     0.0876     0.0989   131.4982     7.9100
   62.5000    13.0171     8.0582     9.2171   -15.3078     2.5072     0.0839     0.1010   131.6914     7.9100
   63.0000    12.8292     8.0582     9.1969   -15.4660     2.5063     0.0845     0.1031   131.3956     7.9100
   63.5000    12.6470     8.0582     9.1784   -15.6173     2.5010     0.0870     0.1048   131.0823     7.9100
   64.0000    12.5507     8.0582     9.0642   -15.7685     2.4957     0.0918     0.1006   132.1946     7.9100
   64.5000    12.7615     8.0582     8.7551   -15.9196     2.4905     0.0974     0.0963   133.4186     7.9100
   65.0000    12.8989     8.0582     8.8231   -16.0713     2.4898     0.0948     0.0928   134.6399     7.9100
   65.5000    12.4704     8.0582     8.9768   -16.2270     2.4953     0.0907     0.0921   135.6955     7.9100
   66.0000    12.2789     8.0582     9.1331   -16.3672     2.5006     0.0866     0.0915   134.7041     7.9100
