~VERSION INFORMATION
 VERS.                2.0:   CWLS LOG ASCII STANDARD - VERSION 2.0
 WRAP.                 NO:   ONE LINE PER DEPTH STEP
~WELL INFORMATION
#MNEM.UNIT      DATA TYPE    INFORMATION
#----------   ------------   ------------------------------
 STRT.F           30.0000:   START DEPTH
 STOP.F          620.0000:   STOP DEPTH
 STEP.F            0.5000:   STEP LENGTH
 NULL.          -999.2500:   NO VALUE
 COMP. FENIX & SCISSON INC:   COMPANY
 WELL.       NPR-3 #62-15:   WELL
 FLD .             TEAPOT:   FIELD
 LOC .      S15 T38N R78W:   LOCATION
 CNTY.            NATRONA:   COUNTY
 STAT.            WYOMING:   STATE
 CTRY. UNITED STATES OF AMERICA:   COUNTRY
 SRVC.           BIRDWELL:   SERVICE COMPANY
 DATE.        08-JUN-1978:   LOGDATE
 API .       490251063700:   API NUMBER
~CURVE INFORMATION
#MNEM.UNIT       API CODE    CURVE DESCRIPTION
#----------   ------------   ------------------------------
 DEPT.F                  :   
 SPR .MV     05 010 01 00:   SPONTANEOUS POTENTIAL FROM RES.
 SN  .OHMM   05 040 16 00:   SHORT NORMAL 16"
 ILD .OHMM   05 120 46 00:   INDUCTION LOG DEEP
 CALD.IN     45 280 60 00:   CALIPER FROM DENSITY LOG
 GRD .GAPI   45 310 01 00:   GAMMA RAY FROM DENSITY LOG
 CORR.G/C3   45 356 01 00:   DENSITY CORRECTION
 DPHI.DEC    45 890 12 00:   DENSITY POROSITY SANDSTONE
 DEN .G/C3   45 350 01 00:   DENSITY
~PARAMETER INFORMATION
#MNEM.UNIT          VALUE    DESCRIPTION
#----------   ------------   ------------------------------
 PD  .                 GL:   PERMANENT DATUM
 EPD .F              5246:   ELEVATION PERMANENT DATUM
 LMF .                 KB:   LOG MEASURED FROM
 DAPD.F                 4:   FEET ABOVE PERMANENT DATUM
 DMF .                 KB:   DRILLING MEASURED FROM
 EKB .F              5250:   KELLING BUSHING
 EGL .F              5246:   GROUND LEVEL
 DATE.        08-JUN-1978:   RUN DATE
 RUN .                  1:   RUN NUMBER
 DD  .F               620:   DEPTH DRILLER
 DL  .F               627:   DEPTH LOGGER
 BLI .F               620:   BOTTOM LOG INTERVAL
 TLI .F                42:   TOP LOG INTERVAL
 CS  .IN            8.625:   CASING SIZE
 CBD .F                40:   CASING BOTTOM DRILLER
 CBL .F                42:   CASING BOTTOM LOGGER
 BS  .IN            7.875:   BIT SIZE
 BSD .F               620:   BIT SIZE AT DEPTH
 DFT .                KCL:   DRILLING FLUID TYPE
 DFD .                8.7:   DRILLING FLUID DENSITY
 DFV .                 31:   DRILLING FLUID VISCOSITY
 DFPH.               10.5:   DRILLING FLUID PH
 DFL .                 10:   DRILLING FLUID LOSS
 MSS .           FLOWLINE:   MUD SAMPLE SOURCE
 RMS .OHMM            .26:   RESISTIVITY MUD SAMPLE
 MST .F                76:   MUD SAMPLE TEMPERATURE
 RMF .OHMM            .28:   RESISTIVITY MUD FILTRATE SAMPLE
 MFST.F                76:   MUD FILTRATE SAMPLE TEMPERATURE
 RMC .OHMM            .40:   RESISTIVITY MUD CAKE
 MCST.F                77:   MUD CAKE SAMPLE TEMPERATURE
 MFSS.               MEAS:   MUD FILTRATE SAMPLE SOURCE
 MCSS.               MEAS:   MUD CAKE SAMPLE SOURCE
 RMB .OHMM            .28:   RESISTIVITY MUD AT BHT
 BHT .F                70:   BOTTOM HOLE TEMPERATURE
 TCS .HRS            0400:   TIME CURCULATED STOPPED
 MRT .F                70:   MAXIMUM RECORDED TEMPERATURE
 LUN .               2958:   LOGGING UNIT NUMBER
 LUL .               CASP:   LOGGING UNIT LOCATION
 ENGI.             MILLER:   RECORDING ENGINEER
 WITN.           MCGINLEY:   WITNESSED BY
 CLNT.            A2DTECH:   CLIENT CODE
 ORIG.           5" PRINT:   ORIGIN OF DATA
 UWI .       490251063700:   UNIQUE WELL ID
 DICO. A2D Technologies, Inc.:   DIGITIZING COMPANY
~OTHER INFORMATION
~A   DEPT      SPR         SN        ILD       CALD        GRD       CORR       DPHI        DEN   
# ...
  151.5000   -35.8827     8.4744     5.9971     8.0106    94.5351     0.0313     0.1251     2.4729
  152.0000   -35.8680     8.5964     5.9996     7.9499    93.0235     0.0387     0.1098     2.4899
  152.5000   -35.8532     8.6601     6.0437     7.9495    88.8021     0.0416     0.1074     2.4935
  153.0000   -35.8488     8.6642     6.0881     7.9793    88.1963     0.0401     0.1077     2.4942
  153.5000   -35.8444     8.6683     6.1395     7.8582    90.9016     0.0325     0.1147     2.4934
  154.0000   -35.8400     8.6127     6.2212     7.8126    93.6079     0.0295     0.1171     2.4877
  154.5000   -35.8356     8.6168     6.2238     7.8273    93.3022     0.0264     0.1126     2.4829
  155.0000   -35.8311     8.6807     6.2695     7.8117    91.3399     0.0234     0.1122     2.4911
  155.5000   -35.8267     8.8057     6.2720     7.7811    91.7872     0.0233     0.1126     2.4895
  156.0000   -35.8223     8.9325     6.3181     7.7204    93.5899     0.0232     0.1090     2.4888
  156.5000   -35.8179     9.0611     6.3207     7.6899    94.4891     0.0232     0.1054     2.4940
  157.0000   -35.8135     9.1282     6.3671     7.7045    94.6363     0.0231     0.1055     2.4977
  157.5000   -35.8090     9.1326     6.3697     7.7192    94.1789     0.0231     0.1109     2.4969
  158.0000   -35.8046     9.1370     6.4165     7.7338    96.1322     0.0230     0.1136     2.4924
  158.5000   -35.8002     9.1423     6.4191     7.7333    98.9892     0.0229     0.1139     2.4894
  159.0000   -35.7958     9.1467     6.4662     7.7328    99.7388     0.0229     0.1132     2.4886
  159.5000   -35.7905     9.1510     6.5137     7.7324    93.4075     0.0228     0.1099     2.4885
  160.0000   -36.0788     9.2189     6.5616     7.6114    92.1982     0.0228     0.1065     2.4900
  160.5000   -36.2138     9.4817     6.6098     7.5357    93.3985     0.0227     0.1074     2.4952
  161.0000   -36.3451     9.7520     6.7051     7.5306    91.7374     0.0226     0.1101     2.4937
  161.5000   -36.4800     9.8243     6.7544     7.5950    86.9136     0.0226     0.1110     2.4877
  162.0000   -36.4653     9.8972     6.8511     7.6548    86.6091     0.0225     0.1122     2.4831
  162.5000   -36.6039     9.9019     6.9493     7.7146    89.0131     0.0225     0.1134     2.4816
  163.0000   -36.5855     9.9066     7.0003     7.7593    92.3218     0.0224     0.1140     2.4831
  163.5000   -36.5708     9.9113     7.1006     7.8041    93.5222     0.0223     0.1159     2.4823
  164.0000   -36.5560     9.9160     7.1528     7.8036    89.7526     0.0223     0.1180     2.4808
  164.5000   -36.5413     9.9207     7.2053     7.7279    86.5855     0.0237     0.1180     2.4800
  165.0000   -36.5266     9.8571     7.3085     7.7430    86.1292     0.0266     0.1165     2.4785
  165.5000   -36.5118     9.8620     7.3622     7.8023    86.5765     0.0281     0.1138     2.4784
  166.0000   -36.4970     9.8676     7.3652     7.7253    87.9274     0.0370     0.1084     2.4829
  166.5000   -36.4820     9.8723     7.4193     7.6658    90.4832     0.0459     0.1042     2.4956
  167.0000   -36.4671     9.8763     7.4224     7.7275    92.1364     0.0399     0.1064     2.5024
  167.5000   -36.4492     9.8817     7.3742     7.8005    84.2995     0.0278     0.1118     2.5034
  168.0000   -36.4345     9.8864     7.3272     7.7823    80.8311     0.0233     0.1175     2.4880
  168.5000   -36.4197     9.8911     7.2790     7.7544    80.3748     0.0262     0.1187     2.4783
  169.0000   -36.1056     9.8265     7.1827     7.8592    81.8764     0.0277     0.1181     2.4790
  169.5000   -35.9412     9.8323     7.0863     7.9341    85.4863     0.0321     0.1172     2.4797
  170.0000   -35.9264     9.7681     7.0404     7.9789    89.5481     0.0380     0.1152     2.4819
  170.5000   -36.4695     9.7065     6.9473     7.7675    92.1039     0.0425     0.1131     2.4871
  171.0000   -37.1844     9.6443     6.8547     7.7069    93.3042     0.0454     0.1128     2.4909
  171.5000   -37.6798     9.5825     6.8103     7.8721    94.0527     0.0453     0.1116     2.4916
  172.0000   -37.6647     9.5872     6.7662     8.0373    92.6767     0.0446     0.1074     2.4931
  172.5000   -37.6504     9.5256     6.7222     8.1122    90.4292     0.0437     0.1083     2.4961
  173.0000   -37.7853     9.4645     6.6787     8.1269    91.1998     0.0437     0.1101     2.4982
  173.5000   -37.7669     9.4038     6.6815     8.1263    92.1059     0.0436     0.1090     2.4990
  174.0000   -37.7522     9.3435     6.6842     8.0807    92.8434     0.0435     0.1057     2.4982
  174.5000   -37.7374     9.3490     6.6409     8.0049    93.2728     0.0420     0.1039     2.4982
  175.0000   -37.5730     9.3535     6.6437     7.8990    93.2681     0.0419     0.1072     2.4981
  175.5000   -37.5583     9.2924     6.5106     7.8836    92.1521     0.0433     0.1102     2.4981
  176.0000   -37.3938     9.2979     6.4678     7.9283    90.8485     0.0463     0.1105     2.4981
  176.5000   -37.2294     9.2372     6.4258     7.9580    91.7476     0.0477     0.1069     2.4980
  177.0000   -37.2147     9.1779     6.3842     7.9424    92.0443     0.0447     0.1018     2.4980
  177.5000   -37.1999     9.1200     6.3874     7.8968    95.5041     0.0386     0.0989     2.4995
  178.0000   -37.1852     9.1245     6.3901     7.8361    98.5116     0.0356     0.0993     2.5024
  178.5000   -37.3204     9.1288     6.3927     7.7754    99.5625     0.0340     0.1042     2.5047
  179.0000   -37.7555     9.1332     6.3953     7.7298    97.7349     0.0325     0.1070     2.5016
  179.5000   -38.1889     9.1377     6.3979     7.6691    95.6175     0.0309     0.1052     2.5001
  180.0000   -38.3238     9.2063     6.4005     7.6084    93.8052     0.0293     0.1014     2.4993
  180.5000   -38.3054     9.2746     6.3590     7.6080    92.7530     0.0263     0.1029     2.5008
  181.0000   -38.2907     9.2790     6.3616     7.5924    92.4610     0.0217     0.1062     2.5023
  181.5000   -38.2760     9.2834     6.3642     7.5468    97.3308     0.0202     0.1074     2.5022
  182.0000   -38.4109     9.2878     6.3229     7.5162   101.2108     0.0171     0.1059     2.5007
  182.5000   -38.3962     9.2272     6.2826     7.7116   100.9764     0.0156     0.1113     2.4939
  183.0000   -38.3814     9.1680     6.2419     7.7111    98.7672     0.0140     0.1159     2.4864
  183.5000   -38.3667     9.1734     6.2008     7.6956    96.8049     0.0140     0.1171     2.4804
  184.0000   -38.5054     9.1135     6.1182     7.7404    96.8004     0.0124     0.1161     2.4811
  184.5000   -38.4869     9.1189     6.0367     7.8001    97.2477     0.0108     0.1164     2.4810
  185.0000   -38.6256     8.9979     5.9982     7.8599    97.8456     0.0108     0.1222     2.4810
  185.5000   -38.6072     8.9403     5.9587     7.8444    98.7447     0.0122     0.1234     2.4772
  186.0000   -38.7425     8.8830     5.9201     7.7988    96.7824     0.0144     0.1168     2.4735
  186.5000   -38.8772     8.8260     5.8817     7.8597    93.6156     0.0173     0.1159     2.4779
  187.0000   -38.8623     8.7090     5.8847     7.9334    98.1292     0.0195     0.1184     2.4771
  187.5000   -38.9973     8.7142     5.8465     7.9330   101.4380     0.0195     0.1193     2.4756
  188.0000   -38.9820     8.7184     5.8489     7.9325   103.9937     0.0194     0.1181     2.4756
  188.5000   -38.9642     8.7225     5.8514     7.9301   104.5928     0.0178     0.1190     2.4756
  189.0000   -38.9494     8.7267     5.8944     7.8864   102.2749     0.0193     0.1130     2.4778
  189.5000   -38.9347     8.7308     5.9382     7.8887    99.7545     0.0192     0.1106     2.4845
  190.0000   -38.9199     8.7350     6.0650     7.9307    92.2280     0.0192     0.1098     2.4927
  190.5000   -38.9052     8.8607     6.1096     7.9454    87.2536     0.0191     0.1125     2.4919
  191.0000   -38.8905     8.9883     6.1971     7.9448    85.2913     0.0190     0.1185     2.4874
  191.5000   -38.8757     9.0549     6.1996     7.9443    85.1374     0.0190     0.1170     2.4814
