~VERSION INFORMATION
 VERS.                2.0:   CWLS LOG ASCII STANDARD - VERSION 2.0
 WRAP.                 NO:   ONE LINE PER DEPTH STEP
~WELL INFORMATION
#MNEM.UNIT      DATA TYPE    INFORMATION
#----------   ------------   ------------------------------
 STRT.F           99.0000:   START DEPTH
 STOP.F          761.5000:   STOP DEPTH
 STEP.F            0.5000:   STEP LENGTH
 NULL.          -999.2500:   NO VALUE
 COMP.          U.S. NAVY:   COMPANY
 WELL. RES 3 TEAPOT DOM #48S-11:   WELL
 FLD .             TEAPOT:   FIELD
 LOC .      S11 T38N R78W:   LOCATION
 CNTY.            NATRONA:   COUNTY
 STAT.            WYOMING:   STATE
 CTRY. UNITED STATES OF AMERICA:   COUNTRY
 SRVC.       Schlumberger:   SERVICE COMPANY
 DATE.        14-JUL-1963:   LOGDATE
 API .       490250632500:   API NUMBER
~CURVE INFORMATION
#MNEM.UNIT       API CODE    CURVE DESCRIPTION
#----------   ------------   ------------------------------
 DEPT.F                  :   
 SPR .MV     05 010 01 00:   SPONTANEOUS POTENTIAL FROM RES.
 ILD .OHMM   05 120 46 00:   INDUCTION LOG DEEP
 CILD.MMHO   05 110 46 00:   CONDUCTIVITY INDUCTION LOG DEEP
 GR  .GAPI   30 310 01 00:   GAMMA RAY
 ASN .OHMM   05 041 16 00:   AMPLIFIED SHORT NORMAL 16"
~PARAMETER INFORMATION
#MNEM.UNIT          VALUE    DESCRIPTION
#----------   ------------   ------------------------------
 PD  .                 GL:   PERMANENT DATUM
 EPD .F              5187:   ELEVATION PERMANENT DATUM
 LMF .                 KB:   LOG MEASURED FROM
 DAPD.F                 5:   FEET ABOVE PERMANENT DATUM
 DMF .                 KB:   DRILLING MEASURED FROM
 EKB .F              5192:   KELLING BUSHING
 EGL .F              5187:   GROUND LEVEL
 DATE.            7-14-63:   RUN DATE
 RUN .                  1:   RUN NUMBER
 DD  .F               762:   DEPTH DRILLER
 DL  .F               761:   DEPTH LOGGER
 BLI .F               760:   BOTTOM LOG INTERVAL
 TLI .F               100:   TOP LOG INTERVAL
 CS  .IN            8.625:   CASING SIZE
 CBD .F                10:   CASING BOTTOM DRILLER
 BS  .IN            7.875:   BIT SIZE
 BSD .F               762:   BIT SIZE AT DEPTH
 DFT .            GEL-OIL:   DRILLING FLUID TYPE
 DFD .                 10:   DRILLING FLUID DENSITY
 DFV .                 55:   DRILLING FLUID VISCOSITY
 DFPH.                9.5:   DRILLING FLUID PH
 DFL .                  4:   DRILLING FLUID LOSS
 MSS .          FLOW LINE:   MUD SAMPLE SOURCE
 RMS .OHMM           3.11:   RESISTIVITY MUD SAMPLE
 MST .F                78:   MUD SAMPLE TEMPERATURE
 RMF .OHMM           2.31:   RESISTIVITY MUD FILTRATE SAMPLE
 MFST.F                78:   MUD FILTRATE SAMPLE TEMPERATURE
 RMC .OHMM           3.82:   RESISTIVITY MUD CAKE
 MCST.F                78:   MUD CAKE SAMPLE TEMPERATURE
 MFSS.                  M:   MUD FILTRATE SAMPLE SOURCE
 MCSS.                  M:   MUD CAKE SAMPLE SOURCE
 TCS .HRS               1:   TIME CURCULATED STOPPED
 LUN .               4507:   LOGGING UNIT NUMBER
 ENGI.             KNOBEL:   RECORDING ENGINEER
 WITN.          JORGENSEN:   WITNESSED BY
 CLNT.            A2DTECH:   CLIENT CODE
 ORIG.       2", 5" PRINT:   ORIGIN OF DATA
 UWI .       490250632500:   UNIQUE WELL ID
 DICO. A2D Technologies, Inc.:   DIGITIZING COMPANY
~OTHER INFORMATION
~A   DEPT      SPR        ILD       CILD         GR        ASN   
# ...
  282.0000   -37.7728    19.1251    50.9935    51.2940    18.6314
  282.5000   -37.4047    18.9535    51.1777    46.9067    18.4857
  283.0000   -37.0724    18.7929    51.3619    47.2345    18.3257
  283.5000   -36.8418    18.6051    51.5461    35.7959    18.1716
  284.0000   -37.3001    18.3815    51.7303    45.5722    17.8897
  284.5000   -37.8078    18.0076    53.1108    51.6829    17.5897
  285.0000   -38.3195    17.6365    54.7104    52.3219    17.2892
  285.5000   -38.8191    17.3623    56.3100    54.1968    16.9889
  286.0000   -39.0755    17.0297    57.7889    56.6795    16.6860
  286.5000   -39.0491    16.7064    58.3525    58.5790    16.3652
  287.0000   -38.6411    16.3824    58.8764    57.2744    16.0160
  287.5000   -38.1955    16.0413    59.4005    55.3536    15.6728
  288.0000   -37.7509    16.1357    59.9244    53.3373    15.3878
  288.5000   -37.3076    16.1408    60.4484    54.3583    15.2726
  289.0000   -36.8425    15.5559    60.8040    55.3482    15.1537
  289.5000   -35.9792    14.3104    63.9144    63.0519    15.0262
  290.0000   -35.2207    13.0414    72.2366    58.7264    14.6055
  290.5000   -35.1640    11.7731    82.3853    55.5280    14.0518
  291.0000   -35.0841    10.5012    92.5209    58.4458    12.9275
  291.5000   -34.6465     9.2321   102.6533    65.6081    11.5293
  292.0000   -33.4628     8.6499   112.7839    72.6613    10.1718
  292.5000   -31.5259     8.1190   122.9146    74.8133     9.7256
  293.0000   -29.8151     7.5860   133.0452    70.9745     8.9710
  293.5000   -29.4041     7.1867   139.9759    69.5890     8.4392
  294.0000   -29.3795     6.8763   144.6312    69.6511     8.2355
  294.5000   -29.3376     6.8882   146.2470    64.0121     8.2180
  295.0000   -29.2938     6.9149   146.1513    68.2290     8.2167
  295.5000   -29.2498     6.9406   145.7568    65.1559     8.2486
  296.0000   -29.2014     6.9657   145.3668    70.0305     8.1786
  296.5000   -29.1326     6.9728   145.2261    59.5961     8.0910
  297.0000   -29.0655     6.9112   145.2261    61.6757     8.0047
  297.5000   -29.0154     6.8500   145.2261    62.2791     7.9036
  298.0000   -29.0157     6.7884   145.2261    59.8937     7.8073
  298.5000   -28.9837     6.7011   145.2261    60.9878     7.7155
  299.0000   -28.8436     6.8154   145.2261    68.1275     7.6874
  299.5000   -28.7092     6.9227   143.0928    77.3762     7.6965
  300.0000   -28.6044     7.0277   141.1237    69.2434     7.8578
  300.5000   -28.5723     7.1327   139.1545    62.9583     7.9836
  301.0000   -28.5399     7.1812   137.1853    60.2243     8.0299
  301.5000   -28.5076     7.1610   136.4094    74.2390     8.0768
  302.0000   -28.4751     7.1418   137.1997    66.2512     8.0797
  302.5000   -28.4427     7.1226   137.9899    59.9222     8.0652
  303.0000   -28.4138     7.1038   138.7802    63.8112     8.0464
  303.5000   -28.4135     7.0819   140.3984    69.4934     7.9598
  304.0000   -28.4137     7.0002   142.8800    58.7593     7.8741
  304.5000   -28.4150     6.9195   145.3896    62.0507     7.7978
  305.0000   -28.3431     6.8392   146.5522    58.4022     7.7311
  305.5000   -28.2432     6.7590   147.0262    51.1358     7.6611
  306.0000   -28.1426     6.6842   147.5021    61.0541     7.6070
  306.5000   -28.0422     6.7130   147.9861    64.1394     7.6198
  307.0000   -27.9418     6.7584   147.8280    63.4903     7.6467
  307.5000   -27.8413     6.8040   146.9012    62.3930     7.6740
  308.0000   -27.7408     6.8495   145.9743    60.4285     7.7319
  308.5000   -27.6374     6.8950   145.0475    61.5034     7.8326
  309.0000   -27.7027     6.9402   144.1206    65.1625     7.9326
  309.5000   -27.8326     6.9870   143.2161    73.2613     8.0238
  310.0000   -27.9638     7.0770   140.8120    67.4165     8.0708
  310.5000   -28.0948     7.1676   138.4500    65.3408     8.0701
  311.0000   -28.2322     7.2579   136.0933    68.4698     8.0701
  311.5000   -28.4230     7.3481   133.7381    65.4916     8.0837
  312.0000   -28.6147     7.4384   131.3828    71.4187     8.1922
  312.5000   -28.8074     7.5286   129.0275    69.9601     8.3506
  313.0000   -28.9954     7.6189   126.8705    66.0741     8.5071
  313.5000   -28.8552     7.7091   125.5230    63.9327     8.6578
  314.0000   -28.6744     7.7994   124.1755    60.0760     8.7726
  314.5000   -28.4935     7.8897   122.8280    63.2665     8.8123
  315.0000   -28.3132     7.9800   121.4805    63.0148     8.8502
  315.5000   -28.1330     8.0732   120.1005    63.3920     8.8829
  316.0000   -27.9525     8.0261   121.0163    61.4775     8.9322
  316.5000   -27.7720     7.9157   121.9548    59.2869     8.9773
  317.0000   -27.6112     7.8042   122.8932    63.3785     8.9172
  317.5000   -27.6096     7.6929   124.3886    64.4771     8.8422
  318.0000   -27.6103     7.5817   126.0570    69.6760     8.7281
  318.5000   -27.6105     7.4705   127.7253    58.9330     8.5346
  319.0000   -27.6105     7.3591   129.3936    62.5691     8.4341
  319.5000   -27.6108     7.2481   131.1558    62.8937     8.3681
  320.0000   -27.5937     7.1364   132.4440    58.9804     8.2687
  320.5000   -27.5699     7.0934   133.8091    59.7251     8.1570
  321.0000   -27.5459     7.1461   134.1709    53.7862     8.1089
  321.5000   -27.5220     7.1999   134.0382    56.0154     8.1331
  322.0000   -27.4981     7.2536   133.7879    54.0321     8.1639
  322.5000   -27.4742     7.3073   133.5377    60.2604     8.1889
  323.0000   -27.4505     7.3609   133.2874    64.7860     8.1647
  323.5000   -27.4258     7.4145   133.0372    65.2511     8.1409
  324.0000   -27.3726     7.4681   132.7869    67.4440     8.1167
  324.5000   -27.2328     7.5217   132.5367    63.7883     8.1369
  325.0000   -27.7729     7.5754   132.2864    72.7552     8.2281
  325.5000   -28.4109     7.6293   131.9409    71.4567     8.3184
  326.0000   -28.0917     7.6831   131.4993    70.2511     8.4083
  326.5000   -27.7106     7.6701   131.0576    66.8058     8.4725
  327.0000   -27.3198     7.6492   130.6160    59.1297     8.4535
  327.5000   -27.2103     7.6281   130.1744    59.8384     8.4078
  328.0000   -27.2090     7.6070   129.7328    62.4560     8.3445
  328.5000   -27.1843     7.5870   129.2912    61.2043     8.2895
  329.0000   -26.9547     7.6273   128.2133    56.0405     8.3026
  329.5000   -26.7217     7.6729   126.8230    60.2750     8.3128
  330.0000   -26.6248     7.7186   125.4327    65.2454     8.4604
  330.5000   -26.8006     7.7642   124.1206    62.1674     8.6094
  331.0000   -26.9783     7.8101   124.7696    62.7540     8.7386
  331.5000   -27.1574     7.8550   126.1996    60.1416     8.8524
  332.0000   -27.2476     7.8602   127.6296    48.3278     8.8441
  332.5000   -27.3040     7.7145   130.4258    47.9142     8.7342
  333.0000   -27.3598     7.5735   133.3257    48.7507     8.4588
  333.5000   -27.4111     7.4327   136.2237    54.8841     8.2240
  334.0000   -27.3239     7.2919   139.1208    58.5315     8.0242
  334.5000   -27.2017     7.1508   141.1233    66.9050     7.9163
  335.0000   -27.0791     7.0090   142.5953    71.3641     7.8072
  335.5000   -26.9566     6.9513   144.0674    72.8660     7.7537
  336.0000   -26.8342     6.9104   145.2261    67.1052     7.6983
  336.5000   -26.7116     6.8697   145.8277    59.1902     7.7030
  337.0000   -26.5893     6.8289   146.5691    60.6000     7.7275
  337.5000   -26.4667     6.7880   147.3106    64.9685     7.7503
  338.0000   -26.4698     6.7472   148.0521    75.2233     7.7696
  338.5000   -26.5987     6.7063   148.7936    73.4226     7.7708
  339.0000   -26.7273     6.6652   149.2462    73.6948     7.7025
  339.5000   -26.8561     6.6234   149.2462    74.8907     7.6235
  340.0000   -26.9849     6.5879   149.2462    80.9332     7.5441
  340.5000   -27.1136     6.7300   148.2412    69.3283     7.5058
  341.0000   -27.2424     6.8822   145.8166    73.6566     7.5122
  341.5000   -27.3728     7.0338   142.6884    76.7692     7.6227
  342.0000   -27.4479     7.1851   139.5603    83.4630     7.8301
  342.5000   -27.5259     7.3365   136.4254    72.4710     8.0370
