~VERSION INFORMATION
 VERS.                2.0:   CWLS LOG ASCII STANDARD - VERSION 2.0
 WRAP.                 NO:   ONE LINE PER DEPTH STEP
~WELL INFORMATION
#MNEM.UNIT      DATA TYPE    INFORMATION
#----------   ------------   ------------------------------
 STRT.F           20.0000:   START DEPTH
 STOP.F          478.0000:   STOP DEPTH
 STEP.F            0.5000:   STEP LENGTH
 NULL.          -999.2500:   NO VALUE
 COMP. FENIX & SCISSON INC:   COMPANY
 WELL.   56 31 SX #56-3FP:   WELL
 FLD .             TEAPOT:   FIELD
 LOC .       S3 T38N R78W:   LOCATION
 CNTY.            NATRONA:   COUNTY
 STAT.            WYOMING:   STATE
 CTRY. UNITED STATES OF AMERICA:   COUNTRY
 SRVC.              Welex:   SERVICE COMPANY
 DATE.        06-JUN-1980:   LOGDATE
 API .       490251082300:   API NUMBER
~CURVE INFORMATION
#MNEM.UNIT       API CODE    CURVE DESCRIPTION
#----------   ------------   ------------------------------
 DEPT.F                  :   
 RHOB.G/C3   45 350 01 00:   BULK DENSITY
 CORR.G/C3   45 356 01 00:   DENSITY CORRECTION
 GRD .GAPI   45 310 01 00:   GAMMA RAY FROM DENSITY LOG
 CALD.IN     45 280 60 00:   CALIPER
 DPHI.DEC    45 890 12 00:   DENSITY POROSITY SANDSTONE
 NPHI.DEC    42 890 03 00:   NEUTRON POROSITY SANDSTONE
 SPR .MV     07 010 01 00:   SPONTANEOUS POTENTIAL
 ILD .OHMM   07 120 46 00:   INDUCTION LOG DEEP
 ILM .OHMM   07 120 44 00:   INDUCTION LOG MEDIUM
 SGRD.OHMM   07 220 05 00:   SHALLOW GUARD RESISTIVITY
~PARAMETER INFORMATION
#MNEM.UNIT          VALUE    DESCRIPTION
#----------   ------------   ------------------------------
 PD  .                 GL:   PERMANENT DATUM
 EPD .F              5173:   ELEVATION PERMANENT DATUM
 LMF .                 KB:   LOG MEASURED FROM
 DAPD.F                 5:   FEET ABOVE PERMANENT DATUM
 DMF .                 KB:   DRILLING MEASURED FROM
 EKB .F              5178:   KELLING BUSHING
 EGL .F              5173:   GROUND LEVEL
 DATE.             6-6-80:   RUN DATE
 RUN .                  1:   RUN NUMBER
 DD  .F               450:   DEPTH DRILLER
 DL  .F               476:   DEPTH LOGGER
 BLI .F               474:   BOTTOM LOG INTERVAL
 TLI .F                30:   TOP LOG INTERVAL
 BS  .IN            9.875:   BIT SIZE
 BSD .F               450:   BIT SIZE AT DEPTH
 DFT .            KCL MUD:   DRILLING FLUID TYPE
 DFD .                9.5:   DRILLING FLUID DENSITY
 DFV .                 48:   DRILLING FLUID VISCOSITY
 DFPH.                7.5:   DRILLING FLUID PH
 DFL .                  7:   DRILLING FLUID LOSS
 MSS .           FLOWLINE:   MUD SAMPLE SOURCE
 RMS .OHMM           1.56:   RESISTIVITY MUD SAMPLE
 MST .F                62:   MUD SAMPLE TEMPERATURE
 RMF .OHMM           1.24:   RESISTIVITY MUD FILTRATE SAMPLE
 MFST.F                62:   MUD FILTRATE SAMPLE TEMPERATURE
 RMC .OHMM           1.87:   RESISTIVITY MUD CAKE
 MCST.F                62:   MUD CAKE SAMPLE TEMPERATURE
 MFSS.           MEASURED:   MUD FILTRATE SAMPLE SOURCE
 MCSS.           MEASURED:   MUD CAKE SAMPLE SOURCE
 RMB .OHMM           1.32:   RESISTIVITY MUD AT BHT
 BHT .F                73:   BOTTOM HOLE TEMPERATURE
 TCS .HRS               6:   TIME CURCULATED STOPPED
 MRT .F                73:   MAXIMUM RECORDED TEMPERATURE
 LUN .               1892:   LOGGING UNIT NUMBER
 LUL .             CASPER:   LOGGING UNIT LOCATION
 ENGI.               REIN:   RECORDING ENGINEER
 WITN.              AMEND:   WITNESSED BY
 CLNT.            A2DTECH:   CLIENT CODE
 ORIG.        2" 5" PRINT:   ORIGIN OF DATA
 UWI .       490251082300:   UNIQUE WELL ID
 DICO. A2D Technologies, Inc.:   DIGITIZING COMPANY
~OTHER INFORMATION
~A   DEPT     RHOB       CORR        GRD       CALD       DPHI       NPHI        SPR          ILD        ILM     SGRD   
# ...
   53.5000     2.4768     0.0796    84.9819     9.8534     0.1278     0.3303   -45.6109     4.0635     4.7183     5.7559
   54.0000     2.4789     0.0823    85.1982     9.8521     0.1231     0.3301   -45.6743     4.1077     4.6962     6.0116
   54.5000     2.4845     0.0855    85.5283     9.8515     0.1176     0.3259   -45.7388     4.1343     4.6879     6.2523
   55.0000     2.4975     0.0948    85.8612     9.8515     0.1168     0.3210   -45.6970     4.1199     4.6796     6.0444
   55.5000     2.5024     0.1036    86.1934     9.8515     0.1292     0.3151   -45.5678     4.1096     4.6713     5.8090
   56.0000     2.4780     0.0946    86.5261     9.8515     0.1343     0.3106   -45.4379     4.0994     4.6631     5.7929
   56.5000     2.4718     0.0844    86.8658     9.8515     0.1377     0.3158   -45.3077     4.0892     4.6404     5.7786
   57.0000     2.4595     0.0739    86.9295     9.8515     0.1357     0.3153   -45.1777     4.0791     4.6053     5.7653
   57.5000     2.4674     0.0842    86.9233     9.8515     0.1318     0.3138   -45.0475     4.0690     4.5691     6.0266
   58.0000     2.4832     0.0998    87.2628     9.8515     0.1290     0.3171   -44.9166     4.0590     4.5275     5.8639
   58.5000     2.4708     0.0861    87.6820     9.8515     0.1471     0.3188   -44.7877     4.0095     4.4862     5.6539
   59.0000     2.4479     0.0729    88.1056     9.8515     0.1509     0.3168   -44.7822     3.9611     4.4453     5.4470
   59.5000     2.4351     0.0635    88.4933     9.8525     0.1563     0.3189   -44.8257     3.9134     4.4047     5.3769
   60.0000     2.4300     0.0490    88.1963     9.8578     0.1620     0.3239   -45.0930     3.8662     4.3645     5.3060
   60.5000     2.4020     0.0276    87.8738     9.8631     0.1584     0.3293   -45.3568     3.8196     4.3248     5.2504
   61.0000     2.4330     0.0499    87.5538     9.8683     0.1495     0.3298   -45.5823     3.7735     4.2891     5.2621
   61.5000     2.4397     0.0608    87.2344     9.8710     0.1545     0.3328   -45.6120     3.7272     4.3079     5.2718
   62.0000     2.4240     0.0480    86.9342     9.8702     0.1641     0.3345   -45.6455     3.7028     4.3250     5.2815
   62.5000     2.4080     0.0355    86.8664     9.8694     0.1742     0.3289   -45.6795     3.8431     4.3423     5.2912
   63.0000     2.3993     0.0353    86.8071     9.8687     0.1687     0.3246   -45.7136     3.8513     4.3596     5.3201
   63.5000     2.4195     0.0509    86.7469     9.8679     0.1585     0.3268   -45.7475     3.8607     4.3913     5.4202
   64.0000     2.4399     0.0664    86.6864     9.8671     0.1484     0.3265   -45.7680     3.8699     4.4394     5.5223
   64.5000     2.4440     0.0668    86.6262     9.8664     0.1437     0.3261   -45.7670     3.8854     4.4879     5.5993
   65.0000     2.4454     0.0705    86.5675     9.8656     0.1404     0.3206   -45.7224     3.9216     4.5370     5.5993
   65.5000     2.4593     0.0765    86.6234     9.8648     0.1367     0.3150   -45.6119     3.9576     4.5866     5.6501
   66.0000     2.4603     0.0754    86.8087     9.8641     0.1368     0.3121   -45.5028     3.9940     4.6368     5.7764
   66.5000     2.4632     0.0714    86.9926     9.8633     0.1356     0.3205   -45.3978     4.0308     4.6618     5.8090
   67.0000     2.4659     0.0672    87.1777     9.8625     0.1374     0.3190   -45.1275     4.0679     4.6669     5.5993
   67.5000     2.4542     0.0632    87.3625     9.8618     0.1408     0.3199   -44.8311     4.1053     4.6719     5.7525
   68.0000     2.4511     0.0620    87.5292     9.8610     0.1419     0.3214   -44.5332     4.1365     4.6770     5.8764
   68.5000     2.4613     0.0771    87.5271     9.8602     0.1395     0.3265   -44.2346     4.1453     4.6821     6.0030
   69.0000     2.4694     0.0765    87.1147     9.8595     0.1467     0.3237   -44.2166     4.1543     4.6871     6.0823
   69.5000     2.4409     0.0633    86.3362     9.8587     0.1503     0.3209   -44.2451     4.1633     4.6922     5.8883
   70.0000     2.4510     0.0589    85.5564     9.8579     0.1439     0.3217   -44.2744     4.1725     4.6973     5.7522
   70.5000     2.4361     0.0541    84.7718     9.8572     0.1508     0.3252   -44.3032     4.1486     4.7016     5.6510
   71.0000     2.4297     0.0493    83.9904     9.8564     0.1561     0.3223   -44.3318     4.1244     4.6915     5.6705
   71.5000     2.4236     0.0446    83.8290     9.8556     0.1592     0.3227   -44.3604     4.1003     4.6816     5.6862
   72.0000     2.4242     0.0463    83.7001     9.8549     0.1586     0.3177   -44.3891     4.0764     4.6717     5.7032
   72.5000     2.4265     0.0485    83.5683     9.8541     0.1585     0.3128   -44.4177     4.0525     4.6619     5.6515
   73.0000     2.4291     0.0506    83.4355     9.8533     0.1633     0.3102   -44.4464     4.0218     4.6520     5.5961
   73.5000     2.4202     0.0526    83.3027     9.8526     0.1682     0.3131   -44.4750     4.0292     4.6422     5.5488
   74.0000     2.4108     0.0525    83.1699     9.8518     0.1646     0.3144   -44.5037     4.0397     4.6323     5.8631
   74.5000     2.4108     0.0413    83.0368     9.8515     0.1697     0.3169   -44.5324     4.0503     4.6226     5.8063
   75.0000     2.3926     0.0307    82.9030     9.8515     0.1763     0.3138   -44.5611     4.0662     4.6164     5.7217
   75.5000     2.3899     0.0284    82.7784     9.8515     0.1800     0.3084   -44.5876     4.1055     4.7531     5.5993
   76.0000     2.3879     0.0266    82.8481     9.8515     0.1797     0.3089   -44.5866     4.1452     4.8555     5.8321
   76.5000     2.3902     0.0246    82.9257     9.8515     0.1794     0.3114   -44.5542     4.1853     4.9601     6.2169
   77.0000     2.3940     0.0224    83.0027     9.8515     0.1702     0.3079   -44.4434     4.2258     5.0670     6.3058
   77.5000     2.4114     0.0343    83.0813     9.8515     0.1593     0.3089   -44.1323     4.2661     5.1590     6.3978
   78.0000     2.4306     0.0486    83.1694     9.8515     0.1491     0.3099   -43.6219     4.3285     5.1764     6.4906
   78.5000     2.4454     0.0622    82.6979     9.8515     0.1487     0.3072   -43.2267     4.4148     5.1953     6.5851
   79.0000     2.4422     0.0673    82.1355     9.8515     0.1451     0.3033   -42.8241     4.5037     5.2580     6.6809
   79.5000     2.4612     0.0812    81.5701     9.8515     0.1327     0.3001   -42.4210     4.5942     5.3511     6.7294
   80.0000     2.4741     0.0966    81.0094     9.8515     0.1418     0.2986   -42.0146     4.6865     5.4458     6.7308
   80.5000     2.4474     0.0816    80.6002     9.8515     0.1488     0.2963   -41.8538     4.7807     5.5423     6.7262
   81.0000     2.4315     0.0622    80.6771     9.8515     0.1563     0.2965   -41.8869     4.8768     5.6404     7.0648
   81.5000     2.4207     0.0434    80.7443     9.8515     0.1669     0.2986   -41.9234     4.9743     5.7403     7.3084
   82.0000     2.4074     0.0178    80.8108     9.8515     0.1937     0.2979   -41.9608     5.0640     5.8245     7.2443
   82.5000     2.3659     0.0072    80.8772     9.8515     0.1879     0.2932   -41.9973     5.0869     5.8730     7.4296
   83.0000     2.3885     0.0129    80.9436     9.8515     0.1800     0.2885   -42.0073     5.1100     5.9219     7.5134
   83.5000     2.3933     0.0123    81.0101     9.8515     0.1781     0.2873   -41.8653     5.1331     5.9712     7.5960
   84.0000     2.3930     0.0246    81.0767     9.8515     0.1704     0.2870   -41.6070     5.1547     6.0209     7.7956
   84.5000     2.4125     0.0419    81.1431     9.8515     0.1547     0.2846   -41.3166     5.2315     6.0823     7.6877
   85.0000     2.4410     0.0594    81.1868     9.8515     0.1506     0.2859   -41.0278     5.3043     6.0506     7.5142
   85.5000     2.4347     0.0583    80.9853     9.8515     0.1544     0.2890   -40.8287     5.3972     5.9970     7.6536
   86.0000     2.4254     0.0501    80.7638     9.8515     0.1583     0.2939   -40.7898     5.3704     5.9439     7.5481
   86.5000     2.4261     0.0564    80.5415     9.8515     0.1524     0.3018   -40.7484     5.3346     5.8913     7.4408
