~VERSION INFORMATION
 VERS.                2.0:   CWLS LOG ASCII STANDARD - VERSION 2.0
 WRAP.                 NO:   ONE LINE PER DEPTH STEP
~WELL INFORMATION
#MNEM.UNIT      DATA TYPE    INFORMATION
#----------   ------------   ------------------------------
 STRT.F           86.0000:   START DEPTH
 STOP.F          708.0000:   STOP DEPTH
 STEP.F            0.5000:   STEP LENGTH
 NULL.          -999.2500:   NO VALUE
 COMP. U S NAVY/INTEX OIL CO:   COMPANY
 WELL.      33 S-11 #3-11:   WELL
 FLD .             TEAPOT:   FIELD
 LOC .      S11 T38N R78W:   LOCATION
 CNTY.            NATRONA:   COUNTY
 STAT.            WYOMING:   STATE
 CTRY. UNITED STATES OF AMERICA:   COUNTRY
 SRVC.       Schlumberger:   SERVICE COMPANY
 DATE.        11-JUL-1962:   LOGDATE
 API .       490250636000:   API NUMBER
~CURVE INFORMATION
#MNEM.UNIT       API CODE    CURVE DESCRIPTION
#----------   ------------   ------------------------------
 DEPT.F                  :   
 SPR .MV     05 010 01 00:   SPONTANEOUS POTENTIAL FROM RES.
 CILD.MMHO   05 110 46 00:   CONDUCTIVITY INDUCTION LOG DEEP
 ILD .OHMM   05 120 46 00:   INDUCTION LOG DEEP
 ASN .OHMM   05 041 16 00:   AMPLIFIED SHORT NORMAL 16"
 GR  .GAPI   30 310 01 00:   GAMMA RAY
~PARAMETER INFORMATION
#MNEM.UNIT          VALUE    DESCRIPTION
#----------   ------------   ------------------------------
 PD  .                 GL:   PERMANENT DATUM
 EPD .F              5171:   ELEVATION PERMANENT DATUM
 LMF .                 KB:   LOG MEASURED FROM
 DAPD.F                 5:   FEET ABOVE PERMANENT DATUM
 DMF .                 KB:   DRILLING MEASURED FROM
 EKB .F              5176:   KELLING BUSHING
 EGL .F              5171:   GROUND LEVEL
 DATE.            7-11-62:   RUN DATE
 RUN .                  1:   RUN NUMBER
 DD  .F               710:   DEPTH DRILLER
 DL  .F               709:   DEPTH LOGGER
 BLI .F               708:   BOTTOM LOG INTERVAL
 TLI .F                86:   TOP LOG INTERVAL
 BS  .IN             6.75:   BIT SIZE
 BSD .F               710:   BIT SIZE AT DEPTH
 DFT .            GEL/OIL:   DRILLING FLUID TYPE
 DFD .               10.3:   DRILLING FLUID DENSITY
 DFV .                 50:   DRILLING FLUID VISCOSITY
 DFL .                3.7:   DRILLING FLUID LOSS
 RMS .OHMM           5.66:   RESISTIVITY MUD SAMPLE
 MST .F                77:   MUD SAMPLE TEMPERATURE
 RMF .OHMM           4.44:   RESISTIVITY MUD FILTRATE SAMPLE
 MFST.F                77:   MUD FILTRATE SAMPLE TEMPERATURE
 RMC .OHMM            5.9:   RESISTIVITY MUD CAKE
 MCST.F                77:   MUD CAKE SAMPLE TEMPERATURE
 TCS .HRS               1:   TIME CURCULATED STOPPED
 LUN .               2503:   LOGGING UNIT NUMBER
 LUL .               CSPR:   LOGGING UNIT LOCATION
 ENGI.             DANNER:   RECORDING ENGINEER
 WITN.          JORGENSEN:   WITNESSED BY
 CLNT.            A2DTECH:   CLIENT CODE
 ORIG.       2", 5" PRINT:   ORIGIN OF DATA
 UWI .       490250636000:   UNIQUE WELL ID
 DICO. A2D Technologies, Inc.:   DIGITIZING COMPANY
~OTHER INFORMATION
~A   DEPT      SPR        CILD         ILD        ASN       GR   
# ...
  208.0000   -57.6791   129.7532     7.4268     7.5737  -999.2500
  208.5000   -57.7186   131.1935     7.3208     7.4712  -999.2500
  209.0000   -57.6374   132.6338     7.2153     7.3683  -999.2500
  209.5000   -57.5571   134.2157     7.1096     7.2643  -999.2500
  210.0000   -57.4775   136.5202     7.0043     7.2085  -999.2500
  210.5000   -57.3984   138.8248     6.9169     7.1428  -999.2500
  211.0000   -57.3306   141.1293     6.9189     7.0398  -999.2500
  211.5000   -57.3285   142.9293     6.9190     6.9364  -999.2500
  212.0000   -57.2090   143.5249     6.9262     6.9219  -999.2500
  212.5000   -57.2291   142.8641     6.9347     6.9899  -999.2500
  213.0000   -57.3295   142.2033     6.9433     6.9718  -999.2500
  213.5000   -57.3379   141.5425     6.9518     6.9644  -999.2500
  214.0000   -57.4862   140.8817     6.9604     7.0506  -999.2500
  214.5000   -57.5188   140.2209     6.9689     7.0411  -999.2500
  215.0000   -57.4905   140.1684     6.9774     7.0014  -999.2500
  215.5000   -57.4643   141.0219     6.9860     6.9612  -999.2500
  216.0000   -57.4392   141.9192     6.9945     6.9975  -999.2500
  216.5000   -57.4140   141.1418     7.0030     7.0681  -999.2500
  217.0000   -57.3889   140.3224     7.0116     7.1381  -999.2500
  217.5000   -57.3639   139.5030     7.0201     7.1819  -999.2500
  218.0000   -57.3378   138.6836     7.0286     7.1594  -999.2500
  218.5000   -57.3246   137.8788     7.0372     7.1303  -999.2500
  219.0000   -57.2701   137.8788     7.0457     7.0734  -999.2500
  219.5000   -57.2158   137.8788     7.0543     7.0204  -999.2500
  220.0000   -57.1615   137.8788     7.0628     7.0674  -999.2500
  220.5000   -57.1073   136.4184     7.0713     7.1381  -999.2500
  221.0000   -57.0528   135.0396     7.0799     7.2320  -999.2500
  221.5000   -56.9993   133.6608     7.0884     7.3333  -999.2500
  222.0000   -56.9406   132.2820     7.0970     7.4354  -999.2500
  222.5000   -57.1889   130.8081     7.1058     7.5208  -999.2500
  223.0000   -57.6014   132.0000     7.1143     7.5467  -999.2500
  223.5000   -57.7382   133.2803     7.1040     7.4401  -999.2500
  224.0000   -57.7113   136.0606     6.9835     7.2839  -999.2500
  224.5000   -57.6777   140.0000     6.8637     7.1278  -999.2500
  225.0000   -57.6441   143.9394     6.7441     6.9715  -999.2500
  225.5000   -57.6107   147.8788     6.6244     6.8178  -999.2500
  226.0000   -57.5769   151.8182     6.5052     6.7403  -999.2500
  226.5000   -57.5425   155.0505     6.4057     6.6621  -999.2500
  227.0000   -57.5715   154.5636     6.3767     6.6100  -999.2500
  227.5000   -57.8305   154.0025     6.3467     6.5967  -999.2500
  228.0000   -58.0959   153.4286     6.3166     6.6113  -999.2500
  228.5000   -58.1511   153.0303     6.2864     6.6262  -999.2500
  229.0000   -57.9712   154.1270     6.2563     6.6411  -999.2500
  229.5000   -57.7470   155.3463     6.2262     6.6557  -999.2500
  230.0000   -57.5216   156.5657     6.1960     6.6410  -999.2500
  230.5000   -57.3018   157.7850     6.1656     6.5917  -999.2500
  231.0000   -57.1385   157.4117     6.1356     6.5433  -999.2500
  231.5000   -56.9308   155.5681     6.1275     6.4964  -999.2500
  232.0000   -56.9280   153.7263     6.2336     6.4753  -999.2500
  232.5000   -56.7962   151.8806     6.3381     6.4741  -999.2500
  233.0000   -56.6114   150.0476     6.4423     6.5297  -999.2500
  233.5000   -56.5136   147.8429     6.5465     6.6117  -999.2500
  234.0000   -56.7002   145.1874     6.6506     6.7894  -999.2500
  234.5000   -56.9562   142.5320     6.7548     6.9655  -999.2500
  235.0000   -57.2152   139.8765     6.8589     7.0403  -999.2500
  235.5000   -57.3865   137.2211     6.9631     7.0853  -999.2500
  236.0000   -57.4917   134.8485     7.0674     7.1288  -999.2500
  236.5000   -57.5941   134.8485     7.1712     7.1727  -999.2500
  237.0000   -57.6999   134.8485     7.2762     7.2170  -999.2500
  237.5000   -57.5052   135.8586     7.2759     7.2609  -999.2500
  238.0000   -57.1381   136.6273     7.1917     7.2584  -999.2500
  238.5000   -57.1805   137.4359     7.1064     7.2276  -999.2500
  239.0000   -57.2687   138.2446     7.0209     7.1977  -999.2500
  239.5000   -57.3189   139.4715     6.9355     7.1300  -999.2500
  240.0000   -56.9692   142.3394     6.8502     7.0632  -999.2500
  240.5000   -57.2024   145.2073     6.7648     7.0019  -999.2500
  241.0000   -57.6106   148.0751     6.6791     6.9383  -999.2500
  241.5000   -57.5264   150.9430     6.5925     6.8479  -999.2500
  242.0000   -57.0979   154.0404     6.5230     6.8132  -999.2500
  242.5000   -56.7001   152.7102     6.6728     6.8192  -999.2500
  243.0000   -56.6236   151.0374     6.8226     6.8481  -999.2500
  243.5000   -56.5389   146.3739     6.9710     6.8778  -999.2500
  244.0000   -56.4528   141.2525     7.1192     6.9404  -999.2500
  244.5000   -56.3688   137.1507     7.2675     7.2608  -999.2500
  245.0000   -56.3679   135.0168     7.4156     7.6169  -999.2500
  245.5000   -56.5130   132.8283     7.5642     7.6317  -999.2500
  246.0000   -56.5181   129.7329     7.6918     7.4259  -999.2500
  246.5000   -56.5167   125.7497     7.8063     8.1442  -999.2500
  247.0000   -56.5107   121.7665     7.9208     8.4402  -999.2500
  247.5000   -56.7563   118.9602     8.0301     8.1606  -999.2500
  248.0000   -57.0446   120.3601     7.9500     8.0901  -999.2500
  248.5000   -57.3342   121.7348     7.8520     8.0903  -999.2500
  249.0000   -57.6248   123.4509     7.7537     8.0908  -999.2500
  249.5000   -57.9101   126.1483     7.6574     7.9960  -999.2500
  250.0000   -57.8614   128.8458     7.5065     7.8434  -999.2500
  250.5000   -57.5186   131.5237     7.3374     7.6852  -999.2500
  251.0000   -57.1896   134.9898     7.1663     7.5514  -999.2500
  251.5000   -56.8592   139.0805     6.9952     7.3774  -999.2500
  252.0000   -56.5316   143.1879     6.8242     7.1979  -999.2500
  252.5000   -56.5590   147.2929     6.6529     7.0151  -999.2500
  253.0000   -56.6079   149.7424     6.4807     6.9435  -999.2500
  253.5000   -56.6551   151.0253     6.3145     6.8990  -999.2500
  254.0000   -56.7039   152.0202     6.4234     6.8864  -999.2500
  254.5000   -56.8095   149.4626     6.5602     6.9104  -999.2500
  255.0000   -57.0356   146.3838     6.6903     6.9768  -999.2500
  255.5000   -57.2595   141.2751     7.0162     7.1248  -999.2500
  256.0000   -57.4839   135.8419     7.3637     7.2600  -999.2500
  256.5000   -57.7111   130.4088     7.7120     7.4954  -999.2500
  257.0000   -57.6016   126.1899     8.0597     7.7648  -999.2500
  257.5000   -57.3974   123.1111     8.4079     8.0363  -999.2500
  258.0000   -57.1892   121.1556     8.7656     8.2262  -999.2500
  258.5000   -57.2029   120.1293     8.8384     7.7666  -999.2500
  259.0000   -57.4738   119.1030     8.8402     7.4188  -999.2500
  259.5000   -57.4346   118.0776     8.8454     7.9535  -999.2500
  260.0000   -57.2455   118.1199     8.5772     8.3729  -999.2500
  260.5000   -56.9579   119.3352     8.2531     8.2527  -999.2500
  261.0000   -57.3167   122.2477     7.9275     8.0522  -999.2500
  261.5000   -57.6700   125.1301     7.6284     7.8548  -999.2500
  262.0000   -57.5926   127.7778     7.5828     7.8155  -999.2500
  262.5000   -57.1975   129.0528     7.5444     7.8586  -999.2500
  263.0000   -57.1813   130.2305     7.5052     7.8520  -999.2500
  263.5000   -57.4693   131.4082     7.4657     7.7960  -999.2500
  264.0000   -57.7330   132.5859     7.4263     7.7379  -999.2500
  264.5000   -57.6592   133.7635     7.3868     7.6417  -999.2500
  265.0000   -57.2510   134.9412     7.3473     7.4493  -999.2500
  265.5000   -57.3609   136.1189     7.3078     7.2563  -999.2500
  266.0000   -57.5350   137.2966     7.2684     7.1588  -999.2500
  266.5000   -57.5352   138.4742     7.2289     7.1836  -999.2500
  267.0000   -57.5364   139.6519     7.1894     7.2103  -999.2500
  267.5000   -57.5363   140.8296     7.1500     7.1967  -999.2500
  268.0000   -57.5066   141.9192     7.1206     7.0999  -999.2500
  268.5000   -57.2774   141.3387     7.1212     7.1641  -999.2500
