~VERSION INFORMATION
 VERS.                2.0:   CWLS LOG ASCII STANDARD - VERSION 2.0
 WRAP.                 NO:   ONE LINE PER DEPTH STEP
~WELL INFORMATION
#MNEM.UNIT      DATA TYPE    INFORMATION
#----------   ------------   ------------------------------
 STRT.F           30.0000:   START DEPTH
 STOP.F          732.0000:   STOP DEPTH
 STEP.F            0.5000:   STEP LENGTH
 NULL.          -999.2500:   NO VALUE
 COMP. FENIX & SCISSON INC:   COMPANY
 WELL.        31-S #31-14:   WELL
 FLD .             TEAPOT:   FIELD
 LOC .      S14 T38N R78W:   LOCATION
 CNTY.            NATRONA:   COUNTY
 STAT.            WYOMING:   STATE
 CTRY. UNITED STATES OF AMERICA:   COUNTRY
 SRVC.              Welex:   SERVICE COMPANY
 DATE.        16-FEB-1977:   LOGDATE
 API .       490251027300:   API NUMBER
~CURVE INFORMATION
#MNEM.UNIT       API CODE    CURVE DESCRIPTION
#----------   ------------   ------------------------------
 DEPT.F                  :   
 CALD.IN     45 280 60 00:   CALIPER FROM DENSITY LOG
 CORR.G/C3   45 356 01 00:   DENSITY CORRECTION
 DPHI.DEC    45 890 12 00:   DENSITY POROSITY SANDSTONE
 GRD .GAPI   45 310 01 00:   GAMMA RAY FROM DENSITY LOG
 RHOB.G/C3   45 350 01 00:   BULK DENSITY
 GURD.OHMM   07 270 05 00:   SHALLOW SHORT GUARD RESISTIVITY
 ILM .OHMM   07 120 44 00:   INDUCTION LOG MEDIUM
 ILD .OHMM   07 120 46 00:   INDUCTION LOG DEEP
 SPR .MV     07 010 01 00:   SPONTANEOUS POTENTIAL
~PARAMETER INFORMATION
#MNEM.UNIT          VALUE    DESCRIPTION
#----------   ------------   ------------------------------
 PD  .                 GL:   PERMANENT DATUM
 EPD .F              5186:   ELEVATION PERMANENT DATUM
 LMF .                 GL:   LOG MEASURED FROM
 DMF .                 GL:   DRILLING MEASURED FROM
 EKB .F              5195:   KELLING BUSHING
 EGL .F              5186:   GROUND LEVEL
 DATE.        16-FEB-1977:   RUN DATE
 RUN .                  1:   RUN NUMBER
 DD  .F               740:   DEPTH DRILLER
 DL  .F               736:   DEPTH LOGGER
 BLI .F               734:   BOTTOM LOG INTERVAL
 TLI .F                30:   TOP LOG INTERVAL
 CS  .IN            8.625:   CASING SIZE
 CBD .F                40:   CASING BOTTOM DRILLER
 CBL .F                44:   CASING BOTTOM LOGGER
 BS  .IN            7.875:   BIT SIZE
 BSD .F               740:   BIT SIZE AT DEPTH
 DFT .   OIL EMULSION MUD:   DRILLING FLUID TYPE
 DFD .                8.3:   DRILLING FLUID DENSITY
 DFV .                 48:   DRILLING FLUID VISCOSITY
 DFPH.               10.5:   DRILLING FLUID PH
 DFL .                7.5:   DRILLING FLUID LOSS
 MSS .           FLOWLINE:   MUD SAMPLE SOURCE
 RMS .OHMM           0.80:   RESISTIVITY MUD SAMPLE
 MST .F                64:   MUD SAMPLE TEMPERATURE
 RMF .OHMM           0.68:   RESISTIVITY MUD FILTRATE SAMPLE
 MFST.F                64:   MUD FILTRATE SAMPLE TEMPERATURE
 RMC .OHMM           1.01:   RESISTIVITY MUD CAKE
 MCST.F                63:   MUD CAKE SAMPLE TEMPERATURE
 MFSS.               MEAS:   MUD FILTRATE SAMPLE SOURCE
 MCSS.               MEAS:   MUD CAKE SAMPLE SOURCE
 RMB .OHMM           0.74:   RESISTIVITY MUD AT BHT
 BHT .F                69:   BOTTOM HOLE TEMPERATURE
 TCS .HRS               5:   TIME CURCULATED STOPPED
 MRT .F                69:   MAXIMUM RECORDED TEMPERATURE
 LUN .               8611:   LOGGING UNIT NUMBER
 LUL .           GILLETTE:   LOGGING UNIT LOCATION
 ENGI.           D.LAWSON:   RECORDING ENGINEER
 WITN.             K.JAPP:   WITNESSED BY
 CLNT.            A2DTECH:   CLIENT CODE
 ORIG.         2.5" PRINT:   ORIGIN OF DATA
 UWI .       490251027300:   UNIQUE WELL ID
 DICO. A2D Technologies, Inc.:   DIGITIZING COMPANY
~OTHER INFORMATION
~A   DEPT       CALD      CORR      DPHI         GRD        RHOB     GURD        ILM        ILD        SPR   
# ...
  504.5000     8.0366     0.1476     0.0710   135.1498     2.5378   858.3995     7.5870     7.4025   -47.1409
  505.0000     8.0948     0.1446     0.0728   136.6320     2.5289   861.3657     7.8268     7.5058   -47.1672
  505.5000     8.1530     0.1416     0.0746   136.3042     2.5259   864.5746     8.0280     7.6106   -47.1992
  506.0000     8.1519     0.1416     0.0758   135.6202     2.5322   867.2979     8.1817     7.6116   -47.2311
  506.5000     8.1507     0.1453     0.0683   134.3724     2.5395   866.4522     8.3079     7.6127   -47.2630
  507.0000     8.1496     0.1476     0.0646   133.0059     2.5385   864.2864     8.5983     7.6137   -47.2949
  507.5000     8.1187     0.1475     0.0688   131.4317     2.5318   863.5637     8.8376     7.6148   -47.3269
  508.0000     8.1175     0.1460     0.0750   133.0620     2.5231   859.5674     8.9598     7.5121   -47.3590
  508.5000     8.1163     0.1445     0.0806   135.1378     2.5131   852.3181     8.9598     7.4107   -47.3516
  509.0000     8.1151     0.1415     0.0864   136.6200     2.5036   843.3630     8.8292     7.2110   -47.3442
  509.5000     8.1137     0.1355     0.0943   138.6958     2.4961   831.4274     8.6735     7.1136   -47.3368
  510.0000     8.1126     0.1325     0.1026   140.1780     2.4872   819.4919     8.3313     6.8213   -47.3294
  510.5000     8.1412     0.1266     0.1050   136.5564     2.4813   816.4973     8.0475     6.5378   -47.3220
  511.0000     8.1400     0.1203     0.1026   137.0891     2.4753   822.9293     7.6985     6.3292   -47.3132
  511.5000     8.1686     0.1176     0.0937   138.3934     2.4709   825.4099     7.3933     6.0886   -47.3061
  512.0000     8.1674     0.1282     0.0877   136.1959     2.4755   823.2475     7.0951     5.9161   -47.2990
  512.5000     8.1662     0.1407     0.0872   132.4555     2.4972   812.3391     6.8088     5.7158   -47.2920
  513.0000     8.1353     0.1488     0.0911   128.2994     2.5129   796.5428     6.5341     5.5618   -47.2849
  513.5000     8.1341     0.1520     0.1013   130.3752     2.5054   762.7592     6.2615     5.4119   -47.2774
  514.0000     8.1163     0.1503     0.1096   131.8574     2.4854   732.9417     5.9995     5.4126   -47.2700
  514.5000     8.1019     0.1473     0.1143   129.4821     2.4619   723.9865     5.7484     5.4133   -47.2626
  515.0000     8.1304     0.1443     0.1147   126.8101     2.4634   729.9329     5.6184     5.5041   -47.2552
  515.5000     8.1293     0.1413     0.0879   122.9511     2.4782   761.1645     5.5418     5.7527   -47.2478
  516.0000     8.1282     0.1414     0.0749   127.4012     2.4990   806.1588     5.6961     6.0697   -47.2391
  516.5000     8.1567     0.1447     0.0719   132.4139     2.5124   830.4288     5.9355     6.3347   -47.2320
  517.0000     8.1608     0.1479     0.0689   134.1039     2.5230   843.1286     6.4451     6.6113   -47.2250
  517.5000     8.1841     0.1532     0.0671   137.3371     2.5289   843.1113     7.0032     6.9363   -47.2179
  518.0000     8.1828     0.1532     0.0653   143.1214     2.5317   843.0963     7.3066     7.1303   -47.5076
  518.5000     8.1816     0.1532     0.0648   145.7906     2.5322   843.0789     7.5219     7.3297   -47.5000
  519.0000     8.1505     0.1532     0.0652   147.5696     2.5332   842.2818     7.5991     7.4320   -47.7902
  519.5000     8.1197     0.1502     0.0681   149.0518     2.5331   843.0516     7.7041     7.5357   -47.7819
  520.0000     8.1186     0.1472     0.0734   147.8635     2.5287   848.9969     7.8106     7.5368   -47.7745
  520.5000     8.1175     0.1442     0.0773   145.7552     2.5198   858.1127     8.0280     7.5378   -47.7671
  521.0000     8.1462     0.1412     0.0744   145.1306     2.5168   867.2374     8.1389     7.5388   -48.0552
  521.5000     8.1777     0.1382     0.0691   144.4170     2.5212   869.8166     8.2514     7.5399   -48.0482
  522.0000     8.2093     0.1387     0.0637   143.1691     2.5301   869.8000     8.3655     7.5409   -48.0411
  522.5000     8.2316     0.1449     0.0596   141.9214     2.5377   865.5383     8.4811     7.5421   -48.0341
  523.0000     8.2303     0.1512     0.0560   140.4359     2.5439   862.2500     8.4476     7.5431   -48.0267
  523.5000     8.2136     0.1590     0.0537   138.6541     2.5479   857.8314     8.3655     7.5441   -48.0193
  524.0000     8.1683     0.1620     0.0570   137.4657     2.5445   857.8171     8.4811     7.5451   -48.0119
  524.5000     8.1079     0.1620     0.0619   137.1676     2.5399   860.7833     8.5983     7.5461   -48.0045
  525.0000     8.0474     0.1590     0.0644   138.3531     2.5368   863.7494     8.4811     7.6514   -47.9970
  525.5000     8.0166     0.1530     0.0610   139.2715     2.5405   872.7211     8.4811     7.6525   -47.9882
  526.0000     7.9858     0.1500     0.0552   139.5372     2.5613   875.6423     8.4811     7.6535   -47.9812
  526.5000     7.9846     0.1469     0.0443   138.8531     2.5940   865.4233     8.3655     7.6546   -47.9741
  527.0000     8.0132     0.1436     0.0395   137.8130     2.5776   852.9020     8.3655     7.6558   -47.9671
  527.5000     8.0223     0.1410     0.0532   136.8620     2.5509   843.3591     8.3655     7.6568   -48.2567
  528.0000     8.0404     0.1479     0.0657   137.4537     2.5313   838.3080     8.3655     7.5534   -48.2848
  528.5000     8.0392     0.1499     0.0758   138.6393     2.5191   842.7806     8.2514     7.5544   -48.5394
  529.0000     8.0378     0.1454     0.0823   138.6973     2.5101   848.7271     8.2514     7.5554   -48.6281
  529.5000     8.0665     0.1409     0.0835   138.9332     2.5028   851.6946     8.1389     7.4534   -48.8205
  530.0000     8.0949     0.1409     0.0814   141.0089     2.5042   842.7380     8.1389     7.4341   -48.8131
  530.5000     8.0938     0.1439     0.0757   145.9925     2.5181   839.7435     8.1373     7.3537   -49.1011
  531.0000     8.1223     0.1498     0.0704   149.3147     2.5296   842.9967     8.0280     7.3141   -49.0940
  531.5000     8.1211     0.1528     0.0670   147.1764     2.5389   849.2356     8.0280     7.2051   -49.3837
  532.0000     8.1497     0.1560     0.0657   145.7507     2.5393   851.6222     8.0280     7.1577   -49.3767
  532.5000     8.1597     0.1587     0.0693   147.8264     2.5359   842.1428     7.9185     7.0612   -49.3694
  533.0000     8.1769     0.1587     0.0729   149.6051     2.5315   817.4653     7.8106     6.9658   -49.4076
  533.5000     8.2051     0.1617     0.0777   149.9004     2.5254   783.0249     7.7041     6.8718   -49.6522
  534.0000     8.2337     0.1587     0.0794   150.0000     2.5209   768.1090     7.5991     6.7765   -49.6439
  534.5000     8.2622     0.1587     0.0765   149.3041     2.5195   767.4559     7.3933     6.5846   -49.6365
  535.0000     8.2611     0.1587     0.0753   143.3680     2.5244   794.9036     7.1931     6.3981   -49.6291
  535.5000     8.2896     0.1586     0.0781   148.4111     2.5270   830.6533     7.0791     6.2170   -49.6205
  536.0000     8.2588     0.1586     0.0832   147.7567     2.5240   842.5605     6.8766     6.0049   -49.6134
  536.5000     8.2513     0.1556     0.0900   147.1321     2.5117   822.5377     6.6798     5.8330   -49.6064
  537.0000     8.2174     0.1526     0.0996   146.0920     2.4928   789.0735     6.4887     5.6759   -49.5993
  537.5000     8.1958     0.1493     0.1053   144.9926     2.4794   742.3016     6.3572     5.5229   -49.5920
  538.0000     8.1650     0.1393     0.1062   143.6555     2.4645   718.7372     6.3572     5.4483   -49.8820
  538.5000     8.1339     0.1317     0.0997   143.0606     2.4614   756.9170     6.2705     5.3748   -49.8739
  539.0000     8.1328     0.1317     0.0867   141.8723     2.4751   830.5468     6.2705     5.4498   -49.8665
  539.5000     8.1317     0.1361     0.0748   140.3872     2.4997   842.4539     6.3647     5.5383   -49.8591
  540.0000     8.1009     0.1466     0.0701   138.9021     2.5144   845.4210     6.5522     5.7014   -49.8516
  540.5000     8.0997     0.1495     0.0707   137.3279     2.5214   842.4255     6.8685     5.8692   -49.8432
