~VERSION INFORMATION
 VERS.                2.0:   CWLS LOG ASCII STANDARD - VERSION 2.0
 WRAP.                 NO:   ONE LINE PER DEPTH STEP
~WELL INFORMATION
#MNEM.UNIT      DATA TYPE    INFORMATION
#----------   ------------   ------------------------------
 STRT.F           38.0000:   START DEPTH
 STOP.F          818.0000:   STOP DEPTH
 STEP.F            0.5000:   STEP LENGTH
 NULL.          -999.2500:   NO VALUE
 COMP. FENIX & SCISSON INC:   COMPANY
 WELL. NAVAL PETROLEUM RESERVE 3 SX-1 #32-14:   WELL
 FLD .             TEAPOT:   FIELD
 LOC .      S14 T38N R78W:   LOCATION
 CNTY.            NATRONA:   COUNTY
 STAT.            WYOMING:   STATE
 CTRY. UNITED STATES OF AMERICA:   COUNTRY
 SRVC.            Unknown:   SERVICE COMPANY
 DATE.        03-MAY-1978:   LOGDATE
 API .       490251061900:   API NUMBER
~CURVE INFORMATION
#MNEM.UNIT       API CODE    CURVE DESCRIPTION
#----------   ------------   ------------------------------
 DEPT.F                  :   
 SPR .MV     05 010 01 00:   SPONTANEOUS POTENTIAL FROM RES.
 ILD .OHMM   05 120 46 00:   INDUCTION LOG DEEP
 SN  .OHMM   05 040 16 00:   SHORT NORMAL 16"
 CALD.IN     45 280 60 00:   CALIPER
 GRD .GAPI   45 310 01 00:   GAMMA RAY FROM DENSITY LOG
 RHOB.G/C3   45 350 01 00:   BULK DENSITY
 DPHI.DEC    45 890 12 00:   DENSITY POROSITY SANDSTONE
 CORR.G/C3   45 356 01 00:   DENSITY CORRECTION
~PARAMETER INFORMATION
#MNEM.UNIT          VALUE    DESCRIPTION
#----------   ------------   ------------------------------
 PD  .                 GL:   PERMANENT DATUM
 EPD .F              5209:   ELEVATION PERMANENT DATUM
 LMF .                 KB:   LOG MEASURED FROM
 DAPD.F                 4:   FEET ABOVE PERMANENT DATUM
 DMF .                 KB:   DRILLING MEASURED FROM
 EKB .F              5213:   KELLING BUSHING
 EGL .F              5209:   GROUND LEVEL
 DATE.           5-3-1978:   RUN DATE
 RUN .                  1:   RUN NUMBER
 DD  .F               806:   DEPTH DRILLER
 DL  .F               824:   DEPTH LOGGER
 BLI .F               818:   BOTTOM LOG INTERVAL
 TLI .F                50:   TOP LOG INTERVAL
 CS  .IN            8.625:   CASING SIZE
 CBD .F                40:   CASING BOTTOM DRILLER
 BS  .IN            7.875:   BIT SIZE
 BSD .F               806:   BIT SIZE AT DEPTH
 DFT .                KCL:   DRILLING FLUID TYPE
 DFD .                8.6:   DRILLING FLUID DENSITY
 DFV .                 34:   DRILLING FLUID VISCOSITY
 DFPH.                  9:   DRILLING FLUID PH
 DFL .               16.4:   DRILLING FLUID LOSS
 MSS .           FLOWLINE:   MUD SAMPLE SOURCE
 RMS .OHMM            .75:   RESISTIVITY MUD SAMPLE
 MST .F                52:   MUD SAMPLE TEMPERATURE
 RMF .OHMM            .65:   RESISTIVITY MUD FILTRATE SAMPLE
 MFST.F                60:   MUD FILTRATE SAMPLE TEMPERATURE
 RMC .OHMM            1.2:   RESISTIVITY MUD CAKE
 MCST.F                62:   MUD CAKE SAMPLE TEMPERATURE
 MFSS.               MEAS:   MUD FILTRATE SAMPLE SOURCE
 RMB .OHMM            .54:   RESISTIVITY MUD AT BHT
 BHT .F                72:   BOTTOM HOLE TEMPERATURE
 TCS .HRS               1:   TIME CURCULATED STOPPED
 MRT .F                72:   MAXIMUM RECORDED TEMPERATURE
 LUN .               2958:   LOGGING UNIT NUMBER
 LUL .               CASP:   LOGGING UNIT LOCATION
 ENGI.             MILLER:   RECORDING ENGINEER
 WITN.           MCGINLEY:   WITNESSED BY
 CLNT.            A2DTECH:   CLIENT CODE
 ORIG.           5" PRINT:   ORIGIN OF DATA
 UWI .       490251061900:   UNIQUE WELL ID
 DICO. A2D Technologies, Inc.:   DIGITIZING COMPANY
~OTHER INFORMATION
~A   DEPT      SPR        ILD         SN         CALD      GRD       RHOB       DPHI       CORR   
# ...
  281.0000   -36.3822     7.1619     7.0558     8.4108    81.2649     2.4656     0.1398     0.0084
  281.5000   -36.3922     7.1619     7.0599     8.4154    79.8905     2.4641     0.1392     0.0107
  282.0000   -36.4020     7.1619     7.0641     8.4200    78.9266     2.4691     0.1385     0.0130
  282.5000   -36.4119     7.1619     7.0683     8.4246    79.0643     2.4713     0.1379     0.0154
  283.0000   -36.4218     7.1618     7.0724     8.4292    79.2228     2.4681     0.1375     0.0178
  283.5000   -36.4317     7.1620     7.0766     8.4338    79.3856     2.4688     0.1375     0.0190
  284.0000   -36.4416     7.1718     7.0807     8.4384    79.5427     2.4742     0.1372     0.0203
  284.5000   -36.4515     7.2257     7.0849     8.4376    79.6725     2.4741     0.1363     0.0215
  285.0000   -36.4613     7.2794     7.0887     8.4332    80.8143     2.4740     0.1369     0.0227
  285.5000   -36.4712     7.3343     7.0955     8.4289    84.0050     2.4720     0.1387     0.0239
  286.0000   -36.4811     7.3602     7.0919     8.4248    85.3073     2.4697     0.1391     0.0274
  286.5000   -36.4910     7.5551     7.3067     8.4182    83.6678     2.4674     0.1304     0.0325
  287.0000   -36.5009     7.7776     7.5214     8.3710    80.0293     2.4703     0.1219     0.0377
  287.5000   -36.5107     7.9384     7.7167     8.3238    76.5211     2.4889     0.1207     0.0381
  288.0000   -36.5206     8.0020     7.7653     8.3082    75.8868     2.4991     0.1221     0.0313
  288.5000   -36.5306     8.0100     7.8141     8.3216    77.7275     2.4981     0.1241     0.0251
  289.0000   -36.5403     8.0175     7.8527     8.3354    88.0779     2.4969     0.1243     0.0188
  289.5000   -36.5515     8.0253     7.8384     8.3493    99.1867     2.4956     0.1243     0.0184
  290.0000   -36.4797     8.0332     7.8210     8.3572    99.7673     2.4943     0.1245     0.0183
  290.5000   -36.3675     8.0411     7.8034     8.3336    98.3434     2.4931     0.1245     0.0181
  291.0000   -36.2542     8.0490     7.7860     8.3105    95.6684     2.4963     0.1191     0.0180
  291.5000   -36.1524     8.0569     7.7685     8.2873    92.9925     2.5032     0.1205     0.0179
  292.0000   -36.1548     8.0647     7.7511     8.2635    90.2965     2.4996     0.1242     0.0177
  292.5000   -36.1551     8.0728     7.7338     8.2860    89.6704     2.4922     0.1278     0.0176
  293.0000   -36.1567     7.9593     7.7165     8.3158    90.1233     2.4895     0.1294     0.0174
  293.5000   -36.2366     7.8439     7.6148     8.3457    92.1125     2.4867     0.1307     0.0172
  294.0000   -36.4411     7.7301     7.4595     8.3606    97.3034     2.4821     0.1311     0.0171
  294.5000   -36.5624     7.6180     7.3071     8.3606    98.4897     2.4824     0.1315     0.0169
  295.0000   -36.5992     7.5076     7.2281     8.3606    99.0426     2.4830     0.1315     0.0168
  295.5000   -36.6358     7.4307     7.2282     8.3606    98.7452     2.4801     0.1337     0.0166
  296.0000   -36.6720     7.5005     7.2282     8.3606    97.4535     2.4759     0.1325     0.0165
  296.5000   -36.7084     7.5695     7.2417     8.3606    96.1697     2.4782     0.1283     0.0143
  297.0000   -36.7447     7.6747     7.3370     8.3606    95.6635     2.4893     0.1304     0.0115
  297.5000   -36.7811     7.7888     7.4336     8.3606    98.5935     2.4850     0.1312     0.0087
  298.0000   -36.8174     7.9042     7.5314     8.3606   101.9613     2.4859     0.1283     0.0064
  298.5000   -36.8538     7.9795     7.6305     8.3606   104.0612     2.4880     0.1318     0.0064
  299.0000   -36.8903     8.0460     7.7309     8.3606   102.5775     2.4835     0.1324     0.0063
  299.5000   -36.9267     8.1131     7.8326     8.3606    99.8345     2.4810     0.1313     0.0062
  300.0000   -36.9510     8.1476     7.9256     8.3606    97.8371     2.4836     0.1302     0.0061
  300.5000   -36.9173     8.1311     7.8944     8.3606    98.0781     2.4844     0.1327     0.0060
  301.0000   -36.8850     8.1158     7.8502     8.3606    97.2296     2.4791     0.1320     0.0059
  301.5000   -36.8529     8.1007     7.8064     8.3606    91.0060     2.4787     0.1307     0.0058
  302.0000   -36.8208     8.0855     7.7628     8.3606    84.7590     2.4796     0.1343     0.0057
  302.5000   -36.7887     8.0484     7.7194     8.3606    78.6146     2.4770     0.1333     0.0056
  303.0000   -36.7567     7.9035     7.5327     8.3605    75.5727     2.4787     0.1323     0.0055
  303.5000   -36.7246     7.7611     7.3099     8.3604    75.6223     2.4796     0.1363     0.0054
  304.0000   -36.6925     7.6217     7.0963     8.3677    79.3640     2.4762     0.1379     0.0053
  304.5000   -36.6605     7.5509     7.0963     8.3761    81.7664     2.4728     0.1394     0.0052
  305.0000   -36.6284     7.5232     7.0963     8.3805    81.7415     2.4694     0.1411     0.0051
  305.5000   -36.5962     7.4950     7.0963     8.3805    81.8524     2.4660     0.1415     0.0050
  306.0000   -36.5639     7.4668     7.0963     8.3805    82.2410     2.4631     0.1415     0.0049
  306.5000   -36.5665     7.4307     7.0963     8.3812    81.8649     2.4638     0.1418     0.0048
  307.0000   -36.6217     7.5229     7.1981     8.3863    80.4939     2.4624     0.1440     0.0047
  307.5000   -36.6748     7.6592     7.3490     8.3915    79.1449     2.4589     0.1463     0.0046
  308.0000   -36.7282     7.7980     7.5031     8.3965    78.3495     2.4570     0.1415     0.0045
  308.5000   -36.7460     7.9393     7.6605     8.3990    80.7456     2.4623     0.1384     0.0061
  309.0000   -36.7341     8.0832     7.8211     8.3918    85.1419     2.4673     0.1374     0.0086
  309.5000   -36.7217     8.1476     7.9271     8.3847    85.7220     2.4711     0.1371     0.0112
  310.0000   -36.7092     8.1476     7.9199     8.3777    85.7266     2.4717     0.1365     0.0138
  310.5000   -36.6968     8.1476     7.9143     8.3707    84.9508     2.4723     0.1353     0.0143
  311.0000   -36.6844     8.1476     7.9089     8.3637    83.1910     2.4760     0.1328     0.0141
  311.5000   -36.6721     8.1476     7.9036     8.3606    80.4405     2.4800     0.1298     0.0139
  312.0000   -36.6597     8.1476     7.8983     8.3605    76.6672     2.4839     0.1290     0.0136
  312.5000   -36.6473     8.1476     7.8930     8.3606    74.9694     2.4829     0.1274     0.0134
  313.0000   -36.6349     8.1476     7.8878     8.3641    74.9487     2.4845     0.1252     0.0132
  313.5000   -36.6225     8.1476     7.8825     8.3730    74.9590     2.4915     0.1237     0.0129
  314.0000   -36.6101     8.1476     7.8773     8.3819    74.9739     2.4979     0.1224     0.0127
  314.5000   -36.5977     8.1476     7.8720     8.3908    77.6576     2.4966     0.1274     0.0125
  315.0000   -36.5853     8.1477     7.8668     8.3999    81.0687     2.4903     0.1295     0.0120
  315.5000   -36.5729     8.1483     7.8616     8.4005    81.3168     2.4853     0.1252     0.0115
  316.0000   -36.5605     8.1153     7.8565     8.4004    79.9944     2.4888     0.1283     0.0109
  316.5000   -36.5481     8.0717     7.8237     8.4004    80.7508     2.4901     0.1286     0.0104
  317.0000   -36.5358     8.0283     7.7431     8.4004    81.8472     2.4874     0.1289     0.0099
  317.5000   -36.5233     7.9851     7.7096     8.4004    82.7568     2.4847     0.1296     0.0094
  318.0000   -36.5110     7.9423     7.7096     8.4004    82.7310     2.4820     0.1321     0.0088
  318.5000   -36.4986     7.9253     7.7096     8.4004    82.3770     2.4790     0.1350     0.0083
  319.0000   -36.4862     7.9255     7.7096     8.4004    80.6265     2.4758     0.1350     0.0078
  319.5000   -36.4738     7.9256     7.7096     8.4004    79.8275     2.4745     0.1340     0.0072
  320.0000   -36.4614     7.9253     7.7096     8.4004    81.8477     2.4761     0.1343     0.0067
  320.5000   -36.4490     7.9374     7.7096     8.4004    82.0201     2.4778     0.1333     0.0062
  321.0000   -36.4366     7.9511     7.7095     8.4006    81.6123     2.4794     0.1323     0.0057
