~VERSION INFORMATION
 VERS.                2.0:   CWLS LOG ASCII STANDARD - VERSION 2.0
 WRAP.                 NO:   ONE LINE PER DEPTH STEP
~WELL INFORMATION
#MNEM.UNIT      DATA TYPE    INFORMATION
#----------   ------------   ------------------------------
 STRT.F            0.0000:   START DEPTH
 STOP.F          601.0000:   STOP DEPTH
 STEP.F            0.5000:   STEP LENGTH
 NULL.          -999.2500:   NO VALUE
 COMP. Fluor Daniel (NPOSR) Inc:   COMPANY
 WELL.  NPR ##3 84-STX-33:   WELL
 FLD .          N.P.R. #3:   FIELD
 LOC .      S33 T39N R78W:   LOCATION
 CNTY.            NATRONA:   COUNTY
 STAT.            WYOMING:   STATE
 CTRY. UNITED STATES OF AMERICA:   COUNTRY
 SRVC.      Western Atlas:   SERVICE COMPANY
 DATE.        31-JAN-1995:   LOGDATE
 API .       490252269500:   API NUMBER
~CURVE INFORMATION
#MNEM.UNIT       API CODE    CURVE DESCRIPTION
#----------   ------------   ------------------------------
 DEPT.F                  :   
 GRR .GAPI   07 310 01 00:   GAMMA RAY FROM RES. LOG.
 RILD.OHMM   07 120 46 00:   INDUCTION LOG DEEP RESISTIVITY
 RILM.OHMM   07 120 44 00:   INDUCTION LOG MEDIUM RESISTIVITY
 RFOC.OHMM   07 220 04 00:   RESISTIVITY FOCUSED LOG
~PARAMETER INFORMATION
#MNEM.UNIT          VALUE    DESCRIPTION
#----------   ------------   ------------------------------
 PD  .                 GL:   PERMANENT DATUM
 EPD .F              5105:   ELEVATION PERMANENT DATUM
 LMF .                 KB:   LOG MEASURED FROM
 DAPD.F                10:   FEET ABOVE PERMANENT DATUM
 DMF .                 KB:   DRILLING MEASURED FROM
 EKB .F              5115:   KELLING BUSHING
 EDF .F              5114:   DRILLING FLOOR
 EGL .F              5105:   GROUND LEVEL
 DATE.        31-JAN-1995:   RUN DATE
 RUN .                  1:   RUN NUMBER
 DD  .F               615:   DEPTH DRILLER
 DL  .F               609:   DEPTH LOGGER
 BLI .F               601:   BOTTOM LOG INTERVAL
 CS  .IN            9.625:   CASING SIZE
 CBD .F                54:   CASING BOTTOM DRILLER
 CBL .F                52:   CASING BOTTOM LOGGER
 BS  .IN             8.75:   BIT SIZE
 BSD .F               615:   BIT SIZE AT DEPTH
 DFT .              WATER:   DRILLING FLUID TYPE
 MRT .F                92:   MAXIMUM RECORDED TEMPERATURE
 LUN .            HL-6274:   LOGGING UNIT NUMBER
 LUL .             CASPER:   LOGGING UNIT LOCATION
 ENGI.             RAUTIO:   RECORDING ENGINEER
 WITN.             STRONG:   WITNESSED BY
 CLNT.            A2DTECH:   CLIENT CODE
 ORIG.       2", 5" PRINT:   ORIGIN OF DATA
 UWI .       490252269500:   UNIQUE WELL ID
 DICO. A2D Technologies, Inc.:   DIGITIZING COMPANY
~OTHER INFORMATION
~A    DEPT      GRR      RILD       RILM       RFOC   
# ...
  146.0000   130.1519     6.7064     6.9628    21.3108
  146.5000   127.3409     6.7890     7.1678    17.8265
  147.0000   123.4084     6.8804     7.3538    14.8506
  147.5000   119.5053     6.9730     7.5383    12.3151
  148.0000   115.4931     7.0669     7.7274    10.1325
  148.5000   112.5731     7.2263     7.9398    10.3758
  149.0000   112.6360     7.4352     8.0074    11.2084
  149.5000   111.4240     7.4985     8.0827    12.4271
  150.0000   109.0493     7.5691     8.1583    13.0525
  150.5000   106.8495     7.6474     8.2098    12.6449
  151.0000   107.8242     7.7478     8.2579    12.2070
  151.5000   109.0047     7.8607     8.3067    11.6534
  152.0000   108.6109     7.9398     8.6391    11.7362
  152.5000   104.7039     7.8911     8.5829    12.5693
  153.0000    99.9391     7.8541     8.4734    14.6263
  153.5000    99.3421     7.8173     8.3089    15.8940
  154.0000   105.8509     7.7922     7.9420    14.3094
  154.5000   113.4039     7.9217     8.0294    11.5659
  155.0000   115.3019     8.0216     8.1664    10.2093
  155.5000   112.3830     8.0901     8.1664    10.7566
  156.0000   110.2260     7.8416     8.1741    11.8250
  156.5000   110.1172     7.7207     8.1981    13.3151
  157.0000   109.8007     7.7920     8.2223    13.3089
  157.5000   110.3504     7.7764     8.2433    12.9420
  158.0000   110.9276     7.7623     8.1707    12.4943
  158.5000   109.4351     7.7483     8.1069    11.9208
  159.0000   109.7981     7.7343     8.0441    11.0913
  159.5000   115.6647     7.7200     8.0139    10.2279
  160.0000   119.3049     7.7145     8.0146    10.6799
  160.5000   119.7942     7.7055     8.0146    11.8918
  161.0000   118.5129     7.6965     8.0146    13.0662
  161.5000   118.1562     7.6874     7.9941    13.0638
  162.0000   118.5619     7.6784     7.9398    12.3835
  162.5000   117.1491     7.6694     8.0901    11.6379
  163.0000   113.7914     7.6604     8.0522    11.4708
  163.5000   110.2976     7.6514     8.0019    11.3062
  164.0000   108.4816     7.6281     7.9519    10.9803
  164.5000   107.7898     7.5931     7.9257    10.5198
  165.0000   109.9905     7.5584     7.9071    10.5198
  165.5000   113.8903     7.5238     7.8885    11.1720
  166.0000   116.2091     7.4894     7.8699    11.9959
  166.5000   115.7526     7.4551     7.8508    14.9323
  167.0000   113.1072     7.4210     7.8314    18.7396
  167.5000   111.7040     7.3871     7.8121    20.6674
  168.0000   110.3502     7.3658     7.7923    16.5619
  168.5000   110.9678     7.3658     7.7600    12.5872
  169.0000   112.2740     7.3658     7.7268    12.2231
  169.5000   113.8706     7.3658     7.6938    13.2586
  170.0000   116.7289     7.3658     7.6611    15.3305
  170.5000   119.5255     7.3659     7.6474    23.8861
  171.0000   120.4839     7.3659     7.6740    23.0984
  171.5000   119.4979     7.3664     7.6966    16.3016
  172.0000   118.3877     7.3448     7.7195    12.2742
  172.5000   118.9906     7.2923     7.6708    11.6631
  173.0000   119.6826     7.2398     7.6218    12.5171
  173.5000   119.9658     7.2161     7.5731    14.1075
  174.0000   118.9565     7.2000     7.5053    15.1659
  174.5000   117.3005     7.1839     7.5215    14.6568
  175.0000   115.8216     7.1615     7.5487    12.3846
  175.5000   114.6791     7.2007     7.5760    10.7190
  176.0000   113.9532     7.2664     7.6883    10.5198
  176.5000   114.9603     7.3328     7.8021    10.8200
  177.0000   116.3802     7.3999     7.9175    10.4216
  177.5000   116.6689     7.4675     7.9565    10.8251
  178.0000   116.4187     7.5357     7.9773    12.1277
  178.5000   113.6013     7.5908     7.9982    13.4250
  179.0000   111.8137     7.6265     8.0146    13.2512
  179.5000   111.4002     7.6624     8.0146    13.1788
  180.0000   111.4028     7.6985     8.0340    15.3044
  180.5000   111.4093     7.7195     8.0655    15.0210
  181.0000   111.7606     7.6891     8.0899    14.7451
  181.5000   112.7937     7.6641     8.0356    14.8840
  182.0000   114.7639     7.6393     7.9914    13.7933
  182.5000   116.7547     7.6146     7.9468    11.9959
  183.0000   115.9709     7.5900     7.9067    12.8732
  183.5000   112.5991     7.5367     7.8532    16.7678
  184.0000   110.2530     7.4466     7.8008    18.4674
  184.5000   112.4906     7.3576     7.7091    14.2640
  185.0000   116.9107     7.2697     7.6110    11.6412
  185.5000   121.6071     7.1829     7.5141    11.5542
  186.0000   123.9639     7.0971     7.4184    13.3822
  186.5000   121.4010     7.0122     7.3329    14.4711
  187.0000   115.5742     6.9285     7.2594    13.2463
  187.5000   113.0106     6.8457     7.1867    11.1998
  188.0000   112.2825     6.8334     7.1615    10.7190
  188.5000   114.4330     6.8309     7.1901    12.1481
  189.0000   115.9339     6.8302     7.2537    13.7702
  189.5000   113.5958     6.8974     7.3179    14.3620
  190.0000   110.0599     6.9749     7.3996    15.1659
  190.5000   110.1555     7.0659     7.5311    21.0588
  191.0000   111.3191     7.1581     7.6650    18.0591
  191.5000   112.9389     7.2516     7.7925    11.7165
  192.0000   113.0887     7.3460     7.8315    10.1325
  192.5000   112.5960     7.4356     7.8683    11.6680
  193.0000   112.2169     7.4904     7.9054    14.5516
  193.5000   112.2139     7.5423     7.9391    16.3476
  194.0000   111.8874     7.5946     8.0016    14.3218
  194.5000   110.5809     7.6473     8.0721    12.7564
  195.0000   110.7497     7.7003     8.1663    12.5975
  195.5000   114.1203     7.7537     8.1537    11.7212
  196.0000   117.4369     7.7922     8.1342    11.4404
  196.5000   118.8465     7.7509     8.1151    11.4464
  197.0000   118.2179     7.7188     8.0961    12.3893
  197.5000   117.6182     7.6869     8.0899    12.8099
  198.0000   116.0292     7.6550     8.0643    12.8099
  198.5000   113.3785     7.6233     8.0406    12.0805
  199.0000   111.2036     7.5920     8.0170    11.6281
  199.5000   109.1673     7.5665     7.9631    11.4492
  200.0000   107.8067     7.5480     7.8651    12.1099
  200.5000   111.0924     7.5293     7.8902    12.8076
  201.0000   115.7000     7.5053     7.9255    13.3434
  201.5000   117.0872     7.5362     7.9612    13.4302
  202.0000   115.1802     7.5805     7.9959    12.5228
  202.5000   115.4837     7.6250     8.0355    14.9247
  203.0000   116.1494     7.7014     8.0775    15.0469
  203.5000   114.2061     7.8105     8.2090    12.7132
  204.0000   110.7248     7.9212     8.3994    11.7730
  204.5000   108.3095     8.0334     8.5270    12.8777
  205.0000   107.9812     8.1664     8.6710    13.8081
  205.5000   107.7785     8.3210     8.8027    13.8081
  206.0000   108.7996     8.4785     9.0660    13.3960
  206.5000   110.1364     8.6391     9.2320    12.8284
  207.0000   109.5517     8.8027     9.3661    12.3383
  207.5000   109.5007     8.9693     9.4886    12.9307
  208.0000   110.2348     9.1392     9.6969    14.7451
  208.5000   112.8996     9.3123     9.8903    15.0243
  209.0000   109.0678     9.4886    10.0875    13.7515
  209.5000   102.8052     9.7427    10.3596    12.8400
  210.0000    99.7262    10.0807    10.8081    12.6795
  210.5000    97.4996    10.3905    11.2420    12.6833
  211.0000    97.5860    10.6144    11.6271    14.2599
  211.5000    98.3530    10.8200    11.8883    16.1950
  212.0000    99.2317    10.9382    11.8840    16.1134
  212.5000   100.1090    11.0467    11.9558    15.9976
  213.0000   100.5702    11.1563    11.9959    15.8940
  213.5000   100.8224    11.2337    11.7772    15.4077
  214.0000   100.0554    11.0149    11.5651    15.0200
  214.5000    98.8907    10.8495    11.3461    16.4228
  215.0000    97.6595    10.6866    11.2134    16.9725
  215.5000   100.2542    10.5262    11.1730    15.2372
  216.0000   103.4583    10.3681    11.1288    13.0525
  216.5000   105.3468    10.2255    10.8911    12.7415
  217.0000   103.8812    10.1535    10.6994    12.4046
  217.5000   102.1982    10.0850    10.5149    12.1090
  218.0000   100.9863    10.0177    10.4194    11.9959
  218.5000   101.6223     9.9508    10.4204    12.6141
