~VERSION INFORMATION
 VERS.                2.0:   CWLS LOG ASCII STANDARD - VERSION 2.0
 WRAP.                 NO:   ONE LINE PER DEPTH STEP
~WELL INFORMATION
#MNEM.UNIT      DATA TYPE    INFORMATION
#----------   ------------   ------------------------------
 STRT.F            0.0000:   START DEPTH
 STOP.F         2694.5000:   STOP DEPTH
 STEP.F            0.5000:   STEP LENGTH
 NULL.          -999.2500:   NO VALUE
 COMP. FENIX & SCISSON INC:   COMPANY
 WELL.       102 A #20-20:   WELL
 FLD .        TEAPOT DOME:   FIELD
 LOC .      S20 T39N R78W:   LOCATION
 CNTY.            NATRONA:   COUNTY
 STAT.            WYOMING:   STATE
 CTRY. UNITED STATES OF AMERICA:   COUNTRY
 SRVC.            Unknown:   SERVICE COMPANY
 DATE.        17-AUG-1965:   LOGDATE
 API .       490251022200:   API NUMBER
~CURVE INFORMATION
#MNEM.UNIT       API CODE    CURVE DESCRIPTION
#----------   ------------   ------------------------------
 DEPT.F                  :   
 CALI.IN     30 280 01 00:   CALIPER FROM GAMMA RAY LOG
 GR  .GAPI   30 310 01 00:   GAMMA RAY
~PARAMETER INFORMATION
#MNEM.UNIT          VALUE    DESCRIPTION
#----------   ------------   ------------------------------
 PD  .                 GL:   PERMANENT DATUM
 LMF .                 GL:   LOG MEASURED FROM
 DMF .                 GL:   DRILLING MEASURED FROM
 DATE.            8-17-65:   RUN DATE
 RUN .                  1:   RUN NUMBER
 DD  .F            2696.5:   DEPTH DRILLER
 DL  .F              2697:   DEPTH LOGGER
 BLI .F              2695:   BOTTOM LOG INTERVAL
 TLI .F              2000:   TOP LOG INTERVAL
 CS  .IN                7:   CASING SIZE
 CBD .F              2678:   CASING BOTTOM DRILLER
 DFT .                OIL:   DRILLING FLUID TYPE
 TCS .HRS               1:   TIME CURCULATED STOPPED
 ENGI.            JACKSON:   RECORDING ENGINEER
 WITN.          JORGENSEN:   WITNESSED BY
 CLNT.            A2DTECH:   CLIENT CODE
 ORIG.           5" PRINT:   ORIGIN OF DATA
 UWI .       490251022200:   UNIQUE WELL ID
 DICO. A2D Technologies, Inc.:   DIGITIZING COMPANY
~OTHER INFORMATION
~A    DEPT      CALI       GR   
# ...
  729.0000     6.4817  -999.2500
  729.5000     6.4866  -999.2500
  730.0000     6.4915  -999.2500
  730.5000     6.4962  -999.2500
  731.0000     6.5002  -999.2500
  731.5000     6.5126  -999.2500
  732.0000     6.5072  -999.2500
  732.5000     6.5019  -999.2500
  733.0000     6.4965  -999.2500
  733.5000     6.4911  -999.2500
  734.0000     6.4858  -999.2500
  734.5000     6.4860  -999.2500
  735.0000     6.4908  -999.2500
  735.5000     6.4956  -999.2500
  736.0000     6.5005  -999.2500
  736.5000     6.5053  -999.2500
  737.0000     6.5101  -999.2500
  737.5000     6.5071  -999.2500
  738.0000     6.5047  -999.2500
  738.5000     6.5074  -999.2500
  739.0000     6.5101  -999.2500
  739.5000     6.5125  -999.2500
  740.0000     6.5075  -999.2500
  740.5000     6.5068  -999.2500
  741.0000     6.5438  -999.2500
  741.5000     6.5635  -999.2500
  742.0000     6.5492  -999.2500
  742.5000     6.5340  -999.2500
  743.0000     6.5173  -999.2500
  743.5000     6.5119  -999.2500
  744.0000     6.5103  -999.2500
  744.5000     6.5088  -999.2500
  745.0000     6.5074  -999.2500
  745.5000     6.5059  -999.2500
  746.0000     6.5044  -999.2500
  746.5000     6.5031  -999.2500
  747.0000     6.5098  -999.2500
  747.5000     6.5110  -999.2500
  748.0000     6.5080  -999.2500
  748.5000     6.5050  -999.2500
  749.0000     6.5019  -999.2500
  749.5000     6.4989  -999.2500
  750.0000     6.4959  -999.2500
  750.5000     6.4931  -999.2500
  751.0000     6.4918  -999.2500
  751.5000     6.4904  -999.2500
  752.0000     6.4890  -999.2500
  752.5000     6.4875  -999.2500
  753.0000     6.4861  -999.2500
  753.5000     6.4847  -999.2500
  754.0000     6.4834  -999.2500
  754.5000     6.4858  -999.2500
  755.0000     6.4884  -999.2500
  755.5000     6.4910  -999.2500
  756.0000     6.4921  -999.2500
  756.5000     6.4851  -999.2500
  757.0000     6.4785  -999.2500
  757.5000     6.4721  -999.2500
  758.0000     6.4649  -999.2500
  758.5000     6.4830  -999.2500
  759.0000     6.4769  -999.2500
  759.5000     6.4540  -999.2500
  760.0000     6.4538  -999.2500
  760.5000     6.4725  -999.2500
  761.0000     6.4992  -999.2500
  761.5000     6.5151  -999.2500
  762.0000     6.4792  -999.2500
  762.5000     6.4834  -999.2500
  763.0000     6.4952  -999.2500
  763.5000     6.4995  -999.2500
  764.0000     6.4956  -999.2500
  764.5000     6.5027  -999.2500
  765.0000     6.5030  -999.2500
  765.5000     6.5030  -999.2500
  766.0000     6.5030  -999.2500
  766.5000     6.5030  -999.2500
  767.0000     6.5030  -999.2500
  767.5000     6.5030  -999.2500
  768.0000     6.5030  -999.2500
  768.5000     6.5030  -999.2500
  769.0000     6.5030  -999.2500
  769.5000     6.5012  -999.2500
  770.0000     6.4985  -999.2500
  770.5000     6.4958  -999.2500
  771.0000     6.4932  -999.2500
  771.5000     6.4931  -999.2500
  772.0000     6.4931  -999.2500
  772.5000     6.4931  -999.2500
  773.0000     6.4931  -999.2500
  773.5000     6.4931  -999.2500
  774.0000     6.4931  -999.2500
  774.5000     6.4931  -999.2500
  775.0000     6.4931  -999.2500
  775.5000     6.4931  -999.2500
  776.0000     6.4931  -999.2500
  776.5000     6.4931  -999.2500
  777.0000     6.4923  -999.2500
  777.5000     6.4907  -999.2500
  778.0000     6.4890  -999.2500
  778.5000     6.4873  -999.2500
  779.0000     6.4857  -999.2500
  779.5000     6.4841  -999.2500
  780.0000     6.4980  -999.2500
  780.5000     6.5235  -999.2500
  781.0000     6.5606  -999.2500
  781.5000     6.5033  -999.2500
  782.0000     6.5076  -999.2500
  782.5000     6.5111  -999.2500
  783.0000     6.5064  -999.2500
  783.5000     6.4942  -999.2500
  784.0000     6.4839  -999.2500
  784.5000     6.4987  -999.2500
  785.0000     6.4998  -999.2500
  785.5000     6.4960  -999.2500
  786.0000     6.5084  -999.2500
  786.5000     6.5130  -999.2500
  787.0000     6.5152  -999.2500
  787.5000     6.4965  -999.2500
  788.0000     6.4931  -999.2500
  788.5000     6.4931  -999.2500
  789.0000     6.4931  -999.2500
  789.5000     6.4956  -999.2500
  790.0000     6.5001  -999.2500
  790.5000     6.5054  -999.2500
  791.0000     6.5138  -999.2500
  791.5000     6.5218  -999.2500
  792.0000     6.5302  -999.2500
  792.5000     6.5219  -999.2500
  793.0000     6.4995  -999.2500
  793.5000     6.4933  -999.2500
  794.0000     6.4931  -999.2500
  794.5000     6.4931  -999.2500
  795.0000     6.4931  -999.2500
  795.5000     6.4929  -999.2500
  796.0000     6.5003  -999.2500
  796.5000     6.5090  -999.2500
  797.0000     6.5097  -999.2500
  797.5000     6.5015  -999.2500
  798.0000     6.4940  -999.2500
  798.5000     6.5100  -999.2500
  799.0000     6.5045  -999.2500
  799.5000     6.4970  -999.2500
  800.0000     6.5002  -999.2500
  800.5000     6.5142  -999.2500
  801.0000     6.5290  -999.2500
  801.5000     6.5112  -999.2500
  802.0000     6.5001  -999.2500
  802.5000     6.4953  -999.2500
  803.0000     6.4780  -999.2500
  803.5000     6.4505  -999.2500
  804.0000     6.4589  -999.2500
  804.5000     6.4591  -999.2500
  805.0000     6.4535  -999.2500
  805.5000     6.4481  -999.2500
  806.0000     6.4438  -999.2500
  806.5000     6.4439  -999.2500
  807.0000     6.4439  -999.2500
  807.5000     6.4437  -999.2500
  808.0000     6.4602  -999.2500
  808.5000     6.4867  -999.2500
  809.0000     6.5012  -999.2500
  809.5000     6.4961  -999.2500
  810.0000     6.4913  -999.2500
  810.5000     6.4864  -999.2500
  811.0000     6.4832  -999.2500
  811.5000     6.4833  -999.2500
  812.0000     6.4833  -999.2500
  812.5000     6.4833  -999.2500
  813.0000     6.4833  -999.2500
  813.5000     6.4833  -999.2500
  814.0000     6.4833  -999.2500
  814.5000     6.4833  -999.2500
  815.0000     6.4809  -999.2500
  815.5000     6.4777  -999.2500
  816.0000     6.4740  -999.2500
  816.5000     6.4882  -999.2500
  817.0000     6.5004  -999.2500
  817.5000     6.4889  -999.2500
  818.0000     6.4833  -999.2500
  818.5000     6.4832  -999.2500
  819.0000     6.4834  -999.2500
  819.5000     6.5100  -999.2500
  820.0000     6.5314  -999.2500
  820.5000     6.4906  -999.2500
  821.0000     6.4832  -999.2500
  821.5000     6.4776  -999.2500
  822.0000     6.4754  -999.2500
  822.5000     6.4856  -999.2500
  823.0000     6.4953  -999.2500
  823.5000     6.5019  -999.2500
  824.0000     6.4952  -999.2500
  824.5000     6.4888  -999.2500
  825.0000     6.4825  -999.2500
  825.5000     6.4761  -999.2500
  826.0000     6.4848  -999.2500
  826.5000     6.5022  -999.2500
  827.0000     6.4912  -999.2500
  827.5000     6.4832  -999.2500
  828.0000     6.4832  -999.2500
  828.5000     6.4858  -999.2500
  829.0000     6.4890  -999.2500
  829.5000     6.4920  -999.2500
  830.0000     6.5085  -999.2500
  830.5000     6.5155  -999.2500
  831.0000     6.4900  -999.2500
  831.5000     6.4746  -999.2500
  832.0000     6.4806  -999.2500
  832.5000     6.4836  -999.2500
  833.0000     6.4843  -999.2500
  833.5000     6.4850  -999.2500
  834.0000     6.4857  -999.2500
  834.5000     6.4864  -999.2500
  835.0000     6.4871  -999.2500
  835.5000     6.4878  -999.2500
  836.0000     6.4885  -999.2500
  836.5000     6.4892  -999.2500
  837.0000     6.4899  -999.2500
  837.5000     6.4906  -999.2500
  838.0000     6.4913  -999.2500
  838.5000     6.4920  -999.2500
  839.0000     6.4927  -999.2500
  839.5000     6.4917  -999.2500
  840.0000     6.4885  -999.2500
  840.5000     6.4853  -999.2500
  841.0000     6.4983  -999.2500
  841.5000     6.5377  -999.2500
  842.0000     6.4635  -999.2500
  842.5000     6.4685  -999.2500
  843.0000     6.4805  -999.2500
  843.5000     6.4620  -999.2500
  844.0000     6.4444  -999.2500
  844.5000     6.4437  -999.2500
  845.0000     6.4437  -999.2500
  845.5000     6.4443  -999.2500
  846.0000     6.4704  -999.2500
  846.5000     6.4831  -999.2500
  847.0000     6.4832  -999.2500
  847.5000     6.4833  -999.2500
  848.0000     6.4833  -999.2500
  848.5000     6.4809  -999.2500
  849.0000     6.4777  -999.2500
  849.5000     6.4742  -999.2500
  850.0000     6.4753  -999.2500
