~VERSION INFORMATION
 VERS.                2.0:   CWLS LOG ASCII STANDARD - VERSION 2.0
 WRAP.                 NO:   ONE LINE PER DEPTH STEP
~WELL INFORMATION
#MNEM.UNIT      DATA TYPE    INFORMATION
#----------   ------------   ------------------------------
 STRT.F          376.0000:   START DEPTH
 STOP.F         2400.0000:   STOP DEPTH
 STEP.F            0.5000:   STEP LENGTH
 NULL.          -999.2500:   NO VALUE
 COMP. LAWRENCE/ALLISON INC:   COMPANY
 WELL.        55 X #15-15:   WELL
 FLD .            WILDCAT:   FIELD
 LOC .      S15 T38N R78W:   LOCATION
 CNTY.            NATRONA:   COUNTY
 STAT.            WYOMING:   STATE
 CTRY. UNITED STATES OF AMERICA:   COUNTRY
 SRVC.            Unknown:   SERVICE COMPANY
 DATE.        12-APR-1988:   LOGDATE
 API .       490251119800:   API NUMBER
~CURVE INFORMATION
#MNEM.UNIT       API CODE    CURVE DESCRIPTION
#----------   ------------   ------------------------------
 DEPT.F                  :   
 GR  .GAPI   30 310 01 00:   GAMMA RAY
 TGAS.UNITS  91 830 01 00:   TOTAL GAS UNIT
 ROP .FT/HR  91 810 01 00:   RATE OF DRILLING PENETRATION
~PARAMETER INFORMATION
#MNEM.UNIT          VALUE    DESCRIPTION
#----------   ------------   ------------------------------
 PD  .                 GL:   PERMANENT DATUM
 EPD .F              5293:   ELEVATION PERMANENT DATUM
 LMF .                 GL:   LOG MEASURED FROM
 DMF .                 KB:   DRILLING MEASURED FROM
 EKB .F              5304:   KELLING BUSHING
 EGL .F              5293:   GROUND LEVEL
 DATE.        12-APR-1988:   RUN DATE
 RUN .                  1:   RUN NUMBER
 DD  .F              2400:   DEPTH DRILLER
 DL  .F               851:   DEPTH LOGGER
 BLI .F               846:   BOTTOM LOG INTERVAL
 TLI .F               372:   TOP LOG INTERVAL
 CS  .IN                7:   CASING SIZE
 CBL .F               890:   CASING BOTTOM LOGGER
 BSD .F              2400:   BIT SIZE AT DEPTH
 DFT .              WATER:   DRILLING FLUID TYPE
 TCS .HRS               1:   TIME CURCULATED STOPPED
 ENGI.          BANGERTER:   RECORDING ENGINEER
 WITN.             NORHAN:   WITNESSED BY
 CLNT.            A2DTECH:   CLIENT CODE
 ORIG.           5" PRINT:   ORIGIN OF DATA
 UWI .       490251119800:   UNIQUE WELL ID
 DICO. A2D Technologies, Inc.:   DIGITIZING COMPANY
~OTHER INFORMATION
~A   DEPT        GR      TGAS        ROP   
# ...
 1468.0000  -999.2500     4.5936     0.3985
 1468.5000  -999.2500     4.6104     0.4079
 1469.0000  -999.2500     5.0061     0.3984
 1469.5000  -999.2500     5.0256     0.3983
 1470.0000  -999.2500     5.4189     0.3983
 1470.5000  -999.2500     5.4360     0.3983
 1471.0000  -999.2500     5.4531     0.3888
 1471.5000  -999.2500     5.4733     0.3793
 1472.0000  -999.2500     5.8690     0.3793
 1472.5000  -999.2500     5.8858     0.3792
 1473.0000  -999.2500     5.9026     0.3792
 1473.5000  -999.2500     5.5363     0.3791
 1474.0000  -999.2500     5.5573     0.3791
 1474.5000  -999.2500     5.5741     0.3790
 1475.0000  -999.2500     5.5909     0.3790
 1475.5000  -999.2500     5.6077     0.3789
 1476.0000  -999.2500     6.0034     0.3789
 1476.5000  -999.2500     5.6413     0.3789
 1477.0000  -999.2500     5.6581     0.3788
 1477.5000  -999.2500     4.9168     0.3788
 1478.0000  -999.2500     4.1759     0.3787
 1478.5000  -999.2500     4.5720     0.3787
 1479.0000  -999.2500     4.9680     0.3786
 1479.5000  -999.2500     5.7463     0.3880
 1480.0000  -999.2500     6.5210     0.3879
 1480.5000  -999.2500     6.1588     0.3879
 1481.0000  -999.2500     5.0388     0.3879
 1481.5000  -999.2500     4.2935     0.3972
 1482.0000  -999.2500     4.6934     0.3972
 1482.5000  -999.2500     5.0892     0.3877
 1483.0000  -999.2500     5.4849     0.3971
 1483.5000  -999.2500     5.5017     0.4064
 1484.0000  -999.2500     5.5185     0.4252
 1484.5000  -999.2500     5.5353     0.4817
 1485.0000  -999.2500     5.5521     0.5475
 1485.5000  -999.2500     5.5689     0.6322
 1486.0000  -999.2500     5.5857     0.6981
 1486.5000  -999.2500     5.6027     0.7169
 1487.0000  -999.2500     5.6198     0.7074
 1487.5000  -999.2500     5.6368     0.6697
 1488.0000  -999.2500     5.6571     0.6226
 1488.5000  -999.2500     5.6739     0.5849
 1489.0000  -999.2500     5.3118     0.5180
 1489.5000  -999.2500     5.3286     0.4614
 1490.0000  -999.2500     5.3454     0.4435
 1490.5000  -999.2500     5.3622     0.5282
 1491.0000  -999.2500     5.3790     0.5564
 1491.5000  -999.2500     5.3958     0.5846
 1492.0000  -999.2500     5.4126     0.5940
 1492.5000  -999.2500     5.4294     0.6033
 1493.0000  -999.2500     5.0665     0.5939
 1493.5000  -999.2500     5.0841     0.5938
 1494.0000  -999.2500     5.1009     0.5938
 1494.5000  -999.2500     5.1177     0.5843
 1495.0000  -999.2500     5.1347     0.5749
 1495.5000  -999.2500     5.1518     0.5654
 1496.0000  -999.2500     4.7891     0.5465
 1496.5000  -999.2500     4.8101     0.5276
 1497.0000  -999.2500     4.8269     0.5182
 1497.5000  -999.2500     4.8437     0.5087
 1498.0000  -999.2500     4.8605     0.4992
 1498.5000  -999.2500     4.8773     0.4992
 1499.0000  -999.2500     4.8941     0.4803
 1499.5000  -999.2500     4.5278     0.4708
 1500.0000  -999.2500     4.5488     0.4708
 1500.5000  -999.2500     4.5656     0.4613
 1501.0000  -999.2500     4.9613     0.4613
 1501.5000  -999.2500     4.9781     0.4612
 1502.0000  -999.2500     5.3739     0.4612
 1502.5000  -999.2500     5.8092     0.4517
 1503.0000  -999.2500     5.8334     0.4517
 1503.5000  -999.2500     5.4777     0.4422
 1504.0000  -999.2500     5.5029     0.4437
 1504.5000  -999.2500     5.5269     0.4438
 1505.0000  -999.2500     5.5516     0.4440
 1505.5000  -999.2500     5.5762     0.4441
 1506.0000  -999.2500     5.6057     0.4443
 1506.5000  -999.2500     5.2510     0.4444
 1507.0000  -999.2500     5.2752     0.4445
 1507.5000  -999.2500     5.2994     0.4447
 1508.0000  -999.2500     5.3236     0.4448
 1508.5000  -999.2500     5.3478     0.4450
 1509.0000  -999.2500     5.3720     0.4451
 1509.5000  -999.2500     5.3962     0.4453
 1510.0000  -999.2500     5.4204     0.4454
 1510.5000  -999.2500     5.4446     0.4455
 1511.0000  -999.2500     5.4688     0.4457
 1511.5000  -999.2500     5.4930     0.4458
 1512.0000  -999.2500     5.5175     0.4460
 1512.5000  -999.2500     5.5421     0.4461
 1513.0000  -999.2500     5.5667     0.4557
 1513.5000  -999.2500     5.5958     0.4558
 1514.0000  -999.2500     5.6200     0.4653
 1514.5000  -999.2500     5.6442     0.4655
 1515.0000  -999.2500     5.6684     0.4656
 1515.5000  -999.2500     5.6899     0.4658
 1516.0000  -999.2500     5.7168     0.4659
 1516.5000  -999.2500     5.7410     0.4661
 1517.0000  -999.2500     5.7652     0.4662
 1517.5000  -999.2500     5.7894     0.4664
 1518.0000  -999.2500     5.8136     0.4665
 1518.5000  -999.2500     5.8378     0.4666
 1519.0000  -999.2500     5.8623     0.4668
 1519.5000  -999.2500     5.8869     0.4669
 1520.0000  -999.2500     5.9164     0.4671
 1520.5000  -999.2500     5.9406     0.4672
 1521.0000  -999.2500     5.9648     0.4673
 1521.5000  -999.2500     5.6040     0.4675
 1522.0000  -999.2500     5.6343     0.4676
 1522.5000  -999.2500     5.2735     0.4677
 1523.0000  -999.2500     5.3037     0.4679
 1523.5000  -999.2500     5.3279     0.4680
 1524.0000  -999.2500     4.9671     0.4588
 1524.5000  -999.2500     4.9974     0.4589
 1525.0000  -999.2500     5.0216     0.4590
 1525.5000  -999.2500     5.0458     0.4592
 1526.0000  -999.2500     4.6910     0.4593
 1526.5000  -999.2500     4.7160     0.4595
 1527.0000  -999.2500     4.7454     0.4596
 1527.5000  -999.2500     4.7696     0.4598
 1528.0000  -999.2500     4.7938     0.4599
 1528.5000  -999.2500     4.8180     0.4695
 1529.0000  -999.2500     4.8422     0.4602
 1529.5000  -999.2500     4.8664     0.4509
 1530.0000  -999.2500     4.5056     0.4510
 1530.5000  -999.2500     4.5359     0.4512
 1531.0000  -999.2500     4.5601     0.4513
 1531.5000  -999.2500     4.5843     0.4515
 1532.0000  -999.2500     4.6085     0.4516
 1532.5000  -999.2500     4.6327     0.4518
 1533.0000  -999.2500     4.6573     0.4519
 1533.5000  -999.2500     5.0608     0.4520
 1534.0000  -999.2500     5.0903     0.4522
 1534.5000  -999.2500     5.1145     0.4523
 1535.0000  -999.2500     4.7537     0.4524
 1535.5000  -999.2500     4.7839     0.4526
 1536.0000  -999.2500     4.8081     0.4433
 1536.5000  -999.2500     4.8323     0.4435
 1537.0000  -999.2500     4.8565     0.4418
 1537.5000  -999.2500     4.8807     0.4343
 1538.0000  -999.2500     4.9049     0.4300
 1538.5000  -999.2500     4.9291     0.4252
 1539.0000  -999.2500     4.9528     0.4253
 1539.5000  -999.2500     4.5986     0.4255
 1540.0000  -999.2500     4.6232     0.4350
 1540.5000  -999.2500     4.6478     0.4361
 1541.0000  -999.2500     4.6772     0.4542
 1541.5000  -999.2500     4.7014     0.4731
 1542.0000  -999.2500     4.7256     0.4827
 1542.5000  -999.2500     4.7463     0.4828
 1543.0000  -999.2500     4.7740     0.4830
 1543.5000  -999.2500     4.7982     0.4737
 1544.0000  -999.2500     4.8224     0.4738
 1544.5000  -999.2500     4.8466     0.4645
 1545.0000  -999.2500     4.8708     0.4647
 1545.5000  -999.2500     4.5152     0.4648
 1546.0000  -999.2500     4.5402     0.4650
 1546.5000  -999.2500     4.5644     0.4745
 1547.0000  -999.2500     4.5891     0.4747
 1547.5000  -999.2500     4.2339     0.4748
 1548.0000  -999.2500     4.2641     0.4750
 1548.5000  -999.2500     4.2883     0.4751
 1549.0000  -999.2500     4.3125     0.4753
 1549.5000  -999.2500     4.3367     0.4754
 1550.0000  -999.2500     4.3609     0.4849
 1550.5000  -999.2500     4.3851     0.4851
 1551.0000  -999.2500     4.4093     0.4758
 1551.5000  -999.2500     4.4335     0.4760
 1552.0000  -999.2500     4.4577     0.4761
 1552.5000  -999.2500     4.4819     0.4762
 1553.0000  -999.2500     4.5061     0.4764
 1553.5000  -999.2500     4.5303     0.4765
 1554.0000  -999.2500     4.5689     0.4767
 1554.5000  -999.2500     4.9585     0.4727
 1555.0000  -999.2500     4.9879     0.4675
 1555.5000  -999.2500     5.0121     0.4582
 1556.0000  -999.2500     5.0363     0.4584
 1556.5000  -999.2500     5.0605     0.4585
 1557.0000  -999.2500     5.0847     0.4587
 1557.5000  -999.2500     5.1089     0.4588
 1558.0000  -999.2500     5.1331     0.4590
 1558.5000  -999.2500     4.7723     0.4685
