~VERSION INFORMATION
 VERS.                2.0:   CWLS LOG ASCII STANDARD - VERSION 2.0
 WRAP.                 NO:   ONE LINE PER DEPTH STEP
~WELL INFORMATION
#MNEM.UNIT      DATA TYPE    INFORMATION
#----------   ------------   ------------------------------
 STRT.F           60.0000:   START DEPTH
 STOP.F          482.0000:   STOP DEPTH
 STEP.F            0.5000:   STEP LENGTH
 NULL.          -999.2500:   NO VALUE
 COMP. BROWN JOHN E&C INC:   COMPANY
 WELL. NPR 3 68 SX-3 #68-1-3:   WELL
 FLD .             TEAPOT:   FIELD
 LOC .       S3 T38N R78W:   LOCATION
 CNTY.            NATRONA:   COUNTY
 STAT.            WYOMING:   STATE
 CTRY. UNITED STATES OF AMERICA:   COUNTRY
 SRVC.     Atlas Wireline:   SERVICE COMPANY
 DATE.        29-SEP-1991:   LOGDATE
 API .       490252244800:   API NUMBER
~CURVE INFORMATION
#MNEM.UNIT       API CODE    CURVE DESCRIPTION
#----------   ------------   ------------------------------
 DEPT.F                  :   
 CALD.IN     45 280 60 00:   CALIPER FROM DENSITY LOG
 CNC .DEC    42 890 03 00:   NEUTRON POROSITY SANDSTONE
 CORR.G/C3   45 356 01 00:   DENSITY CORRECTION
 GRD .GAPI   45 310 01 00:   GAMMA RAY FROM DENSITY LOG
 PORD.DEC    45 890 12 00:   POROSITY DENSITY SANDSTONE
 RHOB.G/C3   45 350 01 00:   BULK DENSITY
 RFOC.OHMM   07 220 04 00:   RESISTIVITY FOCUSED LOG
 RILD.OHMM   07 120 46 00:   RESISTIVITY INDUCTION LOG DEEP
 RILM.OHMM   07 120 44 00:   RESISTIVITY INDUCTION LOG MEDIUM
~PARAMETER INFORMATION
#MNEM.UNIT          VALUE    DESCRIPTION
#----------   ------------   ------------------------------
 PD  .                 GL:   PERMANENT DATUM
 EPD .F              5153:   ELEVATION PERMANENT DATUM
 LMF .                 KB:   LOG MEASURED FROM
 DAPD.F                10:   FEET ABOVE PERMANENT DATUM
 DMF .                 KB:   DRILLING MEASURED FROM
 EKB .F              5163:   KELLING BUSHING
 EGL .F              5153:   GROUND LEVEL
 DATE.        29-SEP-1991:   RUN DATE
 RUN .                  1:   RUN NUMBER
 DD  .F               485:   DEPTH DRILLER
 DL  .F               485:   DEPTH LOGGER
 BLI .F               482:   BOTTOM LOG INTERVAL
 CS  .IN            8.625:   CASING SIZE
 CBD .F                98:   CASING BOTTOM DRILLER
 CBL .F               100:   CASING BOTTOM LOGGER
 BS  .IN            7.875:   BIT SIZE
 BSD .F               485:   BIT SIZE AT DEPTH
 DFT .           CHEM GEL:   DRILLING FLUID TYPE
 DFD .               15.4:   DRILLING FLUID DENSITY
 DFV .                 38:   DRILLING FLUID VISCOSITY
 DFPH.                9.0:   DRILLING FLUID PH
 DFL .                8.0:   DRILLING FLUID LOSS
 MSS .           FLOWLINE:   MUD SAMPLE SOURCE
 RMS .OHMM           1.65:   RESISTIVITY MUD SAMPLE
 MST .F                90:   MUD SAMPLE TEMPERATURE
 RMF .OHMM           1.32:   RESISTIVITY MUD FILTRATE SAMPLE
 MFST.F                90:   MUD FILTRATE SAMPLE TEMPERATURE
 RMC .OHMM           2.06:   RESISTIVITY MUD CAKE
 MCST.F                90:   MUD CAKE SAMPLE TEMPERATURE
 MFSS.               CALC:   MUD FILTRATE SAMPLE SOURCE
 MCSS.               CALC:   MUD CAKE SAMPLE SOURCE
 RMB .OHMM           1.65:   RESISTIVITY MUD AT BHT
 BHT .F                90:   BOTTOM HOLE TEMPERATURE
 TCS .HRS               1:   TIME CURCULATED STOPPED
 MRT .F                90:   MAXIMUM RECORDED TEMPERATURE
 LUN .            HL 6272:   LOGGING UNIT NUMBER
 LUL .             CASPER:   LOGGING UNIT LOCATION
 ENGI. WADDELL/ OTTERHOLT:   RECORDING ENGINEER
 WITN.             STRONG:   WITNESSED BY
 CLNT.            A2DTECH:   CLIENT CODE
 ORIG.           5" PRINT:   ORIGIN OF DATA
 UWI .       490252244800:   UNIQUE WELL ID
 DICO. A2D Technologies, Inc.:   DIGITIZING COMPANY
~OTHER INFORMATION
~A   DEPT     CALD        CNC       CORR         GRD      PORD       RHOB       RFOC       RILD       RILM   
# ...
   96.5000  -999.2500     0.5805  -999.2500    60.5144  -999.2500  -999.2500  -999.2500  -999.2500  -999.2500
   97.0000  -999.2500     0.5783  -999.2500    59.6067  -999.2500  -999.2500  -999.2500  -999.2500  -999.2500
   97.5000  -999.2500     0.5692  -999.2500    59.3041  -999.2500  -999.2500  -999.2500  -999.2500  -999.2500
   98.0000  -999.2500     0.5489  -999.2500    58.3964  -999.2500  -999.2500  -999.2500  -999.2500  -999.2500
   98.5000  -999.2500     0.5320  -999.2500    58.3964  -999.2500  -999.2500  -999.2500  -999.2500  -999.2500
   99.0000  -999.2500     0.5077  -999.2500    59.6067  -999.2500  -999.2500  -999.2500  -999.2500  -999.2500
   99.5000  -999.2500     0.4611  -999.2500    63.2375  -999.2500  -999.2500  -999.2500  -999.2500  -999.2500
  100.0000     7.9165     0.3893    -0.0860    71.1044     0.2108     2.3443     1.9450     3.1922     1.2779
  100.5000     7.9641     0.3201    -0.0266    81.5583     0.1730     2.3831     4.9019     5.0968     1.4495
  101.0000     7.9810     0.3109    -0.0098    85.3253     0.1488     2.4083     6.4437     6.4640     1.7505
  101.5000     7.9977     0.3072    -0.0022    85.9304     0.1296     2.4372     6.9146    21.9269     7.2391
  102.0000     7.9989     0.3051     0.0009    85.9304     0.1185     2.4540     7.2150  4139.4160    43.0014
  102.5000     7.9846     0.3048     0.0024    85.6278     0.1136     2.4632     7.2697 10257.7783    54.5305
  103.0000     7.9703     0.3048     0.0025    85.9304     0.1103     2.4695     7.2228 10406.1172   168.8036
  103.5000     7.9716     0.3070     0.0040    86.2330     0.1045     2.4754     7.2785  9983.4746   467.3858
  104.0000     7.9573     0.3120     0.0040    87.1407     0.0991     2.4815     7.2824    15.2864    81.8234
  104.5000     7.9742     0.3150     0.0041    88.0484     0.0966     2.4860     7.3375     9.7165    13.8337
  105.0000     7.9754     0.3171     0.0072    88.6536     0.0960     2.4914     7.3415    13.2148    14.1462
  105.5000     7.9765     0.3186     0.0102    89.2587     0.0960     2.4945     7.2433    17.5986    17.7995
  106.0000     7.9778     0.3192     0.0133    87.4433     0.0960     2.4952     7.0921     8.0586    28.2105
  106.5000     7.9790     0.3189     0.0149    85.3253     0.0960     2.4937     6.9530     7.8392    17.2059
  107.0000     7.9802     0.3193     0.0164    83.2073     0.0960     2.4960     7.0557    10.0127     9.1910
  107.5000     7.9815     0.3231     0.0182    83.2073     0.0954     2.5006     7.1591     9.8598     7.9984
  108.0000     7.9827     0.3240     0.0226    83.5098     0.0938     2.5060     7.2639     8.5956     7.6737
  108.5000     7.9839     0.3246     0.0256    83.8124     0.0884     2.5075     7.3703     8.3034     7.3986
  109.0000     7.9853     0.3240     0.0257    83.8843     0.0848     2.5083     7.4261     8.2498     6.8715
  109.5000     7.9864     0.3240     0.0226    84.8128     0.0836     2.5060     7.4887     8.0260     7.1685
  110.0000     8.0031     0.3234     0.0212    85.6278     0.0881     2.5014     7.5399     7.9178     7.5305
  110.5000     8.0043     0.3237     0.0179    86.2330     0.0911     2.4984     7.5440     8.0340     8.0220
  111.0000     8.0058     0.3252     0.0151    87.4508     0.0921     2.4984     7.4431     8.0927     8.4862
  111.5000     8.0224     0.3252     0.0136    88.7519     0.0921     2.4977     7.2924     8.0397     8.9173
  112.0000     8.0235     0.3251     0.0106    88.9561     0.0951     2.4931     7.2963     7.9315     8.9814
  112.5000     8.0248     0.3245     0.0091    85.6278     0.0969     2.4893     7.3003     7.8787     8.6185
  113.0000     8.0105     0.3233     0.0046    83.2073     0.0966     2.4878     7.3044     7.8827     8.3854
  113.5000     8.0117     0.3214     0.0031    81.9970     0.0951     2.4901     7.3605     7.8859     8.1586
  114.0000     8.0130     0.3142     0.0031    82.6021     0.0917     2.4977     7.4162     7.8891     7.9380
  114.5000     8.0142     0.3136     0.0047    83.5098     0.0872     2.5077     7.2660     7.8930     7.7773
  115.0000     8.0156     0.3157     0.0047    84.4554     0.0860     2.5046     6.9710     7.7868     7.6199
  115.5000     8.0168     0.3214     0.0078    85.6278     0.0917     2.4970     6.3682     7.7349     7.4666
  116.0000     8.0180     0.3323     0.0093    85.9304     0.0978     2.4856     6.1096     7.5785     7.3667
  116.5000     8.0501     0.3362     0.0094    87.1407     0.1032     2.4780     6.1567     7.3216     7.2167
  117.0000     8.0838     0.3386     0.0094    88.6536     0.1069     2.4788     6.3349     7.1230     7.1201
  117.5000     8.2537     0.3335     0.0079    89.2587     0.1017     2.4805     6.5640     7.0763     7.0248
  118.0000     8.3476     0.3223     0.0079    88.6536     0.1002     2.4849     6.7540     7.0799     6.9801
  118.5000     8.3797     0.3207     0.0080    87.0613     0.0996     2.4865     6.9983     7.1323     6.9260
  119.0000     8.3191     0.3210     0.0080    85.0227     0.0990     2.4865     7.0021     7.2354     6.7473
  119.5000     8.2894     0.3219     0.0080    85.0227     0.0972     2.4880     6.7650     7.3915     6.7036
  120.0000     8.2597     0.3228     0.0081    85.9304     0.0959     2.4896     6.7696     7.4463     6.8493
  120.5000     8.2609     0.3231     0.0081    86.8381     0.0959     2.4926     6.8687     7.2449     7.1453
  121.0000     8.2623     0.3231     0.0081    87.4433     0.0956     2.4950     6.8724     7.0977     7.4541
  121.5000     8.2326     0.3225     0.0082    87.4433     0.0941     2.4957     6.8272     7.2003     7.6152
  122.0000     8.2338     0.3222     0.0067    87.1407     0.0935     2.4957     6.7833     7.3556     7.8344
  122.5000     8.2041     0.3216     0.0052    87.1407     0.0947     2.4950     6.8355     7.5142     7.9490
  123.0000     8.2053     0.3215     0.0037    87.1407     0.0950     2.4950     6.9883     7.7315     8.0083
  123.5000     8.2219     0.3215     0.0037    88.0484     0.0941     2.4973     7.1875     7.9528     8.0121
  124.0000     8.2389     0.3224     0.0022    88.9561     0.0935     2.4996     7.2927     8.1243     8.0720
  124.5000     8.2401     0.3224    -0.0008    89.2587     0.0926     2.5034     7.3995     8.2418     8.1323
  125.0000     8.2413     0.3224    -0.0023    88.6536     0.0900     2.5051     7.4035     8.4195     8.2504
  125.5000     8.2425     0.3200    -0.0038    88.3510     0.0856     2.5057     7.5119     8.4819     8.3703
  126.0000     8.2591     0.3163    -0.0022    89.2587     0.0847     2.5042     7.5160     8.4853     8.3751
  126.5000     8.2757     0.3130    -0.0007    90.1664     0.0844     2.5004     7.5787     8.4888     8.3198
  127.0000     8.2770     0.3114     0.0009    90.7716     0.0868     2.4959     7.6848     8.3753     8.1514
  127.5000     8.2784     0.3090     0.0040    91.0741     0.0895     2.4951     7.6890     8.2617     8.0986
  128.0000     8.2796     0.3084     0.0070    91.0741     0.0910     2.5050     7.7471     8.2076     7.9912
  128.5000     8.2807     0.3117     0.0055    91.0741     0.0892     2.5105     7.6962     8.1538     7.9394
  129.0000     8.2820     0.3199     0.0056    91.3767     0.0862     2.5127     7.7014     8.1012     7.8331
  129.5000     8.2832     0.3262     0.0041    91.6793     0.0832     2.5135     7.6518     8.0422     7.8377
  130.0000     8.2844     0.3302     0.0041    91.6793     0.0844     2.5127     7.7099     7.9953     7.7319
  130.5000     8.2856     0.3308     0.0041    92.2844     0.0850     2.5082     7.7691     8.2258     7.6818
  131.0000     8.2713     0.3307     0.0042    92.2844     0.0868     2.5028     7.7733     8.5212     7.6864
  131.5000     8.2571     0.3307     0.0027    91.9818     0.0868     2.5013     7.7775     8.8891     7.7438
  132.0000     8.2428     0.3295     0.0012    91.0741     0.0883     2.4988     7.8364     9.0177     7.8563
  132.5000     8.2443     0.3271    -0.0003    90.1664     0.0928     2.4831     7.8957     9.0214     7.9712
