~VERSION INFORMATION
 VERS.                2.0:   CWLS LOG ASCII STANDARD - VERSION 2.0
 WRAP.                 NO:   ONE LINE PER DEPTH STEP
~WELL INFORMATION
#MNEM.UNIT      DATA TYPE    INFORMATION
#----------   ------------   ------------------------------
 STRT.F            0.0000:   START DEPTH
 STOP.F          469.0000:   STOP DEPTH
 STEP.F            0.5000:   STEP LENGTH
 NULL.          -999.2500:   NO VALUE
 COMP. BROWN JOHN E&C INC:   COMPANY
 WELL. NPR 3 SX-10 4 #54-10:   WELL
 FLD .             TEAPOT:   FIELD
 LOC .      S10 T38N R78W:   LOCATION
 CNTY.            NATRONA:   COUNTY
 STAT.            WYOMING:   STATE
 CTRY. UNITED STATES OF AMERICA:   COUNTRY
 SRVC.     Atlas Wireline:   SERVICE COMPANY
 DATE.        25-APR-1991:   LOGDATE
 API .       490251133500:   API NUMBER
~CURVE INFORMATION
#MNEM.UNIT       API CODE    CURVE DESCRIPTION
#----------   ------------   ------------------------------
 DEPT.F                  :   
 RILD.OHMM   07 120 46 00:   INDUCTION LOG DEEP RESISTIVITY
 RILM.OHMM   07 120 44 00:   INDUCTION LOG MEDIUM RESISTIVITY
 GRD .GAPI   45 310 01 00:   GAMMA RAY FROM DENSITY LOG
 CALD.IN     45 280 60 00:   CALIPER FROM DENSITY LOG
 CORR.G/C3   45 356 01 00:   DENSITY CORRECTION
 PORD.DEC    45 890 12 00:   POROSITY DENSITY SANDSTONE
 DEN .G/C3   45 350 01 00:   COMPENSATED BULK DENSTIY
~PARAMETER INFORMATION
#MNEM.UNIT          VALUE    DESCRIPTION
#----------   ------------   ------------------------------
 PD  .                 GL:   PERMANENT DATUM
 EPD .F              5182:   ELEVATION PERMANENT DATUM
 LMF .                 KB:   LOG MEASURED FROM
 DAPD.F                10:   FEET ABOVE PERMANENT DATUM
 DMF .                 KB:   DRILLING MEASURED FROM
 EKB .F              5172:   KELLING BUSHING
 EGL .F              5182:   GROUND LEVEL
 DATE.        25-APR-1991:   RUN DATE
 RUN .                  1:   RUN NUMBER
 DD  .F               471:   DEPTH DRILLER
 DL  .F               471:   DEPTH LOGGER
 BLI .F               469:   BOTTOM LOG INTERVAL
 CS  .IN            8.625:   CASING SIZE
 CBD .F                44:   CASING BOTTOM DRILLER
 CBL .F                44:   CASING BOTTOM LOGGER
 BS  .IN            7.875:   BIT SIZE
 BSD .F               471:   BIT SIZE AT DEPTH
 DFT .                AIR:   DRILLING FLUID TYPE
 LUN .           HL- 6307:   LOGGING UNIT NUMBER
 LUL .             CASPER:   LOGGING UNIT LOCATION
 ENGI.    KINNETT/ ZIEGER:   RECORDING ENGINEER
 WITN.             STRONG:   WITNESSED BY
 CLNT.            A2DTECH:   CLIENT CODE
 ORIG.        2" 5" PRINT:   ORIGIN OF DATA
 UWI .       490251133500:   UNIQUE WELL ID
 DICO. A2D Technologies, Inc.:   DIGITIZING COMPANY
~OTHER INFORMATION
~A    DEPT    RILD       RILM         GRD      CALD       CORR       PORD        DEN   
# ...
  136.5000     8.6819     9.1963   134.2907     8.5375     0.0157     0.0831     2.5075
  137.0000     8.6790     9.1941   133.1655     8.5375     0.0097     0.0855     2.5090
  137.5000     8.6767     9.1923   135.5194     8.5375     0.0065     0.1069     2.4947
  138.0000     8.6738     9.1905   138.5973     8.5526     0.0023     0.1172     2.4640
  138.5000     8.7324     9.1887   137.0203     8.5526     0.0039     0.1217     2.4465
  139.0000     8.7295     9.1868   134.0879     8.5526     0.0039     0.1208     2.4473
  139.5000     8.7272     9.1846   130.7036     8.5526     0.0084     0.1193     2.4511
  140.0000     8.7248     9.1827   132.5152     8.5526     0.0025     0.1178     2.4548
  140.5000     8.7832     9.1809   138.0500     8.5526    -0.0005     0.1145     2.4586
  141.0000     8.7803     9.1157   141.5611     8.5526     0.0071     0.1123     2.4640
  141.5000     8.7779     9.1139   140.6618     8.5526     0.0162     0.1117     2.4669
  142.0000     8.7150     9.0416   136.1481     8.5676     0.0222     0.1120     2.4676
  142.5000     8.7127     8.9225   135.0229     8.5676     0.0268     0.1133     2.4676
  143.0000     8.5904     8.8592   134.3494     8.5676     0.0269     0.1142     2.4676
  143.5000     8.4698     8.7963   133.6761     8.5676     0.0176     0.1145     2.4646
  144.0000     8.2929     8.6736   136.3947     8.5676     0.0104     0.1160     2.4630
  144.5000     8.0640     8.3166   138.8816     8.5676     0.0044     0.1175     2.4608
  145.0000     7.8960     7.8143   136.1751     8.5526     0.0044     0.1184     2.4578
  145.5000     7.7315     7.4431   132.7909     8.5225     0.0045     0.1208     2.4556
  146.0000     7.4662     7.1387   131.6174     8.5075     0.0045     0.1256     2.4495
  146.5000     7.0897     6.7061   135.1674     8.5075     0.0061     0.1280     2.4375
  147.0000     6.2314     6.3875   139.5821     8.5225     0.0076     0.1310     2.4337
  147.5000     5.5759     6.0798   139.8123     8.5526     0.0077     0.1340     2.4315
  148.0000     5.0589     5.4824   134.6209     8.5676     0.0077     0.1395     2.4247
  148.5000     4.3424     4.5465   129.2035     8.5526     0.0078     0.1455     2.4134
  149.0000     3.8056     4.0971   127.1747     8.5526     0.0078     0.1530     2.3983
  149.5000     3.4853     3.6667   126.4653     8.5526     0.0094     0.1654     2.3795
  150.0000     3.1109     3.3042   126.0539     8.5526     0.0091     0.1815     2.3446
  150.5000     2.9423     3.1255   128.7625     8.5465     0.0049     0.2068     2.3038
  151.0000     2.8022     3.1462   128.9868     8.5404     0.0034     0.2346     2.2617
  151.5000     2.7061     3.1672   128.3063     8.5366     0.0004     0.2607     2.1988
  152.0000     2.7054     3.2777   124.4638     8.5664     0.0049     0.2909     2.1702
  152.5000     2.8389     3.5607   120.8471     8.5811     0.0275     0.2952     2.1603
  153.0000     3.0418     3.8151   123.4142     8.5808     0.0335     0.2781     2.1888
  153.5000     3.3906     4.3504   127.1675     8.5804     0.0245     0.2380     2.2621
  154.0000     3.9082     4.8926   131.4575     8.5651     0.0139     0.2106     2.3013
  154.5000     4.3361     5.4388   135.2957     8.5498     0.0064     0.1873     2.3434
  155.0000     4.7776     6.0187   141.6188     8.5345     0.0049     0.1696     2.3645
  155.5000     5.1201     6.2724   145.9087     8.5342     0.0049     0.1515     2.4014
  156.0000     5.8403     6.4469   146.1325     8.5339     0.0169     0.1290     2.4255
  156.5000     6.2191     6.7186   144.5489     8.5336     0.0229     0.1241     2.4429
  157.0000     6.4791     6.9055   145.9502     8.5484     0.0199     0.1265     2.4384
  157.5000     6.6608     6.9999   147.7072     8.5480     0.0139     0.1311     2.4316
  158.0000     6.7534     6.9976   147.7045     8.5477    -0.0011     0.1332     2.4308
  158.5000     6.6139     7.0448   147.7023     8.5474     0.0004     0.1326     2.4309
  159.0000     6.4326     6.8500   147.0224     8.5321     0.0169     0.1278     2.4346
  159.5000     6.2114     6.4344   146.1166     8.5318     0.0169     0.1242     2.4429
  160.0000     5.8775     6.0023   144.0813     8.5315     0.0107     0.1214     2.4497
  160.5000     5.6378     5.7554   144.3050     8.5312    -0.0011     0.1242     2.4294
  161.0000     5.4454     5.6754   152.5434     8.5159    -0.0026     0.1395     2.4098
  161.5000     5.2962     5.6739   156.2729     8.5156     0.0064     0.1576     2.3865
  162.0000     5.2229     5.6724   156.0448     8.5153     0.0154     0.1624     2.3774
  162.5000     5.1151     5.6709   154.0095     8.5600     0.0154     0.1582     2.3895
  163.0000     5.1503     5.7485   148.8114     8.6198     0.0154     0.1468     2.4076
  163.5000     5.2581     5.8271   144.2911     8.6416     0.0229     0.1432     2.4098
  164.0000     5.3682     6.0850   144.9666     8.5592     0.0144     0.1383     2.4172
  164.5000     5.5571     6.4165   146.7717     8.5288     0.0049     0.1331     2.4287
  165.0000     5.8735     6.7334   148.8026     8.5135     0.0049     0.1287     2.4325
  165.5000     6.1651     7.0659   149.0595     8.5132     0.0064     0.1242     2.4407
  166.0000     6.4819     7.3637   147.6323     8.5129     0.0109     0.1182     2.4520
  166.5000     6.7922     7.6741   145.1810     8.5277     0.0111     0.1152     2.4626
  167.0000     7.0312     7.9541   143.3716     8.5273     0.0079     0.1115     2.4709
  167.5000     7.2786     8.2766   143.1435     8.5270     0.0016     0.1106     2.4739
  168.0000     7.5872     8.4481   147.8853     8.5267    -0.0011     0.1138     2.4648
  168.5000     7.8542     8.4458   153.0787     8.5264    -0.0011     0.1170     2.4589
  169.0000     8.0230     8.3853   152.3988     8.5261    -0.0011     0.1170     2.4589
  169.5000     8.1864     8.4414   146.9747     8.5258    -0.0011     0.1170     2.4589
  170.0000     8.1859     8.4977   141.5509     8.5255    -0.0011     0.1179     2.4559
  170.5000     8.0169     8.4363   144.0336     8.5252     0.0034     0.1203     2.4499
  171.0000     7.9610     8.3180   147.6459     8.5249     0.0049     0.1215     2.4461
  171.5000     7.9055     8.2584   148.9991     8.5546     0.0109     0.1215     2.4469
  172.0000     7.7940     8.0865   149.6747     8.5544     0.0139     0.1209     2.4469
  172.5000     7.6351     8.0285   149.4465     8.5691     0.0169     0.1218     2.4446
  173.0000     7.3746     7.8613   148.7666     8.5687     0.0109     0.1227     2.4401
  173.5000     7.1229     7.6971   147.8603     8.5684     0.0094     0.1230     2.4439
  174.0000     6.8799     7.4849   148.7617     8.5531     0.0141     0.1215     2.4499
  174.5000     6.5992     7.2784   149.1596     8.5528     0.0109     0.1203     2.4514
  175.0000     6.3741     6.8843   149.8872     8.5525     0.0094     0.1206     2.4477
  175.5000     6.1363     6.4220   151.4658     8.5522     0.0034     0.1224     2.4409
  176.0000     5.7838     6.0743   153.7227     8.5520    -0.0087     0.1265     2.4317
  176.5000     5.5865     5.8600   158.2385     8.5516    -0.0011     0.1336     2.4221
  177.0000     5.5092     5.8236   162.3026     8.5513     0.0034     0.1408     2.4138
  177.5000     5.5472     6.1112   162.3153     8.5060     0.0169     0.1493     2.4040
  178.0000     5.6633     6.4130   152.5995     8.6709     0.0275     0.1508     2.3988
  178.5000     5.8269     6.6372   144.2234     8.5654     0.0290     0.1444     2.4101
  179.0000     6.0688     6.8692   144.8989     8.5051     0.0169     0.1324     2.4229
  179.5000     6.3700     7.2693   146.7040     8.5499     0.0094     0.1252     2.4379
  180.0000     6.7327     7.6166   145.1205     8.5646    -0.0011     0.1189     2.4532
  180.5000     6.9696     7.8284   144.8923     8.4741     0.0094     0.1168     2.4583
  181.0000     7.4693     7.9355   147.6005     8.5189     0.0124     0.1180     2.4583
  181.5000     7.7364     8.1005   147.8247     8.5487     0.0049     0.1201     2.4530
