~VERSION INFORMATION
 VERS.                2.0:   CWLS LOG ASCII STANDARD - VERSION 2.0
 WRAP.                 NO:   ONE LINE PER DEPTH STEP
~WELL INFORMATION
#MNEM.UNIT      DATA TYPE    INFORMATION
#----------   ------------   ------------------------------
 STRT.F         1099.5000:   START DEPTH
 STOP.F         2700.0000:   STOP DEPTH
 STEP.F            0.5000:   STEP LENGTH
 NULL.          -999.2500:   NO VALUE
 COMP. LAWRENCE/ALLISON INC NPR #3:   COMPANY
 WELL.   47 STX 14 #47-14:   WELL
 FLD .             TEAPOT:   FIELD
 LOC .      S14 T38N R78W:   LOCATION
 CNTY.            NATRONA:   COUNTY
 STAT.            WYOMING:   STATE
 CTRY. UNITED STATES OF AMERICA:   COUNTRY
 SRVC.            Unknown:   SERVICE COMPANY
 DATE.        01-SEP-1988:   LOGDATE
 API .       490251124400:   API NUMBER
~CURVE INFORMATION
#MNEM.UNIT       API CODE    CURVE DESCRIPTION
#----------   ------------   ------------------------------
 DEPT.F                  :   
 ROP .MIN/FT 91 810 01 00:   RATE OF DRILLING PENETRATION
 TGAS.UNITS  91 830 01 00:   TOTAL GAS FROM HOTWIRE
~PARAMETER INFORMATION
#MNEM.UNIT          VALUE    DESCRIPTION
#----------   ------------   ------------------------------
 EKB .F              5286:   KELLING BUSHING
 EGL .F              5276:   GROUND LEVEL
 DATE.             9-1-88:   RUN DATE
 DD  .F              2700:   DEPTH DRILLER
 CBD .F              1088:   CASING BOTTOM DRILLER
 TCS .HRS            1200:   TIME CURCULATED STOPPED
 TLAB.HRS            1223:   TIME LOGGER AT BOTTOM
 ENGI.               HUSK:   RECORDING ENGINEER
 WITN.           PETERSON:   WITNESSED BY
 CLNT.            A2DTECH:   CLIENT CODE
 ORIG.           5" PRINT:   ORIGIN OF DATA
 UWI .       490251124400:   UNIQUE WELL ID
 DICO. A2D Technologies, Inc.:   DIGITIZING COMPANY
~OTHER INFORMATION
~A  DEPT       ROP       TGAS   
# ...
 2071.5000     0.3703   306.9311
 2072.0000     0.4008   306.9649
 2072.5000     0.4112   306.9987
 2073.0000     0.4308   307.0325
 2073.5000     0.4303   307.0664
 2074.0000     0.4402   307.1002
 2074.5000     0.4257   307.1340
 2075.0000     0.4059   307.1678
 2075.5000     0.3897   307.2017
 2076.0000     0.3599   307.2355
 2076.5000     0.3380   307.2693
 2077.0000     0.3197   307.3031
 2077.5000     0.3125   307.3370
 2078.0000     0.3120   307.3708
 2078.5000     0.3115   307.4046
 2079.0000     0.3110   307.4384
 2079.5000     0.3159   307.4723
 2080.0000     0.3261   307.5061
 2080.5000     0.3363   307.5399
 2081.0000     0.3531   307.5737
 2081.5000     0.3948   307.6075
 2082.0000     0.4478   307.6414
 2082.5000     0.4660   307.6752
 2083.0000     0.4119   307.7090
 2083.5000     0.3662   307.7429
 2084.0000     0.3471   307.7767
 2084.5000     0.3466   307.8105
 2085.0000     0.3461   307.8443
 2085.5000     0.3456   307.8781
 2086.0000     0.3570   307.9120
 2086.5000     0.3779   307.9458
 2087.0000     0.3853   307.9796
 2087.5000     0.3848   308.0135
 2088.0000     0.3768   308.0473
 2088.5000     0.3656   308.0811
 2089.0000     0.3522   308.1149
 2089.5000     0.3620   308.1487
 2090.0000     0.3718   308.1826
 2090.5000     0.3817   308.2164
 2091.0000     0.3915   308.2502
 2091.5000     0.3910   308.2840
 2092.0000     0.3905   308.3220
 2092.5000     0.3895   312.5365
 2093.0000     0.3791   314.6802
 2093.5000     0.4612   314.7596
 2094.0000     0.4957   314.8391
 2094.5000     0.4569   314.9186
 2095.0000     0.4243   315.0000
 2095.5000     0.3917   315.0826
 2096.0000     0.3760   319.6224
 2096.5000     0.3755   338.7809
 2097.0000     0.3814   360.3035
 2097.5000     0.3848   376.4785
 2098.0000     0.3914   374.5650
 2098.5000     0.4241   359.4901
 2099.0000     0.4821   347.0888
 2099.5000     0.5376   330.2090
 2100.0000     0.5268   319.9475
 2100.5000     0.4746   320.0367
 2101.0000     0.4225   319.4595
 2101.5000     0.3911   316.0576
 2102.0000     0.4112   316.6448
 2102.5000     0.4106   321.1433
 2103.0000     0.4101   334.5285
 2103.5000     0.4096   353.9017
 2104.0000     0.4194   372.4639
 2104.5000     0.4189   388.8112
 2105.0000     0.4287   400.6252
 2105.5000     0.4282   403.3866
 2106.0000     0.4265   403.4002
 2106.5000     0.4139   403.4138
 2107.0000     0.3886   403.4275
 2107.5000     0.3518   403.4411
 2108.0000     0.3477   403.4547
 2108.5000     0.3739   403.4683
 2109.0000     0.4129   403.4819
 2109.5000     0.4443   403.4955
 2110.0000     0.4685   403.5091
 2110.5000     0.4590   403.5227
 2111.0000     0.4159   403.5364
 2111.5000     0.3728   403.5500
 2112.0000     0.3297   403.5636
 2112.5000     0.3073   403.5772
 2113.0000     0.3068   403.5908
 2113.5000     0.3063   403.6044
 2114.0000     0.3058   403.6180
 2114.5000     0.2797   403.6317
 2115.0000     0.2366   403.6453
 2115.5000     0.2146   403.6589
 2116.0000     0.2181   403.6725
 2116.5000     0.2511   403.6861
 2117.0000     0.2773   403.6997
 2117.5000     0.3021   403.7133
 2118.0000     0.2912   403.7270
 2118.5000     0.3011   403.7406
 2119.0000     0.3109   403.7542
 2119.5000     0.3104   403.7678
 2120.0000     0.3099   403.7814
 2120.5000     0.3094   403.7950
 2121.0000     0.3089   403.8086
 2121.5000     0.3191   403.8222
 2122.0000     0.3292   403.8358
 2122.5000     0.3435   403.8495
 2123.0000     0.3989   403.8631
 2123.5000     0.4712   403.8767
 2124.0000     0.5228   403.8903
 2124.5000     0.5119   403.9039
 2125.0000     0.5114   403.9175
 2125.5000     0.5088   403.9312
 2126.0000     0.5000   403.9448
 2126.5000     0.5204   403.9584
 2127.0000     0.5590   403.9720
 2127.5000     0.6087   403.9856
 2128.0000     0.6535   403.9992
 2128.5000     0.6350   404.0128
 2129.0000     0.5646   404.0265
 2129.5000     0.5162   404.0401
 2130.0000     0.4731   404.0537
 2130.5000     0.4360   404.0673
 2131.0000     0.4162   404.0809
 2131.5000     0.4117   404.0945
 2132.0000     0.4112   404.1081
 2132.5000     0.4106   404.1217
 2133.0000     0.4101   404.1353
 2133.5000     0.4096   404.1490
 2134.0000     0.4091   404.1626
 2134.5000     0.4085   404.1762
 2135.0000     0.3873   404.1898
 2135.5000     0.3248   404.2034
 2136.0000     0.2625   404.2170
 2136.5000     0.3317   404.2307
 2137.0000     0.3738   404.2443
 2137.5000     0.4106   404.2579
 2138.0000     0.4285   404.2715
 2138.5000     0.4354   404.2851
 2139.0000     0.4279   404.2987
 2139.5000     0.4023   404.3123
 2140.0000     0.3967   404.3260
 2140.5000     0.4709   404.3396
 2141.0000     0.5738   404.3532
 2141.5000     0.6690   404.3668
 2142.0000     0.7022   404.3804
 2142.5000     0.6166   404.3940
 2143.0000     0.5309   404.4076
 2143.5000     0.4499   404.4212
 2144.0000     0.3798   404.4348
 2144.5000     0.3164   404.4485
 2145.0000     0.3194   404.4621
 2145.5000     0.3223   404.4757
 2146.0000     0.3253   404.4893
 2146.5000     0.3282   404.5029
 2147.0000     0.3311   404.5165
 2147.5000     0.3341   404.5302
 2148.0000     0.3370   404.5438
 2148.5000     0.3399   404.5574
 2149.0000     0.3419   404.5710
 2149.5000     0.3414   404.5846
 2150.0000     0.3444   404.6004
 2150.5000     0.3582   404.5985
 2151.0000     0.3790   404.5962
 2151.5000     0.4085   404.5939
 2152.0000     0.4506   404.5916
 2152.5000     0.4926   404.5893
 2153.0000     0.5347   404.5870
 2153.5000     0.5767   404.5847
 2154.0000     0.6008   404.5824
 2154.5000     0.5420   404.5801
 2155.0000     0.4959   404.5778
 2155.5000     0.4387   404.5755
 2156.0000     0.3851   404.5732
 2156.5000     0.3845   404.5709
 2157.0000     0.3839   404.5686
 2157.5000     0.3945   404.5663
 2158.0000     0.4058   404.5640
 2158.5000     0.4234   404.5617
 2159.0000     0.4264   404.5594
 2159.5000     0.4449   404.5571
 2160.0000     0.4549   398.7037
 2160.5000     0.4622   383.2283
 2161.0000     0.4586   370.8973
 2161.5000     0.4440   363.5782
 2162.0000     0.4258   363.5747
 2162.5000     0.4184   363.5713
 2163.0000     0.4136   363.5678
 2163.5000     0.4024   363.5643
 2164.0000     0.3959   363.5609
 2164.5000     0.3952   363.5574
 2165.0000     0.3946   363.5540
 2165.5000     0.3940   363.5505
 2166.0000     0.3934   363.5470
 2166.5000     0.3928   363.5435
 2167.0000     0.3921   363.5401
 2167.5000     0.3983   363.5366
 2168.0000     0.4083   363.5331
 2168.5000     0.4183   363.5297
 2169.0000     0.4437   363.5262
 2169.5000     0.4829   363.5228
 2170.0000     0.5219   363.5193
 2170.5000     0.4631   363.5158
 2171.0000     0.3966   363.5124
 2171.5000     0.3659   363.5089
 2172.0000     0.3653   363.5054
 2172.5000     0.3684   363.5020
 2173.0000     0.3744   363.4985
 2173.5000     0.3738   363.4950
 2174.0000     0.3731   363.4916
 2174.5000     0.3725   363.4881
 2175.0000     0.4081   363.4846
 2175.5000     0.4712   363.4812
 2176.0000     0.4903   363.4777
 2176.5000     0.4474   363.4742
 2177.0000     0.3882   363.4708
 2177.5000     0.3296   363.4673
 2178.0000     0.2545   363.4638
 2178.5000     0.3275   363.4604
 2179.0000     0.3688   363.4569
 2179.5000     0.3974   363.4535
 2180.0000     0.3968   363.4500
 2180.5000     0.4094   363.4465
 2181.0000     0.4282   363.4431
 2181.5000     0.4363   363.4396
 2182.0000     0.4205   363.4361
 2182.5000     0.3986   363.4326
 2183.0000     0.3738   363.4292
 2183.5000     0.3510   363.4257
 2184.0000     0.3540   363.4223
 2184.5000     0.3793   363.4188
 2185.0000     0.4318   363.4153
 2185.5000     0.4755   363.4119
 2186.0000     0.4973   363.4084
 2186.5000     0.5073   363.4049
 2187.0000     0.5120   363.4015
 2187.5000     0.5114   363.3980
 2188.0000     0.5049   363.3945
 2188.5000     0.4874   363.3911
 2189.0000     0.4591   363.3876
 2189.5000     0.4266   363.3842
 2190.0000     0.3729   363.3807
 2190.5000     0.3674   363.3772
 2191.0000     0.3804   363.3737
 2191.5000     0.3824   363.3703
 2192.0000     0.3817   363.3668
 2192.5000     0.3708   363.3633
