~VERSION INFORMATION
 VERS.                2.0:   CWLS LOG ASCII STANDARD - VERSION 2.0
 WRAP.                 NO:   ONE LINE PER DEPTH STEP
~WELL INFORMATION
#MNEM.UNIT      DATA TYPE    INFORMATION
#----------   ------------   ------------------------------
 STRT.F           30.0000:   START DEPTH
 STOP.F         3375.5000:   STOP DEPTH
 STEP.F            0.5000:   STEP LENGTH
 NULL.          -999.2500:   NO VALUE
 COMP.       INTEX OIL CO:   COMPANY
 WELL.   NPR ##3 57-SX-34:   WELL
 FLD .             TEAPOT:   FIELD
 LOC .      S34 T39N R78W:   LOCATION
 CNTY.            NATRONA:   COUNTY
 STAT.            WYOMING:   STATE
 CTRY. UNITED STATES OF AMERICA:   COUNTRY
 SRVC.       Schlumberger:   SERVICE COMPANY
 DATE.        12-AUG-1967:   LOGDATE
 API .       490251023200:   API NUMBER
~CURVE INFORMATION
#MNEM.UNIT       API CODE    CURVE DESCRIPTION
#----------   ------------   ------------------------------
 DEPT.F                  :   
 SPR .MV     07 010 01 00:   SPONTANEOUS POTENTIAL
 ILD .OHMM   07 120 46 00:   INDUCTION LOG DEEP
 ASN .OHMM   05 041 16 00:   AMPLIFIED SHORT NORMAL 16"
 CILD.MMHO   07 110 46 00:   CONDUCTIVITY INDUCTION LOG DEEP
 LL8 .OHMM   07 220 08 00:   LATEROLOG-8 RES.
 ILM .OHMM   07 120 44 00:   INDUCTION LOG MEDIUM
 CALD.IN     45 280 60 00:   CALIPER
 GRD .GAPI   45 310 01 00:   GAMMA RAY FROM DENSITY LOG
 RHOB.G/C3   45 350 01 00:   BULK DENSITY
 DPHI.DEC    45 890 12 00:   DENSITY POROSITY SANDSTONE
 CORR.G/C3   45 356 01 00:   DENSITY CORRECTION
~PARAMETER INFORMATION
#MNEM.UNIT          VALUE    DESCRIPTION
#----------   ------------   ------------------------------
 PD  .                 GL:   PERMANENT DATUM
 EPD .F              5084:   ELEVATION PERMANENT DATUM
 LMF .                 KB:   LOG MEASURED FROM
 DAPD.F                12:   FEET ABOVE PERMANENT DATUM
 DMF .                 KB:   DRILLING MEASURED FROM
 EKB .F              5096:   KELLING BUSHING
 EGL .F              5084:   GROUND LEVEL
 DATE.            8-12-67:   RUN DATE
 RUN .                  2:   RUN NUMBER
 DD  .F              3380:   DEPTH DRILLER
 DL  .F              3371:   DEPTH LOGGER
 BLI .F              3368:   BOTTOM LOG INTERVAL
 TLI .F               630:   TOP LOG INTERVAL
 CS  .IN            10.75:   CASING SIZE
 CBD .F               643:   CASING BOTTOM DRILLER
 BS  .IN            9.875:   BIT SIZE
 BSD .F              3380:   BIT SIZE AT DEPTH
 DFT .               CHEM:   DRILLING FLUID TYPE
 DFD .                9.4:   DRILLING FLUID DENSITY
 DFV .                 48:   DRILLING FLUID VISCOSITY
 DFPH.                8.5:   DRILLING FLUID PH
 DFL .                3.6:   DRILLING FLUID LOSS
 MSS .          FLOW LINE:   MUD SAMPLE SOURCE
 RMS .OHMM           2.81:   RESISTIVITY MUD SAMPLE
 MST .F                88:   MUD SAMPLE TEMPERATURE
 RMF .OHMM            1.7:   RESISTIVITY MUD FILTRATE SAMPLE
 MFST.F                86:   MUD FILTRATE SAMPLE TEMPERATURE
 MFSS.                  M:   MUD FILTRATE SAMPLE SOURCE
 RMB .OHMM           2.03:   RESISTIVITY MUD AT BHT
 BHT .F               122:   BOTTOM HOLE TEMPERATURE
 TCS .HRS             2.5:   TIME CURCULATED STOPPED
 MRT .F               122:   MAXIMUM RECORDED TEMPERATURE
 LUN .               7030:   LOGGING UNIT NUMBER
 LUL .               CSPR:   LOGGING UNIT LOCATION
 ENGI.             SCHODE:   RECORDING ENGINEER
 WITN.                MAY:   WITNESSED BY
 CLNT.            A2DTECH:   CLIENT CODE
 ORIG.   1" 2.5" 5" PRINT:   ORIGIN OF DATA
 UWI .       490251023200:   UNIQUE WELL ID
 DICO. A2D Technologies, Inc.:   DIGITIZING COMPANY
~OTHER INFORMATION
~A   DEPT      SPR        ILD        ASN       CILD        LL8        ILM       CALD         GRD      RHOB       DPHI       CORR   
# ...
 1860.0000   -32.5114     6.4987  -999.2500  -999.2500     7.6535     6.3428    12.0898    91.0381     2.5721     0.0437     0.1357
 1860.5000   -32.5862     6.5550  -999.2500  -999.2500     7.7814     6.7444    12.0696    90.1932     2.5562     0.0519     0.1191
 1861.0000   -32.6568     6.6342  -999.2500  -999.2500     7.8971     6.7350    12.0580    89.3503     2.5395     0.0634     0.1042
 1861.5000   -32.7330     6.7144  -999.2500  -999.2500     8.0035     6.8598    12.0359    90.7136     2.5352     0.0713     0.0969
 1862.0000   -32.7375     6.7959  -999.2500  -999.2500     8.1054     6.9328    12.0193    93.2345     2.5547     0.0523     0.1078
 1862.5000   -32.7393     6.8786  -999.2500  -999.2500     8.2209     6.9881    12.0015    95.9042     2.5410     0.0752     0.1155
 1863.0000   -32.7377     6.9865  -999.2500  -999.2500     8.3709     7.0438    11.9832    96.0689     2.5330     0.0720     0.1118
 1863.5000   -32.7383     6.9762  -999.2500  -999.2500     8.3591     7.1000    11.9643    95.0601     2.5452     0.0657     0.0976
 1864.0000   -32.7382     6.9602  -999.2500  -999.2500     8.3420     7.1566    11.9480    94.1837     2.5475     0.0561     0.0835
 1864.5000   -32.7381     6.9443  -999.2500  -999.2500     8.3249     7.2435    11.9274    94.7757     2.5517     0.0611     0.0691
 1865.0000   -32.7382     6.9284  -999.2500  -999.2500     8.3079     7.2304    11.9089    95.4544     2.5326     0.0815     0.0551
 1865.5000   -32.7381     6.9124  -999.2500  -999.2500     8.2909     7.2033    11.8741    92.4831     2.5237     0.0793     0.0403
 1866.0000   -32.7381     6.8972  -999.2500  -999.2500     8.2739     7.1763    11.8850    91.6513     2.5368     0.0711     0.0285
 1866.5000   -32.7381     6.8817  -999.2500  -999.2500     8.2570     7.1495    11.8906    91.6697     2.5504     0.0587     0.0251
 1867.0000   -32.7381     6.8610  -999.2500  -999.2500     8.2402     7.1137    11.8984    91.5914     2.5303     0.0713     0.0415
 1867.5000   -32.7381     6.9066  -999.2500  -999.2500     8.2209     7.1585    11.9063    92.5636     2.5375     0.0687     0.0513
 1868.0000   -32.7381     6.9761  -999.2500  -999.2500     8.2209     7.2267    11.9135    94.8235     2.5550     0.0589     0.0309
 1868.5000   -32.7381     7.0462  -999.2500  -999.2500     8.2209     7.2955    11.9212    95.1061     2.5619     0.0508     0.0398
 1869.0000   -32.7381     7.1171  -999.2500  -999.2500     8.3571     7.3650    11.9287    93.5979     2.5442     0.0587     0.0615
 1869.5000   -32.7381     7.1887  -999.2500  -999.2500     8.5200     7.4352    11.9361    92.5399     2.5296     0.0679     0.0612
 1870.0000   -32.7380     7.2619  -999.2500  -999.2500     8.6860     7.5060    11.9438    92.6438     2.5138     0.0768     0.0524
 1870.5000   -32.7380     7.3352  -999.2500  -999.2500     8.8552     7.5774    11.9512    96.8803     2.5314     0.0748     0.0433
 1871.0000   -32.7381     7.3770  -999.2500  -999.2500     9.1153     7.6473    11.9565    99.6414     2.5283     0.0716     0.0351
 1871.5000   -32.7376     7.3599  -999.2500  -999.2500     9.0825     7.5590    11.9488    96.9536     2.5223     0.0729     0.0352
 1872.0000   -32.7385     7.2862  -999.2500  -999.2500     8.7386     7.4743    11.9403    94.2929     2.5327     0.0768     0.0376
 1872.5000   -32.7391     7.2133  -999.2500  -999.2500     8.2209     7.3907    11.9314    91.7163     2.5537     0.0602     0.0511
 1873.0000   -32.7826     7.1411  -999.2500  -999.2500     8.2830     7.3080    11.9211    88.6381     2.5714     0.0440     0.0634
 1873.5000   -32.8378     7.0695  -999.2500  -999.2500     8.4335     7.2262    11.9266    89.4215     2.5978     0.0248     0.0785
 1874.0000   -32.8932     6.9997  -999.2500  -999.2500     8.5254     7.1453    11.9526    91.6892     2.5865     0.0248     0.0893
 1874.5000   -32.9479     6.9300  -999.2500  -999.2500     8.3878     7.0653    11.9765    93.9421     2.5370     0.0599     0.0997
 1875.0000   -33.0028     6.8610  -999.2500  -999.2500     8.0690     6.9862    12.0009    95.5443     2.5133     0.0807     0.0355
 1875.5000   -33.0583     6.9424  -999.2500  -999.2500     8.0761     7.1358    12.0258    96.1621     2.5206     0.0799     0.0457
 1876.0000   -33.1125     7.0805  -999.2500  -999.2500     8.2647     7.2886    12.0491    96.4577     2.5622     0.0535     0.0874
 1876.5000   -33.1348     7.2213  -999.2500  -999.2500     8.4261     7.4447    12.0750    96.9860     2.5753     0.0453     0.1333
 1877.0000   -33.0172     7.3650  -999.2500  -999.2500     8.7635     7.6041    12.0580    96.8302     2.5471     0.0839     0.1220
 1877.5000   -32.8633     7.5100  -999.2500  -999.2500     9.4017     7.7670    12.0232    95.9993     2.5198     0.0798     0.1058
 1878.0000   -32.7107     7.6592  -999.2500  -999.2500    10.3996     7.9333    11.9914    95.1749     2.5349     0.0727     0.0878
 1878.5000   -32.5610     7.7851  -999.2500  -999.2500    10.2660     8.0736    11.9590    94.3954     2.5303     0.0705     0.0706
 1879.0000   -32.4023     7.6287  -999.2500  -999.2500     9.6231     7.8979    11.9570    94.1754     2.4864     0.0949     0.0540
 1879.5000   -32.3359     7.4980  -999.2500  -999.2500     8.9082     7.7511    11.9562    94.6603     2.5017     0.0888     0.0362
 1880.0000   -32.3423     7.3698  -999.2500  -999.2500     8.2209     7.6071    11.9569    93.6941     2.5257     0.0812     0.0354
 1880.5000   -32.3385     7.2437  -999.2500  -999.2500     8.2624     7.4657    11.9566    92.8032     2.5515     0.0587     0.0511
 1881.0000   -32.3739     7.1196  -999.2500  -999.2500     8.3709     7.3269    11.9563    92.9359     2.5415     0.0667     0.0667
 1881.5000   -32.4759     6.9974  -999.2500  -999.2500     8.3021     7.1907    11.9604    94.0762     2.5159     0.0862     0.0864
 1882.0000   -32.5731     6.8772  -999.2500  -999.2500     8.2209     7.0571    11.9734    95.1849     2.5254     0.0736     0.0569
 1882.5000   -32.6723     6.7592  -999.2500  -999.2500     8.2911     6.9259    11.9857    96.2000     2.5145     0.0789     0.0554
 1883.0000   -32.7714     6.6431  -999.2500  -999.2500     8.3709     6.7380    11.9995    97.1012     2.5038     0.0854     0.0577
 1883.5000   -32.8703     6.5291  -999.2500  -999.2500     7.6473     6.8610    12.0121    95.9359     2.5055     0.0873     0.0705
 1884.0000   -32.9694     6.4987  -999.2500  -999.2500     7.7328     6.8293    12.0241    94.7718     2.4843     0.0997     0.0847
 1884.5000   -33.0676     6.4987  -999.2500  -999.2500     7.9984     6.8014    12.0687    93.6094     2.4678     0.1083     0.1016
 1885.0000   -33.1684     6.4955  -999.2500  -999.2500     8.2731     6.7736    12.1049    92.6044     2.4586     0.1114     0.1455
 1885.5000   -33.2648     6.5013  -999.2500  -999.2500     8.4963     6.7459    12.3130    93.9155     2.4339     0.1229     0.2008
 1886.0000   -33.3633     6.4948  -999.2500  -999.2500     7.3973     6.8107    12.9622    95.2755     2.4056     0.1452     0.2138
 1886.5000   -33.4759     6.6681  -999.2500  -999.2500     6.8831     6.9137    13.3734    96.6304     2.3606     0.1650     0.1859
 1887.0000   -33.4722     6.7621  -999.2500  -999.2500     7.9580     7.0183    13.1730    97.8590     2.3747     0.1396     0.1480
 1887.5000   -33.2406     6.8570  -999.2500  -999.2500     9.6941     7.1244    12.8739    96.3561     2.4352     0.1217     0.1389
 1888.0000   -33.0282     6.9533  -999.2500  -999.2500     9.3968     7.2321    12.4660    94.8135     2.4687     0.1287     0.1423
 1888.5000   -32.8082     7.0513  -999.2500  -999.2500     9.0379     7.3415    13.1827    93.1891     2.4821     0.0909     0.1678
 1889.0000   -32.7065     7.1510  -999.2500  -999.2500     8.5237     7.4525    13.0316    91.5043     2.4539     0.1158     0.2086
 1889.5000   -32.6657     7.2439  -999.2500  -999.2500     8.5772     7.5652    12.5288    90.7949     2.4328     0.1366     0.2006
 1890.0000   -32.6226     7.2765  -999.2500  -999.2500     8.6882     7.6376    12.2740    91.7861     2.4570     0.1185     0.1797
