~VERSION INFORMATION
 VERS.                2.0:   CWLS LOG ASCII STANDARD - VERSION 2.0
 WRAP.                 NO:   ONE LINE PER DEPTH STEP
~WELL INFORMATION
#MNEM.UNIT      DATA TYPE    INFORMATION
#----------   ------------   ------------------------------
 STRT.F            4.0000:   START DEPTH
 STOP.F          544.0000:   STOP DEPTH
 STEP.F            0.5000:   STEP LENGTH
 NULL.          -999.2500:   NO VALUE
 COMP. LAWRENCE/ALLISON INC:   COMPANY
 WELL.    72-15 SX #10-10:   WELL
 FLD .             NPR #3:   FIELD
 LOC .      S10 T38N R78W:   LOCATION
 CNTY.            NATRONA:   COUNTY
 STAT.            WYOMING:   STATE
 CTRY. UNITED STATES OF AMERICA:   COUNTRY
 SRVC.           Gearhart:   SERVICE COMPANY
 DATE.        09-JUN-1986:   LOGDATE
 API .       490251107600:   API NUMBER
~CURVE INFORMATION
#MNEM.UNIT       API CODE    CURVE DESCRIPTION
#----------   ------------   ------------------------------
 DEPT.F                  :   
 ILD .OHMM   07 120 46 00:   INDUCTION LOG DEEP
 ILM .OHMM   07 120 44 00:   INDUCTION LOG MEDIUM
 GRR .GAPI   07 310 01 00:   GAMMA RAY FROM RES. LOG.
~PARAMETER INFORMATION
#MNEM.UNIT          VALUE    DESCRIPTION
#----------   ------------   ------------------------------
 PD  .                 GL:   PERMANENT DATUM
 EPD .F              5172:   ELEVATION PERMANENT DATUM
 LMF .                 KB:   LOG MEASURED FROM
 DMF .                 KB:   DRILLING MEASURED FROM
 EGL .F              5172:   GROUND LEVEL
 DATE.             6-9-86:   RUN DATE
 RUN .                  1:   RUN NUMBER
 DD  .F               530:   DEPTH DRILLER
 DL  .F               552:   DEPTH LOGGER
 BLI .F               543:   BOTTOM LOG INTERVAL
 TLI .F                42:   TOP LOG INTERVAL
 CS  .IN            8.625:   CASING SIZE
 CBD .F                42:   CASING BOTTOM DRILLER
 CBL .F                42:   CASING BOTTOM LOGGER
 BS  .IN            7.875:   BIT SIZE
 BSD .F               530:   BIT SIZE AT DEPTH
 DFT .               FOAM:   DRILLING FLUID TYPE
 MSS .               TANK:   MUD SAMPLE SOURCE
 RMB .OHMM            .26:   RESISTIVITY MUD AT BHT
 BHT .F                70:   BOTTOM HOLE TEMPERATURE
 TCS .HRS            0200:   TIME CURCULATED STOPPED
 TLAB.HRS            0327:   TIME LOGGER AT BOTTOM
 MRT .F                70:   MAXIMUM RECORDED TEMPERATURE
 LUN .               7609:   LOGGING UNIT NUMBER
 LUL .           GILLETTE:   LOGGING UNIT LOCATION
 ENGI.         WEATHERMON:   RECORDING ENGINEER
 WITN.              FIVAS:   WITNESSED BY
 CLNT.            A2DTECH:   CLIENT CODE
 ORIG.       2", 5" PRINT:   ORIGIN OF DATA
 UWI .       490251107600:   UNIQUE WELL ID
 DICO. A2D Technologies, Inc.:   DIGITIZING COMPANY
~OTHER INFORMATION
~A    DEPT     ILD        ILM         GRR  
# ...
  459.0000    10.3430     9.4112   115.9629
  459.5000    10.6715     9.6092   117.7901
  460.0000    10.9561     9.9925   117.8369
  460.5000    11.3293    10.4070   116.7857
  461.0000    11.7152    10.8372   115.6694
  461.5000    11.8922    11.2851   113.8013
  462.0000    12.0123    11.4723   110.6437
  462.5000    12.1336    11.7983   107.4392
  463.0000    12.1336    11.7983   107.7642
  463.5000    12.1340    11.7987   110.5267
  464.0000    12.1323    11.7982   113.3518
  464.5000    12.1389    11.7673   115.3832
  465.0000    11.9947    11.7160   115.0040
  465.5000    11.9323    11.6652   115.4485
  466.0000    11.8703    11.6147   116.1164
  466.5000    11.8086    11.5644   115.4994
  467.0000    11.7472    11.5142   111.8389
  467.5000    11.6862    11.4644   108.3073
  468.0000    11.6259    11.4147   107.9713
  468.5000    11.5800    11.3652   111.6598
  469.0000    11.4855    11.3160   114.6925
  469.5000    11.3699    11.2670   115.3531
  470.0000    11.4764    11.1220   113.0478
  470.5000    11.2109    10.9153   110.8395
  471.0000    11.0073    10.7125   110.5567
  471.5000    10.8086    10.5134   110.4948
  472.0000    10.6062    10.3088   109.1725
  472.5000    10.0809     9.9976   106.2173
  473.0000     9.3551     9.4349   104.9891
  473.5000     8.5880     8.9039   105.5866
  474.0000     7.3974     8.4028   106.1164
  474.5000     6.4490     7.4273   104.6218
  475.0000     5.6222     6.4288   105.2199
  475.5000     4.9014     5.5792   106.5778
  476.0000     4.2730     4.7665   105.9829
  476.5000     3.7993     4.1074   105.0933
  477.0000     3.4746     3.7901   109.1485
  477.5000     3.2205     3.4974   112.6243
  478.0000     3.1906     3.2272   111.8133
  478.5000     3.2205     2.9608   109.3969
  479.0000     3.3762     2.9333   107.0667
  479.5000     3.5541     3.1969   106.6697
  480.0000     3.9712     3.4125   106.4772
  480.5000     4.5356     3.8566   105.1972
  481.0000     5.1787     4.4500   104.3531
  481.5000     5.9129     5.1331   106.5796
  482.0000     6.7545     5.9211   108.7791
  482.5000     7.7463     6.7080   109.0022
  483.0000     8.1322     7.3699   108.3812
  483.5000     8.5493     7.9770   109.1527
  484.0000     8.9373     8.2371   110.3051
  484.5000     9.0693     8.5229   111.4866
  485.0000     9.2031     8.6433   113.3478
  485.5000     9.3407     8.7155   115.3862
  486.0000     9.3270     8.7882   117.4821
  486.5000     9.3114     8.8377   117.5475
  487.0000     9.2962     8.8701   117.0423
  487.5000     9.2812     8.9021   116.5306
  488.0000     9.2662     8.9343   116.3070
  488.5000     9.2541     8.9669   118.1519
  489.0000     9.2544     8.9984   120.6787
  489.5000     9.2543     8.9494   121.1235
  490.0000     9.2543     8.9004   119.8230
  490.5000     9.2546     8.8520   117.4747
  491.0000     9.2565     8.8039   116.6548
  491.5000     9.1646     8.7560   115.2104
  492.0000     9.0825     8.7084   112.8842
  492.5000     9.0918     8.6610   113.4829
  493.0000     9.1021     8.6139   116.4546
  493.5000     9.1125     8.5880   119.4593
  494.0000     9.1230     8.6548   119.5960
  494.5000     9.1334     8.7013   119.2581
  495.0000     9.1439     8.7480   118.9139
  495.5000     9.1543     8.7950   118.5778
  496.0000     9.1649     8.8423   118.1487
  496.5000     9.1689     8.8905   117.7950
  497.0000     9.1378     8.9146   120.1119
  497.5000     9.1142     8.8306   122.7205
  498.0000     9.0905     8.7735   125.3336
  498.5000     9.0037     8.7171   127.4551
  499.0000     8.8428     8.6616   125.7540
  499.5000     8.6848     8.6027   121.0406
  500.0000     8.5154     8.3831   116.1949
  500.5000     8.2159     8.0911   115.5586
  501.0000     7.9270     7.8120   116.7596
  501.5000     7.6773     7.5425   118.1255
  502.0000     7.6773     7.2823   119.5110
  502.5000     7.6773     7.0552   121.4064
  503.0000     7.6773     7.1013   123.5658
  503.5000     7.6773     7.1497   125.7153
  504.0000     7.9603     7.2589   127.6014
  504.5000     8.2819     7.5566   123.6693
  505.0000     8.6164     7.8955   119.2357
  505.5000     8.9636     8.2495   117.8264
  506.0000     9.3297     8.6199   117.4152
  506.5000     9.6171     9.0074   118.3028
  507.0000     9.8873     9.4101   118.4566
  507.5000    10.1632     9.6066   117.2998
  508.0000    10.3740     9.7599   117.5088
  508.5000    10.4404     9.9274   119.7733
  509.0000    10.5072     9.9902   122.2494
  509.5000    10.5745    10.0237   123.9922
  510.0000    10.6422    10.0572   122.5659
  510.5000    10.7103    10.0909   120.7178
  511.0000    10.7789    10.1247   119.5237
  511.5000    10.8479    10.1604   119.6965
  512.0000    10.9173    10.2464   119.5445
  512.5000    10.9488    10.3383   118.3051
  513.0000    10.9489    10.4309   118.2542
  513.5000    10.9489    10.5473   117.7870
  514.0000    10.9491    10.4960   116.5683
  514.5000    10.9478    10.4043   113.9227
  515.0000    10.7801    10.3134   113.0790
  515.5000    10.5616    10.2558   113.4999
  516.0000    10.3476    10.0771   114.1498
  516.5000    10.2017     9.9689   113.4948
  517.0000    10.1067     9.8797   115.0488
  517.5000    10.0596     9.7625   117.1938
  518.0000    10.0484     9.6942   119.3653
  518.5000    10.0372     9.6264   119.8865
  519.0000    10.0260     9.5590   118.7329
  519.5000    10.0148     9.5139   119.5600
  520.0000    10.0037     9.4945   121.1218
  520.5000     9.9926     9.4753   121.3745
  521.0000     9.9813     9.4560   115.5668
  521.5000     9.9736     9.4368   110.3213
  522.0000    10.0198     9.4288   108.2600
  522.5000    10.0596     9.5999   107.2416
  523.0000    10.0997     9.7762   106.4584
  523.5000    10.1400     9.9558   105.6952
  524.0000    10.1805    10.0660   105.6095
  524.5000    10.2211    10.0660   108.2534
  525.0000    10.2619    10.0660   111.4813
  525.5000    10.3028    10.0402   114.7215
  526.0000    10.3518     9.9764   117.9484
  526.5000    10.3195     9.9129   120.6199
  527.0000    10.2795     9.8498   122.4204
  527.5000    10.2394     9.7878   123.3904
  528.0000    10.1996     9.8263   122.3989
  528.5000    10.1604     9.8740  -999.2500
  529.0000    10.2296     9.9219  -999.2500
  529.5000    10.2982     9.9700  -999.2500
  530.0000    10.3673    10.0184  -999.2500
  530.5000    10.4368    10.0658  -999.2500
  531.0000    10.5068    10.0735  -999.2500
  531.5000    10.5773    10.0822  -999.2500
  532.0000    10.6462    10.0911  -999.2500
  532.5000    10.6462    10.1000  -999.2500
  533.0000    10.6462    10.1089  -999.2500
  533.5000    10.6462    10.1179  -999.2500
  534.0000    10.6462    10.1268  -999.2500
  534.5000    10.6462    10.1357  -999.2500
  535.0000    10.6462    10.1447  -999.2500
  535.5000    10.6462    10.1536  -999.2500
  536.0000    10.6462    10.1656  -999.2500
  536.5000    10.6462    10.1887  -999.2500
  537.0000    10.6462    10.2114  -999.2500
  537.5000    10.6441    10.2341  -999.2500
  538.0000    10.6872    10.2570  -999.2500
  538.5000    10.7785    10.2799  -999.2500
  539.0000    10.8470    10.3028  -999.2500
  539.5000  -999.2500    10.3258  -999.2500
  540.0000  -999.2500    10.3488  -999.2500
  540.5000  -999.2500    10.5136  -999.2500
  541.0000  -999.2500    10.7045  -999.2500
  541.5000  -999.2500    10.8470  -999.2500
  542.0000  -999.2500    10.8809  -999.2500
  542.5000  -999.2500    10.9128  -999.2500
  543.0000  -999.2500    10.9448  -999.2500
  543.5000  -999.2500    10.9488  -999.2500
  544.0000  -999.2500    10.9488  -999.2500
