~VERSION INFORMATION
 VERS.                2.0:   CWLS LOG ASCII STANDARD - VERSION 2.0
 WRAP.                 NO:   ONE LINE PER DEPTH STEP
~WELL INFORMATION
#MNEM.UNIT      DATA TYPE    INFORMATION
#----------   ------------   ------------------------------
 STRT.F           16.0000:   START DEPTH
 STOP.F         1334.0000:   STOP DEPTH
 STEP.F            0.5000:   STEP LENGTH
 NULL.          -999.2500:   NO VALUE
 COMP. U S NAVY/INTEX OIL CO:   COMPANY
 WELL.  S-11 NPR 3 #87-11:   WELL
 FLD .             TEAPOT:   FIELD
 LOC .      S11 T38N R78W:   LOCATION
 CNTY.            NATRONA:   COUNTY
 STAT.            WYOMING:   STATE
 CTRY. UNITED STATES OF AMERICA:   COUNTRY
 SRVC.       Schlumberger:   SERVICE COMPANY
 DATE.        17-JUN-1966:   LOGDATE
 API .       490250958900:   API NUMBER
~CURVE INFORMATION
#MNEM.UNIT       API CODE    CURVE DESCRIPTION
#----------   ------------   ------------------------------
 DEPT.F                  :   
 GRD .GAPI   45 310 01 00:   GAMMA RAY FROM DENSITY LOG
 CALD.IN     45 280 60 00:   CALIPER
 RHOB.G/C3   45 350 01 00:   BULK DENSITY
 DPOR.DEC    45 890 12 00:   DENSITY POROSITY SANDSTONE
 DRHO.G/C3   45 356 01 00:   DENSITY CORRECTION
 ASN .OHMM   05 041 16 00:   AMPLIFIED SHORT NORMAL 16"
 ILD .OHMM   05 120 46 00:   INDUCTION LOG DEEP
 CILD.MMHO   05 110 46 00:   CONDUCTIVITY INDUCTION LOG DEEP
 SPR .MV     05 010 01 00:   SPONTANEOUS POTENTIAL FROM RES.
~PARAMETER INFORMATION
#MNEM.UNIT          VALUE    DESCRIPTION
#----------   ------------   ------------------------------
 PD  .                 GL:   PERMANENT DATUM
 EPD .F              5284:   ELEVATION PERMANENT DATUM
 LMF .                 KB:   LOG MEASURED FROM
 DAPD.F                 5:   FEET ABOVE PERMANENT DATUM
 DMF .                 KB:   DRILLING MEASURED FROM
 EKB .F              5289:   KELLING BUSHING
 EGL .F              5284:   GROUND LEVEL
 DATE.          8-17-1966:   RUN DATE
 RUN .                  1:   RUN NUMBER
 DD  .F              1335:   DEPTH DRILLER
 DL  .F              1335:   DEPTH LOGGER
 BLI .F              1334:   BOTTOM LOG INTERVAL
 TLI .F                50:   TOP LOG INTERVAL
 CS  .IN            8.625:   CASING SIZE
 CBD .F                10:   CASING BOTTOM DRILLER
 BS  .IN            7.875:   BIT SIZE
 BSD .F              1335:   BIT SIZE AT DEPTH
 DFT .           GEL-CHEM:   DRILLING FLUID TYPE
 DFD .                9.3:   DRILLING FLUID DENSITY
 DFV .                 50:   DRILLING FLUID VISCOSITY
 MSS .          FLOW LINE:   MUD SAMPLE SOURCE
 RMS .OHMM           1.38:   RESISTIVITY MUD SAMPLE
 MST .F                80:   MUD SAMPLE TEMPERATURE
 RMF .OHMM           1.09:   RESISTIVITY MUD FILTRATE SAMPLE
 MFST.F                77:   MUD FILTRATE SAMPLE TEMPERATURE
 MFSS.                  M:   MUD FILTRATE SAMPLE SOURCE
 RMB .OHMM           1.70:   RESISTIVITY MUD AT BHT
 BHT .F               108:   BOTTOM HOLE TEMPERATURE
 TCS .HRS               1:   TIME CURCULATED STOPPED
 MRT .F               108:   MAXIMUM RECORDED TEMPERATURE
 LUN .               4507:   LOGGING UNIT NUMBER
 LUL .               CSPR:   LOGGING UNIT LOCATION
 ENGI.            MANGOLD:   RECORDING ENGINEER
 WITN.                MAY:   WITNESSED BY
 CLNT.            A2DTECH:   CLIENT CODE
 ORIG.       2", 5" PRINT:   ORIGIN OF DATA
 UWI .       490250958900:   UNIQUE WELL ID
 DICO. A2D Technologies, Inc.:   DIGITIZING COMPANY
~OTHER INFORMATION
~A   DEPT       GRD      CALD       RHOB       DPOR       DRHO        ASN        ILD       CILD        SPR   
# ...
   89.0000   102.3761     7.9798     2.4291     0.1339     0.0309     5.4853     4.9615   195.5223   -62.3773
   89.5000   102.1707     7.9762     2.4103     0.1494     0.0357     5.5167     4.9534   196.4703   -62.1714
   90.0000   101.6708     7.9725     2.4226     0.1418     0.0409     5.5252     4.9453   197.4219   -61.9660
   90.5000   103.6831     7.9689     2.4418     0.1288     0.0263     5.5332     4.9372   198.3723   -61.7582
   91.0000   106.1867     7.9652     2.4611     0.1220     0.0195     5.5415     4.9291   199.3219   -61.6951
   91.5000   108.2672     7.9616     2.4747     0.1179     0.0445     5.5503     4.9210   200.2714   -61.7108
   92.0000   102.7879     7.9580     2.4563     0.1245     0.0577     5.5331     4.9129   201.2210   -61.7280
   92.5000    97.1058     7.9543     2.4382     0.1301     0.0409     5.5115     4.9048   202.1705   -61.7453
   93.0000    95.9880     7.9507     2.4323     0.1319     0.0262     5.4897     4.8967   203.0784   -61.7624
   93.5000    95.5892     7.9470     2.4510     0.1262     0.0289     5.4681     4.8886   202.3767   -61.7796
   94.0000    95.1856     7.9434     2.4393     0.1319     0.0325     5.4518     4.8804   201.5459   -61.7967
   94.5000    95.6905     7.9397     2.4280     0.1374     0.0305     5.4707     4.8724   201.0923   -61.8139
   95.0000    96.5247     7.9361     2.4182     0.1419     0.0261     5.5130     4.8642   202.2202   -61.8310
   95.5000    96.1731     7.9324     2.4250     0.1396     0.0216     5.5547     4.8561   203.2884   -61.8483
   96.0000    96.3484     7.9288     2.4321     0.1372     0.0169     5.5983     4.8480   204.3566   -61.8659
   96.5000    97.1941     7.9273     2.4400     0.1318     0.0195     5.5482     4.8399   205.4249   -61.8773
   97.0000    98.0356     7.9326     2.4524     0.1253     0.0249     5.4587     4.8318   206.4931   -61.7992
   97.5000    98.8755     7.9377     2.4560     0.1258     0.0303     5.3998     4.8237   207.5626   -61.7214
   98.0000    99.6952     7.9428     2.4398     0.1283     0.0340     5.4413     4.8164   208.6296   -61.6442
   98.5000    99.0135     7.9479     2.4629     0.1218     0.0302     5.4020     4.8162   209.6978   -61.5671
   99.0000    96.6639     7.9530     2.4790     0.1127     0.0373     5.3312     4.8163   209.6003   -61.4899
   99.5000    95.2576     7.9580     2.4974     0.1070     0.0476     5.2580     4.8163   209.0367   -61.4128
  100.0000    99.6793     7.9631     2.4810     0.1138     0.0547     5.3502     4.8163   206.8959   -61.3356
  100.5000   104.0479     7.9682     2.4478     0.1195     0.0358     5.4591     4.8163   204.9418   -61.2584
  101.0000   103.6906     7.9733     2.4611     0.1217     0.0350     5.5683     4.8163   202.9878   -61.1813
  101.5000   101.5362     7.9784     2.4817     0.1144     0.0381     5.6772     4.8160   201.0338   -61.1041
  102.0000   100.0753     7.9835     2.4684     0.1187     0.0413     5.7860     4.8144   199.0797   -61.0270
  102.5000   102.1029     7.9786     2.4623     0.1180     0.0421     5.8961     4.8807   197.1257   -60.9498
  103.0000   104.1939     7.9639     2.4627     0.1184     0.0357     5.9281     4.9532   194.0502   -60.8727
  103.5000   106.2066     7.9491     2.4581     0.1218     0.0297     5.9285     5.0260   189.8028   -60.7955
  104.0000   103.4233     7.9342     2.4530     0.1255     0.0236     5.9272     5.0985   185.5554   -60.7184
  104.5000   100.0459     7.9194     2.4680     0.1181     0.0174     5.9640     5.1710   181.2974   -60.6412
  105.0000    96.6520     7.9077     2.4897     0.1100     0.0215     6.0963     5.2436   177.9616   -60.5641
  105.5000    93.2693     7.9212     2.5115     0.1019     0.0272     6.3107     5.3161   176.9336   -60.4869
  106.0000    90.9518     7.9351     2.5424     0.0932     0.0330     6.5163     5.3897   175.9118   -60.4098
  106.5000    97.2295     7.9489     2.5247     0.1007     0.0371     6.5770     5.3993   174.8874   -60.3326
  107.0000   103.7019     7.9626     2.4895     0.1109     0.0151     5.8734     5.3815   173.8604   -60.2551
  107.5000   106.1845     7.9764     2.4611     0.1205     0.0222     5.6681     5.3631   172.8020   -60.1761
  108.0000   106.8798     7.9898     2.4511     0.1235     0.0286     6.5250     5.3447   174.1419   -60.1089
  108.5000   105.4118     8.0022     2.4481     0.1253     0.0255     6.8498     5.3263   177.9980   -60.3865
  109.0000   104.6080     8.0147     2.4351     0.1330     0.0221     6.5756     5.3080   181.9066   -60.6779
  109.5000   105.6349     8.0272     2.4224     0.1407     0.0187     6.3418     5.2896   184.6784   -60.5397
  110.0000   105.1831     8.0397     2.4128     0.1452     0.0152     6.1663     5.2712   186.8807   -60.2390
  110.5000   103.3527     8.0521     2.4251     0.1402     0.0120     6.0088     5.2529   187.6157   -59.8945
  111.0000   105.4321     8.0646     2.4309     0.1343     0.0180     5.9684     5.2346   188.1112   -59.5485
  111.5000   107.9698     8.0771     2.4230     0.1379     0.0243     5.9321     5.2167   188.7358   -59.1601
  112.0000   107.7169     8.0896     2.4149     0.1415     0.0212     5.8954     5.1924   189.3822   -60.7722
  112.5000   108.0129     8.1022     2.4234     0.1362     0.0177     5.8586     5.1676   190.0285   -63.0719
  113.0000   109.2801     8.1047     2.4366     0.1318     0.0190     5.8217     5.1428   190.6748   -64.3800
  113.5000   107.0007     8.1033     2.4496     0.1273     0.0237     5.7850     5.1180   191.5690   -67.4149
  114.0000   104.3364     8.1017     2.4430     0.1285     0.0284     5.7493     5.0932   193.2208   -60.0541
  114.5000   105.0819     8.1002     2.4349     0.1315     0.0332     5.7196     5.0685   194.8726   -60.6819
  115.0000   106.2542     8.0987     2.4356     0.1305     0.0373     5.6907     5.0437   196.5243   -60.1221
  115.5000   107.3968     8.0972     2.4379     0.1294     0.0322     5.6618     5.0189   198.1761   -59.5300
  116.0000   106.4269     8.0957     2.4340     0.1338     0.0270     5.6328     4.9941   199.8279   -59.7847
  116.5000   104.0426     8.0942     2.4284     0.1382     0.0219     5.5997     4.9693   201.4796   -60.0601
  117.0000   105.8378     8.0927     2.4229     0.1426     0.0167     5.5475     4.9445   203.1314   -60.3322
  117.5000   105.1192     8.0912     2.4224     0.1454     0.0182     5.4962     4.9193   204.7832   -60.6042
  118.0000   102.2939     8.0897     2.4310     0.1355     0.0239     5.4449     4.9223   206.1708   -60.8739
  118.5000   102.5676     8.0882     2.4397     0.1267     0.0296     5.3936     4.9304   206.6663   -61.0494
  119.0000   102.6958     8.0867     2.4350     0.1314     0.0337     5.3424     4.9386   207.1619   -60.7942
  119.5000   101.3399     8.0852     2.4268     0.1390     0.0261     5.3111     4.9467   207.6574   -60.5467
  120.0000    99.9242     8.0837     2.4297     0.1343     0.0309     5.3653     4.9548   207.6526   -60.3016
  120.5000   100.7026     8.0822     2.4398     0.1301     0.0388     5.4292     4.9630   205.7728   -60.1117
  121.0000   102.3219     8.0807     2.4329     0.1342     0.0448     5.4894     4.9711   203.9108   -60.2309
  121.5000   102.5748     8.0792     2.4247     0.1381     0.0387     5.4769     4.9792   202.0854   -60.3452
  122.0000   101.4268     8.0777     2.4228     0.1413     0.0329     5.4616     4.9873   202.3366   -60.4587
  122.5000   103.4705     8.0762     2.4304     0.1345     0.0270     5.4465     4.9954   202.5844   -60.5726
  123.0000   106.4076     8.0747     2.4255     0.1401     0.0211     5.4332     5.0036   202.8322   -60.6886
  123.5000   105.2597     8.0732     2.4273     0.1347     0.0150     5.4580     5.0113   203.0784   -60.7548
  124.0000   103.6103     8.0717     2.4326     0.1323     0.0177     5.4842     5.0502   200.2927   -60.8212
  124.5000   104.1734     8.0702     2.4250     0.1398     0.0234     5.5104     5.1075   197.5235   -60.8863
  125.0000   105.2105     8.0687     2.4328     0.1318     0.0224     5.5461     5.1653   194.7544   -60.7047
