~VERSION INFORMATION
 VERS.                2.0:   CWLS LOG ASCII STANDARD - VERSION 2.0
 WRAP.                 NO:   ONE LINE PER DEPTH STEP
~WELL INFORMATION
#MNEM.UNIT      DATA TYPE    INFORMATION
#----------   ------------   ------------------------------
 STRT.F           70.0000:   START DEPTH
 STOP.F         1236.0000:   STOP DEPTH
 STEP.F            0.5000:   STEP LENGTH
 NULL.          -999.2500:   NO VALUE
 COMP. U S NAVY/INTEX OIL CO:   COMPANY
 WELL. NAVAL PETROLEUM TE ##3 75S-11:   WELL
 FLD .             TEAPOT:   FIELD
 LOC .      S11 T38N R78W:   LOCATION
 CNTY.            NATRONA:   COUNTY
 STAT.            WYOMING:   STATE
 CTRY. UNITED STATES OF AMERICA:   COUNTRY
 SRVC.         Lane Wells:   SERVICE COMPANY
 DATE.        04-MAR-1960:   LOGDATE
 API .       490250633900:   API NUMBER
~CURVE INFORMATION
#MNEM.UNIT       API CODE    CURVE DESCRIPTION
#----------   ------------   ------------------------------
 DEPT.F                  :   
 GR  .GAPI   30 310 01 00:   GAMMA RAY
 SPR .MV     05 010 01 00:   SPONTANEOUS POTENTIAL FROM RES.
 ILD .OHMM   05 120 46 00:   INDUCTION LOG DEEP
 CILD.MMHO   05 110 46 00:   CONDUCTIVITY INDUCTION LOG DEEP
 ASN .OHMM   05 041 18 00:   AMPLIFIED SHORT NORMAL 18"
~PARAMETER INFORMATION
#MNEM.UNIT          VALUE    DESCRIPTION
#----------   ------------   ------------------------------
 PD  .                 GL:   PERMANENT DATUM
 EPD .F              5252:   ELEVATION PERMANENT DATUM
 LMF .                 KB:   LOG MEASURED FROM
 DAPD.F                 5:   FEET ABOVE PERMANENT DATUM
 DMF .                 KB:   DRILLING MEASURED FROM
 EKB .F              5257:   KELLING BUSHING
 EGL .F              5252:   GROUND LEVEL
 DATE.             3-4-60:   RUN DATE
 RUN .                  1:   RUN NUMBER
 DD  .F              1239:   DEPTH DRILLER
 DL  .F              1238:   DEPTH LOGGER
 BLI .F              1236:   BOTTOM LOG INTERVAL
 TLI .F                70:   TOP LOG INTERVAL
 CS  .IN            8.625:   CASING SIZE
 CBD .F                12:   CASING BOTTOM DRILLER
 BS  .IN            7.875:   BIT SIZE
 BSD .F              1239:   BIT SIZE AT DEPTH
 DFT .                GEL:   DRILLING FLUID TYPE
 DFD .                9.2:   DRILLING FLUID DENSITY
 DFV .                 34:   DRILLING FLUID VISCOSITY
 DFPH.                7.5:   DRILLING FLUID PH
 DFL .                8.5:   DRILLING FLUID LOSS
 MSS .                PIT:   MUD SAMPLE SOURCE
 RMS .OHMM              3:   RESISTIVITY MUD SAMPLE
 MST .F                52:   MUD SAMPLE TEMPERATURE
 RMF .OHMM            2.8:   RESISTIVITY MUD FILTRATE SAMPLE
 MFST.F                55:   MUD FILTRATE SAMPLE TEMPERATURE
 RMC .OHMM            3.3:   RESISTIVITY MUD CAKE
 MCST.F                55:   MUD CAKE SAMPLE TEMPERATURE
 MFSS.                MUD:   MUD FILTRATE SAMPLE SOURCE
 MCSS.              PRESS:   MUD CAKE SAMPLE SOURCE
 RMB .OHMM            2.2:   RESISTIVITY MUD AT BHT
 BHT .F                77:   BOTTOM HOLE TEMPERATURE
 TCS .HRS              .5:   TIME CURCULATED STOPPED
 MRT .F                77:   MAXIMUM RECORDED TEMPERATURE
 LUN .               4474:   LOGGING UNIT NUMBER
 LUL .             CASPER:   LOGGING UNIT LOCATION
 ENGI.      GRIGGS/NELSON:   RECORDING ENGINEER
 WITN.  JORGENSEN/HOLLAND:   WITNESSED BY
 CLNT.            A2DTECH:   CLIENT CODE
 ORIG.       2", 5" PRINT:   ORIGIN OF DATA
 UWI .       490250633900:   UNIQUE WELL ID
 DICO. A2D Technologies, Inc.:   DIGITIZING COMPANY
~OTHER INFORMATION
~A   DEPT       GR        SPR          ILD      CILD         ASN 
# ...
  924.0000    87.4797   -34.6682     4.0323   274.7476     5.0306
  924.5000    75.6256   -34.7274     4.2271   261.5999     5.0822
  925.0000    65.1552   -34.7865     4.4233   253.1881     5.1027
  925.5000    87.9495   -34.8456     4.6218   247.8674     5.0964
  926.0000    87.2649   -34.9045     4.6118   243.7050     5.1195
  926.5000    91.0634   -34.9679     4.5443   242.2662     5.1795
  927.0000    94.1812   -35.1225     4.4784   240.5036     5.1304
  927.5000    92.3485   -34.9065     4.4128   242.9856     5.0123
  928.0000    97.6617   -34.6018     4.3463   247.6876     4.7976
  928.5000   106.1085   -34.2934     4.2869   254.2395     4.5568
  929.0000   105.0252   -33.9957     4.1755   260.7914     4.3137
  929.5000   106.6656   -33.6342     4.1598   264.4837     4.1985
  930.0000    94.0845   -33.5374     4.1105   267.7211     4.1800
  930.5000    98.1258   -33.7015     4.0621   270.9585     4.2134
  931.0000   102.9932   -34.0704     4.0100   271.0945     4.3283
  931.5000    88.2443   -34.2825     4.1080   267.6619     4.4683
  932.0000    95.1615   -34.3552     4.2497   259.8752     4.6133
  932.5000   102.0266   -34.4313     4.3924   252.0721     4.8051
  933.0000    87.5000   -34.6590     4.5349   244.2716     5.0646
  933.5000    77.7308   -35.0821     4.6767   236.4748     5.3556
  934.0000    77.5332   -35.7746     4.8157   228.6781     5.6416
  934.5000    87.3912   -36.3980     4.9725   220.8813     5.9217
  935.0000    92.1019   -36.4081     5.1260   213.0845     6.2026
  935.5000    88.5535   -36.4080     5.2791   206.0072     6.4075
  936.0000    79.4661   -36.2712     5.4303   200.5036     6.5483
  936.5000    71.4233   -36.0885     5.5321   196.2950     6.6597
  937.0000    64.9757   -35.9053     5.5304   194.4604     6.7331
  937.5000    73.1126   -35.7257     5.5307   192.7458     6.6990
  938.0000    84.9101   -35.3819     5.5306   191.7266     6.6306
  938.5000    84.3682   -35.0047     5.5306   192.5605     6.5424
  939.0000    88.6335   -34.6270     5.5309   193.3453     6.4292
  939.5000    82.9427   -34.4056     5.5304   194.9640     6.3332
  940.0000    98.9950   -34.3626     5.5041   197.5719     6.2455
  940.5000   103.5366   -34.3186     5.3937   200.3237     6.1455
  941.0000    92.6604   -34.2762     5.2877   203.0755     6.0104
  941.5000    82.3536   -34.2787     5.1819   205.9353     5.8651
  942.0000    74.4407   -34.3734     5.0761   210.8791     5.7181
  942.5000    84.3065   -34.4665     4.9703   216.0247     5.5573
  943.0000    81.9166   -34.5598     4.8644   221.1704     5.3884
  943.5000    77.4646   -34.6531     4.7586   226.3160     5.2197
  944.0000    86.2666   -34.7463     4.6523   231.4610     5.0504
  944.5000    95.9039   -34.8395     4.5470   236.6113     4.8819
  945.0000   102.6974   -34.9328     4.4548   241.7906     4.7217
  945.5000    97.5295   -35.0260     4.5475   247.3022     4.6299
  946.0000   100.0770   -35.1192     4.5776   247.3022     4.7520
  946.5000    93.5245   -35.2128     4.6855   240.0021     5.0173
  947.0000   102.9625   -35.3060     4.7938   233.2575     5.2808
  947.5000   101.0538   -35.4260     4.9021   226.5129     5.5604
  948.0000    98.9138   -35.3770     5.0103   219.7683     5.8668
  948.5000   106.7466   -35.0550     5.1185   213.0237     6.1611
  949.0000    79.0985   -34.7369     5.2267   206.2791     6.3344
  949.5000    83.0898   -34.4145     5.3349   199.5345     6.4196
  950.0000    93.9245   -34.0792     5.4431   196.8111     6.4904
  950.5000    78.4356   -33.7347     5.5511   194.6197     6.5610
  951.0000    83.1371   -34.0943     5.6595   192.4345     6.6415
  951.5000    89.2043   -34.4498     5.7579   190.2382     6.7432
  952.0000    79.5187   -34.4665     5.8495   187.9496     6.8122
  952.5000    86.9667   -34.2253     5.9412   187.5899     6.8561
  953.0000    83.8139   -34.1503     5.9669   187.2107     6.8993
  953.5000    90.3783   -34.3819     5.9453   186.8315     6.9433
  954.0000    93.7350   -34.6091     5.9229   186.4523     6.9512
  954.5000    73.7644   -34.8373     5.9004   186.1511     6.9335
  955.0000    73.3179   -35.0653     5.8780   186.1511     6.8876
  955.5000    81.3159   -35.2940     5.8557   186.1508     6.8432
  956.0000    78.0240   -35.5204     5.8333   186.1499     6.8061
  956.5000    96.3583   -35.6527     5.8109   186.1511     6.7705
  957.0000   104.0199   -35.4916     5.7885   186.1511     6.7317
  957.5000   104.2831   -35.3394     5.7662   187.8171     6.6931
  958.0000   105.0559   -35.1874     5.7442   189.7331     6.6764
  958.5000   105.6955   -35.0354     5.7220   191.6490     6.6640
  959.0000    99.8584   -34.8843     5.6886   193.7427     6.6222
  959.5000   101.4820   -34.7447     5.4977   197.2011     6.5445
  960.0000    87.2712   -34.6278     5.3054   200.6713     6.4271
  960.5000    90.2635   -34.6442     5.1137   204.1333     6.2856
  961.0000    98.0607   -34.6923     4.9221   207.7338     6.0209
  961.5000   101.8953   -34.7424     4.7304   215.2569     5.7179
  962.0000    97.2094   -34.7759     4.5391   224.6942     5.4142
  962.5000    99.6168   -34.5191     4.3458   235.3118     5.1104
  963.0000    98.2584   -34.2565     4.2873   245.0668     4.8077
  963.5000   103.2335   -33.9940     4.3097   251.5673     4.5861
  964.0000   106.6248   -33.7300     4.3338   254.2014     4.6379
  964.5000    90.4691   -33.9095     4.3579   254.4964     4.7374
  965.0000    82.4186   -34.1386     4.3819   252.6978     4.9844
  965.5000    79.5057   -34.3216     4.4058   247.2690     5.2420
  966.0000    86.0756   -34.3117     4.4298   240.9685     5.3765
  966.5000    90.9879   -34.1433     4.4537   237.3426     5.3233
  967.0000    87.5145   -34.3848     4.4777   240.1866     5.1413
  967.5000    93.1369   -34.2771     4.5016   243.0306     4.9675
  968.0000    94.7981   -34.0242     4.5251   247.3022     4.8563
  968.5000    91.7187   -33.7682     4.5397   244.9126     4.9701
  969.0000   101.7653   -33.5128     4.6265   241.6708     5.1139
  969.5000   102.4969   -33.2543     4.7397   238.3189     5.2858
  970.0000    96.3472   -33.1650     4.8545   233.5885     5.4964
  970.5000    89.5360   -33.3247     4.9004   228.7127     5.9050
  971.0000    94.0433   -33.5072     4.9012   223.8374     6.0475
  971.5000   100.3305   -33.6904     4.9014   218.9620     6.1793
  972.0000    96.4778   -33.8742     4.9131   214.0866     6.1666
  972.5000    91.9783   -34.0589     4.9423   211.5707     6.1552
  973.0000    95.9931   -34.0483     4.9680   212.5819     6.1062
  973.5000    92.3172   -34.0248     4.9280   216.2590     6.0008
  974.0000   105.7774   -34.0023     4.7518   223.0845     5.7571
  974.5000   105.5745   -33.9800     4.5853   229.9101     5.4560
  975.0000    94.3287   -33.9578     4.4073   236.7356     5.1518
  975.5000    79.8645   -33.9355     4.4942   243.5612     4.8532
  976.0000    81.2737   -33.9126     4.7277   245.5036     4.6988
  976.5000    80.2550   -33.8856     4.9961   245.5036     4.8080
  977.0000    86.4920   -34.0728     5.1950   242.4236     5.0227
  977.5000   104.0896   -34.2927     5.2475   236.5108     5.3404
  978.0000    96.2375   -34.5134     5.3039   231.1151     5.6724
  978.5000    87.1756   -34.7345     5.3479   221.4967     6.0992
  979.0000    78.8755   -34.9549     5.5134   211.6046     6.5232
  979.5000    73.1504   -35.1256     5.7207   201.7125     6.7926
  980.0000    81.0235   -34.9066     5.8461   191.7933     7.0166
  980.5000    80.4072   -34.6901     5.9228   184.8562     7.1635
  981.0000    95.6236   -34.4680     5.9976   181.8066     7.2735
  981.5000    97.2355   -34.5096     6.0744   178.7890     7.3450
  982.0000    92.4182   -34.6160     6.1502   175.8774     7.3969
  982.5000   104.2536   -34.7240     6.2261   173.1076     7.4468
  983.0000    99.0290   -34.8314     6.3019   170.3378     7.5251
  983.5000    89.3620   -34.9389     6.3769   167.5680     7.6048
  984.0000    96.5404   -35.0468     6.4421   164.5683     7.6879
  984.5000    83.6686   -35.1420     6.4795   165.2360     7.6985
