~VERSION INFORMATION
 VERS.                2.0:   CWLS LOG ASCII STANDARD - VERSION 2.0
 WRAP.                 NO:   ONE LINE PER DEPTH STEP
~WELL INFORMATION
#MNEM.UNIT      DATA TYPE    INFORMATION
#----------   ------------   ------------------------------
 STRT.F            0.0000:   START DEPTH
 STOP.F          820.0000:   STOP DEPTH
 STEP.F            0.5000:   STEP LENGTH
 NULL.          -999.2500:   NO VALUE
 COMP. LAWRENCE/ALLISON INC:   COMPANY
 WELL.       44 SX #16-11:   WELL
 FLD .             TEAPOT:   FIELD
 LOC .      S11 T38N R78W:   LOCATION
 CNTY.            NATRONA:   COUNTY
 STAT.            WYOMING:   STATE
 CTRY. UNITED STATES OF AMERICA:   COUNTRY
 SRVC.           Gearhart:   SERVICE COMPANY
 DATE.        26-AUG-1988:   LOGDATE
 API .       490251124600:   API NUMBER
~CURVE INFORMATION
#MNEM.UNIT       API CODE    CURVE DESCRIPTION
#----------   ------------   ------------------------------
 DEPT.F                  :   
 GRR .GAPI   07 310 01 00:   GAMMA RAY FROM RES. LOG.
 RILD.OHMM   07 120 46 00:   INDUCTION LOG DEEP RESISTIVITY
 RILM.OHMM   07 120 44 00:   INDUCTION LOG MEDIUM RESISTIVITY
~PARAMETER INFORMATION
#MNEM.UNIT          VALUE    DESCRIPTION
#----------   ------------   ------------------------------
 PD  .                 GL:   PERMANENT DATUM
 EPD .F              5197:   ELEVATION PERMANENT DATUM
 LMF .                 KB:   LOG MEASURED FROM
 DAPD.F                10:   FEET ABOVE PERMANENT DATUM
 DMF .                 KB:   DRILLING MEASURED FROM
 EKB .F              5207:   KELLING BUSHING
 EDF .F              5206:   DRILLING FLOOR
 EGL .F              5197:   GROUND LEVEL
 DATE.            8-26-88:   RUN DATE
 RUN .                  1:   RUN NUMBER
 DD  .F               820:   DEPTH DRILLER
 DL  .F               819:   DEPTH LOGGER
 BLI .F               811:   BOTTOM LOG INTERVAL
 TLI .F                50:   TOP LOG INTERVAL
 CS  .IN            9.625:   CASING SIZE
 CBD .F                50:   CASING BOTTOM DRILLER
 CBL .F                50:   CASING BOTTOM LOGGER
 BS  .IN             8.75:   BIT SIZE
 BSD .F               820:   BIT SIZE AT DEPTH
 DFT .                AIR:   DRILLING FLUID TYPE
 BHT .F                70:   BOTTOM HOLE TEMPERATURE
 TCS .HRS            0200:   TIME CURCULATED STOPPED
 TLAB.HRS            0342:   TIME LOGGER AT BOTTOM
 MRT .F                70:   MAXIMUM RECORDED TEMPERATURE
 LUN .               7609:   LOGGING UNIT NUMBER
 LUL .           GILLETTE:   LOGGING UNIT LOCATION
 ENGI.           JOHNSTON:   RECORDING ENGINEER
 WITN.             STRONG:   WITNESSED BY
 CLNT.            A2DTECH:   CLIENT CODE
 ORIG.        2" 5" PRINT:   ORIGIN OF DATA
 UWI .       490251124600:   UNIQUE WELL ID
 DICO. A2D Technologies, Inc.:   DIGITIZING COMPANY
~OTHER INFORMATION
~A    DEPT      GRR      RILD       RILM   
# ...
  546.0000   155.6676     5.6170     6.1093
  546.5000   154.0158     5.4178     6.0394
  547.0000   151.6615     5.2256     5.7721
  547.5000   146.9343     5.0401     5.2091
  548.0000   145.2582     4.8617     4.7010
  548.5000   145.1417     4.8017     4.3708
  549.0000   145.4510     4.8183     4.1279
  549.5000   145.7604     4.8534     4.0530
  550.0000   146.1789     4.8886     4.3421
  550.5000   146.6022     4.9926     4.6262
  551.0000   146.6165     5.1991     4.8930
  551.5000   147.0661     5.4419     5.1425
  552.0000   148.4218     5.6960     5.4291
  552.5000   151.3159     5.9630     5.7318
  553.0000   152.9425     6.2403     6.0513
  553.5000   151.2884     6.3721     6.2705
  554.0000   149.6782     5.9738     6.4290
  554.5000   148.0701     5.6965     6.4329
  555.0000   146.1626     5.4321     6.3694
  555.5000   144.1010     5.1800     5.8035
  556.0000   142.5082     4.9405     5.0809
  556.5000   145.0579     4.7544     5.1289
  557.0000   149.7449     4.7546     4.7311
  557.5000   153.5646     4.9119     4.4662
  558.0000   150.4921     5.0251     4.3702
  558.5000   146.8230     5.1409     4.5775
  559.0000   146.5994     5.2593     4.7886
  559.5000   146.6584     5.4449     5.0061
  560.0000   144.5394     5.7200     5.2312
  560.5000   141.8596     6.0088     6.1092
  561.0000   141.7000     6.3126     6.8718
  561.5000   142.3718     6.6328     7.1273
  562.0000   143.7995     6.9194     7.3923
  562.5000   145.3422     7.1062     7.5371
  563.0000   144.8562     7.2950     7.6271
  563.5000   143.4579     7.4901     7.7181
  564.0000   142.0820     7.5552     7.8103
  564.5000   140.7399     7.5680     7.8492
  565.0000   138.4384     7.5809     7.8678
  565.5000   135.8824     7.5937     7.8865
  566.0000   133.4706     7.6066     7.9053
  566.5000   134.0964     7.6209     7.9241
  567.0000   138.1748     7.6422     7.9429
  567.5000   139.2278     7.6635     7.9618
  568.0000   136.0711     7.6895     7.9846
  568.5000   132.8814     7.6557     7.9689
  569.0000   134.1860     7.6130     7.9490
  569.5000   138.5781     7.5706     7.9291
  570.0000   142.2814     7.5460     7.9089
  570.5000   139.6386     7.6746     7.9827
  571.0000   136.4165     7.8856     8.0724
  571.5000   134.8880     8.1024     8.1630
  572.0000   134.2812     8.1365     8.4413
  572.5000   131.9700     7.3704     8.9400
  573.0000   129.6263     6.8098     8.6095
  573.5000   127.3517     6.2919     7.6448
  574.0000   127.3424     5.8133     6.1859
  574.5000   136.3318     5.3712     5.0053
  575.0000   145.5586     5.3258     4.6161
  575.5000   154.9081     5.3252     4.3062
  576.0000   159.0900     5.3477     4.1692
  576.5000   149.4295     5.4135     4.5015
  577.0000   138.9253     5.7383     4.9393
  577.5000   128.6093     6.1649     5.4970
  578.0000   122.9135     6.8046     6.1651
  578.5000   124.8688     7.5107     6.9144
  579.0000   127.4224     8.2902     7.7548
  579.5000   129.5544     9.1590     8.6051
  580.0000   127.0588     9.8142     9.0663
  580.5000   124.8525     9.9863     9.4597
  581.0000   127.8216    10.1060     9.5492
  581.5000   131.2753     9.9382     9.4551
  582.0000   133.1449     9.7255     9.3875
  582.5000   132.4874     9.7233     9.3190
  583.0000   133.1906    10.2675     9.2832
  583.5000   133.9550    10.8326     9.6880
  584.0000   134.5020    11.4559    10.2031
  584.5000   128.3963    12.1150    11.0430
  585.0000   117.4665    12.8120    11.9521
  585.5000   104.1322    13.5492    12.9360
  586.0000    92.4062    14.3287    13.7945
  586.5000    83.4299    15.0662    14.6030
  587.0000    77.4650    15.7985    15.4588
  587.5000    73.7352    16.5665    16.3649
  588.0000    75.2003    17.0509    16.7840
  588.5000    80.0899    17.4456    16.9843
  589.0000    84.9533    17.6033    17.1216
  589.5000    85.3615    17.7783    16.7674
  590.0000    83.7641    17.6482    16.4887
  590.5000    82.2245    17.5092    16.4887
  591.0000    81.6314    17.3712    16.5389
  591.5000    83.1185    17.2343    16.5763
  592.0000    86.2320    17.0964    16.6138
  592.5000    89.3369    16.9495    16.6447
  593.0000    91.8621    16.8039    16.4902
  593.5000    92.6530    16.6595    16.3603
  594.0000    91.7101    16.5163    16.2314
  594.5000    90.1981    16.3744    16.1035
  595.0000    88.6859    16.2337    16.0295
  595.5000    87.1777    16.1810    16.0289
  596.0000    85.7032    16.3276    16.0291
  596.5000    87.6967    16.4312    16.0301
  597.0000    90.9535    16.6007    16.1664
  597.5000    93.6834    16.8533    16.4762
  598.0000    94.1213    17.1098    16.7920
  598.5000    93.2810    17.3701    17.1139
  599.0000    92.4924    17.6123    17.4975
  599.5000    91.2795    17.8683    17.9514
  600.0000    89.8367    18.1079    18.4170
  600.5000    87.0363    18.3507    18.8952
  601.0000    84.0079    18.5968    19.3895
  601.5000    80.9437    18.8124    19.7195
  602.0000    79.6096    18.7038    19.4172
  602.5000    81.7997    18.6085    19.1547
  603.0000    84.2291    18.5138    18.8956
  603.5000    85.3527    18.4195    18.6361
  604.0000    85.5454    18.3257    18.6222
  604.5000    85.9917    18.1679    18.5866
  605.0000    87.7774    17.9693    18.5515
  605.5000    89.7972    17.7728    18.5165
  606.0000    91.7915    17.5784    18.4808
  606.5000    93.4210    17.3847    18.3760
  607.0000    93.4589    17.2248    18.0423
  607.5000    93.9750    16.9924    17.7148
  608.0000    94.7523    16.7669    17.3929
  608.5000    95.5596    16.5437    17.0770
  609.0000    97.0759    16.3234    16.7666
  609.5000    98.5602    16.1061    16.4610
  610.0000    99.5438    15.8802    16.1704
  610.5000    97.5060    15.7000    15.8791
  611.0000    95.1120    15.5810    15.8791
  611.5000    92.9555    15.5832    15.8791
  612.0000    94.4450    15.5824    15.8791
  612.5000    96.3126    15.5818    15.8791
  613.0000    97.2344    15.6162    15.9821
  613.5000    96.2677    15.7765    16.2380
  614.0000    95.5861    15.9384    16.4980
  614.5000    96.2462    16.2900    16.7878
  615.0000    96.9003    16.8946    17.3849
  615.5000    96.6823    17.5216    18.0031
  616.0000    94.7786    18.1190    18.6434
  616.5000    92.2751    18.1181    19.3064
  617.0000    90.7193    17.9509    19.9930
  617.5000    90.4318    17.8387    20.4765
  618.0000    92.6416    17.7282    19.6451
  618.5000    95.7122    17.6123    18.7806
  619.0000    98.8153    17.0063    17.9541
  619.5000   101.9611    16.3875    17.2092
  620.0000   102.2852    15.7913    16.7677
  620.5000    99.7424    15.4135    16.3375
  621.0000    97.2483    15.2916    15.9183
  621.5000    95.0202    15.1706    15.5084
  622.0000    96.6366    15.0215    15.3202
  622.5000    99.5331    14.8676    15.1785
  623.0000   102.4390    14.7152    15.0389
  623.5000   103.0446    14.5643    14.9002
  624.0000    99.0800    14.4150    14.7627
  624.5000    95.1444    14.2673    14.6266
  625.0000    92.9917    14.1210    14.4917
  625.5000    93.1687    14.0324    14.4302
  626.0000    96.8457    13.9990    14.3872
  626.5000   100.7093    13.9657    14.3445
  627.0000   102.5196    13.9325    14.3165
  627.5000   100.4798    13.9177    14.4551
  628.0000    98.1117    14.2485    14.5771
  628.5000    95.9631    14.4508    14.7012
  629.0000    95.4825    14.3894    14.7273
  629.5000    96.1666    14.3370    14.6314
  630.0000    96.9224    14.2844    14.5519
  630.5000    97.6828    14.2321    14.4728
  631.0000    98.4408    14.1823    14.3942
  631.5000    99.2026    14.0239    14.3161
  632.0000    99.9706    13.8738    14.2376
  632.5000   100.2341    13.7253    14.1393
  633.0000   100.4713    13.5784    13.9780
  633.5000   100.7221    13.4331    13.8207
  634.0000   100.1247    13.2775    13.6647
  634.5000    98.9364    13.1584    13.5105
  635.0000    97.7364    13.0310    13.3581
  635.5000    96.5235    12.9043    13.2074
  636.0000    96.3305    12.7787    13.0584
  636.5000    96.9130    12.6544    12.9076
