~VERSION INFORMATION
 VERS.                2.0:   CWLS LOG ASCII STANDARD - VERSION 2.0
 WRAP.                 NO:   ONE LINE PER DEPTH STEP
~WELL INFORMATION
#MNEM.UNIT      DATA TYPE    INFORMATION
#----------   ------------   ------------------------------
 STRT.F           82.0000:   START DEPTH
 STOP.F          750.0000:   STOP DEPTH
 STEP.F            0.5000:   STEP LENGTH
 NULL.          -999.2500:   NO VALUE
 COMP. U S NAVY/INTEX OIL CO:   COMPANY
 WELL.      GOVT #18-S-35:   WELL
 FLD .             TEAPOT:   FIELD
 LOC .      S35 T39N R78W:   LOCATION
 CNTY.            NATRONA:   COUNTY
 STAT.            WYOMING:   STATE
 CTRY. UNITED STATES OF AMERICA:   COUNTRY
 SRVC. Schlumberger Well Surveying Corp:   SERVICE COMPANY
 DATE.        19-JUL-1962:   LOGDATE
 API .       490250649300:   API NUMBER
~CURVE INFORMATION
#MNEM.UNIT       API CODE    CURVE DESCRIPTION
#----------   ------------   ------------------------------
 DEPT.F                  :   
 SPR .MV     05 010 01 00:   SPONTANEOUS POTENTIAL
 ILD .OHMM   05 120 46 00:   INDUCTION LOG DEEP
 CILD.MMHO   05 110 46 00:   CONDUCTIVITY INDUCTION LOG DEEP
 ASN .OHMM   05 041 16 00:   AMPLIFIED SHORT NORMAL 16"
 NEUT.NAPI   35 330 01 00:   NEUTRON GAMMA RAY
~PARAMETER INFORMATION
#MNEM.UNIT          VALUE    DESCRIPTION
#----------   ------------   ------------------------------
 PD  .                 GL:   PERMANENT DATUM
 EPD .F              5107:   ELEVATION PERMANENT DATUM
 LMF .                 KB:   LOG MEASURED FROM
 DAPD.F                 5:   FEET ABOVE PERMANENT DATUM
 DMF .                 KB:   DRILLING MEASURED FROM
 EKB .F              5112:   KELLING BUSHING
 EGL .F              5107:   GROUND LEVEL
 DATE.            7-19-62:   RUN DATE
 RUN .                  1:   RUN NUMBER
 DD  .F               745:   DEPTH DRILLER
 DL  .F               745:   DEPTH LOGGER
 BLI .F               744:   BOTTOM LOG INTERVAL
 TLI .F                80:   TOP LOG INTERVAL
 BS  .IN             6.75:   BIT SIZE
 BSD .F               745:   BIT SIZE AT DEPTH
 DFT .       OIL EMULSION:   DRILLING FLUID TYPE
 DFD .                 10:   DRILLING FLUID DENSITY
 DFV .                 46:   DRILLING FLUID VISCOSITY
 DFL .                2.9:   DRILLING FLUID LOSS
 RMS .OHMM           3.75:   RESISTIVITY MUD SAMPLE
 MST .F                87:   MUD SAMPLE TEMPERATURE
 RMF .OHMM           2.65:   RESISTIVITY MUD FILTRATE SAMPLE
 MFST.F                87:   MUD FILTRATE SAMPLE TEMPERATURE
 RMC .OHMM           3.54:   RESISTIVITY MUD CAKE
 MCST.F                87:   MUD CAKE SAMPLE TEMPERATURE
 TCS .HRS              .5:   TIME CURCULATED STOPPED
 LUN .               2503:   LOGGING UNIT NUMBER
 LUL .             CASPER:   LOGGING UNIT LOCATION
 ENGI.             DANNER:   RECORDING ENGINEER
 WITN.          JORGENSEN:   WITNESSED BY
 CLNT.            A2DTECH:   CLIENT CODE
 ORIG.       2", 5" PRINT:   ORIGIN OF DATA
 UWI .       490250649300:   UNIQUE WELL ID
 DICO. A2D Technologies, Inc.:   DIGITIZING COMPANY
~OTHER INFORMATION
~A   DEPT      SPR          ILD      CILD         ASN     NEUT   
# ...
  143.0000   -61.2133     3.0166   338.3468     3.4644  -999.2500
  143.5000   -61.1474     2.9473   341.8297     3.4393  -999.2500
  144.0000   -61.0768     2.8763   343.2761     3.4941  -999.2500
  144.5000   -61.2114     2.9345   337.5800     3.4954  -999.2500
  145.0000   -61.4023     3.0858   323.2200     3.4550  -999.2500
  145.5000   -61.5942     3.3703   303.1967     3.5916  -999.2500
  146.0000   -61.7860     3.6530   275.7373     3.7543  -999.2500
  146.5000   -61.9777     3.9365   248.5726     3.9174  -999.2500
  147.0000   -62.1646     4.2206   232.5840     4.0802  -999.2500
  147.5000   -62.1379     4.4821   224.4288     4.2413  -999.2500
  148.0000   -61.8611     4.4873   221.2702     4.3300  -999.2500
  148.5000   -61.9406     4.4861   221.2702     4.4053  -999.2500
  149.0000   -62.0363     4.4859   221.2702     4.4643  -999.2500
  149.5000   -62.1318     4.4859   222.8743     4.4451  -999.2500
  150.0000   -62.2276     4.4861   224.8474     4.4269  -999.2500
  150.5000   -62.2728     4.4871   226.8205     4.3650  -999.2500
  151.0000   -62.2737     4.4814   231.8817     4.2976  -999.2500
  151.5000   -62.2729     4.2827   237.9855     4.2179  -999.2500
  152.0000   -62.2777     4.0725   250.2262     4.0818  -999.2500
  152.5000   -62.3825     3.8632   268.7507     3.9472  -999.2500
  153.0000   -62.4884     3.6507   286.5833     3.8126  -999.2500
  153.5000   -62.5931     3.3969   303.2208     3.6778  -999.2500
  154.0000   -62.6508     3.3421   314.0121     3.5411  -999.2500
  154.5000   -62.4572     3.3035   314.5579     3.5152  -999.2500
  155.0000   -61.8939     3.2624   314.5766     3.5095  -999.2500
  155.5000   -61.3273     3.2211   318.3853     3.5037  -999.2500
  156.0000   -61.0480     3.1799   326.0792     3.4659  -999.2500
  156.5000   -61.0000     3.1386   333.7731     3.2455  -999.2500
  157.0000   -60.9579     3.0967   341.2298     3.1418  -999.2500
  157.5000   -60.9157     3.0372   344.8169     3.2844  -999.2500
  158.0000   -60.8731     2.9545   348.9366     3.2956  -999.2500
  158.5000   -60.8304     2.8722   357.8335     3.1712  -999.2500
  159.0000   -60.7878     2.7919   375.7232     3.0471  -999.2500
  159.5000   -60.7453     2.6016   400.8894     2.9216  -999.2500
  160.0000   -60.7034     2.3868   427.8536     2.7942  -999.2500
  160.5000   -60.6586     2.1708   452.6555     2.6644  -999.2500
  161.0000   -60.5423     2.0877   473.2863     2.6442  -999.2500
  161.5000   -60.4296     2.1226   472.3934     2.6367  -999.2500
  162.0000   -60.3175     2.1570   455.1411     2.6720  -999.2500
  162.5000   -60.2057     2.3096   427.5841     2.7775  -999.2500
  163.0000   -60.0886     2.4844   400.1939     2.8800  -999.2500
  163.5000   -60.2697     2.6660   372.8567     2.9127  -999.2500
  164.0000   -60.5665     2.8943   345.5296     2.9091  -999.2500
  164.5000   -60.8659     3.1339   318.2157     3.0892  -999.2500
  165.0000   -61.1656     3.3744   293.3743     3.3166  -999.2500
  165.5000   -61.4586     3.6108   269.1175     3.5449  -999.2500
  166.0000   -61.5968     3.7829   255.0968     3.6896  -999.2500
  166.5000   -61.3174     3.7800   253.1077     3.7411  -999.2500
  167.0000   -61.4469     3.7802   258.1573     3.7021  -999.2500
  167.5000   -61.6642     3.7819   272.2833     3.6139  -999.2500
  168.0000   -61.6007     3.6472   286.4093     3.5274  -999.2500
  168.5000   -61.2786     3.4452   300.5353     3.4410  -999.2500
  169.0000   -61.0156     3.2406   316.6263     3.3546  -999.2500
  169.5000   -60.8682     3.0363   336.6818     3.2797  -999.2500
  170.0000   -60.7179     2.8322   356.3508     3.2118  -999.2500
  170.5000   -60.5682     2.6279   394.8114     3.1191  -999.2500
  171.0000   -60.4687     2.4236   433.3488     2.9908  -999.2500
  171.5000   -60.6367     2.2129   458.2153     2.8627  -999.2500
  172.0000   -60.8000     2.1921   474.2943     2.7370  -999.2500
  172.5000   -60.8642     2.2636   466.6078     2.6930  -999.2500
  173.0000   -60.8626     2.3349   442.5374     2.8094  -999.2500
  173.5000   -60.6705     2.4056   416.0045     2.9532  -999.2500
  174.0000   -60.6420     2.5234   388.6411     3.0794  -999.2500
  174.5000   -60.9934     2.9596   355.1573     3.0890  -999.2500
  175.0000   -61.1530     3.3995   319.8589     3.2571  -999.2500
  175.5000   -61.2815     3.8386   276.9577     3.8485  -999.2500
  176.0000   -61.7080     4.2782   234.0565     4.2087  -999.2500
  176.5000   -62.1377     4.7174   199.1213     4.5094  -999.2500
  177.0000   -62.5664     5.1295   183.9948     4.6412  -999.2500
  177.5000   -63.0018     5.3218   177.2681     4.7744  -999.2500
  178.0000   -63.0145     5.5226   173.6309     5.0485  -999.2500
  178.5000   -62.6724     5.7243   170.7771     5.4001  -999.2500
  179.0000   -62.3365     5.9258   166.1018     5.7193  -999.2500
  179.5000   -62.0013     6.1125   160.5621     6.0282  -999.2500
  180.0000   -61.6708     6.1734   155.0225     6.1954  -999.2500
  180.5000   -61.5529     6.2385   151.1870     6.2215  -999.2500
  181.0000   -61.8994     6.3039   149.8790     6.1273  -999.2500
  181.5000   -62.4229     6.3693   148.5711     6.0801  -999.2500
  182.0000   -62.9392     6.4347   147.5769     6.3451  -999.2500
  182.5000   -63.2840     6.5001   147.2499     6.5566  -999.2500
  183.0000   -63.2797     6.5655   146.9229     6.5845  -999.2500
  183.5000   -63.2875     6.6309   146.2601     6.6129  -999.2500
  184.0000   -63.0268     6.6963   143.3065     6.6992  -999.2500
  184.5000   -62.7279     6.7617   139.7268     6.8111  -999.2500
  185.0000   -62.4284     6.8270   136.1471     6.8849  -999.2500
  185.5000   -62.1241     6.8909   132.5605     6.8848  -999.2500
  186.0000   -62.0734     7.0143   129.4917     6.9093  -999.2500
  186.5000   -62.0676     7.1499   126.1283     7.0332  -999.2500
  187.0000   -62.4815     7.2858   122.4798     7.1540  -999.2500
  187.5000   -62.7831     7.4214   120.8597     7.2750  -999.2500
  188.0000   -62.4774     7.5576   118.6175     7.3955  -999.2500
  188.5000   -62.1761     7.6456   116.4314     7.4928  -999.2500
  189.0000   -62.2433     7.7055   117.2565     7.5056  -999.2500
  189.5000   -62.4965     7.6450   118.0614     7.5106  -999.2500
  190.0000   -62.6867     7.5474   119.9322     7.4822  -999.2500
  190.5000   -62.7491     7.4514   122.7859     7.3490  -999.2500
  191.0000   -62.8128     7.1074   128.9516     7.0624  -999.2500
  191.5000   -62.8969     6.6051   140.0693     6.7331  -999.2500
  192.0000   -63.3565     6.0995   160.6748     6.3361  -999.2500
  192.5000   -63.5585     5.5937   182.8333     5.9316  -999.2500
  193.0000   -63.1299     5.0862   204.9917     5.6659  -999.2500
  193.5000   -62.7175     4.5958   220.8316     5.3883  -999.2500
  194.0000   -62.5536     4.4809   231.0484     5.1485  -999.2500
  194.5000   -62.7463     4.4844   232.3589     5.0480  -999.2500
  195.0000   -62.9358     4.4872   227.7218     5.0488  -999.2500
  195.5000   -63.1262     4.6420   217.2631     5.1140  -999.2500
  196.0000   -63.2838     5.1097   199.1935     5.1736  -999.2500
  196.5000   -63.2795     5.7445   173.0343     5.3738  -999.2500
  197.0000   -63.2786     6.4797   146.8750     6.2002  -999.2500
  197.5000   -63.3078     7.2182   126.8649     7.1249  -999.2500
  198.0000   -63.5675     7.9496   115.7729     8.0389  -999.2500
  198.5000   -63.8299     8.4769   110.6615     8.7126  -999.2500
  199.0000   -64.0903     8.6223   108.6996     8.9517  -999.2500
  199.5000   -64.2879     8.7709   105.2974     9.3443  -999.2500
  200.0000   -64.2882     9.0444   101.6012     9.9303  -999.2500
  200.5000   -64.7580     9.3680    97.9050    10.6325  -999.2500
  201.0000   -65.2820     9.6983    94.8085    10.7457  -999.2500
  201.5000   -65.6743     9.8457    92.1898    11.1141  -999.2500
  202.0000   -65.5002     9.8962    90.4619    11.5014  -999.2500
  202.5000   -65.3316     9.9434    91.5339    11.8838  -999.2500
  203.0000   -65.2917     9.9908    92.5807    12.1945  -999.2500
  203.5000   -65.2911    10.0383    92.6075    12.3296  -999.2500
