~VERSION INFORMATION
 VERS.                2.0:   CWLS LOG ASCII STANDARD - VERSION 2.0
 WRAP.                 NO:   ONE LINE PER DEPTH STEP
~WELL INFORMATION
#MNEM.UNIT      DATA TYPE    INFORMATION
#----------   ------------   ------------------------------
 STRT.F           67.0000:   START DEPTH
 STOP.F          812.0000:   STOP DEPTH
 STEP.F            0.5000:   STEP LENGTH
 NULL.          -999.2500:   NO VALUE
 COMP. U S NAVY-INTEX OIL:   COMPANY
 WELL.  N.P.R. #3 #48-S-2:   WELL
 FLD .             TEAPOT:   FIELD
 LOC .       S2 T38N R78W:   LOCATION
 CNTY.            NATRONA:   COUNTY
 STAT.            WYOMING:   STATE
 CTRY. UNITED STATES OF AMERICA:   COUNTRY
 SRVC.      NL McCullough:   SERVICE COMPANY
 DATE.        11-AUG-1961:   LOGDATE
 API .       490250639200:   API NUMBER
~CURVE INFORMATION
#MNEM.UNIT       API CODE    CURVE DESCRIPTION
#----------   ------------   ------------------------------
 DEPT.F                  :   
 GRN .MG/TON 35 310 01 00:   GAMMA RAY
 NEUT.CPS    35 330 30 00:   NEUTRON
~PARAMETER INFORMATION
#MNEM.UNIT          VALUE    DESCRIPTION
#----------   ------------   ------------------------------
 PD  .                 GL:   PERMANENT DATUM
 EPD .F              5168:   ELEVATION PERMANENT DATUM
 LMF .                 KB:   LOG MEASURED FROM
 DAPD.F                 6:   FEET ABOVE PERMANENT DATUM
 DMF .                 KB:   DRILLING MEASURED FROM
 EKB .F              5174:   KELLING BUSHING
 EGL .F              5168:   GROUND LEVEL
 DATE.          8-11-1961:   RUN DATE
 RUN .                  1:   RUN NUMBER
 DD  .F               810:   DEPTH DRILLER
 DL  .F            813.75:   DEPTH LOGGER
 BLI .F               812:   BOTTOM LOG INTERVAL
 TLI .F                80:   TOP LOG INTERVAL
 BSD .F               810:   BIT SIZE AT DEPTH
 DFT .       OIL EMULSION:   DRILLING FLUID TYPE
 TCS .HRS               1:   TIME CURCULATED STOPPED
 ENGI.            JACKSON:   RECORDING ENGINEER
 WITN.          JORGENSON:   WITNESSED BY
 CLNT.            A2DTECH:   CLIENT CODE
 ORIG.        2" 5" PRINT:   ORIGIN OF DATA
 UWI .       490250639200:   UNIQUE WELL ID
 DICO. A2D Technologies, Inc.:   DIGITIZING COMPANY
~OTHER INFORMATION
~A   DEPT        GRN     NEUT   
# ...
  310.0000     6.7705   399.1673
  310.5000     6.6683   405.8933
  311.0000     6.5662   412.5301
  311.5000     6.4639   419.2652
  312.0000     6.3618   425.0289
  312.5000     6.2595   420.6003
  313.0000     6.1698   416.5607
  313.5000     6.2095   412.6464
  314.0000     6.2451   408.5959
  314.5000     6.3361   407.1125
  315.0000     6.4630   410.9866
  315.5000     6.5898   414.6472
  316.0000     6.7054   418.1452
  316.5000     6.6008   421.8078
  317.0000     6.4233   425.0078
  317.5000     6.2455   416.0805
  318.0000     6.1876   407.6488
  318.5000     6.2183   405.5414
  319.0000     6.2497   407.9369
  319.5000     6.2785   410.5120
  320.0000     6.1610   412.9050
  320.5000     6.0485   403.4160
  321.0000     5.9419   383.7865
  321.5000     5.8899   364.3394
  322.0000     5.8428   355.1171
  322.5000     5.9029   353.1123
  323.0000     5.9633   358.8113
  323.5000     6.0205   373.6018
  324.0000     6.0216   388.0728
  324.5000     6.0205   383.7426
  325.0000     5.9939   379.2956
  325.5000     5.9659   374.9951
  326.0000     5.9392   370.5577
  326.5000     5.9115   366.1846
  327.0000     5.8845   363.5199
  327.5000     5.8569   362.1875
  328.0000     5.8713   362.1428
  328.5000     5.9321   362.1798
  329.0000     5.9928   362.1393
  329.5000     6.0539   363.3038
  330.0000     6.1144   365.7563
  330.5000     6.1756   366.8587
  331.0000     6.2092   366.1709
  331.5000     6.1679   365.5397
  332.0000     6.1199   368.0952
  332.5000     6.1902   374.9648
  333.0000     6.3532   381.7809
  333.5000     6.5172   388.6505
  334.0000     6.6950   396.0836
  334.5000     6.6259   397.5548
  335.0000     6.5489   399.1169
  335.5000     6.4730   400.1000
  336.0000     6.3876   405.7624
  336.5000     6.4758   412.1417
  337.0000     6.5741   416.5541
  337.5000     6.6731   418.0639
  338.0000     6.7843   412.5846
  338.5000     6.8018   406.3553
  339.0000     6.7979   400.0941
  339.5000     6.7538   397.1563
  340.0000     6.7091   400.1280
  340.5000     6.6649   403.1259
  341.0000     6.6295   404.4579
  341.5000     6.6118   402.6537
  342.0000     6.5938   400.8239
  342.5000     6.5759   399.0120
  343.0000     6.5579   397.1777
  343.5000     6.5366   395.3625
  344.0000     6.5418   392.2446
  344.5000     6.5588   386.2913
  345.0000     6.5756   380.3266
  345.5000     6.5962   374.3705
  346.0000     6.4942   368.4044
  346.5000     6.3662   364.1537
  347.0000     6.2377   364.1463
  347.5000     6.0807   371.7180
  348.0000     6.0406   381.4254
  348.5000     6.1169   391.1503
  349.0000     6.2151   400.8514
  349.5000     6.3143   408.0909
  350.0000     6.4373   408.0728
  350.5000     6.3712   399.1677
  351.0000     6.2821   387.2238
  351.5000     6.1936   378.1382
  352.0000     6.1432   375.0396
  352.5000     6.1072   373.1364
  353.0000     6.0710   375.1983
  353.5000     6.1080   376.9251
  354.0000     6.1738   378.6058
  354.5000     6.2394   377.3632
  355.0000     6.2286   374.8604
  355.5000     6.1848   375.5156
  356.0000     6.1501   377.4860
  356.5000     6.2051   379.4932
  357.0000     6.2523   381.4646
  357.5000     6.2983   383.4697
  358.0000     6.3457   385.4351
  358.5000     6.3915   387.4375
  359.0000     6.4822   381.3076
  359.5000     6.5930   371.1086
  360.0000     6.7058   360.8720
  360.5000     6.7440   352.1608
  361.0000     6.6419   357.8363
  361.5000     6.5504   362.8163
  362.0000     6.4616   367.1254
  362.5000     6.4861   367.1284
  363.0000     6.5823   355.0521
  363.5000     6.6646   344.3182
  364.0000     6.3932   342.0056
  364.5000     6.1470   341.0888
  365.0000     6.0038   337.7052
  365.5000     5.9234   334.2751
  366.0000     5.8460   331.2048
  366.5000     5.7657   335.8178
  367.0000     5.6881   340.1012
  367.5000     5.6080   344.3315
  368.0000     5.5358   346.1777
  368.5000     5.6319   344.7294
  369.0000     5.7236   343.4346
  369.5000     5.7572   342.0827
  370.0000     5.7482   340.7918
  370.5000     5.7376   340.5952
  371.0000     5.7437   341.4234
  371.5000     5.8662   342.1486
  372.0000     5.9851   344.8437
  372.5000     6.1029   349.7540
  373.0000     6.1689   351.4061
  373.5000     6.1857   349.8426
  374.0000     6.2034   348.4276
  374.5000     6.2202   346.8554
  375.0000     6.3333   353.8582
  375.5000     6.4567   369.0850
  376.0000     6.4964   366.5407
  376.5000     6.5356   363.7940
  377.0000     6.4469   361.1782
  377.5000     6.3281   366.9260
  378.0000     6.3186   372.9704
  378.5000     6.1841   378.8460
  379.0000     6.0409   384.8898
  379.5000     6.1225   388.6489
  380.0000     6.1536   390.1223
  380.5000     6.1169   383.9626
  381.0000     6.0815   377.6410
  381.5000     6.0445   371.1628
  382.0000     6.0093   364.8438
  382.5000     5.9721   366.5304
  383.0000     5.9760   379.3322
  383.5000     6.0308   393.0545
  384.0000     6.0879   380.6713
  384.5000     6.1921   366.9751
  385.0000     6.3706   353.4226
  385.5000     6.5660   343.3054
  386.0000     6.4575   338.2101
  386.5000     6.3343   337.9935
  387.0000     6.2944   337.8292
  387.5000     6.3856   337.6125
  388.0000     6.4777   337.4211
  388.5000     6.5691   337.2031
  389.0000     6.6610   347.7303
  389.5000     6.7528   359.9638
  390.0000     6.8441   372.1357
  390.5000     6.9363   378.6075
  391.0000     7.0420   374.0927
  391.5000     6.9801   373.7479
  392.0000     6.9040   381.3021
  392.5000     6.8759   388.9788
  393.0000     6.9394   391.7339
  393.5000     7.0057   383.1535
  394.0000     7.0813   385.5148
  394.5000     7.0766   388.5556
  395.0000     7.0668   391.4800
  395.5000     7.0785   395.1299
  396.0000     7.1278   403.2562
  396.5000     7.1922   413.5955
  397.0000     7.4877   423.8498
  397.5000     7.3309   434.1835
  398.0000     7.1690   444.4531
  398.5000     7.1290   453.1685
  399.0000     7.0852   457.4658
  399.5000     7.0450   461.7719
  400.0000     7.0119   465.0097
  400.5000     6.7173   459.0447
  401.0000     6.5363   451.1222
  401.5000     6.4699   443.1432
  402.0000     6.4276   437.0706
  402.5000     6.3640   440.6500
  403.0000     6.3124   445.6654
  403.5000     6.2600   450.5885
  404.0000     6.2202   447.1029
  404.5000     6.2986   440.0929
  405.0000     6.3662   433.1968
  405.5000     6.4169   426.1819
  406.0000     6.3877   419.2923
  406.5000     6.3589   420.5894
  407.0000     6.3400   425.7967
  407.5000     6.7334   430.8535
  408.0000     6.8230   436.0709
  408.5000     6.7862   441.1125
  409.0000     6.7552   446.3387
  409.5000     6.7238   447.1205
  410.0000     6.6619   446.0988
  410.5000     6.6034   453.6185
  411.0000     6.5578   460.3416
  411.5000     6.7506   465.9644
  412.0000     6.9236   453.9515
  412.5000     7.0714   443.2030
  413.0000     7.0571   432.6242
  413.5000     7.0417   421.8961
  414.0000     7.0289   411.2965
  414.5000     7.0742   407.0790
  415.0000     7.1522   409.3378
  415.5000     7.1294   413.0100
  416.0000     7.1108   416.7078
  416.5000     7.0900   420.0855
  417.0000     7.0728   424.7487
  417.5000     7.0962   429.0670
  418.0000     7.1196   433.0569
  418.5000     7.1412   423.5073
  419.0000     7.0831   414.5501
  419.5000     6.9599   405.6206
  420.0000     6.8446   397.1127
  420.5000     6.9750   396.5940
  421.0000     7.1006   396.1206
  421.5000     7.2205   398.9626
  422.0000     7.2806   404.2659
  422.5000     7.2497   409.5516
  423.0000     7.2205   410.6424
  423.5000     7.1906   407.8448
  424.0000     7.1612   405.0776
  424.5000     7.1314   402.2828
  425.0000     7.1020   399.5103
  425.5000     6.9760   407.4979
  426.0000     6.8505   414.2625
  426.5000     6.7244   408.5494
  427.0000     6.5989   402.8245
  427.5000     6.4727   397.1208
  428.0000     6.3473   394.0900
  428.5000     6.2211   407.1179
  429.0000     6.0908   421.0477
  429.5000     6.1219   419.1661
  430.0000     6.1552   417.1597
  430.5000     6.1895   415.1931
  431.0000     6.1073   411.6886
