~VERSION INFORMATION
 VERS.                2.0:   CWLS LOG ASCII STANDARD - VERSION 2.0
 WRAP.                 NO:   ONE LINE PER DEPTH STEP
~WELL INFORMATION
#MNEM.UNIT      DATA TYPE    INFORMATION
#----------   ------------   ------------------------------
 STRT.F           50.0000:   START DEPTH
 STOP.F         1561.5000:   STOP DEPTH
 STEP.F            0.5000:   STEP LENGTH
 NULL.          -999.2500:   NO VALUE
 COMP. FENIX & SCISSON INC:   COMPANY
 WELL.  72 SH 3 STX #72-3:   WELL
 FLD .             TEAPOT:   FIELD
 LOC .       S3 T38N R78W:   LOCATION
 CNTY.            NATRONA:   COUNTY
 STAT.            WYOMING:   STATE
 CTRY. UNITED STATES OF AMERICA:   COUNTRY
 SRVC.           BIRDWELL:   SERVICE COMPANY
 DATE.        31-JUL-1979:   LOGDATE
 API .       490251078600:   API NUMBER
~CURVE INFORMATION
#MNEM.UNIT       API CODE    CURVE DESCRIPTION
#----------   ------------   ------------------------------
 DEPT.F                  :   
 CALD.IN     45 280 60 00:   CALIPER FROM DENSITY LOG
 GRD .GAPI   45 310 01 00:   GAMMA RAY FROM DENSITY LOG
 RHOB.G/C3   45 350 01 00:   BULK DENSITY
 CORR.G/C3   45 356 01 00:   DENSITY CORRECTION
 DPHI.DEC    45 890 12 00:   DENSITY POROSITY SANDSTONE
 GR  .GAPI   81 310 01 00:   GAMMA RAY
~PARAMETER INFORMATION
#MNEM.UNIT          VALUE    DESCRIPTION
#----------   ------------   ------------------------------
 PD  .                 GL:   PERMANENT DATUM
 EPD .F              5165:   ELEVATION PERMANENT DATUM
 LMF .                 KB:   LOG MEASURED FROM
 DAPD.F                10:   FEET ABOVE PERMANENT DATUM
 DMF .                 KB:   DRILLING MEASURED FROM
 EKB .F              5175:   KELLING BUSHING
 EGL .F              5165:   GROUND LEVEL
 DATE.            7-31-79:   RUN DATE
 RUN .                  1:   RUN NUMBER
 DD  .F              1564:   DEPTH DRILLER
 DL  .F              1560:   DEPTH LOGGER
 BLI .F              1560:   BOTTOM LOG INTERVAL
 TLI .F               700:   TOP LOG INTERVAL
 CS  .IN            9.625:   CASING SIZE
 CBD .F               691:   CASING BOTTOM DRILLER
 CBL .F               680:   CASING BOTTOM LOGGER
 BS  .IN            7.875:   BIT SIZE
 BSD .F              1564:   BIT SIZE AT DEPTH
 DFT .                OIL:   DRILLING FLUID TYPE
 BHT .F                92:   BOTTOM HOLE TEMPERATURE
 TCS .HRS               2:   TIME CURCULATED STOPPED
 MRT .F                92:   MAXIMUM RECORDED TEMPERATURE
 LUN .               3029:   LOGGING UNIT NUMBER
 LUL .                CPR:   LOGGING UNIT LOCATION
 ENGI.             MILLER:   RECORDING ENGINEER
 WITN.           DINSMORE:   WITNESSED BY
 CLNT.            A2DTECH:   CLIENT CODE
 ORIG.       2", 5" PRINT:   ORIGIN OF DATA
 UWI .       490251078600:   UNIQUE WELL ID
 DICO. A2D Technologies, Inc.:   DIGITIZING COMPANY
~OTHER INFORMATION
~A   DEPT     CALD        GRD       RHOB       CORR       DPHI          GR  
# ...
  674.0000  -999.2500  -999.2500  -999.2500  -999.2500  -999.2500    51.3176
  674.5000  -999.2500  -999.2500  -999.2500  -999.2500  -999.2500    49.9728
  675.0000  -999.2500  -999.2500  -999.2500  -999.2500  -999.2500    52.9330
  675.5000  -999.2500  -999.2500  -999.2500  -999.2500  -999.2500    54.5035
  676.0000  -999.2500  -999.2500  -999.2500  -999.2500  -999.2500    53.8924
  676.5000  -999.2500  -999.2500  -999.2500  -999.2500  -999.2500    55.4910
  677.0000  -999.2500  -999.2500  -999.2500  -999.2500  -999.2500    58.3723
  677.5000  -999.2500  -999.2500  -999.2500  -999.2500  -999.2500    60.3286
  678.0000  -999.2500  -999.2500  -999.2500  -999.2500  -999.2500    59.7651
  678.5000  -999.2500  -999.2500  -999.2500  -999.2500  -999.2500    56.8746
  679.0000  -999.2500  -999.2500  -999.2500  -999.2500  -999.2500    54.1035
  679.5000  -999.2500  -999.2500  -999.2500  -999.2500  -999.2500    53.9552
  680.0000     9.7395    93.2064     2.5145     0.0390     0.0198    56.9128
  680.5000     9.7298   100.4208     2.5064     0.0306     0.0213    56.2643
  681.0000     9.7194    99.2018     2.5018     0.0229     0.0249    53.7259
  681.5000     9.7310    98.1906     2.5013     0.0167     0.0277    58.2966
  682.0000     9.7441    98.4012     2.4764     0.0089     0.0419    69.3537
  682.5000     9.7574    99.7989     2.4674     0.0012     0.0450    80.2655
  683.0000     9.7706   100.8552     2.4737     0.0069     0.0375    89.4058
  683.5000     9.7838    99.7273     2.4836     0.0152     0.0310    91.6869
  684.0000     9.7969    98.0301     2.4935     0.0173     0.0292    91.9361
  684.5000     9.8101    96.0354     2.4995     0.0045     0.0290    88.3856
  685.0000     9.8222    92.6955     2.4938    -0.0007     0.0311    84.5986
  685.5000     9.8324    90.6991     2.4876     0.0084     0.0340    83.4777
  686.0000     9.8423    91.5527     2.4815     0.0174     0.0370    87.2071
  686.5000     9.8523    92.4333     2.4815     0.0264     0.0337    91.1857
  687.0000     9.8655    90.6257     2.4911     0.0349     0.0250    95.1174
  687.5000     9.8915    87.8866     2.5016     0.0322     0.0182    95.8901
  688.0000     9.9168    86.5418     2.5122     0.0301     0.0148    85.8660
  688.5000     9.9421    91.9708     2.5229     0.0279     0.0132    81.5164
  689.0000     9.9674    95.5106     2.5188     0.0257     0.0178    85.7291
  689.5000     9.9927    94.6070     2.5134     0.0236     0.0209    90.3377
  690.0000    10.0180    93.5698     2.5081     0.0214     0.0234    87.3895
  690.5000    10.0432    92.5320     2.5028     0.0193     0.0238    91.8319
  691.0000    10.0687    91.5044     2.4976     0.0212     0.0219    96.1243
  691.5000    10.0799    90.8670     2.5069     0.0331     0.0186    95.7771
  692.0000    10.0801    92.4050     2.5248     0.0446     0.0152    94.2702
  692.5000    10.0830    93.8991     2.5238     0.0403     0.0106    88.2703
  693.0000    10.1684    95.3491     2.5140     0.0312     0.0223    80.6315
  693.5000    10.2307    95.1337     2.4834     0.0258     0.0366    78.0499
  694.0000    10.2949    94.8231     2.4828     0.0463     0.0366    81.0554
  694.5000    10.3531    94.5099     2.5001     0.0509     0.0319    84.6649
  695.0000    10.3592    94.2556     2.4973     0.0511     0.0278    87.3224
  695.5000    10.3574    96.3179     2.4924     0.0472     0.0286    85.6961
  696.0000    10.3554    98.6644     2.5003     0.0420     0.0277    82.3257
  696.5000    10.3535    99.1858     2.4980     0.0368     0.0270    81.3889
  697.0000    10.3517    97.4031     2.4918     0.0316     0.0284    83.6370
  697.5000    10.3498    92.3319     2.4924     0.0264     0.0305    85.8289
  698.0000    10.3479    87.8845     2.4973     0.0234     0.0267    86.6978
  698.5000    10.3461    88.5836     2.5035     0.0267     0.0229    82.7069
  699.0000    10.3442    89.9291     2.4972     0.0299     0.0218    78.8198
  699.5000    10.3424    91.2486     2.4892     0.0278     0.0320    75.8002
  700.0000    10.3406    92.4303     2.4811     0.0205     0.0396    76.9556
  700.5000    10.3307    90.6048     2.4730     0.0171     0.0425    78.1748
  701.0000    10.3195    88.5726     2.4784     0.0189     0.0396    79.4940
  701.5000    10.3083    86.4726     2.4852     0.0179     0.0366    80.8785
  702.0000    10.2971    85.0415     2.4827     0.0157     0.0344    82.3614
  702.5000    10.2859    84.2381     2.4787     0.0134     0.0349    81.5760
  703.0000    10.2693    88.3689     2.4747     0.0193     0.0362    80.2214
  703.5000    10.2475    92.6418     2.4825     0.0278     0.0374    83.0669
  704.0000    10.2258    94.0941     2.4980     0.0353     0.0318    86.1383
  704.5000    10.2041    92.7712     2.5000     0.0283     0.0272    88.9734
  705.0000    10.1824    90.8037     2.4887     0.0195     0.0318    88.4728
  705.5000    10.1608    88.8242     2.4836     0.0169     0.0358    87.0601
  706.0000    10.1390    86.8544     2.4904     0.0207     0.0306    88.0668
  706.5000    10.1173    85.1419     2.5029     0.0256     0.0237    86.9372
  707.0000    10.0956    85.3767     2.5085     0.0270     0.0216    85.1885
  707.5000    10.0740    86.7032     2.5021     0.0248     0.0235    84.3665
  708.0000    10.0527    88.0302     2.4978     0.0099     0.0246    84.6556
  708.5000    10.0325    88.3562     2.5127     0.0122     0.0194    83.3557
  709.0000    10.0121    88.0703     2.5245     0.0187     0.0139    83.7519
  709.5000     9.9918    90.3548     2.5337     0.0206     0.0090    84.3105
  710.0000     9.9715    92.3796     2.5355     0.0221     0.0070    82.8463
  710.5000     9.9512    90.3651     2.5316     0.0237     0.0102    81.5246
  711.0000     9.9309    91.1717     2.5275     0.0255     0.0114    82.6498
  711.5000     9.9106    92.2877     2.5275     0.0284     0.0114    84.4215
  712.0000     9.8903    89.8667     2.5275     0.0312     0.0104    85.5265
  712.5000     9.8699    86.9308     2.5262     0.0316     0.0126    86.3258
  713.0000     9.8496    84.5713     2.5187     0.0278     0.0171    86.0983
  713.5000     9.8293    85.9027     2.5113     0.0240     0.0217    86.0999
  714.0000     9.8090    87.2421     2.5040     0.0182     0.0264    86.0740
  714.5000     9.7887    88.5636     2.4966     0.0034     0.0310    85.0355
  715.0000     9.7684    89.6560     2.4892     0.0029     0.0322    83.5490
  715.5000     9.7480    89.8528     2.4868     0.0052     0.0294    85.0044
  716.0000     9.7277    90.7896     2.4935     0.0076     0.0258    85.5271
  716.5000     9.7074    93.2738     2.5003     0.0083     0.0228    83.0958
  717.0000     9.6871    91.2281     2.5073     0.0093     0.0213    80.2751
  717.5000     9.6668    87.8757     2.5175     0.0207     0.0121    79.8237
  718.0000     9.6464    84.4734     2.5390     0.0268     0.0042    83.8161
  718.5000     9.6300    81.0579     2.5375     0.0218     0.0095    85.5646
  719.0000     9.6156    80.5190     2.5257     0.0167     0.0157    87.1208
  719.5000     9.6012    82.5891     2.5161     0.0117     0.0220    90.7090
  720.0000     9.5972    84.9597     2.5068     0.0126     0.0266    90.0589
  720.5000     9.5949    87.3443     2.5006     0.0202     0.0270    88.6850
  721.0000     9.5927    88.3706     2.5541     0.0268    -0.0026    87.3980
  721.5000     9.5904    84.5789     2.5570     0.0238    -0.0026    86.3870
  722.0000     9.5881    81.1051     2.5442     0.0207     0.0042    87.9934
  722.5000     9.5858    82.3604     2.5321     0.0177     0.0106    89.6522
  723.0000     9.5835    84.0369     2.5201     0.0146     0.0153    87.6983
  723.5000     9.5811    86.3737     2.5096     0.0116     0.0192    84.9035
  724.0000     9.5798    88.9214     2.5026     0.0085     0.0231    82.1112
  724.5000     9.5913    90.9094     2.4964     0.0075     0.0258    79.8926
  725.0000     9.6025    87.0645     2.4962     0.0179     0.0258    80.8818
  725.5000     9.6137    90.5147     2.5106     0.0281     0.0214    82.2332
