~VERSION INFORMATION
 VERS.                2.0:   CWLS LOG ASCII STANDARD - VERSION 2.0
 WRAP.                 NO:   ONE LINE PER DEPTH STEP
~WELL INFORMATION
#MNEM.UNIT      DATA TYPE    INFORMATION
#----------   ------------   ------------------------------
 STRT.F           32.0000:   START DEPTH
 STOP.F          501.0000:   STOP DEPTH
 STEP.F            0.5000:   STEP LENGTH
 NULL.          -999.2500:   NO VALUE
 COMP.    FENIX & SCISSON:   COMPANY
 WELL.    NPR "SX" #75-10:   WELL
 FLD .             TEAPOT:   FIELD
 LOC .      S10 T38N R78W:   LOCATION
 CNTY.            NATRONA:   COUNTY
 STAT.            WYOMING:   STATE
 CTRY. UNITED STATES OF AMERICA:   COUNTRY
 SRVC.              Welex:   SERVICE COMPANY
 DATE.        08-MAR-1977:   LOGDATE
 API .       490251029200:   API NUMBER
~CURVE INFORMATION
#MNEM.UNIT       API CODE    CURVE DESCRIPTION
#----------   ------------   ------------------------------
 DEPT.F                  :   
 SPR .MV     07 010 01 00:   SPONTANEOUS POTENTIAL
 ILD .OHMM   07 120 46 00:   INDUCTION LOG DEEP
 ILM .OHMM   07 120 44 00:   INDUCTION LOG MEDIUM
 SGRD.OHMM   07 221 05 00:   SHALLOW SHORT GUARD RESISTIVITY
 GRD .GAPI   45 310 01 00:   GAMMA RAY FROM DENSITY LOG
 CALD.IN     45 280 60 00:   CALIPER FROM DENSITY LOG
 CORR.G/C3   45 356 01 00:   DENSITY CORRECTION
 RHOB.G/C3   45 350 01 00:   BULK DENSITY
 DPHI.DEC    45 890 12 00:   DENSITY POROSITY SANDSTONE
~PARAMETER INFORMATION
#MNEM.UNIT          VALUE    DESCRIPTION
#----------   ------------   ------------------------------
 PD  .                 GL:   PERMANENT DATUM
 EPD .F              5184:   ELEVATION PERMANENT DATUM
 LMF .                 GL:   LOG MEASURED FROM
 DAPD.F                GL:   FEET ABOVE PERMANENT DATUM
 EGL .F              5184:   GROUND LEVEL
 DATE.          03-8-1977:   RUN DATE
 RUN .                  1:   RUN NUMBER
 DD  .F               510:   DEPTH DRILLER
 DL  .F               505:   DEPTH LOGGER
 BLI .F               503:   BOTTOM LOG INTERVAL
 TLI .F                35:   TOP LOG INTERVAL
 CS  .IN            8.625:   CASING SIZE
 CBD .F                42:   CASING BOTTOM DRILLER
 CBL .F                43:   CASING BOTTOM LOGGER
 BS  .IN            7.875:   BIT SIZE
 BSD .F               510:   BIT SIZE AT DEPTH
 DFT .            KCL MUD:   DRILLING FLUID TYPE
 DFD .                8.6:   DRILLING FLUID DENSITY
 DFV .                 36:   DRILLING FLUID VISCOSITY
 DFPH.                9.5:   DRILLING FLUID PH
 DFL .                  2:   DRILLING FLUID LOSS
 MSS .           FLOWLINE:   MUD SAMPLE SOURCE
 RMS .OHMM            .49:   RESISTIVITY MUD SAMPLE
 MST .F                56:   MUD SAMPLE TEMPERATURE
 RMF .OHMM            .42:   RESISTIVITY MUD FILTRATE SAMPLE
 MFST.F                56:   MUD FILTRATE SAMPLE TEMPERATURE
 RMC .OHMM            .62:   RESISTIVITY MUD CAKE
 MCST.F                56:   MUD CAKE SAMPLE TEMPERATURE
 MFSS.               MEAS:   MUD FILTRATE SAMPLE SOURCE
 MCSS.               MEAS:   MUD CAKE SAMPLE SOURCE
 RMB .OHMM            .44:   RESISTIVITY MUD AT BHT
 BHT .F                62:   BOTTOM HOLE TEMPERATURE
 TCS .HRS               2:   TIME CURCULATED STOPPED
 MRT .F                62:   MAXIMUM RECORDED TEMPERATURE
 LUN .               8611:   LOGGING UNIT NUMBER
 LUL .           GILLETTE:   LOGGING UNIT LOCATION
 ENGI.            C. DOAK:   RECORDING ENGINEER
 WITN.           S. BURNE:   WITNESSED BY
 CLNT.            A2DTECH:   CLIENT CODE
 ORIG.        2" 5" PRINT:   ORIGIN OF DATA
 UWI .       490251029200:   UNIQUE WELL ID
 DICO. A2D Technologies, Inc.:   DIGITIZING COMPANY
~OTHER INFORMATION
~A   DEPT      SPR        ILD        ILM       SGRD         GRD        CALD      CORR        RHOB     DPHI   
   32.0000  -999.2500  -999.2500  -999.2500  -999.2500    86.2336     7.9319    -0.3048     1.8536  -999.2500
   32.5000  -999.2500  -999.2500  -999.2500  -999.2500    85.2023     7.9620    -0.2531     1.8049  -999.2500
   33.0000  -999.2500  -999.2500  -999.2500  -999.2500    80.7432     7.9605    -0.2305     1.7817  -999.2500
   33.5000  -999.2500  -999.2500  -999.2500  -999.2500    77.6254     7.8903    -0.2108     1.7495  -999.2500
   34.0000  -999.2500  -999.2500  -999.2500  -999.2500    74.8057     7.9085    -0.1776     1.7322  -999.2500
   34.5000  -999.2500  -999.2500  -999.2500  -999.2500    72.5821     7.9376    -0.1338     1.7623  -999.2500
   35.0000  -999.2500  -999.2500  -999.2500  -999.2500    70.6565     7.9217    -0.0825     1.7991  -999.2500
   35.5000  -999.2500  -999.2500  -999.2500  -999.2500    69.0290     7.8510    -0.0116     1.8262  -999.2500
   36.0000  -999.2500  -999.2500  -999.2500  -999.2500    68.5909     7.8973     0.0818     1.8900  -999.2500
   36.5000  -999.2500  -999.2500  -999.2500  -999.2500    70.3941     8.0177     0.1361     1.9530  -999.2500
   37.0000  -999.2500  -999.2500  -999.2500  -999.2500    71.8962     7.9297     0.1754     1.9718  -999.2500
   37.5000  -999.2500  -999.2500  -999.2500  -999.2500    73.5474     7.4251     0.1725     1.9636  -999.2500
   38.0000  -999.2500  -999.2500  -999.2500  -999.2500    75.3477     7.5901     0.1680     1.9487  -999.2500
   38.5000  -999.2500  -999.2500  -999.2500  -999.2500    75.9557     8.0528     0.1546     1.9390  -999.2500
   39.0000  -999.2500  -999.2500  -999.2500  -999.2500    74.6263     8.6196     0.1486     1.9360  -999.2500
   39.5000  -999.2500  -999.2500  -999.2500  -999.2500    71.5085     8.7995     0.1593     1.9480  -999.2500
   40.0000  -999.2500  -999.2500  -999.2500  -999.2500    69.7319     8.1312     0.1578     1.9526  -999.2500
   40.5000  -999.2500  -999.2500  -999.2500  -999.2500    71.9793     7.9387     0.1474     1.9414  -999.2500
   41.0000  -999.2500  -999.2500  -999.2500  -999.2500    73.3324     8.2377     0.1369     1.9212  -999.2500
   41.5000  -999.2500  -999.2500  -999.2500  -999.2500    72.1520     8.0905     0.1325     1.9265  -999.2500
   42.0000  -999.2500  -999.2500  -999.2500  -999.2500    71.8658     8.0022     0.1356     1.9310  -999.2500
   42.5000  -999.2500  -999.2500  -999.2500  -999.2500    73.5171     8.3012     0.1387     1.9348  -999.2500
   43.0000  -999.2500  -999.2500  -999.2500  -999.2500    73.8509     8.2285     0.1403     1.9491  -999.2500
   43.5000   -22.9851     2.5249     3.0545     4.7944    76.5979     8.5721     0.1389     1.9514  -999.2500
   44.0000   -23.4328     2.6865     2.8704     3.5626    81.2091     9.0049     0.1330     1.9492  -999.2500
   44.5000   -23.4328     2.8386     2.7349     2.7592    83.3025     9.1700     0.1165     1.9440  -999.2500
   45.0000   -23.4328     3.0202     2.7536     2.9673    84.4958     9.0076     0.1045     1.9515  -999.2500
   45.5000   -23.2836     3.3034     3.2493     3.5373    85.5569     8.4137     0.1061     1.9666  -999.2500
   46.0000   -22.6866     3.7191     3.7816     4.5351    86.2941     8.0133     0.1137     1.9861  -999.2500
   46.5000   -22.3881     3.8178     4.0236     6.0186    86.4286     7.5384     0.1078     1.9983  -999.2500
   47.0000   -22.0896     3.8437     3.8601     6.0600    84.8041     6.9891     0.1004     2.0298     0.3000
   47.5000   -21.6418     4.0613     3.9203     5.1342    83.0276     6.6479     0.1095     2.0756     0.3000
   48.0000   -21.4925     4.3812     4.5861     4.4104    80.9530     7.7507     0.1156     2.1461     0.2980
   48.5000   -21.3433     4.6937     5.0508     5.5005    79.7697     8.4068     0.1112     2.1529     0.2986
   49.0000   -21.1940     4.9257     5.3740     6.5083    79.6325     8.6760     0.1052     2.1440     0.3000
   49.5000   -21.0448     5.0628     5.1915     7.1003    82.6280     8.7369     0.1068     2.1380     0.3000
   50.0000   -21.0728     4.8903     5.0152     6.8187    83.3820     8.7531     0.1145     2.1440     0.2982
   50.5000   -21.2454     4.6589     5.3800     6.3193    82.2827     8.7838     0.1176     2.1546     0.2970
   51.0000   -21.4181     4.6261     5.4842     5.7683    81.0242     8.5474     0.1146     2.1524     0.2978
   51.5000   -21.4925     4.6577     5.2610     6.3083    79.9929     8.2065     0.1087     2.1532     0.2921
   52.0000   -21.6418     4.7873     5.4449     6.8988    80.8989     7.8507     0.1028     2.1675     0.2840
   52.5000   -21.9403     4.9209     5.6742     7.3900    83.4443     8.0752     0.1013     2.1900     0.2717
   53.0000   -22.3881     5.0580     5.8726     7.5426    87.6290     8.5974     0.1090     2.2088     0.2659
   53.5000   -22.6866     5.1988     6.0779     7.1677    91.0686     8.8666     0.1196     2.2314     0.2467
   54.0000   -23.2836     5.3068     6.0771     7.3328    96.5947     8.8825     0.1257     2.2502     0.2353
   54.5000   -24.0358     5.4179     6.0299     7.8553   102.7168     8.6907     0.1273     2.2600     0.2331
   55.0000   -24.8159     5.4918     5.7490     7.6388   107.0506     8.5581     0.1229     2.2458     0.2448
   55.5000   -26.2687     5.3045     5.4773     7.1767   110.1921     8.5549     0.1109     2.2338     0.2493
   56.0000   -27.3134     5.1951     5.6687     6.7892   111.9923     8.8435     0.1005     2.2429     0.2406
   56.5000   -28.3582     5.1587     6.1998     6.6943   113.7926     9.0085     0.0930     2.2557     0.2261
   57.0000   -29.2537     5.1580     6.1564     6.7862   115.8909     8.9652     0.0914     2.3007     0.2063
   57.5000   -29.8507     5.1932     6.0295     6.8843   118.7343     8.5648     0.0932     2.3368     0.1829
   58.0000   -30.1493     5.2645     6.2834     7.1173   121.2797     8.7447     0.0948     2.3571     0.1744
   58.5000   -30.2985     5.3370     6.6480     7.5194   123.5270     8.7609     0.0964     2.3601     0.1660
   59.0000   -30.4478     5.4495     6.9664     8.1106   124.5821     8.6580     0.0995     2.3722     0.1645
   59.5000   -30.4706     5.5612     6.8701     8.4513   123.8488     8.3618     0.1026     2.3639     0.1696
   60.0000   -30.5970     5.5990     6.7287     8.1624   122.0723     8.2292     0.1042     2.3535     0.1764
   60.5000   -30.7463     5.6370     6.8212     8.2167   119.6997     8.2007     0.1043     2.3354     0.1893
   61.0000   -30.8955     5.6361     6.8675     8.6213   118.9634     8.2021     0.1014     2.3195     0.2055
   61.5000   -31.0448     5.6353     6.7257     8.7994   121.2137     8.2183     0.0985     2.2903     0.2184
   62.0000   -31.1940     5.6346     6.4078     8.3237   122.7159     8.2355     0.0940     2.2418     0.2552
   62.5000   -31.4925     5.5951     6.1013     7.4512   125.2613     8.2507     0.0791     2.1866     0.2756
   63.0000   -31.7910     5.5943     5.8969     6.3117   128.7009     8.2521     0.0550     2.1632     0.2906
   63.5000   -32.2388     5.5935     6.3610     6.1385   130.3521     8.2385     0.0341     2.2302     0.2459
   64.0000   -32.7124     5.5928     6.7675     7.1431   131.4072     8.2250     0.0389     2.3440     0.1387
   64.5000   -33.1343     5.5919     6.9560     8.0305   132.4622     8.2263     0.0494     2.4351     0.1264
   65.0000   -33.5821     5.5911     7.0034     8.3679   133.6664     8.1781     0.0509     2.4338     0.1275
   65.5000   -33.8806     5.6293     6.7648     8.5439   132.4860     8.1221     0.0494     2.4283     0.1290
   66.0000   -34.0299     5.7066     6.5346     8.7172   130.4114     8.0818     0.0466     2.4388     0.1236
   66.5000   -34.3284     5.7854     6.3998     8.5947   130.2742     8.0831     0.0467     2.4456     0.1233
   67.0000   -34.4776     5.8648     6.6692     7.9640   129.8329     8.0994     0.0452     2.4502     0.1214
   67.5000   -34.6269     5.9456     7.2439     7.4307   126.5625     8.1007     0.0453     2.4577     0.1157
   68.0000   -34.6269     5.9447     7.4458     8.2964   126.6000     8.1169     0.0454     2.4592     0.1130
