~VERSION INFORMATION
 VERS.                2.0:   CWLS LOG ASCII STANDARD - VERSION 2.0
 WRAP.                 NO:   ONE LINE PER DEPTH STEP
~WELL INFORMATION
#MNEM.UNIT      DATA TYPE    INFORMATION
#----------   ------------   ------------------------------
 STRT.F            1.0000:   START DEPTH
 STOP.F          600.0000:   STOP DEPTH
 STEP.F            0.5000:   STEP LENGTH
 NULL.          -999.2500:   NO VALUE
 COMP.       F D SERV INC:   COMPANY
 WELL.    62-1 SX-3 #62-3:   WELL
 FLD .             TEAPOT:   FIELD
 LOC .       S3 T38N R78W:   LOCATION
 CNTY.            NATRONA:   COUNTY
 STAT.            WYOMING:   STATE
 CTRY. UNITED STATES OF AMERICA:   COUNTRY
 SRVC.     Atlas Wireline:   SERVICE COMPANY
 DATE.        05-MAY-1992:   LOGDATE
 API .       490252250800:   API NUMBER
~CURVE INFORMATION
#MNEM.UNIT       API CODE    CURVE DESCRIPTION
#----------   ------------   ------------------------------
 DEPT.F                  :   
 GRR .GAPI   07 310 01 00:   GAMMA RAY
 RILD.OHMM   07 120 46 00:   INDUCTION LOG DEEP RESISTIVITY
 RILM.OHMM   07 120 44 00:   INDUCTION LOG MEDIUM RESISTIVITY
~PARAMETER INFORMATION
#MNEM.UNIT          VALUE    DESCRIPTION
#----------   ------------   ------------------------------
 PD  .                 GL:   PERMANENT DATUM
 EPD .F              5159:   ELEVATION PERMANENT DATUM
 LMF .                 KB:   LOG MEASURED FROM
 DAPD.F                 5:   FEET ABOVE PERMANENT DATUM
 DMF .                 KB:   DRILLING MEASURED FROM
 EKB .F              5164:   KELLING BUSHING
 EGL .F              5159:   GROUND LEVEL
 DATE.        06-MAY-1992:   RUN DATE
 RUN .                  1:   RUN NUMBER
 DD  .F               605:   DEPTH DRILLER
 DL  .F               609:   DEPTH LOGGER
 BLI .F               607:   BOTTOM LOG INTERVAL
 CS  .IN            8.625:   CASING SIZE
 CBD .F                51:   CASING BOTTOM DRILLER
 CBL .F                51:   CASING BOTTOM LOGGER
 BS  .IN            7.875:   BIT SIZE
 BSD .F               605:   BIT SIZE AT DEPTH
 DFT .                AIR:   DRILLING FLUID TYPE
 TCS .HRS               3:   TIME CURCULATED STOPPED
 LUN .            HL-6272:   LOGGING UNIT NUMBER
 LUL .             CASPER:   LOGGING UNIT LOCATION
 ENGI.             ZIEGER:   RECORDING ENGINEER
 WITN.             STRONG:   WITNESSED BY
 CLNT.            A2DTECH:   CLIENT CODE
 ORIG.           5" PRINT:   ORIGIN OF DATA
 UWI .       490252250800:   UNIQUE WELL ID
 DICO. A2D Technologies, Inc.:   DIGITIZING COMPANY
~OTHER INFORMATION
~A    DEPT      GRR      RILD       RILM   
# ...
  183.0000   135.0612     8.1766     8.2765
  183.5000   132.6198     8.1749     8.2168
  184.0000   135.9272     8.1733     8.2146
  184.5000   139.8728     8.1716     8.2123
  185.0000   140.7267     8.1699     8.1530
  185.5000   135.6663     8.1115     8.0941
  186.0000   131.3000     8.0491     8.0353
  186.5000   131.5818     7.9960     7.9773
  187.0000   132.4739     7.9386     7.9751
  187.5000   132.1452     7.9369     7.9729
  188.0000   131.8270     7.9353     7.9707
  188.5000   135.7344     7.9337     7.9686
  189.0000   140.2521     7.9320     8.0221
  189.5000   142.0467     8.0416     8.0765
  190.0000   140.5130     8.0965     8.1307
  190.5000   138.0715     8.1514     8.2420
  191.0000   137.1430     8.2062     8.3554
  191.5000   133.7939     8.3781     8.5295
  192.0000   130.1421     8.6125     8.6468
  192.5000   127.7007     8.7314     8.8270
  193.0000   128.6554     8.8521     8.9554
  193.5000   129.7770     9.1001     9.1460
  194.0000   128.5407     9.3552     9.3898
  194.5000   128.2172     9.4872     9.6525
  195.0000   129.1041     9.6154     9.8537
  195.5000   129.3911     9.7588     9.9899
  196.0000   128.1547     9.8828    10.1273
  196.5000   124.8056    10.0188    10.2659
  197.0000   119.9436    10.1577    10.4070
  197.5000   117.5021    10.3694    10.5502
  198.0000   118.6916    10.5127    10.6953
  198.5000   122.3016    10.7329    10.8424
  199.0000   124.7013    10.9571    10.9915
  199.5000   127.4036    11.1079    11.1427
  200.0000   125.8699    11.1838    11.2175
  200.5000   120.0909    11.3382    11.3718
  201.0000   120.9928    11.3353    11.2091
  201.5000   120.9743    11.3330    11.1275
  202.0000   118.6929    11.2802    11.1237
  202.5000   116.3958    11.2071    11.1198
  203.0000   116.9875    11.1340    11.1160
  203.5000   116.9650    11.0626    10.9584
  204.0000   116.0393    10.9797    10.8031
  204.5000   111.4827    10.9725    10.6499
  205.0000   110.8641    10.9665    10.4990
  205.5000   117.1957    10.6594    10.4953
  206.0000   119.6028    10.5797    10.4189
  206.5000   115.9494    10.5739    10.4153
  207.0000   111.6955    10.4948    10.4845
  207.5000   108.6518    10.5623    10.4808
  208.0000   111.0544    10.5565    10.5506
  208.5000   117.6930    10.6259    10.6940
  209.0000   119.4949    10.6186    10.7651
  209.5000   115.8416    10.8370    10.8366
  210.0000   108.5619    10.9066    10.8329
  210.5000   105.2156    10.9005    10.7540
  211.0000   109.1311    10.5952    10.4548
  211.5000   114.5594    10.4340    10.3787
  212.0000   122.7109    10.2928    10.1605
  212.5000   123.9032    10.0035    10.0165
  213.0000   121.1252     9.8598     9.8745
  213.5000   116.5325     9.7182     9.7345
  214.0000   113.1495     9.6454     9.5965
  214.5000   109.5129     9.5069     9.4605
  215.0000   105.0494     9.4357     9.3263
  215.5000   102.6108     9.3651     9.2584
  216.0000   107.1314     9.2951     9.1910
  216.5000   111.9546     9.2255     9.0606
  217.0000   113.4540     9.1565     9.0575
  217.5000   114.3437     9.1515     8.9908
  218.0000   115.5360     9.1465     8.9877
  218.5000   116.4213     9.0780     8.8603
  219.0000   119.4290     9.0684     8.7958
  219.5000   122.1342     9.0050     8.7927
  220.0000   122.4233     9.0619     8.7897
  220.5000   117.2571     9.0569     8.7867
  221.0000   113.3057     9.0519     8.8451
  221.5000   111.4723     9.0470     8.7807
  222.0000   109.6389     9.0420     8.8390
  222.5000   109.3228     9.0371     8.8360
  223.0000   111.7209     9.0321     8.8329
  223.5000   113.8209     8.9645     8.8299
  224.0000   116.5261     8.9596     8.8269
  224.5000   117.4161     8.9547     8.8238
  225.0000   117.3979     8.8877     8.8208
  225.5000   120.1269     8.8212     8.7565
  226.0000   121.2954     8.6945     8.6927
  226.5000   119.9218     8.5087     8.5099
  227.0000   113.5492     8.3246     8.3887
  227.5000   107.9238     8.0879     8.1553
  228.0000   110.6290     7.8141     7.8188
  228.5000   113.6367     7.6484     7.6544
  229.0000   116.3419     7.4862     7.4935
  229.5000   121.1650     7.4302     7.3873
  230.0000   125.0805     7.4262     7.3847
  230.5000   126.8780     7.4221     7.3822
  231.0000   126.2548     7.4709     7.3797
  231.5000   125.9343     7.6233     7.4813
  232.0000   122.2855     7.6191     7.5310
  232.5000   119.8469     7.7217     7.5810
  233.0000   122.8547     7.6639     7.6308
  233.5000   125.8624     7.7133     7.7353
  234.0000   126.1515     7.7629     7.7866
  234.5000   124.6162     7.8694     7.8390
  235.0000   123.3879     7.9788     8.0011
  235.5000   122.1596     8.0807     8.1673
  236.0000   119.7211     8.1895     8.2216
  236.5000   120.9134     8.2422     8.3916
  237.0000   121.2102     8.2366     8.4474
  237.5000   119.6672     8.4058     8.4445
  238.0000   119.6492     8.4610     8.5013
  238.5000   123.3101     8.4552     8.4977
  239.0000   124.4544     8.3337     8.4358
  239.5000   121.0106     8.2714     8.4329
  240.0000   121.9934     8.2095     8.4300
  240.5000   125.6063     8.2050     8.3105
  241.0000   128.3114     8.0871     8.1927
  241.5000   128.9031     7.9709     8.1330
  242.0000   127.9729     7.9113     8.1302
  242.5000   129.4678     7.9069     8.1274
  243.0000   131.5723     7.9025     8.1246
  243.5000   132.4621     7.8981     8.1218
  244.0000   126.3882     7.8929     8.1190
  244.5000   121.8316     7.8886     8.0598
  245.0000   120.6078     7.8842     8.0570
  245.5000   123.6111     7.9350     8.0542
  246.0000   126.0137     7.9306     8.0509
  246.5000   129.0214     7.9263     8.0481
  247.0000   130.2182     7.9219     7.9895
  247.5000   128.6829     7.9176     7.9867
  248.0000   125.0341     8.0242     7.9840
  248.5000   124.3753     8.0758     7.9812
  249.0000   127.4187     8.0714     7.9785
  249.5000   130.7290     8.0670     7.9758
  250.0000   133.7368     8.0625     7.9612
  250.5000   132.7375     7.9736     7.8852
  251.0000   127.5519     7.8846     7.8092
  251.5000   122.3422     7.8246     7.7332
  252.0000   119.1372     7.6704     7.6382
  252.5000   120.3295     7.4577     7.5831
  253.0000   121.5219     7.3016     7.4761
  253.5000   121.5040     7.1470     7.3131
  254.0000   123.9067     6.8991     7.0610
  254.5000   127.5196     6.6535     6.8231
  255.0000   129.6242     6.3751     6.5873
  255.5000   129.2992     6.0839     6.2720
  256.0000   128.3736     5.9565     6.0980
  256.5000   126.8428     5.9140     6.0540
  257.0000   121.3786     5.9948     6.0523
  257.5000   113.7964     6.1201     6.1356
  258.0000   113.0408     6.2912     6.2638
  258.5000   118.9043     6.4670     6.4391
  259.0000   121.3071     6.6938     6.7117
  259.5000   120.9864     6.9290     6.8994
  260.0000   124.9621     7.0247     7.0432
  260.5000   127.3404     7.1212     7.1901
  261.0000   127.2335     7.1690     7.2383
  261.5000   123.3309     7.2167     7.2869
  262.0000   120.2872     7.2146     7.3358
  262.5000   124.8079     7.2126     7.2829
  263.0000   129.3286     7.2107     7.2737
  263.5000   131.7312     7.2087     7.1777
  264.0000   130.8056     7.2067     7.1757
  264.5000   126.8542     7.1546     7.1239
  265.0000   124.7183     7.0048     6.9747
  265.5000   125.0030     6.9539     6.8285
  266.0000   124.6825     6.8083     6.7322
  266.5000   124.6646     6.6195     6.5911
  267.0000   125.8570     6.3913     6.4530
  267.5000   128.8648     6.0434     6.2304
  268.0000   130.9648     5.5964     6.0154
  268.5000   130.6444     5.3660     5.7275
  269.0000   126.6606     5.1810     5.4155
  269.5000   123.2980     5.0725     5.1564
  270.0000   121.1701     5.0711     5.0836
  270.5000   119.6793     5.1411     5.1895
  271.0000   120.8680     5.3586     5.4096
  271.5000   123.2707     5.5856     5.6119
  272.0000   125.6733     5.7419     5.8438
  272.5000   128.0760     5.9850     6.1697
  273.0000   130.4787     6.4148     6.5216
  273.5000   131.3729     6.7803     6.8935
