~VERSION INFORMATION
 VERS.                2.0:   CWLS LOG ASCII STANDARD - VERSION 2.0
 WRAP.                 NO:   ONE LINE PER DEPTH STEP
~WELL INFORMATION
#MNEM.UNIT      DATA TYPE    INFORMATION
#----------   ------------   ------------------------------
 STRT.F           42.0000:   START DEPTH
 STOP.F         3145.0000:   STOP DEPTH
 STEP.F            0.5000:   STEP LENGTH
 NULL.          -999.2500:   NO VALUE
 COMP. LAWRENCE/ALLISON INC:   COMPANY
 WELL.      46 STX #34-34:   WELL
 FLD .             TEAPOT:   FIELD
 LOC .      S34 T39N R78W:   LOCATION
 CNTY.            NATRONA:   COUNTY
 STAT.            WYOMING:   STATE
 CTRY. UNITED STATES OF AMERICA:   COUNTRY
 SRVC.              Welex:   SERVICE COMPANY
 DATE.        01-MAY-1977:   LOGDATE
 API .       490251104800:   API NUMBER
~CURVE INFORMATION
#MNEM.UNIT       API CODE    CURVE DESCRIPTION
#----------   ------------   ------------------------------
 DEPT.F                  :   
 ILD .OHMM   07 120 46 00:   INDUCTION LOG DEEP
 ILM .OHMM   07 120 44 00:   INDUCTION LOG MEDIUM
 SGRD.OHMM   07 221 05 00:   SHALLOW SHORT GUARD RESISTIVITY
 SPR .MV     07 010 01 00:   SPONTANEOUS POTENTIAL
 GR  .GAPI   81 310 01 00:   GAMMA RAY
~PARAMETER INFORMATION
#MNEM.UNIT          VALUE    DESCRIPTION
#----------   ------------   ------------------------------
 PD  .                 GL:   PERMANENT DATUM
 EPD .F              5120:   ELEVATION PERMANENT DATUM
 LMF .                 GL:   LOG MEASURED FROM
 DMF .                 GL:   DRILLING MEASURED FROM
 EGL .F              5120:   GROUND LEVEL
 DATE.        01-MAY-1977:   RUN DATE
 RUN .                  1:   RUN NUMBER
 DD  .F               660:   DEPTH DRILLER
 DL  .F               661:   DEPTH LOGGER
 BLI .F               659:   BOTTOM LOG INTERVAL
 TLI .F                40:   TOP LOG INTERVAL
 CS  .IN            8.625:   CASING SIZE
 CBD .F                40:   CASING BOTTOM DRILLER
 CBL .F                42:   CASING BOTTOM LOGGER
 BS  .IN            7.875:   BIT SIZE
 BSD .F               660:   BIT SIZE AT DEPTH
 DFT .             KCLMUD:   DRILLING FLUID TYPE
 DFD .                8.7:   DRILLING FLUID DENSITY
 DFV .                 31:   DRILLING FLUID VISCOSITY
 DFPH.                  9:   DRILLING FLUID PH
 DFL .                  5:   DRILLING FLUID LOSS
 MSS .           FLOWLINE:   MUD SAMPLE SOURCE
 RMS .OHMM            .23:   RESISTIVITY MUD SAMPLE
 MST .F                62:   MUD SAMPLE TEMPERATURE
 RMF .OHMM            .17:   RESISTIVITY MUD FILTRATE SAMPLE
 MFST.F                62:   MUD FILTRATE SAMPLE TEMPERATURE
 RMC .OHMM            .32:   RESISTIVITY MUD CAKE
 MCST.F                62:   MUD CAKE SAMPLE TEMPERATURE
 MFSS.           MEASURED:   MUD FILTRATE SAMPLE SOURCE
 MCSS.           MEASURED:   MUD CAKE SAMPLE SOURCE
 RMB .OHMM             .2:   RESISTIVITY MUD AT BHT
 BHT .F                71:   BOTTOM HOLE TEMPERATURE
 TCS .HRS             1.5:   TIME CURCULATED STOPPED
 MRT .F                71:   MAXIMUM RECORDED TEMPERATURE
 LUL .             CASPER:   LOGGING UNIT LOCATION
 ENGI.          T. JOYNER:   RECORDING ENGINEER
 WITN.            R. LYON:   WITNESSED BY
 CLNT.            A2DTECH:   CLIENT CODE
 ORIG.        2" 5" PRINT:   ORIGIN OF DATA
 UWI .       490251104800:   UNIQUE WELL ID
 DICO. A2D Technologies, Inc.:   DIGITIZING COMPANY
~OTHER INFORMATION
~A   DEPT      ILD        ILM       SGRD        SPR         GR   
# ...
  408.0000     6.8127    10.6621    10.7047   -41.8968  -999.2500
  408.5000     6.7619    10.6569    10.6994   -41.9089  -999.2500
  409.0000     6.6604    10.6517    10.6942   -42.0705  -999.2500
  409.5000     6.4768    10.6464    10.6889   -42.0826  -999.2500
  410.0000     6.2548    10.5676    10.6836   -42.2442  -999.2500
  410.5000     6.0382    10.4893    10.6784   -42.4058  -999.2500
  411.0000     5.7488    10.4127    10.5994   -42.5673  -999.2500
  411.5000     5.4355    10.3280    10.4482   -42.7265  -999.2500
  412.0000     5.2838    10.1845    10.1573   -42.8879  -999.2500
  412.5000     5.1363     9.7679     9.8746   -43.0618  -999.2500
  413.0000     5.0277     8.7978     9.5333   -43.2108  -999.2500
  413.5000     4.9214     7.4960     9.3324   -43.2228  -999.2500
  414.0000     4.8174     7.6500     9.3288   -43.2349  -999.2500
  414.5000     4.7156     8.3682     9.3893   -43.2470  -999.2500
  415.0000     4.6480     8.9652     9.3847   -43.2591  -999.2500
  415.5000     4.5814     9.3418     9.4453   -43.2712  -999.2500
  416.0000     4.4845     9.5349     9.5726   -43.2833  -999.2500
  416.5000     4.4510     9.5966     9.5678   -43.2954  -999.2500
  417.0000     4.4485     8.9476     9.4314   -43.3075  -999.2500
  417.5000     4.4460     8.0032     8.8563   -43.3196  -999.2500
  418.0000     4.4440     7.1585     8.4912   -43.3318  -999.2500
  418.5000     4.4416     6.5376     8.5471   -43.3439  -999.2500
  419.0000     4.4701     6.4005     8.7822   -43.3560  -999.2500
  419.5000     4.5315     7.2478     9.0876   -43.3681  -999.2500
  420.0000     4.5589     8.0293     9.5349   -43.2277  -999.2500
  420.5000     4.7171     8.7609     9.6646   -43.0903  -999.2500
  421.0000     4.9490     9.3046     9.7947   -42.8065  -999.2500
  421.5000     5.4129     9.6829     9.7887   -42.8161  -999.2500
  422.0000     5.7583     9.7456     9.8532   -42.6782  -999.2500
  422.5000     5.8769     9.4740     9.8471   -42.6906  -999.2500
  423.0000     5.8728     9.3388     9.8423   -42.8520  -999.2500
  423.5000     5.6694     9.3342     9.8385   -43.0135  -999.2500
  424.0000     5.3604     9.3958     9.8337   -43.3246  -999.2500
  424.5000     5.0332     9.4566     9.7574   -43.6356  -999.2500
  425.0000     4.6609     9.3205     9.4237   -44.0962  -999.2500
  425.5000     4.2863     8.5121     8.9727   -44.2578  -999.2500
  426.0000     4.1093     6.8609     8.4843   -44.2699  -999.2500
  426.5000     4.0504     5.7651     7.7490   -44.1295  -999.2500
  427.0000     4.0481     5.6052     7.7991   -43.6931  -999.2500
  427.5000     4.1602     6.6171     8.4132   -43.2599  -999.2500
  428.0000     4.3226     7.9218     9.0130   -42.9700  -999.2500
  428.5000     4.5571     8.6656     9.4567   -42.6831  -999.2500
  429.0000     4.8144     9.2838     9.8537   -42.3963  -999.2500
  429.5000     5.1501     9.6329    10.1963   -42.1095  -999.2500
  430.0000     5.4749     9.9609    10.4780   -41.9721  -999.2500
  430.5000     5.9881    10.2229    10.7675   -41.8347  -999.2500
  431.0000     6.3702    10.4272    10.9884   -41.6974  -999.2500
  431.5000     6.8239    10.5678    11.1378   -41.5600  -999.2500
  432.0000     7.1593    10.7103    11.3664   -41.4031  -999.2500
  432.5000     7.4078    10.7049    11.4555   -41.2852  -999.2500
  433.0000     7.5593    10.6256    11.5253   -41.1479  -999.2500
  433.5000     7.6617    10.4740    11.6689   -41.1600  -999.2500
  434.0000     7.7643    10.3245    11.6631   -41.0224  -999.2500
  434.5000     7.7589    10.1068    11.7385   -41.0347  -999.2500
  435.0000     7.8096    10.0320    11.6517   -40.8969  -999.2500
  435.5000     7.8041     9.9577    11.7270   -40.7570  -999.2500
  436.0000     7.7997     9.9528    11.6402   -40.7721  -999.2500
  436.5000     7.7953     9.8791    11.7133   -40.7842  -999.2500
  437.0000     7.7909    10.0122    11.7074   -40.7963  -999.2500
  437.5000     7.7866    10.0770    11.7026   -40.8084  -999.2500
  438.0000     7.7831    10.0720    11.6979   -40.9700  -999.2500
  438.5000     7.7787    10.2789    11.6123   -40.9821  -999.2500
  439.0000     7.7744    10.4311    11.5273   -40.9942  -999.2500
  439.5000     7.7164    10.6414    11.5227   -41.0064  -999.2500
  440.0000     7.6059    10.9316    11.5180   -41.0185  -999.2500
  440.5000     7.3425    11.2287    11.5947   -41.0306  -999.2500
  441.0000     7.0393    11.4593    11.8327   -41.0427  -999.2500
  441.5000     6.6556    11.4537    12.1609   -41.0523  -999.2500
  442.0000     6.2062    10.9811    12.4982   -41.0643  -999.2500
  442.5000     5.7471    10.3110    12.6678   -40.9265  -999.2500
  443.0000     5.3590     9.4824    12.4017   -40.9386  -999.2500
  443.5000     5.0669     8.8422     8.8227   -40.8012  -999.2500
  444.0000     4.9943     8.6568     6.4533   -40.5144  -999.2500
  444.5000     4.9915     8.9570     5.7328   -40.2276  -999.2500
  445.0000     5.1290     9.3983     5.5356   -39.7912  -999.2500
  445.5000     5.3440     9.9991    10.6240   -39.5044  -999.2500
  446.0000     5.6850    10.6384    14.0180   -39.0681  -999.2500
  446.5000     6.1322    11.2403    14.2096   -38.4823  -999.2500
  447.0000     6.7070    11.8762    14.2024   -37.8965  -999.2500
  447.5000     7.4899    12.7235    14.2970   -37.3107  -999.2500
  448.0000     7.9582    13.7262    14.2898   -36.5754  -999.2500
  448.5000     8.6828    14.2213    14.3850   -35.8401  -999.2500
  449.0000     9.2850    14.4077    14.4793   -35.2543  -999.2500
  449.5000     9.8672    14.6929    14.5742   -34.5191  -999.2500
  450.0000    10.3487    14.8909    14.6698   -33.8735  -999.2500
  450.5000    10.9439    14.9457    14.7645   -33.2014  -999.2500
  451.0000    11.5535    15.0850    14.9649   -32.5293  -999.2500
  451.5000    12.1232    15.6082    15.4870   -31.8657  -999.2500
  452.0000    13.0788    16.4913    17.1794   -30.9778  -999.2500
  452.5000    14.9147    17.6680    20.8561   -30.2395  -999.2500
  453.0000    16.7741    19.3269    24.7979   -29.5011  -999.2500
  453.5000    19.9415    22.3486    31.8240   -28.4638  -999.2500
  454.0000    23.7071    24.9613    41.7002   -27.5760  -999.2500
  454.5000    27.7954    26.5574    47.2311   -26.8376  -999.2500
  455.0000    30.4053    27.4818    36.0152   -26.3960  -999.2500
  455.5000    33.2601    28.0498    28.4331   -25.9566  -999.2500
  456.0000    35.6338    26.3352    28.8189   -25.5194  -999.2500
  456.5000    36.6247    23.8849    35.9716   -25.3767  -999.2500
  457.0000    34.3905    20.7609    36.2811   -25.3880  -999.2500
  457.5000    32.0728    16.7611    33.5324   -25.3970  -999.2500
  458.0000    28.8918    15.8379    31.2713   -25.5555  -999.2500
  458.5000    26.5735    18.2496    29.7763   -25.8635  -999.2500
  459.0000    24.7826    19.8209    28.7490   -26.0220  -999.2500
  459.5000    23.1123    20.6078    27.7572   -26.0310  -999.2500
  460.0000    22.0079    21.0106    26.6143   -25.8906  -999.2500
  460.5000    21.2489    20.9822    25.6961   -25.7479  -999.2500
  461.0000    20.8026    20.8447    25.3316   -25.6074  -999.2500
  461.5000    20.5075    20.9799    25.8542   -25.3198  -999.2500
  462.0000    20.6416    21.4109    26.5713   -25.0276  -999.2500
  462.5000    20.7766    21.8632    26.9320   -24.7399  -999.2500
  463.0000    21.2067    22.4662    26.7347   -24.3005  -999.2500
  463.5000    21.9435    23.4190    26.7221   -24.0106  -999.2500
  464.0000    22.7083    24.5695    28.2364   -23.7184  -999.2500
  464.5000    23.6633    25.9640    30.4643   -23.4307  -999.2500
  465.0000    24.3188    27.4145    34.2657   -23.1386  -999.2500
  465.5000    24.9925    28.5690    39.0801   -22.9981  -999.2500
  466.0000    25.6848    29.5540    40.1681   -22.8361  -999.2500
  466.5000    26.2138    29.7453    31.2713   -22.5501  -999.2500
  467.0000    26.5688    29.7309    28.5617   -22.1146  -999.2500
  467.5000    26.9287    29.5108    31.9035   -21.8384  -999.2500
  468.0000    26.9174    28.6888    35.8844   -21.5426  -999.2500
  468.5000    26.7202    27.5052    37.9179   -21.4080  -999.2500
