~VERSION INFORMATION
 VERS.                2.0:   CWLS LOG ASCII STANDARD - VERSION 2.0
 WRAP.                 NO:   ONE LINE PER DEPTH STEP
~WELL INFORMATION
#MNEM.UNIT      DATA TYPE    INFORMATION
#----------   ------------   ------------------------------
 STRT.F            0.0000:   START DEPTH
 STOP.F         3315.0000:   STOP DEPTH
 STEP.F            0.5000:   STEP LENGTH
 NULL.          -999.2500:   NO VALUE
 COMP. LAWRENCE/ALLISON INC     84-AX-:   COMPANY
 WELL.          SHX3 #1-3:   WELL
 FLD .            WILDCAT:   FIELD
 LOC .       S3 T38N R78W:   LOCATION
 CNTY.            NATRONA:   COUNTY
 STAT.            WYOMING:   STATE
 CTRY. UNITED STATES OF AMERICA:   COUNTRY
 SRVC.      Dresser Atlas:   SERVICE COMPANY
 DATE.        20-JAN-1986:   LOGDATE
 API .       490251104200:   API NUMBER
~CURVE INFORMATION
#MNEM.UNIT       API CODE    CURVE DESCRIPTION
#----------   ------------   ------------------------------
 DEPT.F                  :   
 SPR .MV     07 010 01 00:   SPONTANEOUS POTENTIAL
 RILD.OHMM   07 120 46 00:   INDUCTION LOG DEEP RESISTIVITY
 RILM.OHMM   07 120 44 00:   INDUCTION LOG MEDIUM RESISTIVITY
 RFOC.OHMM   07 220 04 00:   RESISTIVITY FOCUSED LOG
 AC  .US/F   60 520 00 00:   ACCOUSTIC
 CALD.IN     45 280 60 00:   CALIPER FROM DENSITY
 CORR.G/C3   45 356 01 00:   DENSITY CORRECTION
 DEN .G/C3   45 350 01 00:   COMPENSATED BULK DENSTIY
 PORD.DEC    45 890 12 00:   POROSITY DENSITY SANDSTONE
 CNC .DEC    42 890 03 00:   NEUTRON POROSITY SANDSTONE
 GRR .GAPI   07 310 01 00:   GAMMA RAY
~PARAMETER INFORMATION
#MNEM.UNIT          VALUE    DESCRIPTION
#----------   ------------   ------------------------------
 PD  .                 GL:   PERMANENT DATUM
 EPD .F              5136:   ELEVATION PERMANENT DATUM
 LMF .                 KB:   LOG MEASURED FROM
 DAPD.F                11:   FEET ABOVE PERMANENT DATUM
 DMF .                 KB:   DRILLING MEASURED FROM
 EKB .F              5147:   KELLING BUSHING
 EGL .F              5136:   GROUND LEVEL
 DATE.        26-JAN-1986:   RUN DATE
 RUN .                  1:   RUN NUMBER
 DD  .F              3320:   DEPTH DRILLER
 DL  .F              3317:   DEPTH LOGGER
 BLI .F              3315:   BOTTOM LOG INTERVAL
 CS  .IN            8.625:   CASING SIZE
 CBD .F               550:   CASING BOTTOM DRILLER
 CBL .F               592:   CASING BOTTOM LOGGER
 BS  .IN            7.875:   BIT SIZE
 BSD .F              3320:   BIT SIZE AT DEPTH
 DFT .        POLYMER KCL:   DRILLING FLUID TYPE
 DFD .                9.1:   DRILLING FLUID DENSITY
 DFV .                 38:   DRILLING FLUID VISCOSITY
 DFPH.                 10:   DRILLING FLUID PH
 DFL .                8.5:   DRILLING FLUID LOSS
 MSS .           FLOWLINE:   MUD SAMPLE SOURCE
 RMS .OHMM           .435:   RESISTIVITY MUD SAMPLE
 MST .F                72:   MUD SAMPLE TEMPERATURE
 RMF .OHMM           .352:   RESISTIVITY MUD FILTRATE SAMPLE
 MFST.F                72:   MUD FILTRATE SAMPLE TEMPERATURE
 RMC .OHMM            .54:   RESISTIVITY MUD CAKE
 MCST.F                72:   MUD CAKE SAMPLE TEMPERATURE
 MFSS.               MEAS:   MUD FILTRATE SAMPLE SOURCE
 MCSS.               MEAS:   MUD CAKE SAMPLE SOURCE
 RMB .OHMM            .29:   RESISTIVITY MUD AT BHT
 BHT .F               108:   BOTTOM HOLE TEMPERATURE
 TCS .HRS               3:   TIME CURCULATED STOPPED
 MRT .F               108:   MAXIMUM RECORDED TEMPERATURE
 LUN .               6274:   LOGGING UNIT NUMBER
 LUL .               GLTE:   LOGGING UNIT LOCATION
 ENGI.             RAUTIO:   RECORDING ENGINEER
 WITN.             STRONG:   WITNESSED BY
 CLNT.            A2DTECH:   CLIENT CODE
 ORIG.       2", 5" PRINT:   ORIGIN OF DATA
 UWI .       490251104200:   UNIQUE WELL ID
 DICO. A2D Technologies, Inc.:   DIGITIZING COMPANY
~OTHER INFORMATION
~A    DEPT     SPR       RILD       RILM       RFOC         AC       CALD       CORR        DEN       PORD        CNC        GRR   
# ...
 2623.0000   -18.6324    26.7614    19.8534    17.0331    91.5900     8.5452     0.0460     2.3928     0.1666     0.2018    31.0120
 2623.5000   -19.2315    26.3943    19.5838    17.5171    94.2283     8.5443     0.0309     2.3898     0.1586     0.2051    32.2418
 2624.0000   -19.2135    25.8526    19.4372    17.8903    96.6410     8.5434     0.0174     2.3830     0.1558     0.2060    33.4716
 2624.5000   -18.8980    25.6751    19.1828    17.8952    99.0537     8.5576     0.0203     2.3792     0.1559     0.2024    33.9401
 2625.0000   -18.4318    26.5840    19.3403    17.4104    99.1356     8.5567     0.0323     2.3799     0.1590     0.1897    32.6029
 2625.5000   -18.1471    27.9094    20.0017    17.0554    99.1513     8.5558     0.0458     2.3866     0.1641     0.1786    32.0166
 2626.0000   -17.9898    28.8970    20.7094    17.0613    99.1489     8.5549     0.0548     2.3949     0.1643     0.1762    32.1881
 2626.5000   -17.9838    29.3029    21.4422    17.4248    98.9301     8.5540     0.0488     2.4031     0.1628     0.1865    32.0560
 2627.0000   -17.9778    29.5090    21.8948    18.1702    98.4828     8.5529     0.0427     2.3993     0.1531     0.1898    31.0169
 2627.5000   -17.9718    29.5111    22.0489    19.6161    97.3498     8.5520     0.0410     2.3880     0.1495     0.1853    29.8261
 2628.0000   -17.9659    29.5131    22.0504    22.3852    96.5304     8.5511     0.0427     2.3864     0.1495     0.1814    28.1815
 2628.5000   -17.8086    29.5151    21.8994    23.6688    96.1750     8.5502     0.0351     2.3924     0.1539     0.1805    29.5824
 2629.0000   -17.9554    29.3125    21.5990    22.3975    96.4346     8.5342     0.0291     2.3999     0.1601     0.1832    31.5822
 2629.5000   -18.2505    28.9109    21.3023    19.3672    97.0171     8.5333     0.0321     2.4104     0.1561     0.1893    33.4158
 2630.0000   -18.8496    28.5143    20.8651    17.8255    97.1725     8.5324     0.0380     2.4217     0.1514     0.2014    34.8059
 2630.5000   -19.2975    27.7355    20.5789    17.2227    95.3763     8.5315     0.0349     2.4322     0.1470     0.2018    35.8442
 2631.0000   -19.7469    26.7913    20.4376    16.9890    89.5184     8.5306     0.0181     2.4419     0.1393     0.1935    35.5321
 2631.5000   -20.1932    26.0595    20.2976    17.1131    80.3521     8.5146    -0.0014     2.4442     0.1299     0.1948    34.8283
 2632.0000   -20.0360    25.5243    20.2994    19.8017    76.7360     8.4986    -0.0089     2.4224     0.1248     0.1960    34.8478
 2632.5000   -19.5761    25.7038    20.1600    22.4408    74.7669     8.4826    -0.0085     2.4030     0.1263     0.1954    35.9263
 2633.0000   -19.1163    26.4613    20.1618    23.2390    74.4313     8.4817     0.0033     2.3989     0.1438     0.1885    36.8536
 2633.5000   -18.9590    28.1836    21.3144    21.5380    75.1163     8.4808     0.0138     2.4252     0.1517     0.1855    37.4782
 2634.0000   -18.9530    29.5704    22.6898    16.7838    75.5741     8.4799     0.0243     2.4492     0.1511     0.1828    38.1029
 2634.5000   -19.2496    30.1610    23.4927    16.4426    75.0545     8.4941     0.0318     2.4643     0.1461     0.1810    38.1224
 2635.0000   -19.2436    28.7331    23.4943    16.6770    73.6326     8.4932     0.0272     2.4612     0.1251     0.1765    37.5368
 2635.5000   -19.2375    27.7550    23.0118    20.6829    71.6093     8.5074     0.0167     2.4250     0.1124     0.1726    35.7409
 2636.0000   -18.8930    27.3738    22.5391    26.5561    70.8641     8.5065     0.0061     2.3926     0.1128     0.1711    33.0373
 2636.5000   -17.9903    28.7391    22.5407    30.5159    71.0963     8.5054    -0.0014     2.3866     0.1339     0.1744    32.4468
 2637.0000   -17.5540    30.8067    22.7142    26.7557    73.0579     8.5045    -0.0060     2.4038     0.1517     0.1792    34.2866
 2637.5000   -17.5480    33.0232    24.7447    18.7898    75.0947     8.4885    -0.0090     2.4271     0.1580     0.1738    36.4241
 2638.0000   -18.2985    34.1917    27.8110    16.8179    75.7012     8.4876    -0.0076     2.4399     0.1454     0.1690    37.3514
 2638.5000   -18.8991    32.5724    28.5479    17.4585    74.4314     8.4867     0.0105     2.4429     0.1303     0.1687    34.9503
 2639.0000   -19.1957    30.6021    28.1562    22.5054    72.5584     8.4858     0.0300     2.4233     0.1270     0.1691    33.4570
 2639.5000   -19.1882    29.1528    26.6377    29.4532    71.8132     8.4849     0.0450     2.4059     0.1290     0.1760    33.0177
 2640.0000   -18.8797    28.5535    23.5109    33.5538    71.5927     8.4840     0.0525     2.3998     0.1434     0.1914    35.1602
 2640.5000   -18.8737    28.9552    22.0883    29.3983    72.3529     8.4983     0.0555     2.4126     0.1487     0.1902    37.7515
 2641.0000   -18.8677    29.1588    22.5550    19.4526    74.1641     8.5125     0.0690     2.4374     0.1474     0.1794    39.4352
 2641.5000   -19.1643    27.7779    23.0312    17.4480    74.6971     8.5269     0.0780     2.4652     0.1348     0.1724    39.6587
 2642.0000   -19.4609    25.9171    23.1932    17.9450    74.2527     8.5561     0.0569     2.4848     0.1137     0.1709    37.8101
 2642.5000   -19.7575    24.3494    22.2487    19.1061    71.3904     8.5703     0.0373     2.4824     0.0968     0.1716    36.7706
 2643.0000   -19.7515    23.0358    21.1950    20.4839    68.8113     8.5694     0.0343     2.4587     0.0980     0.1737    38.7569
 2643.5000   -19.8983    22.4065    20.1912    21.6585    67.3479     8.5534     0.0372     2.4336     0.1092     0.1813    40.8944
 2644.0000   -19.8908    22.2531    19.5039    18.7282    67.2118     8.5525     0.0432     2.4081     0.1225     0.1924    43.4858
 2644.5000   -20.0363    22.1007    18.8399    16.9999    70.7449     8.5516     0.0492     2.3808     0.1359     0.2021    43.9591
 2645.0000   -20.1815    21.6468    18.0727    16.5393    74.4449     8.5507     0.0537     2.3731     0.1609     0.2103    40.9227
 2645.5000   -20.7805    21.0550    17.7015    16.0912    75.8050     8.5498     0.0460     2.3783     0.1668     0.2121    37.9280
 2646.0000   -21.2284    20.6231    17.4587    15.6553    76.2628     8.5487     0.0370     2.3926     0.1671     0.2115    37.6637
 2646.5000   -21.2224    20.6245    17.4599    15.5503    76.7206     8.5478     0.0325     2.4054     0.1593     0.2097    38.6291
 2647.0000   -21.2164    20.9306    17.5827    15.0255    77.3288     8.5469     0.0229     2.4136     0.1489     0.2073    39.4140
 2647.5000   -21.3617    21.5496    18.5879    14.4170    77.7114     8.5460     0.0014     2.4174     0.1421     0.1985    40.5017
 2648.0000   -21.5070    22.4497    19.3797    14.5214    77.8685     8.5451    -0.0172     2.4090     0.1424     0.1865    41.6801
 2648.5000   -21.6523    23.3759    19.9266    15.4609    77.7248     8.5442    -0.0112     2.3909     0.1486     0.1850    42.2999
 2649.0000   -21.4936    24.0356    20.2065    17.5215    77.4308     8.5433     0.0023     2.3788     0.1584     0.1908    40.0550
 2649.5000   -21.1850    24.5430    20.2079    18.9158    76.9863     8.5578     0.0128     2.3743     0.1644     0.1944    37.9565
 2650.0000   -20.7252    25.0611    20.0695    19.7249    76.9162     8.5720     0.0190     2.3754     0.1666     0.1935    37.2147
 2650.5000   -21.0491    25.2093    19.7891    18.9262    77.2229     8.5708     0.0212     2.3778     0.1648     0.1917    38.5365
 2651.0000   -21.4732    25.3868    19.5129    17.5408    77.4530     8.5697     0.0233     2.3794     0.1636     0.1931    39.9526
 2651.5000   -22.0739    25.2337    19.2549    16.8626    77.5326     8.5686     0.0232     2.3771     0.1654     0.1975    39.8073
 2652.0000   -22.3731    24.3439    19.1230    16.3960    77.3104     8.5676     0.0217     2.3785     0.1660     0.1972    38.7543
 2652.5000   -22.5189    22.9317    18.9921    15.9142    77.0893     8.5665     0.0156     2.3898     0.1633     0.1972    38.6076
 2653.0000   -22.6657    22.7777    18.8620    15.5875    77.0195     8.5655     0.0141     2.4033     0.1569     0.2002    38.9177
