~VERSION INFORMATION
 VERS.                2.0:   CWLS LOG ASCII STANDARD - VERSION 2.0
 WRAP.                 NO:   ONE LINE PER DEPTH STEP
~WELL INFORMATION
#MNEM.UNIT      DATA TYPE    INFORMATION
#----------   ------------   ------------------------------
 STRT.F           34.0000:   START DEPTH
 STOP.F          662.0000:   STOP DEPTH
 STEP.F            0.5000:   STEP LENGTH
 NULL.          -999.2500:   NO VALUE
 COMP. FENIX & SCISSON INC:   COMPANY
 WELL.     55 S 34 #34-34:   WELL
 FLD .          N.P.R. #3:   FIELD
 LOC .      S34 T39N R78W:   LOCATION
 CNTY.            NATRONA:   COUNTY
 STAT.            WYOMING:   STATE
 CTRY. UNITED STATES OF AMERICA:   COUNTRY
 SRVC.       Schlumberger:   SERVICE COMPANY
 DATE.        15-MAR-1977:   LOGDATE
 API .       490251030500:   API NUMBER
~CURVE INFORMATION
#MNEM.UNIT       API CODE    CURVE DESCRIPTION
#----------   ------------   ------------------------------
 DEPT.F                  :   
 GRD .GAPI   45 310 01 00:   GAMMA RAY FROM DENSITY LOG
 CORR.G/C3   45 356 01 00:   DENSITY CORRECTION
 RHOB.G/C3   45 350 01 00:   BULK DENSITY
 DPOR.DEC    45 890 12 00:   DENSITY POROSITY SANDSTONE
 SPR .MV     07 010 01 00:   SPONTANEOUS POTENTIAL
 LL8 .OHMM   07 220 08 00:   LATEROLOG-8 RES.
 ILD .OHMM   07 120 46 00:   INDUCTION LOG DEEP
 ILM .OHMM   07 120 44 00:   INDUCTION LOG MEDIUM
 CALD.IN     45 280 60 00:   CALIPER
~PARAMETER INFORMATION
#MNEM.UNIT          VALUE    DESCRIPTION
#----------   ------------   ------------------------------
 PD  .                 GL:   PERMANENT DATUM
 EPD .F              5087:   ELEVATION PERMANENT DATUM
 LMF .                 GL:   LOG MEASURED FROM
 DMF .                 GL:   DRILLING MEASURED FROM
 EKB .F              5091:   KELLING BUSHING
 EGL .F              5087:   GROUND LEVEL
 DATE.            3-15-77:   RUN DATE
 RUN .                  1:   RUN NUMBER
 DD  .F               670:   DEPTH DRILLER
 DL  .F               663:   DEPTH LOGGER
 BLI .F               657:   BOTTOM LOG INTERVAL
 TLI .F                40:   TOP LOG INTERVAL
 CS  .IN            8.625:   CASING SIZE
 CBD .F                40:   CASING BOTTOM DRILLER
 CBL .F                40:   CASING BOTTOM LOGGER
 BS  .IN            7.875:   BIT SIZE
 BSD .F               670:   BIT SIZE AT DEPTH
 DFT .                KCL:   DRILLING FLUID TYPE
 DFD .                8.6:   DRILLING FLUID DENSITY
 DFV .                 31:   DRILLING FLUID VISCOSITY
 DFPH.                  8:   DRILLING FLUID PH
 DFL .                8.8:   DRILLING FLUID LOSS
 MSS .                PIT:   MUD SAMPLE SOURCE
 RMS .OHMM           .246:   RESISTIVITY MUD SAMPLE
 MST .F                76:   MUD SAMPLE TEMPERATURE
 RMF .OHMM           .243:   RESISTIVITY MUD FILTRATE SAMPLE
 MFST.F                76:   MUD FILTRATE SAMPLE TEMPERATURE
 MFSS.                  M:   MUD FILTRATE SAMPLE SOURCE
 RMB .OHMM           .267:   RESISTIVITY MUD AT BHT
 BHT .F                70:   BOTTOM HOLE TEMPERATURE
 TCS .HRS            1800:   TIME CURCULATED STOPPED
 TLAB.HRS            2200:   TIME LOGGER AT BOTTOM
 MRT .F                70:   MAXIMUM RECORDED TEMPERATURE
 LUN .               5642:   LOGGING UNIT NUMBER
 LUL .               CSPR:   LOGGING UNIT LOCATION
 ENGI.             MARTIN:   RECORDING ENGINEER
 WITN.              BURKE:   WITNESSED BY
 CLNT.            A2DTECH:   CLIENT CODE
 ORIG. 2", 2.5", 5" PRINT:   ORIGIN OF DATA
 UWI .       490251030500:   UNIQUE WELL ID
 DICO. A2D Technologies, Inc.:   DIGITIZING COMPANY
~OTHER INFORMATION
~A   DEPT       GRD      CORR       RHOB       DPOR        SPR        LL8        ILD        ILM       CALD   
# ...
  472.0000    62.0583     0.0190     2.4706     0.1172   -40.3972    22.5991    15.0397    15.8373     8.6856
  472.5000    59.4945     0.0297     2.4194     0.1494   -39.5149    27.4795    16.5809    17.4125     8.7163
  473.0000    63.0158     0.0348     2.3568     0.1844   -38.6550    31.1021    18.2269    19.0779     8.7353
  473.5000    67.6334     0.0171     2.2903     0.2043   -37.5597    28.0790    18.7328    19.9469     8.7567
  474.0000    72.1644     0.0057     2.2854     0.2236   -36.4872    24.8520    19.5202    21.2325     8.7783
  474.5000    74.0514     0.0110     2.2773     0.2172   -36.1485    22.5130    20.3536    22.3258     8.7997
  475.0000    73.6059     0.0143     2.2705     0.2286   -35.9626    22.5122    20.3536    21.8136     8.8212
  475.5000    73.1905     0.0115     2.2669     0.2313   -35.7805    23.1235    19.9475    21.2930     8.8426
  476.0000    73.7209     0.0140     2.3549     0.1904   -35.3462    23.7372    19.6064    20.7878     8.8646
  476.5000    73.7058     0.0297     2.4267     0.1319   -34.7357    24.3200    19.2656    20.2946     8.8728
  477.0000    72.9413     0.0255     2.4299     0.1405   -34.1918    24.9111    18.9327    19.8131     8.8947
  477.5000    72.6219     0.0137     2.4065     0.1526   -33.7811    25.5165    18.7332    19.6168     8.8954
  478.0000    71.1673     0.0234     2.4027     0.1283   -33.3802    26.1053    19.2521    19.5314     8.9018
  478.5000    68.6231     0.0432     2.4264     0.1331   -32.9809    26.5910    20.1112    19.4368     8.9083
  479.0000    65.6334     0.0340     2.4177     0.1376   -32.6716    25.6337    21.0084    20.0760     8.9032
  479.5000    63.3560     0.0230     2.4269     0.1233   -32.5947    24.3017    21.9462    20.8123     8.8474
  480.0000    62.8039     0.0230     2.4474     0.1106   -32.5138    24.0270    22.9256    21.5756     8.8352
  480.5000    64.4182     0.0184     2.4521     0.1288   -32.4333    35.0422    23.9486    22.3668     8.8616
  481.0000    65.6214     0.0188     2.3834     0.1687   -32.3516    44.9695    25.0173    23.1871     8.8906
  481.5000    64.7668     0.0264     2.3189     0.1963   -32.2080    38.3268    26.1338    23.8066     8.9199
  482.0000    64.6260     0.0248     2.2550     0.2362   -31.9547    32.4677    27.3000    23.6834     8.9492
  482.5000    65.8383     0.0151     2.2324     0.2533   -31.3736    31.1021    28.5183    23.5881     8.9784
  483.0000    67.4204     0.0055     2.2539     0.2450   -30.7400    34.3324    29.7012    25.8213     9.0073
  483.5000    69.6862     0.0041     2.2764     0.2324   -30.1101    38.1052    30.2538    28.2554     9.0327
  484.0000    71.9198     0.0077     2.2995     0.2188   -29.7096    37.4192    30.0119    30.8167     9.0352
  484.5000    73.6900     0.0255     2.3223     0.2052   -29.3166    35.5412    29.3148    31.1021     9.0565
  485.0000    72.7984     0.0447     2.3412     0.1892   -28.9216    31.3488    28.6343    30.7363     9.0778
  485.5000    69.4591     0.0379     2.3134     0.2041   -28.5272    28.3316    27.9688    29.8873     9.0991
  486.0000    68.4053     0.0250     2.2743     0.2281   -28.3114    31.3757    27.3192    29.0616     9.1203
  486.5000    71.8521     0.0160     2.2875     0.2210   -28.6638    36.0847    26.6846    28.2588     9.1416
  487.0000    74.5336     0.0102     2.3134     0.2067   -29.0165    34.0958    26.0648    27.4781     9.1524
  487.5000    75.7582     0.0152     2.3400     0.1924   -29.3071    30.3066    25.4594    26.7181     9.1619
  488.0000    74.3840     0.0342     2.3639     0.1784   -29.2994    27.5898    24.8680    25.9809     9.1714
  488.5000    74.1459     0.0289     2.3535     0.1806   -29.3253    28.0881    24.1546    25.0956     9.1810
  489.0000    76.1882     0.0155     2.3403     0.1865   -29.5700    29.0864    23.1843    24.0876     9.1906
  489.5000    76.0997     0.0027     2.3317     0.1936   -29.8174    29.7012    22.2531    23.1201     9.1980
  490.0000    77.0275     0.0114     2.3433     0.1890   -30.0641    26.0452    21.3592    22.1914     9.2107
  490.5000    79.1372     0.0272     2.3586     0.1781   -30.3106    24.2495    20.5013    21.3000     9.2234
  491.0000    81.0780     0.0369     2.3741     0.1672   -30.5572    25.1603    19.6778    20.4444     9.2362
  491.5000    82.9875     0.0223     2.3895     0.1611   -30.8037    24.1148    18.8874    19.6232     9.2490
  492.0000    84.8907     0.0190     2.3990     0.1554   -31.0503    22.3619    18.1287    18.8350     9.2618
  492.5000    86.7874     0.0219     2.4067     0.1496   -31.2969    20.7364    17.7253    18.5614     9.2706
  493.0000    88.0150     0.0318     2.4243     0.1436   -31.5434    20.1669    17.7290    18.3245     9.2730
  493.5000    86.3327     0.0388     2.4129     0.1359   -31.7900    19.9309    17.2362    17.9834     9.2758
  494.0000    83.9639     0.0137     2.3907     0.1324   -32.0385    19.7985    16.9144    17.6486     9.2787
  494.5000    81.5173     0.0219     2.3984     0.1556   -32.2892    20.3893    16.5997    17.3200     9.2815
  495.0000    81.0364     0.0340     2.4091     0.1467   -32.3327    20.5421    16.3142    17.0837     9.2844
  495.5000    81.8489     0.0334     2.4165     0.1415   -32.3860    19.5819    16.3142    17.1318     9.2872
  496.0000    81.1024     0.0282     2.4074     0.1475   -32.4413    18.8568    16.3142    17.5475     9.2900
  496.5000    78.6570     0.0214     2.3950     0.1557   -32.4987    18.5614    16.3142    17.8917     9.2928
  497.0000    80.9991     0.0144     2.3824     0.1613   -32.5722    18.6535    16.3142    17.6857     9.2957
  497.5000    83.2388     0.0121     2.3776     0.1668   -32.6490    19.0458    16.3134    17.4839     9.2985
  498.0000    83.6009     0.0208     2.3751     0.1683   -32.7259    19.4463    16.3176    17.2807     9.3014
  498.5000    79.7249     0.0285     2.3638     0.1742   -32.8027    19.8552    16.2948    17.0867     9.3042
  499.0000    76.5785     0.0196     2.3441     0.1825   -32.8796    20.2728    16.6177    17.2387     9.3071
  499.5000    74.5462     0.0079     2.3299     0.1907   -32.9567    20.6991    17.0066    17.8849     9.3105
  500.0000    76.8566     0.0020     2.3332     0.1947   -33.0339    20.9243    17.3984    18.2994     9.2908
  500.5000    80.1279     0.0021     2.3411     0.1893   -33.0932    20.9252    17.7978    18.7246     9.2635
  501.0000    81.7931     0.0106     2.3487     0.1840   -33.0222    20.6599    18.3975    19.2653     9.2361
  501.5000    83.2263     0.0202     2.3586     0.1787   -32.9528    20.3776    18.3872    19.2540     9.2086
  502.0000    84.3874     0.0299     2.3683     0.1733   -32.8836    20.1597    18.3911    19.3747     9.1812
  502.5000    82.6232     0.0351     2.3780     0.1603   -32.8140    19.9742    18.3911    19.4555     9.1538
  503.0000    80.6724     0.0282     2.3797     0.1641   -32.7472    19.9788    18.3911    19.5269     9.1263
  503.5000    79.6966     0.0191     2.3570     0.1745   -32.7752    20.3158    18.3911    19.5986     9.0987
  504.0000    80.7534     0.0118     2.3395     0.1896   -33.0102    20.5171    18.3911    19.6706     9.0724
  504.5000    81.4921     0.0140     2.3445     0.1792   -33.0588    20.7204    18.3911    19.7428     9.0670
  505.0000    80.8562     0.0138     2.3474     0.1816   -32.9968    20.9293    18.3913    19.7985     9.0617
  505.5000    80.8601     0.0033     2.3391     0.1864   -32.9316    21.1152    18.3919    19.4148     9.0565
  506.0000    82.6502     0.0047     2.3405     0.1852   -33.0897    20.5368    18.3899    19.2585     9.0510
  506.5000    85.6741     0.0092     2.3499     0.1792   -33.4560    20.0020    18.3973    19.0371     9.0206
  507.0000    88.4137     0.0095     2.3597     0.1743   -33.8237    19.4846    17.8581    18.6203     8.9877
  507.5000    89.6797     0.0028     2.3695     0.1695   -34.1920    19.0818    17.4670    18.2125     8.9549
  508.0000    89.9627     0.0170     2.3791     0.1646   -34.5587    19.3825    17.0842    17.8139     8.9222
