~VERSION INFORMATION
 VERS.                2.0:   CWLS LOG ASCII STANDARD - VERSION 2.0
 WRAP.                 NO:   ONE LINE PER DEPTH STEP
~WELL INFORMATION
#MNEM.UNIT      DATA TYPE    INFORMATION
#----------   ------------   ------------------------------
 STRT.F           38.0000:   START DEPTH
 STOP.F          890.0000:   STOP DEPTH
 STEP.F            0.5000:   STEP LENGTH
 NULL.          -999.2500:   NO VALUE
 COMP. FENIX & SCISSON INC:   COMPANY
 WELL.       43 SX #14-14:   WELL
 FLD .             TEAPOT:   FIELD
 LOC .      S14 T38N R78W:   LOCATION
 CNTY.            NATRONA:   COUNTY
 STAT.            WYOMING:   STATE
 CTRY. UNITED STATES OF AMERICA:   COUNTRY
 SRVC.            Unknown:   SERVICE COMPANY
 DATE.        28-APR-1978:   LOGDATE
 API .       490251063600:   API NUMBER
~CURVE INFORMATION
#MNEM.UNIT       API CODE    CURVE DESCRIPTION
#----------   ------------   ------------------------------
 DEPT.F                  :   
 SPR .MV     05 010 01 00:   SPONTANEOUS POTENTIAL FROM RES.
 SN  .OHMM   05 040 16 00:   SHORT NORMAL 16"
 ILD .OHMM   05 120 46 00:   INDUCTION LOG DEEP
 CILD.MMHO   05 110 46 00:   CONDUCTIVITY INDUCTION LOG DEEP
 CALD.IN     45 280 60 00:   CALIPER FROM DENSITY LOG
 GRD .GAPI   45 310 01 00:   GAMMA RAY FROM DENSITY LOG
 CORR.G/C3   45 356 01 00:   DENSITY CORRECTION
 DPHI.DEC    45 890 12 00:   DENSITY POROSITY SANDSTONE
 DEN .G/C3   45 350 01 00:   COMPENSATED BULK DENSTIY
~PARAMETER INFORMATION
#MNEM.UNIT          VALUE    DESCRIPTION
#----------   ------------   ------------------------------
 PD  .                 GL:   PERMANENT DATUM
 EPD .F              5217:   ELEVATION PERMANENT DATUM
 LMF .                 KB:   LOG MEASURED FROM
 DMF .                 KB:   DRILLING MEASURED FROM
 EKB .F              5221:   KELLING BUSHING
 EGL .F              5217:   GROUND LEVEL
 DATE.        28-APR-1978:   RUN DATE
 RUN .                  1:   RUN NUMBER
 DD  .F               890:   DEPTH DRILLER
 DL  .F               890:   DEPTH LOGGER
 BLI .F               884:   BOTTOM LOG INTERVAL
 TLI .F                40:   TOP LOG INTERVAL
 CS  .IN            8.625:   CASING SIZE
 CBD .F                40:   CASING BOTTOM DRILLER
 CBL .F                40:   CASING BOTTOM LOGGER
 BS  .IN            7.875:   BIT SIZE
 BSD .F               890:   BIT SIZE AT DEPTH
 DFT .                KCL:   DRILLING FLUID TYPE
 DFD .                8.7:   DRILLING FLUID DENSITY
 DFV .                 34:   DRILLING FLUID VISCOSITY
 DFL .                4.8:   DRILLING FLUID LOSS
 MSS .            MUD PIT:   MUD SAMPLE SOURCE
 RMS .OHMM             .4:   RESISTIVITY MUD SAMPLE
 MST .F                56:   MUD SAMPLE TEMPERATURE
 RMF .OHMM            .38:   RESISTIVITY MUD FILTRATE SAMPLE
 MFST.F                64:   MUD FILTRATE SAMPLE TEMPERATURE
 RMC .OHMM              1:   RESISTIVITY MUD CAKE
 MCST.F                66:   MUD CAKE SAMPLE TEMPERATURE
 MFSS.               MEAS:   MUD FILTRATE SAMPLE SOURCE
 RMB .OHMM             .3:   RESISTIVITY MUD AT BHT
 BHT .F                74:   BOTTOM HOLE TEMPERATURE
 TCS .HRS            0100:   TIME CURCULATED STOPPED
 MRT .F                74:   MAXIMUM RECORDED TEMPERATURE
 LUN .               2958:   LOGGING UNIT NUMBER
 LUL .               CASP:   LOGGING UNIT LOCATION
 ENGI.             MILLER:   RECORDING ENGINEER
 WITN.           MCGINLEY:   WITNESSED BY
 CLNT.            A2DTECH:   CLIENT CODE
 ORIG.           5" PRINT:   ORIGIN OF DATA
 UWI .       490251063600:   UNIQUE WELL ID
 DICO. A2D Technologies, Inc.:   DIGITIZING COMPANY
~OTHER INFORMATION
~A   DEPT      SPR         SN        ILD       CILD       CALD        GRD       CORR       DPHI        DEN   
# ...
  512.5000   -32.8258     9.3209     9.4284    92.1462     7.3217    76.0564     0.0645     0.0787     2.5008
  513.0000   -32.8212     9.2592     9.4324    93.5683     7.3528    75.4629     0.0601     0.0894     2.5076
  513.5000   -32.8167     9.1988     9.4363    95.0207     7.4292    75.6282     0.0618     0.0960     2.4964
  514.0000   -32.8122     9.1396     9.4403    95.7089     7.5958    77.4472     0.0619     0.0981     2.4785
  514.5000   -32.9572     9.1428     9.4443    96.3971     7.6571    79.7180     0.0636     0.0833     2.4726
  515.0000   -32.8042     9.1562     9.4483    97.0853     7.7033    80.3293     0.0637     0.0818     2.4824
  515.5000   -32.7997     9.1893     9.4522    97.7734     7.7652    76.8801     0.0639     0.0815     2.4983
  516.0000   -32.7953     9.1519     9.3912    98.4616     7.9044    76.2892     0.0640     0.0868     2.5014
  516.5000   -32.6424     8.9061     9.3296    98.3855     8.0229    76.3013     0.0627     0.0871     2.4917
  517.0000   -32.6379     8.6669     9.2056    98.3371     8.0842    76.3223     0.0628     0.0795     2.4887
  517.5000   -32.6334     8.6699     9.0842    98.2789     8.0853    77.7484     0.0570     0.0802     2.5047
  518.0000   -32.7774     8.7329     8.9626    98.9671     8.1013    79.9540     0.0362     0.0858     2.5055
  518.5000   -33.0695     8.7964     8.8927    98.9062     8.1325    81.4718     0.0303     0.0948     2.4923
  519.0000   -33.5101     8.7995     8.7864    99.5955     8.1486    79.3752     0.0274     0.0971     2.4779
  519.5000   -33.8035     8.7421     8.7901    99.5335     8.1647    75.6219     0.0276     0.0992     2.4757
  520.0000   -34.2441     8.7451     8.7333   100.9738     8.1808    74.8807     0.0277     0.1013     2.4750
  520.5000   -34.3879     8.6284     8.6769   101.6741     8.1969    75.0431     0.0279     0.1030     2.4736
  521.0000   -34.3823     8.3390     8.5028   103.8604     8.1828    75.0549     0.0280     0.1039     2.4609
  521.5000   -34.3778     8.2269     8.3321   107.5296     8.1688    75.2172     0.0297     0.1036     2.4595
  522.0000   -34.2249     8.1171     8.2774   110.4650     8.1548    75.2290     0.0313     0.1029     2.4649
  522.5000   -34.2204     8.0649     8.1121   112.6513     8.1561    75.5497     0.0300     0.1041     2.4612
  523.0000   -34.0675     8.0677     8.0589   113.3547     8.1420    75.7259     0.0301     0.1067     2.4637
  523.5000   -34.0630     8.0699     8.0631   114.7919     8.1127    75.5685     0.0303     0.1067     2.4584
  524.0000   -33.9102     8.0727     8.0665   115.4801     8.0688    74.0743     0.0305     0.1058     2.4562
  524.5000   -33.9056     8.0755     8.0699   116.1683     8.0395    74.5379     0.0306     0.1045     2.4596
  525.0000   -34.0506     8.0783     8.0733   116.1049     8.0106    77.1099     0.0338     0.1020     2.4714
  525.5000   -34.1945     8.0811     8.0767   116.0449     7.9963    78.9289     0.0369     0.0940     2.4633
  526.0000   -34.3384     8.0839     8.0795   115.9850     7.9825    79.9949     0.0340     0.0882     2.4837
  526.5000   -34.3338     8.0867     8.0828   115.9247     7.9384    77.5971     0.0282     0.0972     2.4860
  527.0000   -34.4777     8.0340     8.0861   115.8638     7.9089    76.2534     0.0238     0.1008     2.4808
  527.5000   -34.7700     8.0368     8.0895   116.5543     7.8471    76.2652     0.0225     0.1106     2.4681
  528.0000   -34.9139     8.0396     8.0929   116.4911     7.7608    76.1264     0.0226     0.1163     2.4539
  528.5000   -35.0579     7.9871     8.0405   117.1945     7.7317    76.1385     0.0304     0.1103     2.4345
  529.0000   -35.0532     7.9899     7.9886   117.8827     7.7481    77.0565     0.0319     0.1030     2.4451
  529.5000   -35.0486     7.8833     7.8817   119.3047     7.7641    79.7791     0.0291     0.1066     2.4632
  530.0000   -35.0441     7.8319     7.7243   121.4910     7.7953    82.0500     0.0277     0.1110     2.4656
  530.5000   -35.0396     7.6742     7.5693   124.4264     7.7963    83.1160     0.0279     0.1134     2.4484
  531.0000   -34.8868     7.4681     7.4174   128.8599     7.7670    82.8265     0.0296     0.1128     2.4492
  531.5000   -34.8822     7.1187     7.2677   132.5443     7.7530    80.8805     0.0342     0.1097     2.4452
  532.0000   -34.8777     6.9755     7.1218   136.2287     7.6940    79.6875     0.0358     0.1042     2.4441
  532.5000   -34.8732     6.9774     7.0759   137.6812     7.6649    79.5482     0.0360     0.1025     2.4630
  533.0000   -34.8687     7.0281     7.1779   138.3694     7.6509    79.7110     0.0361     0.1051     2.4653
  533.5000   -34.8642     7.0792     7.2801   137.5580     7.6670    79.7229     0.0363     0.1012     2.4594
  534.0000   -35.0092     7.1306     7.3403   136.7491     7.6833    79.7349     0.0364     0.0990     2.4588
  534.5000   -35.0045     7.2321     7.4900   135.9395     7.6994    79.4481     0.0366     0.0966     2.4694
  535.0000   -34.9998     7.2847     7.4931   134.3805     7.7607    79.1557     0.0367     0.0942     2.4725
  535.5000   -35.1437     7.3376     7.6004   132.0724     7.7617    79.1705     0.0369     0.0917     2.4854
  536.0000   -35.1392     7.4421     7.6563   129.7643     7.7778    79.1823     0.0371     0.0905     2.4877
  536.5000   -35.1350     7.4962     7.7128   128.9544     7.7036    79.4952     0.0372     0.0941     2.4825
  537.0000   -35.1305     7.6029     7.7692   128.8935     7.4634    79.3564     0.0358     0.0974     2.4834
  537.5000   -35.1260     7.6582     7.7725   128.0836     7.4797    79.0670     0.0360     0.0946     2.4751
  538.0000   -34.9731     7.7139     7.8296   127.2736     7.5410    75.9161     0.0361     0.0937     2.4730
  538.5000   -34.9686     7.7166     7.8329   126.4636     7.6325    75.9279     0.0348     0.0955     2.4814
  539.0000   -34.8158     7.7193     7.8904   125.6537     7.7266    76.6959     0.0349     0.1030     2.4755
  539.5000   -34.8113     7.7747     7.8937   124.8437     7.8330    77.7756     0.0366     0.1041     2.4643
  540.0000   -34.8067     7.7240     7.8428   123.2847     7.9068    79.1289     0.0442     0.0980     2.4591
  540.5000   -34.6539     7.7274     7.8461   122.3346     7.9530    80.3455     0.0519     0.0905     2.4599
  541.0000   -34.6494     7.7301     7.8379   120.0747     7.9842    81.5621     0.0520     0.0901     2.4788
  541.5000   -34.4965     7.7328     7.7979   119.3720     8.0153    82.6281     0.0507     0.0904     2.4834
  542.0000   -34.3436     7.7349     7.8012   120.8191     7.9709    83.3929     0.0508     0.0877     2.4827
  542.5000   -34.3391     7.7376     7.7508   122.2464     7.8668    83.8564     0.0465     0.0798     2.5069
  543.0000   -34.3346     7.6342     7.7540   123.6837     7.7172    84.0188     0.0406     0.0867     2.5002
  543.5000   -34.3301     7.5323     7.7573   125.1236     7.7032    84.0306     0.0438     0.0879     2.4875
  544.0000   -34.4751     7.5349     7.7606   125.8243     7.6892    84.1930     0.0454     0.0848     2.4861
  544.5000   -34.4694     7.4343     7.7638   125.7482     7.6601    84.0542     0.0456     0.0797     2.4987
  545.0000   -34.4659     7.3858     7.7129   125.6873     7.6762    83.7500     0.0457     0.0793     2.5066
  545.5000   -34.4614     7.3375     7.6631   126.3907     7.6621    82.8759     0.0459     0.0863     2.5075
  546.0000   -34.4471     7.3402     7.6136   125.5655     7.5578    79.2732     0.0460     0.0959     2.4895
  546.5000   -34.3042     7.3428     7.6176   125.5046     7.5437    79.5862     0.0447     0.1044     2.4798
  547.0000   -34.1513     7.3454     7.6208   125.4437     7.5601    80.6522     0.0463     0.1095     2.4634
  547.5000   -34.1468     7.3988     7.6235   126.1471     7.6665    82.3206     0.0540     0.1047     2.4537
  548.0000   -33.9939     7.4525     7.6272   126.0710     7.8182    83.5372     0.0601     0.0983     2.4530
  548.5000   -33.9894     7.4033     7.6298   126.0225     7.9547    84.0008     0.0588     0.0956     2.4719
