~VERSION INFORMATION
 VERS.                2.0:   CWLS LOG ASCII STANDARD - VERSION 2.0
 WRAP.                 NO:   ONE LINE PER DEPTH STEP
~WELL INFORMATION
#MNEM.UNIT      DATA TYPE    INFORMATION
#----------   ------------   ------------------------------
 STRT.F           29.0000:   START DEPTH
 STOP.F          462.0000:   STOP DEPTH
 STEP.F            0.5000:   STEP LENGTH
 NULL.          -999.2500:   NO VALUE
 COMP.    FENIX & SCISSON:   COMPANY
 WELL.      NPR #71-SX-10:   WELL
 FLD .             TEAPOT:   FIELD
 LOC .      S10 T38N R78W:   LOCATION
 CNTY.            NATRONA:   COUNTY
 STAT.            WYOMING:   STATE
 CTRY. UNITED STATES OF AMERICA:   COUNTRY
 SRVC.              Welex:   SERVICE COMPANY
 DATE.        01-APR-1977:   LOGDATE
 API .       490251032300:   API NUMBER
~CURVE INFORMATION
#MNEM.UNIT       API CODE    CURVE DESCRIPTION
#----------   ------------   ------------------------------
 DEPT.F                  :   
 SPR .MV     07 010 01 00:   SPONTANEOUS POTENTIAL
 ILD .OHMM   07 120 46 00:   INDUCTION LOG DEEP
 ILM .OHMM   07 120 44 00:   INDUCTION LOG MEDIUM
 SGRD.OHMM   07 221 05 00:   SHALLOW SHORT GUARD RESISTIVITY
 CALD.IN     45 280 60 00:   CALIPER FROM DENSITY LOG
 GRD .GAPI   45 310 01 00:   GAMMA RAY FROM DENSITY LOG
 CORR.G/C3   45 356 01 00:   DENSITY CORRECTION
 RHOB.G/C3   45 350 01 00:   BULK DENSITY
 DPHI.DEC    45 890 12 00:   DENSITY POROSITY SANDSTONE
~PARAMETER INFORMATION
#MNEM.UNIT          VALUE    DESCRIPTION
#----------   ------------   ------------------------------
 PD  .                 GL:   PERMANENT DATUM
 EPD .F              5157:   ELEVATION PERMANENT DATUM
 LMF .                 GL:   LOG MEASURED FROM
 DMF .                 GL:   DRILLING MEASURED FROM
 EGL .F              5157:   GROUND LEVEL
 DATE.        01-APR-1977:   RUN DATE
 RUN .                  1:   RUN NUMBER
 DD  .F               475:   DEPTH DRILLER
 DL  .F               466:   DEPTH LOGGER
 BLI .F               463:   BOTTOM LOG INTERVAL
 TLI .F                30:   TOP LOG INTERVAL
 CS  .IN            8.625:   CASING SIZE
 BS  .IN            7.875:   BIT SIZE
 BSD .F               475:   BIT SIZE AT DEPTH
 DFT .                KCL:   DRILLING FLUID TYPE
 DFD .                8.5:   DRILLING FLUID DENSITY
 TCS .HRS               3:   TIME CURCULATED STOPPED
 MRT .F                67:   MAXIMUM RECORDED TEMPERATURE
 ENGI.            C. DOAK:   RECORDING ENGINEER
 WITN.   R. B. HARRINGTON:   WITNESSED BY
 CLNT.            A2DTECH:   CLIENT CODE
 ORIG.           5" PRINT:   ORIGIN OF DATA
 UWI .       490251032300:   UNIQUE WELL ID
 DICO. A2D Technologies, Inc.:   DIGITIZING COMPANY
~OTHER INFORMATION
~A   DEPT      SPR        ILD        ILM       SGRD         CALD      GRD       CORR       RHOB       DPHI   
# ...
  394.0000   -23.6230    17.7242    22.5808    26.9198     7.9141    99.3709     0.0052     2.4042     0.1542
  394.5000   -24.0498    17.7340    22.1290    27.8898     7.9153    94.4737    -0.0025     2.3885     0.1572
  395.0000   -24.4802    17.9911    22.1415    29.7017     7.9165    90.7705    -0.0067     2.3991     0.1514
  395.5000   -24.9107    18.1260    22.0006    30.3440     7.9177    89.5429    -0.0050     2.4112     0.1352
  396.0000   -25.3412    18.5165    22.0356    29.5332     7.9339    87.4876    -0.0018     2.4593     0.1169
  396.5000   -25.7725    18.9153    22.7516    27.0032     7.9349    80.5657     0.0013     2.4961     0.1045
  397.0000   -26.0536    19.1895    25.6934    31.6901     7.9210    75.5784     0.0060     2.5014     0.0937
  397.5000   -26.1873    19.6028    28.8839    38.7623     7.9222    74.6355     0.0107     2.5030     0.0874
  398.0000   -26.1721    19.2107    29.3026    43.0319     7.9234    77.3010     0.0153     2.4983     0.0985
  398.5000   -26.0059    18.6965    28.1263    40.7379     7.9246    80.6717     0.0185     2.4815     0.1149
  399.0000   -25.9913    17.8223    24.8461    35.9859     7.9258    79.9254     0.0126     2.4354     0.1359
  399.5000   -25.9766    16.9890    23.1976    29.8674     7.9121    78.0316     0.0037     2.4017     0.1551
  400.0000   -25.3697    16.4203    21.2126    24.2795     7.8984    79.5522    -0.0038     2.3818     0.1641
  400.5000   -25.2067    15.7565    19.8053    22.9864     7.8996    81.8192    -0.0104     2.3887     0.1604
  401.0000   -25.1921    15.3032    19.6768    22.5243     7.8858    83.6384    -0.0151     2.3970     0.1517
  401.5000   -25.1774    14.9334    19.8271    22.3827     7.8721    83.3680    -0.0197     2.4008     0.1466
  402.0000   -25.1628    14.4344    19.9757    22.5557     7.8882    82.0528    -0.0216     2.4099     0.1445
  402.5000   -25.1482    14.1466    20.1255    22.5696     7.9044    79.5436    -0.0168     2.3912     0.1465
  403.0000   -24.9852    13.9608    20.4172    22.7406     7.8906    77.6315    -0.0106     2.4064     0.1309
  403.5000   -24.6736    13.8710    20.5703    22.1330     7.8768    76.7631    -0.0059     2.4183     0.1345
  404.0000   -24.5104    13.6888    20.4397    21.0987     7.8628    77.6877    -0.0031     2.3972     0.1603
  404.5000   -24.4962    13.4179    19.8926    20.8211     7.8678    79.8054     0.0016     2.3960     0.1551
  405.0000   -24.6299    13.2396    18.3175    21.5683     7.8727    81.6246     0.0062     2.4149     0.1344
  405.5000   -24.9120    13.0678    17.4610    21.4327     7.8776    80.9065     0.0124     2.4288     0.1287
  406.0000   -25.0421    12.9837    16.8765    20.8601     7.8829    80.1883     0.0200     2.4715     0.1110
  406.5000   -25.0275    12.9937    16.8858    20.3028     7.8841    80.9627     0.0262     2.4923     0.1031
  407.0000   -25.1649    12.9101    16.8951    20.0359     7.8701    83.0804     0.0232     2.4983     0.1013
  407.5000   -25.2986    12.8310    16.7878    19.9100     7.8566    85.3474     0.0188     2.4914     0.1043
  408.0000   -25.2803    12.8389    16.7972    19.7848     7.8578    87.9128     0.0158     2.4766     0.1109
  408.5000   -24.9690    12.8469    16.8065    19.7975     7.8590    89.8812     0.0174     2.4784     0.1090
  409.0000   -24.6576    12.9441    16.5844    19.8098     7.8602    92.2974     0.0190     2.4890     0.1048
  409.5000   -24.3462    12.9521    16.5939    19.8221     7.8614    93.5196     0.0237     2.5010     0.1003
  410.0000   -24.0349    12.9601    16.0402    19.6970     7.8776    93.2492     0.0298     2.5078     0.0952
  410.5000   -23.8719    13.0582    14.7702    19.7122     7.8635    91.6355     0.0375     2.5108     0.0912
  411.0000   -23.8573    13.1570    14.2757    19.7245     7.8498    90.9104     0.0421     2.4949     0.1011
  411.5000   -23.8426    13.1651    13.9882    19.7367     7.8513    93.3336     0.0437     2.4830     0.1104
  412.0000   -23.8279    13.1733    13.8994    19.7489     7.8525    95.6005     0.0377     2.4717     0.1185
  412.5000   -23.8134    13.1814    14.2007    19.7611     7.8537    97.5690     0.0318     2.4493     0.1233
  413.0000   -23.9673    13.0986    14.9137    19.7734     7.8549    97.7393     0.0243     2.4411     0.1267
  413.5000   -24.2292    13.0164    15.3386    19.9231     7.8409    94.1924     0.0183     2.4292     0.1331
  414.0000   -24.5113    12.9346    15.1361    19.9354     7.8424    90.3399     0.0260     2.4181     0.1352
  414.5000   -24.7934    12.9428    15.3576    19.8071     7.8436    89.7640     0.0306     2.4146     0.1346
  415.0000   -25.2202    12.8613    15.9048    19.6856     7.8295    90.9932     0.0322     2.4193     0.1330
  415.5000   -25.6507    12.8693    14.7492    19.1596     7.8158    91.9169     0.0308     2.4285     0.1297
  416.0000   -26.0848    12.6127    13.9626    18.5190     7.8020    90.0047     0.0294     2.4421     0.1228
  416.5000   -26.5153    12.4489    13.7763    18.2728     7.7883    89.1303     0.0264     2.4415     0.1255
  417.0000   -26.9421    12.2835    14.0750    18.1579     7.7895    90.2102     0.0220     2.4305     0.1308
  417.5000   -27.2242    12.1222    14.7817    18.0438     7.7758    92.9249     0.0145     2.4285     0.1212
  418.0000   -27.5063    11.9630    14.8925    17.9304     7.7620    96.3859     0.0116     2.4561     0.1158
  418.5000   -27.6437    11.8878    14.4939    17.9443     7.7333    98.2050     0.0102     2.4670     0.1122
  419.0000   -27.7745    11.6526    14.6026    17.8287     7.7196    98.8302     0.0133     2.4684     0.1130
  419.5000   -27.7592    11.5794    15.0207    17.8425     7.7058    98.8513     0.0164     2.4594     0.1202
  420.0000   -27.7446    11.5049    15.1333    17.7303     7.7220    98.2587     0.0059     2.4384     0.1262
  420.5000   -27.5816    11.4326    14.1293    17.6189     7.7232    97.5218    -0.0001     2.4340     0.1283
  421.0000   -27.1217    11.3608    13.4667    17.5054     7.7244    96.3433    -0.0015     2.4271     0.1306
  421.5000   -26.7948    11.3696    13.7587    16.8060     7.7256    94.4558     0.0001     2.4317     0.1312
  422.0000   -26.4748    11.3766    15.3780    17.2887     7.7268    94.7015     0.0002     2.4428     0.1282
  422.5000   -26.0357    11.3837    15.9426    17.7853     7.7430    96.3805     0.0003     2.4417     0.1225
  423.0000   -25.7243    11.4698    15.5018    17.6735     7.7442    96.9587     0.0004     2.4350     0.1258
  423.5000   -25.5613    11.4769    15.2970    17.5622     7.7603    95.4913     0.0005     2.4292     0.1281
  424.0000   -25.3984    11.5638    15.0951    17.4519     7.7765    95.3731     0.0006     2.4297     0.1266
  424.5000   -25.3837    11.5709    14.9993    17.3422     7.7926    96.5953     0.0007     2.4356     0.1236
  425.0000   -25.3691    11.4965    14.9041    18.0893     7.7938    98.5637     0.0023     2.4393     0.1215
  425.5000   -25.5065    11.5054    14.6059    17.9724     7.8100   100.5322     0.0039     2.4456     0.1211
  426.0000   -25.7849    11.4313    14.4131    17.2485     7.8112   102.3513     0.0070     2.4524     0.1187
  426.5000   -26.0670    11.4402    14.3216    17.0279     7.8124   103.8720     0.0101     2.4585     0.1154
  427.0000   -26.4975    11.3666    14.3297    17.0387     7.8136   104.9449     0.0102     2.4643     0.1157
  427.5000   -26.9280    11.2190    14.4505    17.0493     7.7995   104.6745     0.0103     2.4612     0.1168
  428.0000   -27.2107    11.0716    14.6628    17.0599     7.7858   102.4639     0.0089     2.4590     0.1180
  428.5000   -27.4926    10.8509    14.9620    17.1892     7.7724    99.9547     0.0044     2.4562     0.1168
  429.0000   -27.7743    10.7825    15.3921    17.0806     7.7736   100.4306     0.0000     2.4527     0.1177
  429.5000   -28.0564    10.7148    15.9427    16.2850     7.7748   101.9512    -0.0030     2.4400     0.1232
  430.0000   -28.3482    10.5742    15.5160    16.2951     7.7760   103.7704    -0.0044     2.4227     0.1301
