~VERSION INFORMATION
 VERS.                2.0:   CWLS LOG ASCII STANDARD - VERSION 2.0
 WRAP.                 NO:   ONE LINE PER DEPTH STEP
~WELL INFORMATION
#MNEM.UNIT      DATA TYPE    INFORMATION
#----------   ------------   ------------------------------
 STRT.F            0.0000:   START DEPTH
 STOP.F         3030.0000:   STOP DEPTH
 STEP.F            0.5000:   STEP LENGTH
 NULL.          -999.2500:   NO VALUE
 COMP. LAWRENCE/ALLISON INC:   COMPANY
 WELL. NAVAL PETROLEUM RESERVE 3 AX-3 #36  X 34-34:   WELL
 FLD .         N. P. R #3:   FIELD
 LOC .      S34 T39N R78W:   LOCATION
 CNTY.            NATRONA:   COUNTY
 STAT.            WYOMING:   STATE
 CTRY. UNITED STATES OF AMERICA:   COUNTRY
 SRVC.      Dresser Atlas:   SERVICE COMPANY
 DATE.        29-JUN-1985:   LOGDATE
 API .       490251103200:   API NUMBER
~CURVE INFORMATION
#MNEM.UNIT       API CODE    CURVE DESCRIPTION
#----------   ------------   ------------------------------
 DEPT.F                  :   
 RFOC.OHMM   07 220 01 00:   RESISTIVITY FOCUSED LOG
 RILM.OHMM   07 120 44 00:   RESITIVITY LONG MEDIUM
 SPR .MV     07 010 01 00:   SPONTANEOUS POTENTIAL
 RILD.OHMM   07 120 46 00:   INDUCTION LOG DEEP RESITIVITY
 GRR .GAPI   07 310 01 00:   GAMMA RAY
 DT  .US/F   60 520 00 00:   INTERVAL TRANSIT TIME
 CALD.IN     45 280 60 00:   CALIPER FROM DENSITY LOG
 CORR.G/C3   45 356 01 00:   DENSITY CORRECTION
 CNC .DEC    42 890 03 00:   NEUTRON POROSITY SANDSTONE
 DEN .G/C3   45 350 01 00:   COMPENSATED BULK DENSTIY
 PORD.DEC    45 890 12 00:   POROSITY DENSITY SANDSTONE
~PARAMETER INFORMATION
#MNEM.UNIT          VALUE    DESCRIPTION
#----------   ------------   ------------------------------
 PD  .                 GL:   PERMANENT DATUM
 EPD .F              5108:   ELEVATION PERMANENT DATUM
 LMF .                 KB:   LOG MEASURED FROM
 DAPD.F                12:   FEET ABOVE PERMANENT DATUM
 DMF .                 KB:   DRILLING MEASURED FROM
 EKB .F              5120:   KELLING BUSHING
 EGL .F              5108:   GROUND LEVEL
 DATE.       29-JUNE-1985:   RUN DATE
 RUN .                  1:   RUN NUMBER
 DD  .F              3033:   DEPTH DRILLER
 DL  .F              3033:   DEPTH LOGGER
 BLI .F              3030:   BOTTOM LOG INTERVAL
 CS  .IN            8.625:   CASING SIZE
 CBD .F               601:   CASING BOTTOM DRILLER
 CBL .F               601:   CASING BOTTOM LOGGER
 BS  .IN            7.875:   BIT SIZE
 BSD .F              3033:   BIT SIZE AT DEPTH
 DFT .   FOAM & KCL WATER:   DRILLING FLUID TYPE
 MSS .           FLOWLINE:   MUD SAMPLE SOURCE
 RMS .OHMM           0.44:   RESISTIVITY MUD SAMPLE
 MST .F                82:   MUD SAMPLE TEMPERATURE
 RMF .OHMM           0.44:   RESISTIVITY MUD FILTRATE SAMPLE
 MFST.F                82:   MUD FILTRATE SAMPLE TEMPERATURE
 MFSS.               MEAS:   MUD FILTRATE SAMPLE SOURCE
 RMB .OHMM           0.31:   RESISTIVITY MUD AT BHT
 BHT .F               116:   BOTTOM HOLE TEMPERATURE
 TCS .HRS               3:   TIME CURCULATED STOPPED
 MRT .F               116:   MAXIMUM RECORDED TEMPERATURE
 LUN .               6274:   LOGGING UNIT NUMBER
 LUL .               GLTE:   LOGGING UNIT LOCATION
 ENGI.             RAUTIO:   RECORDING ENGINEER
 WITN.       MR. JENNINGS:   WITNESSED BY
 CLNT.            A2DTECH:   CLIENT CODE
 ORIG.        2" 5" PRINT:   ORIGIN OF DATA
 UWI .       490251103200:   UNIQUE WELL ID
 DICO. A2D Technologies, Inc.:   DIGITIZING COMPANY
~OTHER INFORMATION
~A    DEPT    RFOC       RILM        SPR       RILD         GRR        DT       CALD       CORR        CNC        DEN       PORD   
# ...
 2501.0000     7.9597     6.7075    36.5152     6.5712   118.5114    83.3655     7.3711     0.0043     0.2824     2.5269     0.0740
 2501.5000     7.9097     6.6653    36.3636     6.5759   119.1289    83.5126     7.3714     0.0224     0.2794     2.5358     0.0685
 2502.0000     7.9138     6.5784    36.3636     6.5338   118.8373    84.0330     7.3717     0.0300     0.2836     2.5418     0.0646
 2502.5000     7.9733     6.4927    36.3636     6.5397   119.1517    84.4088     7.3720     0.0271     0.2921     2.5407     0.0651
 2503.0000     7.9785     6.4070    36.5152     6.4101   118.2569    84.9269     7.3723     0.0227     0.2936     2.5253     0.0739
 2503.5000     7.9262     6.2786    36.2214     6.2821   117.0561    85.3744     7.3726     0.0108     0.2866     2.5148     0.0814
 2504.0000     7.8764     6.1483    36.0843     6.0714   116.7617    85.7466     7.3729    -0.0012     0.2799     2.5141     0.0786
 2504.5000     7.7326     5.9886    36.3909     5.9073   116.7759    85.8931     7.3705     0.0246     0.2784     2.5240     0.0740
 2505.0000     7.5721     5.9086    36.3944     5.7907   119.5174    86.0393     7.3705     0.0306     0.2911     2.5254     0.0740
 2505.5000     7.4161     5.8315    36.3973     5.7546   121.9531    86.1856     7.3705     0.0202     0.2984     2.5179     0.0764
 2506.0000     7.2632     5.8364    36.4001     5.7598   125.9039    86.4061     7.3705     0.0172     0.2923     2.4916     0.0936
 2506.5000     6.7363     5.8810    36.4641     5.7677   128.6425    87.0042     7.3705     0.0173     0.2877     2.4886     0.0960
 2507.0000     6.3309     5.8849    36.5578     5.8095   130.4750    88.1295     7.3855     0.0114     0.2856     2.4999     0.0884
 2507.5000     5.8677     5.9713    36.5606     5.8543   131.3955    88.9646     7.3855     0.0130     0.2805     2.5165     0.0769
 2508.0000     7.0988     6.0180    36.2612     5.9407   128.3766    89.1751     7.3855     0.0296     0.2594     2.5323     0.0660
 2508.5000     7.8709     6.1064    36.1125     5.9511   123.5395    88.5673     7.3855     0.0372     0.2582     2.5413     0.0622
 2509.0000     7.8756     6.1531    35.9631     6.0338   120.5234    86.8311     7.3855     0.0403     0.2593     2.5459     0.0608
 2509.5000     7.8255     6.1572    35.8152     6.0804   120.2289    85.6973     7.3855     0.0164     0.2639     2.5414     0.0653
 2510.0000     7.7723     6.1622    35.8187     6.1273   122.0614    84.7883     7.3855    -0.0061     0.2726     2.5361     0.0677
 2510.5000     7.6207     6.1662    35.8215     6.1757   124.4970    84.8593     7.3855    -0.0045     0.2823     2.5377     0.0679
 2511.0000     7.6252     6.1264    35.6722     6.1372   127.2385    85.0056     7.3855    -0.0012     0.2886     2.5423     0.0646
 2511.5000     7.6297     6.0865    35.5242     6.0979   127.5501    85.2272     7.3705     0.0047     0.2895     2.5497     0.0594
 2512.0000     7.7413     6.0085    35.3755     6.0189   126.9583    85.3766     7.3705     0.0168     0.2879     2.5580     0.0555
 2512.5000     7.8011     5.9707    35.2269     5.9399   127.1216    85.5951     7.3554     0.0364     0.2897     2.5580     0.0554
 2513.0000     7.8602     5.9331    35.2304     5.9029   126.2338    85.7415     7.3554     0.0440     0.2885     2.5543     0.0572
 2513.5000     7.4388     5.8558    35.2333     5.8661   125.9436    85.9620     7.3404     0.0411     0.2845     2.5513     0.0587
 2514.0000     7.1885     5.7786    35.2368     5.7902   124.7528    86.1083     7.3253     0.0142     0.2739     2.5513     0.0596
 2514.5000     7.1429     5.7833    35.3912     5.7541   123.5577    86.1039     7.3102    -0.0113     0.2788     2.5521     0.0583
 2515.0000     7.1981     5.8275    35.5455     5.7995   121.1548    85.9480     7.3115     0.0128     0.2905     2.5544     0.0565
 2515.5000     7.1522     5.9141    35.8521     5.8443   124.2021    85.6425     7.3253     0.0265     0.2938     2.5559     0.0574
 2516.0000     7.0086     6.0430    36.0061     5.9760   127.8556    85.4876     7.3293     0.0280     0.2847     2.5529     0.0585
 2516.5000     6.9641     6.1747    36.1608     6.1893   128.7818    85.6340     7.3404    -0.0064     0.2771     2.5500     0.0600
 2517.0000     7.0179     6.4425    36.3152     6.4133   126.3788    86.3283     7.3554    -0.0259     0.2765     2.5485     0.0621
 2517.5000     7.3728     6.8173    36.3187     6.6919   124.8807    86.6796     7.3554    -0.0378     0.2759     2.5470     0.0615
 2518.0000     7.9711     7.0636    36.3216     6.9484   124.2917    86.3730     7.3705     0.0164     0.2695     2.5515     0.0557
 2518.5000     8.3681     7.3188    36.3242     7.2872   123.0270    85.2392     7.3705     0.0450     0.2619     2.5621     0.0499
 2519.0000     8.8526     7.4786    36.3273     7.4464   114.6331    83.9548     7.3705     0.0526     0.2586     2.5726     0.0436
 2519.5000     9.1716     7.5893    36.3303     7.6092   109.4987    81.8410     7.3705     0.0602     0.2579     2.5794     0.0402
 2520.0000     9.6534     7.6474    35.8786     7.6693   110.7278    80.4060     7.3554     0.0528     0.2606     2.5832     0.0387
 2520.5000     9.8444     7.7046    35.4277     7.6748   112.2998    79.5734     7.3404     0.0469     0.2664     2.5855     0.0374
 2521.0000     9.3831     7.6574    35.2783     7.6256   112.8874    79.5693     7.3253     0.0590     0.2733     2.5870     0.0359
 2521.5000     8.6965     7.6092    35.2818     7.6325   113.8136    79.8653     7.3253     0.0606     0.2772     2.5892     0.0353
 2522.0000     8.1164     7.5101    35.2854     7.6393   115.6488    80.3128     7.3253     0.0307     0.2738     2.5908     0.0361
 2522.5000     8.1224     7.5150    35.2882     7.6448   120.2156    81.0615     7.3253     0.0202     0.2741     2.5855     0.0382
 2523.0000     8.2987     7.5726    35.4426     7.7038   125.3842    81.5988     7.3253     0.0248     0.2744     2.5826     0.0397
 2523.5000     8.7792     7.6316    35.4518     7.7094   125.0982    81.9747     7.3253     0.0414     0.2747     2.5811     0.0397
 2524.0000     8.8470     7.6366    35.6005     7.7163   124.2061    82.4786     7.3404     0.0641     0.2719     2.5818     0.0405
 2524.5000     8.8523     7.6416    35.6033     7.6682   123.9202    82.9262     7.3554     0.0686     0.2680     2.5706     0.0460
 2525.0000     8.8575     7.6479    35.6062     7.6205   124.2446    83.1467     7.3554     0.0567     0.2701     2.5646     0.0511
 2525.5000     8.8627     7.6529    35.6091     7.6261   124.5646    83.2188     7.3554     0.0523     0.2716     2.5654     0.0498
 2526.0000     8.8064     7.6047    35.6126     7.6328   124.2787    83.1381     7.3554     0.0351     0.2649     2.5647     0.0519
 2526.5000     8.8745     7.5568    35.4632     7.5853   123.0879    83.0585     7.3705     0.0044     0.2612     2.5572     0.0558
 2527.0000     8.8797     7.4571    35.3152     7.5379   121.8928    82.7525     7.3705     0.0060     0.2612     2.5504     0.0589
 2527.5000     8.9470     7.3077    35.0158     7.3874   120.6977    81.8440     7.3855     0.0151     0.2627     2.5497     0.0582
 2528.0000     9.1425     7.1624    34.8664     7.2411   119.1997    81.2373     7.3705     0.0213     0.2654     2.5557     0.0563
 2528.5000     9.2748     7.0674    34.7177     7.0964   119.5240    81.0071     7.3705     0.0123     0.2701     2.5580     0.0551
 2529.0000     8.9019     6.9262    34.7213     6.9546   120.1471    81.0783     7.3554    -0.0026     0.2802     2.5573     0.0547
 2529.5000     8.1933     6.8360    34.5726     6.8169   119.5581    81.3880     7.3554    -0.0011     0.2816     2.5490     0.0562
 2530.0000     7.8628     6.7458    34.4239     6.7745   119.2722    82.8757     7.3404     0.0186     0.2789     2.5263     0.0628
 2530.5000     7.8686     6.7033    34.4275     6.7311   121.1117    84.0009     7.3395     0.0307     0.2800     2.5273     0.0725
 2531.0000     7.9282     6.6611    34.5818     6.7371   122.3408    84.5795     7.3253     0.0368     0.2846     2.5326     0.0749
