~VERSION INFORMATION
 VERS.                2.0:   CWLS LOG ASCII STANDARD - VERSION 2.0
 WRAP.                 NO:   ONE LINE PER DEPTH STEP
~WELL INFORMATION
#MNEM.UNIT      DATA TYPE    INFORMATION
#----------   ------------   ------------------------------
 STRT.F           30.0000:   START DEPTH
 STOP.F          634.0000:   STOP DEPTH
 STEP.F            0.5000:   STEP LENGTH
 NULL.          -999.2500:   NO VALUE
 COMP. FENIX & SCISSON INC:   COMPANY
 WELL.     26-S-11 #26-11:   WELL
 FLD .             TEAPOT:   FIELD
 LOC .      S11 T38N R78W:   LOCATION
 CNTY.            NATRONA:   COUNTY
 STAT.            WYOMING:   STATE
 CTRY. UNITED STATES OF AMERICA:   COUNTRY
 SRVC.              Welex:   SERVICE COMPANY
 DATE.        26-APR-1977:   LOGDATE
 API .       490251034300:   API NUMBER
~CURVE INFORMATION
#MNEM.UNIT       API CODE    CURVE DESCRIPTION
#----------   ------------   ------------------------------
 DEPT.F                  :   
 SPR .MV     07 010 01 00:   SPONTANEOUS POTENTIAL
 ILD .OHMM   07 120 46 00:   INDUCTION LOG DEEP
 ILM .OHMM   07 120 44 00:   INDUCTION LOG MEDIUM
 SGRD.OHMM   07 221 05 00:   SHALLOW SHORT GUARD RESISTIVITY
 CALD.IN     45 280 60 00:   CALIPER FROM DENSITY LOG
 GRD .GAPI   45 310 01 00:   GAMMA RAY FROM DENSITY LOG
 CORR.G/C3   45 356 01 00:   DENSITY CORRECTION
 DPHI.DEC    45 890 12 00:   DENSITY POROSITY SANDSTONE
 RHOB.G/C3   45 350 01 00:   BULK DENSITY
~PARAMETER INFORMATION
#MNEM.UNIT          VALUE    DESCRIPTION
#----------   ------------   ------------------------------
 PD  .                 GL:   PERMANENT DATUM
 EPD .F              5179:   ELEVATION PERMANENT DATUM
 LMF .                 GL:   LOG MEASURED FROM
 DMF .                 GL:   DRILLING MEASURED FROM
 EGL .F              5179:   GROUND LEVEL
 DATE.          4-24-1977:   RUN DATE
 RUN .                  1:   RUN NUMBER
 DD  .F               645:   DEPTH DRILLER
 DL  .F               634:   DEPTH LOGGER
 BLI .F               632:   BOTTOM LOG INTERVAL
 TLI .F                40:   TOP LOG INTERVAL
 CS  .IN            8.625:   CASING SIZE
 CBD .F                40:   CASING BOTTOM DRILLER
 CBL .F                42:   CASING BOTTOM LOGGER
 BS  .IN            7.875:   BIT SIZE
 BSD .F               645:   BIT SIZE AT DEPTH
 DFT .            KCL MUD:   DRILLING FLUID TYPE
 DFD .                8.8:   DRILLING FLUID DENSITY
 DFV .                 33:   DRILLING FLUID VISCOSITY
 DFPH.                7.5:   DRILLING FLUID PH
 DFL .                 96:   DRILLING FLUID LOSS
 MSS .           FLOWLINE:   MUD SAMPLE SOURCE
 RMS .OHMM            .17:   RESISTIVITY MUD SAMPLE
 MST .F                81:   MUD SAMPLE TEMPERATURE
 RMF .OHMM            .16:   RESISTIVITY MUD FILTRATE SAMPLE
 MFST.F                81:   MUD FILTRATE SAMPLE TEMPERATURE
 RMC .OHMM            .21:   RESISTIVITY MUD CAKE
 MCST.F                81:   MUD CAKE SAMPLE TEMPERATURE
 MFSS.           FANN KIT:   MUD FILTRATE SAMPLE SOURCE
 MCSS.           FANN KIT:   MUD CAKE SAMPLE SOURCE
 RMB .OHMM            .19:   RESISTIVITY MUD AT BHT
 BHT .F                72:   BOTTOM HOLE TEMPERATURE
 TCS .HRS             1.5:   TIME CURCULATED STOPPED
 MRT .F                72:   MAXIMUM RECORDED TEMPERATURE
 LUN .                861:   LOGGING UNIT NUMBER
 LUL .           GILLETTE:   LOGGING UNIT LOCATION
 ENGI.             JOYNER:   RECORDING ENGINEER
 WITN.           ROB LYON:   WITNESSED BY
 CLNT.            A2DTECH:   CLIENT CODE
 ORIG.         2.5" PRINT:   ORIGIN OF DATA
 UWI .       490251034300:   UNIQUE WELL ID
 DICO. A2D Technologies, Inc.:   DIGITIZING COMPANY
~OTHER INFORMATION
~A   DEPT      SPR        ILD        ILM       SGRD       CALD        GRD       CORR       DPHI       RHOB   
# ...
  431.5000   -26.7669     7.8087     8.2462    13.3206     7.8584   115.7057     0.0284     0.0942     2.4898
  432.0000   -26.2155     8.2443     8.2799    13.3196     7.8581   113.0616     0.0253     0.1014     2.4794
  432.5000   -25.6718     8.5866     8.3622    13.3187     7.8577   114.3573     0.0253     0.1097     2.4698
  433.0000   -25.3101     9.1898     8.5588    13.3177     7.8575   114.5195     0.0253     0.1150     2.4630
  433.5000   -25.0085     9.8367     8.9318    13.3612     7.8572   111.3202     0.0282     0.1192     2.4518
  434.0000   -24.4768    10.6783     9.8753    14.1979     7.8569   109.0987     0.0295     0.1234     2.4368
  434.5000   -24.1792    11.9033    11.0063    15.9078     7.8566   107.1979     0.0311     0.1281     2.4274
  435.0000   -23.8816    12.7429    12.1579    17.8678     7.8563   104.5015     0.0324     0.1305     2.4185
  435.5000   -23.5001    13.4824    13.6208    21.0062     7.8560    99.5028     0.0383     0.1329     2.4131
  436.0000   -23.1099    15.4560    14.7798    25.9981     7.8557    92.7566     0.0384     0.1396     2.3949
  436.5000   -22.5946    17.4319    14.8118    28.5102     7.8554    85.7649     0.0324     0.1614     2.3484
  437.0000   -22.0869    18.4094    14.6002    27.7150     7.8551    80.9157     0.0264     0.1866     2.3323
  437.5000   -21.7893    19.4192    14.4846    28.2065     7.8842    73.5706     0.0204     0.2014     2.3160
  438.0000   -21.4917    19.6602    14.4836    28.6119     7.8839    67.2571     0.0174     0.2102     2.3026
  438.5000   -21.4970    19.6574    14.9984    29.3177     7.8836    66.9639     0.0159     0.2091     2.2992
  439.0000   -21.3887    19.3892    16.1033    29.8584     7.8833    68.8709     0.0174     0.1970     2.3110
  439.5000   -21.2031    19.0613    17.5354    30.1522     7.8830    70.0415     0.0187     0.1947     2.3166
  440.0000   -21.2085    17.7383    18.9492    29.5887     7.8827    71.0563     0.0187     0.1955     2.3186
  440.5000   -21.5151    16.6874    20.1828    28.7570     7.8824    71.0513     0.0216     0.2056     2.3171
  441.0000   -21.5196    16.6851    20.7632    28.3455     7.8821    71.5005     0.0262     0.2084     2.3023
  441.5000   -21.5242    16.6829    21.0611    27.6974     7.8818    72.2967     0.0304     0.2055     2.3038
  442.0000   -21.5287    16.9492    21.3632    27.6954     7.8815    73.1730     0.0304     0.1948     2.3141
  442.5000   -21.5332    17.4167    21.7890    27.6935     7.8812    75.5548     0.0350     0.1832     2.3407
  443.0000   -21.5378    17.6553    22.0969    27.6916     7.8809    76.3085     0.0362     0.1762     2.3569
  443.5000   -21.5423    17.8477    22.4092    28.2624     7.8806    76.0109     0.0392     0.1728     2.3589
  444.0000   -21.2447    17.7936    22.7262    28.6686     7.8804    77.9021     0.0391     0.1750     2.3450
  444.5000   -21.2492    17.4960    22.0923    28.2850     7.8801    80.4009     0.0373     0.1829     2.3346
  445.0000   -21.2538    16.8420    18.3898    27.2987     7.8798    79.4574     0.0301     0.1904     2.3257
  445.5000   -21.2583    16.6099    16.4264    26.9118     7.8795    76.9878     0.0301     0.1878     2.3346
  446.0000   -21.2628    16.1597    15.9684    26.9099     7.8792    75.5151     0.0271     0.1802     2.3480
  446.5000   -20.9653    15.9370    16.1941    27.2902     7.8789    75.1048     0.0270     0.1720     2.3671
  447.0000   -20.9698    15.7756    18.1272    27.6759     7.8786    79.3537     0.0270     0.1560     2.3833
  447.5000   -20.6722    15.7735    19.7267    27.9033     7.8783    84.9146     0.0269     0.1528     2.3892
  448.0000   -20.3755    15.7714    20.2897    28.4637     7.8487    89.3431     0.0298     0.1548     2.3892
  448.5000   -20.3800    16.3398    21.1651    28.8656     7.8484    91.8028     0.0298     0.1591     2.3847
  449.0000   -20.3845    17.0972    22.3920    29.2736     7.8481    86.9140     0.0298     0.1623     2.3788
  449.5000   -20.0869    18.2235    23.3582    29.2716     7.8478    85.9311     0.0267     0.1572     2.3832
  450.0000   -20.0914    19.2453    25.4192    29.6853     7.8475    84.8485     0.0267     0.1564     2.3891
  450.5000   -19.7931    20.0498    27.2747    30.1048     7.8472    83.4716     0.0267     0.1620     2.3816
  451.0000   -19.4962    20.7864    29.2656    31.8499     7.8469    81.7097     0.0266     0.1654     2.3712
  451.5000   -19.1985    20.9673    30.1008    36.1583     7.8466    80.7238     0.0266     0.1677     2.3697
  452.0000   -19.2030    20.8582    27.2690    42.2240     7.8757    79.7361     0.0265     0.1616     2.3713
  452.5000   -19.2075    20.5708    22.0676    41.0466     7.8754    78.2625     0.0254     0.1529     2.3890
  453.0000   -18.9093    20.2873    18.6302    31.3950     7.8751    76.3920     0.0241     0.1588     2.3872
  453.5000   -18.9144    19.4706    17.6070    27.6503     7.8748    74.4355     0.0228     0.1641     2.3711
  454.0000   -18.9189    18.8379    17.6057    26.4288     7.8745    73.0675     0.0216     0.1693     2.3666
  454.5000   -18.9234    18.0772    18.1082    26.8777     7.8741    71.9946     0.0203     0.1720     2.3621
  455.0000   -18.9279    17.1128    18.3641    26.4992     7.8739    77.2288     0.0190     0.1694     2.3607
  455.5000   -18.9324    16.1042    18.6237    26.1262     7.8736    82.4209     0.0177     0.1650     2.3710
  456.0000   -19.2391    15.6407    19.1552    25.7585     7.8733    84.4055     0.0173     0.1615     2.3754
  456.5000   -19.2436    15.5223    19.4259    25.7567     7.8730    81.1745     0.0143     0.1618     2.3723
  457.0000   -19.2481    15.5202    19.7126    26.1207     7.8434    81.2815     0.0142     0.1668     2.3694
  457.5000   -19.5547    15.5181    20.2627    27.2478     7.8431    81.4598     0.0112     0.1648     2.3694
  458.0000   -19.8613    15.5160    20.2404    28.4236     7.8428    80.4642     0.0112     0.1567     2.3812
  458.5000   -19.8658    15.5139    19.6719    27.2440     7.8425    77.3447     0.0111     0.1532     2.4004
  459.0000   -19.8703    15.5117    18.7206    25.7477     7.8422    80.9119     0.0111     0.1493     2.4004
  459.5000   -20.1769    15.3001    15.5641    23.9928     7.8419    82.9633     0.0124     0.1501     2.4007
  460.0000   -20.1814    15.0913    13.0090    22.6750     7.8416    83.1966     0.0139     0.1543     2.3899
  460.5000   -20.1859    14.8853    12.3371    22.3559     7.8413    83.2536     0.0139     0.1616     2.3796
  461.0000   -20.1904    14.7720    12.1888    22.6718     7.8411    85.5983     0.0124     0.1699     2.3647
  461.5000   -20.1949    14.5684    12.3611    22.6703     7.8408    88.2361     0.0108     0.1769     2.3529
  462.0000   -20.1994    14.4799    12.7487    22.6475     7.8405    90.3108     0.0108     0.1815     2.3469
  462.5000   -20.2039    14.3964    13.1154    22.0365     7.8402    89.2839     0.0108     0.1843     2.3410
  463.0000   -19.9063    14.3964    13.6842    22.0350     7.8692    90.0165     0.0107     0.1858     2.3380
  463.5000   -19.9109    14.4739    14.0303    21.7248     7.8689    92.0161     0.0107     0.1823     2.3409
  464.0000   -19.9154    14.4716    14.2797    21.7645     7.8686    93.1322     0.0106     0.1816     2.3512
  464.5000   -19.9199    14.2741    14.6903    22.0773     7.8683    91.5763     0.0106     0.1844     2.3409
  465.0000   -19.9043    14.2722    14.9617    22.6592     7.8680    92.0088     0.0105     0.1852     2.3379
  465.5000   -19.6027    14.2703    15.3296    22.7164     7.8677    93.4726     0.0105     0.1817     2.3378
  466.0000   -19.3291    14.2683    15.7704    22.9778     7.8674    93.0206     0.0104     0.1795     2.3422
  466.5000   -19.3338    14.4621    16.2240    22.9063     7.8672    91.5469     0.0104     0.1779     2.3481
  467.0000   -19.3384    14.4598    16.6905    22.6526     7.8669    90.1398     0.0104     0.1760     2.3525
  467.5000   -19.3429    14.4579    16.8444    22.2556     7.8666    89.4795     0.0120     0.1738     2.3584
