~VERSION INFORMATION
 VERS.                2.0:   CWLS LOG ASCII STANDARD - VERSION 2.0
 WRAP.                 NO:   ONE LINE PER DEPTH STEP
~WELL INFORMATION
#MNEM.UNIT      DATA TYPE    INFORMATION
#----------   ------------   ------------------------------
 STRT.F          100.0000:   START DEPTH
 STOP.F          812.0000:   STOP DEPTH
 STEP.F            0.5000:   STEP LENGTH
 NULL.          -999.2500:   NO VALUE
 COMP.               NAVY:   COMPANY
 WELL. RES 3 TEAPOT DOM #42S-11:   WELL
 FLD .             TEAPOT:   FIELD
 LOC .      S11 T38N R78W:   LOCATION
 CNTY.            NATRONA:   COUNTY
 STAT.            WYOMING:   STATE
 CTRY. UNITED STATES OF AMERICA:   COUNTRY
 SRVC.       Schlumberger:   SERVICE COMPANY
 DATE.        02-AUG-1961:   LOGDATE
 API .       490250636700:   API NUMBER
~CURVE INFORMATION
#MNEM.UNIT       API CODE    CURVE DESCRIPTION
#----------   ------------   ------------------------------
 DEPT.F                  :   
 SPR .MV     05 010 01 00:   SPONTANEOUS POTENTIAL FROM RES.
 ILD .OHMM   05 120 46 00:   INDUCTION LOG DEEP
 ASN .OHMM   05 041 16 00:   AMPLIFIED SHORT NORMAL 16"
 CILD.MMHO   05 110 46 00:   CONDUCTIVITY INDUCTION LOG DEEP
 GR  .GAPI   30 310 01 00:   GAMMA RAY
~PARAMETER INFORMATION
#MNEM.UNIT          VALUE    DESCRIPTION
#----------   ------------   ------------------------------
 PD  .                 GL:   PERMANENT DATUM
 EPD .F              5172:   ELEVATION PERMANENT DATUM
 LMF .                 KB:   LOG MEASURED FROM
 DAPD.F                 5:   FEET ABOVE PERMANENT DATUM
 DMF .                 KB:   DRILLING MEASURED FROM
 EKB .F              5177:   KELLING BUSHING
 EGL .F              5172:   GROUND LEVEL
 DATE.             8-2-61:   RUN DATE
 RUN .                  1:   RUN NUMBER
 DD  .F               810:   DEPTH DRILLER
 DL  .F               813:   DEPTH LOGGER
 BLI .F               812:   BOTTOM LOG INTERVAL
 TLI .F               100:   TOP LOG INTERVAL
 BS  .IN             6.75:   BIT SIZE
 BSD .F               810:   BIT SIZE AT DEPTH
 DFT .       OIL EMULSION:   DRILLING FLUID TYPE
 DFD .                9.2:   DRILLING FLUID DENSITY
 DFV .                 56:   DRILLING FLUID VISCOSITY
 MFSS.                  M:   MUD FILTRATE SAMPLE SOURCE
 MCSS.                  M:   MUD CAKE SAMPLE SOURCE
 RMB .OHMM            .70:   RESISTIVITY MUD AT BHT
 BHT .F                80:   BOTTOM HOLE TEMPERATURE
 TCS .HRS               1:   TIME CURCULATED STOPPED
 MRT .F                80:   MAXIMUM RECORDED TEMPERATURE
 LUN .               2552:   LOGGING UNIT NUMBER
 LUL .                RIV:   LOGGING UNIT LOCATION
 ENGI.             RANDLE:   RECORDING ENGINEER
 WITN.          VORGENSON:   WITNESSED BY
 CLNT.            A2DTECH:   CLIENT CODE
 ORIG.       2", 5" PRINT:   ORIGIN OF DATA
 UWI .       490250636700:   UNIQUE WELL ID
 DICO. A2D Technologies, Inc.:   DIGITIZING COMPANY
~OTHER INFORMATION
~A   DEPT      SPR        ILD        ASN        CILD        GR   
# ...
  161.0000  -999.2500     2.8913     3.1696   409.1826  -999.2500
  161.5000  -999.2500     3.1242     3.2013   396.7365  -999.2500
  162.0000  -999.2500     3.3603     3.2129   382.7043  -999.2500
  162.5000  -999.2500     3.5961     3.3494   367.8103  -999.2500
  163.0000  -999.2500     3.8298     3.6346   347.8944  -999.2500
  163.5000  -999.2500     4.0703     3.9076   324.0262  -999.2500
  164.0000  -999.2500     4.2780     4.1800   297.1028  -999.2500
  164.5000  -999.2500     4.4474     4.4685   270.1794  -999.2500
  165.0000  -999.2500     4.6302     4.6198   243.2560  -999.2500
  165.5000  -999.2500     4.7822     4.6351   217.4571  -999.2500
  166.0000  -999.2500     4.7996     4.6736   208.9001  -999.2500
  166.5000  -999.2500     4.7808     4.7008   201.3118  -999.2500
  167.0000  -999.2500     4.7584     4.7286   207.0575  -999.2500
  167.5000  -999.2500     4.7241     4.7162   212.3966  -999.2500
  168.0000  -999.2500     4.7178     4.6715   222.3764  -999.2500
  168.5000  -999.2500     4.5741     4.4550   235.2106  -999.2500
  169.0000  -999.2500     4.1642     4.2421   260.7946  -999.2500
  169.5000  -999.2500     3.7987     4.0305   293.1370  -999.2500
  170.0000  -999.2500     3.4303     3.8166   325.4793  -999.2500
  170.5000   -26.0071     3.0466     3.6073   357.8216  -999.2500
  171.0000   -26.4647     2.7820     3.3949   367.8103  -999.2500
  171.5000   -26.9654     2.7672     3.3481   371.4771  -999.2500
  172.0000   -27.3347     2.8508     3.3835   375.8830  -999.2500
  172.5000   -27.7948     3.0343     3.4192   374.1423  -999.2500
  173.0000   -28.1250     3.2361     3.5029   367.8103  -999.2500
  173.5000   -28.9811     3.4470     3.6257   345.9940  -999.2500
  174.0000   -30.2086     3.6465     3.7558   319.0053  -999.2500
  174.5000   -31.3683     3.8642     3.8848   292.0167  -999.2500
  175.0000   -31.8999     4.0519     4.0126   269.1725  -999.2500
  175.5000   -32.0617     4.2441     4.1439   251.7659  -999.2500
  176.0000   -32.2214     4.3019     4.2677   248.0928  -999.2500
  176.5000   -32.0330     4.2844     4.4070   243.6932  -999.2500
  177.0000   -31.8924     4.2943     4.4936   241.6751  -999.2500
  177.5000   -31.7287     4.2863     4.5327   240.2182  -999.2500
  178.0000   -31.6038     4.2962     4.4729   238.6478  -999.2500
  178.5000   -31.6461     4.2346     4.3215   238.6478  -999.2500
  179.0000   -31.9076     4.1036     4.1850   244.7931  -999.2500
  179.5000   -32.0400     3.9838     4.0477   250.9536  -999.2500
  180.0000   -32.1812     3.8577     3.9490   256.8113  -999.2500
  180.5000   -32.2152     3.7365     3.8537   277.0626  -999.2500
  181.0000   -32.2184     3.6108     3.7588   296.3653  -999.2500
  181.5000   -32.2050     3.4911     3.6639   312.4458  -999.2500
  182.0000   -32.2597     3.3643     3.5686   326.3068  -999.2500
  182.5000   -32.4805     3.2648     3.4764   331.4833  -999.2500
  183.0000   -32.6146     3.3093     3.4072   329.5005  -999.2500
  183.5000   -32.7779     3.3757     3.3545   328.4561  -999.2500
  184.0000   -32.9283     3.2821     3.2997   342.5227  -999.2500
  184.5000   -33.0839     3.2046     3.2638   354.5502  -999.2500
  185.0000   -33.2406     3.1192     3.2895   366.5778  -999.2500
  185.5000   -33.3897     3.0371     3.3111   369.8285  -999.2500
  186.0000   -33.5587     2.9464     3.2443   377.9011  -999.2500
  186.5000   -33.6453     2.8668     3.1383   389.0490  -999.2500
  187.0000   -33.6006     2.7418     2.9991   418.8244  -999.2500
  187.5000   -33.5661     2.5513     2.8644   448.5999  -999.2500
  188.0000   -33.5239     2.3759     2.7285   478.3754  -999.2500
  188.5000   -33.4856     2.1881     2.5847   497.9818  -999.2500
  189.0000   -33.4457     2.1616     2.5227   497.9818  -999.2500
  189.5000   -33.4054     2.1854     2.4608   497.9818  -999.2500
  190.0000   -33.3677     2.3613     2.4322   497.9818  -999.2500
  190.5000   -33.3245     2.5424     2.5223   496.9727  -999.2500
  191.0000   -33.2919     2.7348     2.6260   473.1968  -999.2500
  191.5000   -33.2389     2.9277     2.7275   447.3229  -999.2500
  192.0000   -33.3094     3.1184     2.8449   415.1413  -999.2500
  192.5000   -33.4894     3.3144     3.0968   375.6118  -999.2500
  193.0000   -33.6485     3.4996     3.4058   336.0822  -999.2500
  193.5000   -33.8152     3.7053     3.6871   296.5527  -999.2500
  194.0000   -33.9827     3.7912     3.7302   273.0979  -999.2500
  194.5000   -34.1401     3.7899     3.7117   267.9112  -999.2500
  195.0000   -34.3239     3.7134     3.6807   278.2038  -999.2500
  195.5000   -34.4009     3.5489     3.6607   294.6317  -999.2500
  196.0000   -34.1820     3.4076     3.5837   311.0595  -999.2500
  196.5000   -34.0975     3.2544     3.4617   327.4874  -999.2500
  197.0000   -33.9943     3.1082     3.3525   343.9153  -999.2500
  197.5000   -33.9048     2.9563     3.2378   371.4850  -999.2500
  198.0000   -33.8039     2.8111     3.1257   405.0252  -999.2500
  198.5000   -33.7151     2.6555     3.0133   438.5654  -999.2500
  199.0000   -33.6266     2.5226     2.8986   471.6246  -999.2500
  199.5000   -33.6874     2.3817     2.8099   496.9727  -999.2500
  200.0000   -33.8545     2.4167     2.8030   496.4682  -999.2500
  200.5000   -33.8334     2.5690     2.8867   479.6761  -999.2500
  201.0000   -33.8449     2.8291     2.9856   458.0253  -999.2500
  201.5000   -33.8411     3.1942     3.1508   436.3252  -999.2500
  202.0000   -33.9207     3.5388     3.4419   410.1630  -999.2500
  202.5000   -34.0257     3.8928     3.7509   365.7766  -999.2500
  203.0000   -34.1279     4.2430     4.0433   300.6627  -999.2500
  203.5000   -34.2313     4.5943     4.3737   264.6707  -999.2500
  204.0000   -34.3339     4.9590     4.6197   233.0998  -999.2500
  204.5000   -34.4371     5.0601     4.7228   221.2470  -999.2500
  205.0000   -34.5402     5.1202     4.8756   212.6554  -999.2500
  205.5000   -34.6434     5.1913     5.0366   210.2765  -999.2500
  206.0000   -34.7466     5.2582     5.2432   208.9959  -999.2500
  206.5000   -34.8496     5.3717     5.4496   203.0407  -999.2500
  207.0000   -34.9529     5.4730     5.6599   196.3590  -999.2500
  207.5000   -35.0555     5.6560     5.8644   189.6143  -999.2500
  208.0000   -35.1606     5.8272     6.0766   182.8195  -999.2500
  208.5000   -35.2492     6.0207     6.2040   176.0007  -999.2500
  209.0000   -35.1625     6.1142     6.3321   169.0212  -999.2500
  209.5000   -35.0489     6.1021     6.4588   168.1105  -999.2500
  210.0000   -34.9396     6.1082     6.5842   168.3148  -999.2500
  210.5000   -34.8297     6.1032     6.7017   168.5192  -999.2500
  211.0000   -34.7183     6.0882     6.7140   168.7235  -999.2500
  211.5000   -34.6105     6.0689     6.6980   168.9279  -999.2500
  212.0000   -34.4959     6.0511     6.6688   169.5299  -999.2500
  212.5000   -34.4438     6.0327     6.6424   170.4665  -999.2500
  213.0000   -34.4619     6.0146     6.6142   171.4030  -999.2500
  213.5000   -34.5593     5.9966     6.5875   172.3396  -999.2500
  214.0000   -34.6645     5.9785     6.5593   173.2762  -999.2500
  214.5000   -34.7675     5.9605     6.5476   174.2127  -999.2500
  215.0000   -34.8698     5.9425     6.5499   175.1493  -999.2500
  215.5000   -34.9760     5.9244     6.5429   176.0858  -999.2500
  216.0000   -35.0572     5.9064     6.5324   177.0224  -999.2500
  216.5000   -35.0626     5.8878     6.5276   177.9589  -999.2500
  217.0000   -35.0573     5.8703     6.5303   178.8955  -999.2500
  217.5000   -35.0214     5.8504     6.5121   179.8320  -999.2500
  218.0000   -34.9856     5.8353     6.4820   180.1211  -999.2500
  218.5000   -34.9538     5.8112     6.4550   180.1211  -999.2500
  219.0000   -34.9139     5.8071     6.4278   179.1120  -999.2500
  219.5000   -34.8887     5.7880     6.4073   177.2389  -999.2500
  220.0000   -34.8439     5.9311     6.4889   175.5802  -999.2500
  220.5000   -35.0126     6.1639     6.6073   173.0575  -999.2500
  221.0000   -35.1340     6.3590     6.7096   168.7262  -999.2500
  221.5000   -35.2023     6.5669     6.8328   163.0676  -999.2500
