~VERSION INFORMATION
 VERS.                2.0:   CWLS LOG ASCII STANDARD - VERSION 2.0
 WRAP.                 NO:   ONE LINE PER DEPTH STEP
~WELL INFORMATION
#MNEM.UNIT      DATA TYPE    INFORMATION
#----------   ------------   ------------------------------
 STRT.F           11.0000:   START DEPTH
 STOP.F          685.0000:   STOP DEPTH
 STEP.F            0.5000:   STEP LENGTH
 NULL.          -999.2500:   NO VALUE
 COMP. BROWN JOHN E&C INC:   COMPANY
 WELL. 78-1 STX-34 #78-34:   WELL
 FLD .             TEAPOT:   FIELD
 LOC .      S34 T39N R78W:   LOCATION
 CNTY.            NATRONA:   COUNTY
 STAT.            WYOMING:   STATE
 CTRY. UNITED STATES OF AMERICA:   COUNTRY
 SRVC.     Atlas Wireline:   SERVICE COMPANY
 DATE.        28-JAN-1992:   LOGDATE
 API .       490252250300:   API NUMBER
~CURVE INFORMATION
#MNEM.UNIT       API CODE    CURVE DESCRIPTION
#----------   ------------   ------------------------------
 DEPT.F                  :   
 GRR .GAPI   07 310 01 00:   GAMMA RAY
 RILD.OHMM   07 120 46 00:   INDUCTION LOG DEEP RESISTIVITY
 RILM.OHMM   07 120 44 00:   INDUCTION LOG MEDIUM RESISTIVITY
~PARAMETER INFORMATION
#MNEM.UNIT          VALUE    DESCRIPTION
#----------   ------------   ------------------------------
 PD  .                 GL:   PERMANENT DATUM
 EPD .F              5077:   ELEVATION PERMANENT DATUM
 LMF .                 KB:   LOG MEASURED FROM
 DAPD.F                10:   FEET ABOVE PERMANENT DATUM
 DMF .                 KB:   DRILLING MEASURED FROM
 EKB .F              5087:   KELLING BUSHING
 EDF .F              5086:   DRILLING FLOOR
 EGL .F              5077:   GROUND LEVEL
 DATE.        28-JAN-1992:   RUN DATE
 RUN .                  1:   RUN NUMBER
 DD  .F               693:   DEPTH DRILLER
 DL  .F               693:   DEPTH LOGGER
 BLI .F               691:   BOTTOM LOG INTERVAL
 CS  .IN            9.625:   CASING SIZE
 CBD .F                50:   CASING BOTTOM DRILLER
 CBL .F                60:   CASING BOTTOM LOGGER
 BS  .IN             8.75:   BIT SIZE
 BSD .F               693:   BIT SIZE AT DEPTH
 DFT .                AIR:   DRILLING FLUID TYPE
 MRT .F                90:   MAXIMUM RECORDED TEMPERATURE
 LUN .           HL- 6274:   LOGGING UNIT NUMBER
 LUL .             CASPER:   LOGGING UNIT LOCATION
 ENGI.             RAUTIO:   RECORDING ENGINEER
 WITN.        GARY STRONG:   WITNESSED BY
 CLNT.            A2DTECH:   CLIENT CODE
 ORIG.           5" PRINT:   ORIGIN OF DATA
 UWI .       490252250300:   UNIQUE WELL ID
 DICO. A2D Technologies, Inc.:   DIGITIZING COMPANY
~OTHER INFORMATION
~A   DEPT       GRR      RILD       RILM   
# ...
  557.0000   105.1938    11.0613    11.0623
  557.5000   107.2995    11.0606    11.0623
  558.0000   110.3102    11.1370    11.1396
  558.5000   113.0207    11.2140    11.2959
  559.0000   112.1084    11.4497    11.5345
  559.5000   109.9908    11.7043    11.6963
  560.0000   104.8567    12.1031    12.0269
  560.5000   100.8788    12.8842    12.8051
  561.0000    99.0629    14.0050    14.3151
  561.5000    97.2960    15.8721    18.1414
  562.0000    94.2735    18.8857    21.8960
  562.5000    89.1394    21.8548    24.1393
  563.0000    78.8771    25.2908    28.3424
  563.5000    70.7264    29.2669    31.7403
  564.0000    73.4354    33.6522    33.9613
  564.5000    74.0343    35.6240    34.9211
  565.0000    75.8369    36.3031    34.6786
  565.5000    80.6575    34.5748    32.7987
  566.0000    84.2715    32.7010    29.1353
  566.5000    86.0755    29.4587    24.6491
  567.0000    85.4660    27.8622    23.3129
  567.5000    86.3639    26.1695    22.8307
  568.0000    87.2644    24.4092    22.6722
  568.5000    85.4471    23.2475    22.6722
  569.0000    85.4412    22.4513    22.6722
  569.5000    85.4353    22.4659    22.6722
  570.0000    85.4294    22.7628    22.6722
  570.5000    85.7266    22.6030    22.8307
  571.0000    87.8308    22.2892    22.6722
  571.5000    89.0316    22.1332    22.5148
  572.0000    89.0256    21.8259    22.2032
  572.5000    87.5113    21.6731    21.8960
  573.0000    89.0638    21.3722    21.5930
  573.5000    91.1180    21.3525    21.4431
  574.0000    91.4153    21.6687    21.8960
  574.5000    90.5029    22.2894    22.5267
  575.0000    89.8937    22.7734    22.8573
  575.5000    90.7927    22.9041    22.9903
  576.0000    91.6918    22.9022    22.8307
  576.5000    91.9890    22.7419    22.6722
  577.0000    91.6800    21.6595    22.2032
  577.5000    88.0542    21.0637    21.1464
  578.0000    87.7466    21.0623    19.7233
  578.5000    89.5760    21.0609    19.5863
  579.0000    90.5499    20.4815    19.1812
  579.5000    93.4589    19.7749    19.4503
  580.0000    96.1679    19.3702    19.5863
  580.5000    97.0685    19.3685    19.4503
  581.0000    94.6478    19.5028    19.1812
  581.5000    91.6253    19.5011    19.1812
  582.0000    92.5244    19.3646    19.0480
  582.5000    93.4235    19.2290    19.0480
  583.0000    94.3225    18.8306    19.0480
  583.5000    94.0150    18.3126    18.6540
  584.0000    93.4057    17.8089    18.1414
  584.5000    91.5644    17.3186    17.6428
  585.0000    91.9858    16.9601    17.2779
  585.5000    97.6097    16.9587    17.0388
  586.0000   100.3188    16.8400    16.9205
  586.5000    99.7095    16.8389    16.9205
  587.0000    97.5920    16.7210    16.9205
  587.5000    95.7762    16.7199    17.0388
  588.0000    96.0719    16.7187    17.0388
  588.5000    96.3691    16.7176    17.0388
  589.0000    96.0601    16.8331    16.8030
  589.5000    95.1492    16.7153    16.6863
  590.0000    94.8416    16.0309    16.2278
  590.5000    96.3947    16.1785    16.2229
  591.0000    99.8068    16.4810    16.5705
  591.5000   102.6656    15.9163    16.0846
  592.0000   104.4696    15.4784    15.6722
  592.5000   103.8604    15.1577    15.3480
  593.0000   102.9495    14.9473    14.9262
  593.5000   103.5469    14.5361    14.6175
  594.0000   104.7476    14.2349    14.2157
  594.5000   104.4401    13.8433    13.9217
  595.0000   101.7192    13.2735    13.5391
  595.5000    99.3000    12.9779    13.2591
  596.0000   100.1991    12.6436    12.8947
  596.5000    99.5898    12.3816    12.6247
  597.0000    98.9302    12.2097    12.3667
  597.5000    99.2749    12.1245    12.2809
  598.0000    99.5721    12.2083    12.1956
  598.5000   100.7714    12.1226    12.1956
  599.0000   101.6719    12.0377    12.1956
  599.5000   101.9677    12.0289    12.1110
  600.0000    99.9832    12.0361    12.1953
  600.5000    96.8294    11.9479    12.0233
  601.0000    97.1281    11.9438    12.0200
  601.5000   101.3484    11.9398    12.0167
  602.0000   103.7587    12.0200    12.0974
  602.5000   104.0574    12.0149    12.0941
  603.0000   103.1493    12.0108    12.0907
  603.5000   103.7491    12.0906    12.1720
  604.0000   104.3502    12.0864    12.2529
  604.5000   103.7432    12.0823    12.2496
  605.0000   103.4393    12.1625    12.2462
  605.5000   105.2455    12.2432    12.2429
  606.0000   108.5608    12.1531    12.2395
  606.5000   108.5579    12.1490    12.2362
  607.0000   108.2533    12.1448    12.2328
  607.5000   110.3619    12.0565    12.2295
  608.0000   112.7722    11.9689    12.2262
  608.5000   112.4173    11.8818    12.2228
  609.0000   109.5990    11.7137    12.1307
  609.5000   107.0319    11.7097    11.8803
  610.0000   108.8389    11.6245    11.7939
  610.5000   108.5342    11.6206    11.7088
  611.0000   110.9438    11.6166    11.7056
  611.5000   112.1475    11.6125    11.6211
  612.0000   112.4469    11.6085    11.6180
  612.5000   111.5383    11.6037    11.6148
  613.0000   109.1220    11.5998    11.6116
  613.5000   108.5158    11.5958    11.6084
  614.0000   108.5128    11.5918    11.6053
  614.5000   110.3951    11.5076    11.6021
  615.0000   113.4338    11.5036    11.5989
  615.5000   115.1405    11.4200    11.5958
  616.0000   115.1368    11.4161    11.5925
  616.5000   112.7205    11.4122    11.5886
  617.0000   109.7010    11.3292    11.5050
  617.5000   108.4921    11.3254    11.5019
  618.0000   111.8067    11.3214    11.4987
  618.5000   114.2170    11.3174    11.4158
  619.0000   115.4207    11.3128    11.4127
  619.5000   113.3061    11.1527    11.4095
  620.0000   108.7783    10.8429    11.0159
  620.5000   106.0349    10.8392    10.9364
  621.0000   106.0574    10.7604    10.9335
  621.5000   107.2604    10.7567    10.8546
  622.0000   109.0674    10.6785    10.8516
  622.5000   111.7794    10.3819    10.7645
  623.0000   115.3963    10.2350    10.4737
  623.5000   118.1083    10.0902    10.2542
  624.0000   117.8037     9.8099    10.0394
  624.5000   113.5775     9.7385     9.8977
  625.0000   109.0496     9.5341     9.6904
  625.5000   108.7199     9.2686     9.4215
  626.0000   112.6637     9.0741     9.2886
  626.5000   118.5699     8.7609     9.0308
  627.0000   124.7241     8.5176     8.5986
  627.5000   124.4188     8.1666     8.0738
  628.0000   120.1926     7.0542     7.6340
  628.5000   117.4747     6.1787     6.9157
  629.0000   117.4717     5.7216     6.0570
  629.5000   120.7870     5.4478     4.9175
  630.0000   130.7388     5.3707     4.9855
  630.5000   146.1205     5.3689     5.1246
  631.0000   154.8656     5.4422     5.6089
  631.5000   153.9577     5.5614     6.1819
  632.0000   148.8266     5.7894     6.9090
  632.5000   139.4689     6.3794     7.4572
  633.0000   126.9509     7.1281     8.2765
  633.5000   117.4444     8.2465     9.0586
  634.0000   116.2355     9.2142     9.5087
  634.5000   119.8518     9.7382     9.8431
  635.0000   121.0562     9.9410    10.0482
  635.5000   121.3549     9.9368     9.9756
  636.0000   118.9379    10.0028     9.9723
  636.5000   114.4101    10.0691    10.1102
  637.0000   113.8038    10.4224    10.4650
  637.5000   115.9125    10.7933    10.7578
  638.0000   118.6244    11.0999    10.9828
  638.5000   121.0601    11.3177    11.2893
  639.0000   122.3387    11.4714    11.4453
  639.5000   123.4421    11.6281    11.6020
  640.0000   121.9301    11.7880    11.7615
  640.5000   120.1172    12.0325    12.0067
  641.0000   119.5109    12.3667    12.2569
  641.5000   119.8104    12.5357    12.6024
  642.0000   119.8067    12.7081    12.7731
  642.5000   119.5021    12.7915    12.8752
  643.0000   117.9908    12.7870    13.0358
  643.5000   116.1779    12.8718    13.0313
  644.0000   119.4932    12.9573    13.0278
  644.5000   121.6272    13.0433    13.1162
  645.0000   121.5486    13.0377    13.1117
  645.5000   114.9587    13.0333    13.1081
  646.0000   112.5425    13.0288    13.1045
  646.5000   112.8419    12.9341    13.1009
  647.0000   112.8382    12.9297    13.0974
  647.5000   113.1377    12.9252    13.0938
