~VERSION INFORMATION
 VERS.                2.0:   CWLS LOG ASCII STANDARD - VERSION 2.0
 WRAP.                 NO:   ONE LINE PER DEPTH STEP
~WELL INFORMATION
#MNEM.UNIT      DATA TYPE    INFORMATION
#----------   ------------   ------------------------------
 STRT.F           32.0000:   START DEPTH
 STOP.F          501.0000:   STOP DEPTH
 STEP.F            0.5000:   STEP LENGTH
 NULL.          -999.2500:   NO VALUE
 COMP. FENIX & SCISSON, INC., U.S. NAVY:   COMPANY
 WELL.     NPR-3 #82-S-10:   WELL
 FLD .             TEAPOT:   FIELD
 LOC .      S10 T38N R78W:   LOCATION
 CNTY.            NATRONA:   COUNTY
 STAT.            WYOMING:   STATE
 CTRY. UNITED STATES OF AMERICA:   COUNTRY
 SRVC.              Welex:   SERVICE COMPANY
 DATE.        10-MAY-1977:   LOGDATE
 API .       490251035300:   API NUMBER
~CURVE INFORMATION
#MNEM.UNIT       API CODE    CURVE DESCRIPTION
#----------   ------------   ------------------------------
 DEPT.F                  :   
 GURD.OHMM   07 220 05 00:   SHALLOW SHORT GUARD RESISTIVITY
 ILD .OHMM   07 120 46 00:   INDUCTION LOG DEEP
 ILM .OHMM   07 120 44 00:   INDUCTION LOG MEDIUM
 SPR .MV     07 010 01 00:   SPONTANEOUS POTENTIAL
 CALD.IN     45 280 60 00:   CALIPER FROM DENSITY LOG
 CORR.G/C3   45 356 01 00:   DENSITY CORRECTION
 DPHI.DEC    45 890 12 00:   DENSITY POROSITY SANDSTONE
 GRD .GAPI   45 310 01 00:   GAMMA RAY FROM DENSITY LOG
 RHOB.G/C3   45 350 01 00:   BULK DENSITY
~PARAMETER INFORMATION
#MNEM.UNIT          VALUE    DESCRIPTION
#----------   ------------   ------------------------------
 PD  .                 GL:   PERMANENT DATUM
 EPD .F              5134:   ELEVATION PERMANENT DATUM
 LMF .                 GL:   LOG MEASURED FROM
 DMF .                 GL:   DRILLING MEASURED FROM
 EGL .F              5134:   GROUND LEVEL
 DATE.        10-MAY-1977:   RUN DATE
 RUN .                  1:   RUN NUMBER
 DD  .F               505:   DEPTH DRILLER
 DL  .F               504:   DEPTH LOGGER
 BLI .F               502:   BOTTOM LOG INTERVAL
 TLI .F                30:   TOP LOG INTERVAL
 CS  .IN            8.625:   CASING SIZE
 CBD .F                40:   CASING BOTTOM DRILLER
 CBL .F                41:   CASING BOTTOM LOGGER
 BS  .IN            7.875:   BIT SIZE
 BSD .F               505:   BIT SIZE AT DEPTH
 DFT .            KCL MUD:   DRILLING FLUID TYPE
 DFD .                8.7:   DRILLING FLUID DENSITY
 DFV .                 29:   DRILLING FLUID VISCOSITY
 DFPH.                7.5:   DRILLING FLUID PH
 DFL .                6.6:   DRILLING FLUID LOSS
 MSS .           FLOWLINE:   MUD SAMPLE SOURCE
 RMS .OHMM           0.26:   RESISTIVITY MUD SAMPLE
 MST .F                72:   MUD SAMPLE TEMPERATURE
 RMF .OHMM           0.22:   RESISTIVITY MUD FILTRATE SAMPLE
 MFST.F                72:   MUD FILTRATE SAMPLE TEMPERATURE
 RMC .OHMM           0.42:   RESISTIVITY MUD CAKE
 MCST.F                72:   MUD CAKE SAMPLE TEMPERATURE
 MFSS.           FANN KIT:   MUD FILTRATE SAMPLE SOURCE
 MCSS.           FANN KIT:   MUD CAKE SAMPLE SOURCE
 RMB .OHMM           0.24:   RESISTIVITY MUD AT BHT
 BHT .F                78:   BOTTOM HOLE TEMPERATURE
 TCS .HRS               1:   TIME CURCULATED STOPPED
 MRT .F                78:   MAXIMUM RECORDED TEMPERATURE
 LUN .               8611:   LOGGING UNIT NUMBER
 LUL .             CASPER:   LOGGING UNIT LOCATION
 ENGI.            C. DOAK:   RECORDING ENGINEER
 WITN.         D. RHOADES:   WITNESSED BY
 CLNT.            A2DTECH:   CLIENT CODE
 ORIG.           5" PRINT:   ORIGIN OF DATA
 UWI .       490251035300:   UNIQUE WELL ID
 DICO. A2D Technologies, Inc.:   DIGITIZING COMPANY
~OTHER INFORMATION
~A   DEPT     GURD        ILD        ILM         SPR      CALD       CORR       DPHI        GRD       RHOB   
# ...
  251.0000    10.2801     7.9816     8.6494   -45.3688     7.6839     0.0243     0.1169   136.9623     2.4859
  251.5000    10.2865     7.9854     8.7751   -45.3601     7.6702     0.0229     0.1201   136.2329     2.4792
  252.0000    10.4361     8.0440     8.7805   -45.3512     7.6714     0.0200     0.1252   135.6500     2.4718
  252.5000    10.6626     8.0484     8.6652   -45.3423     7.6577     0.0171     0.1299   135.0668     2.4659
  253.0000    10.8175     8.0215     8.6107   -45.3319     7.6589     0.0172     0.1335   134.1672     2.4570
  253.5000    10.6755     7.9444     8.4405   -45.3232     7.6601     0.0174     0.1353   132.8422     2.4548
  254.0000    10.1075     7.8942     8.3284   -45.4643     7.6615     0.0175     0.1323   130.3522     2.4601
  254.5000    10.0425     7.8436     8.1638   -45.4554     7.6776     0.0176     0.1340   129.9147     2.4586
  255.0000    10.1900     7.7897     8.0566   -45.4464     7.6773     0.0177     0.1364   132.1530     2.4527
  255.5000    10.2046     7.6898     7.8949   -45.4372     7.6745     0.0178     0.1376   133.3502     2.4490
  256.0000     9.9242     7.6944     8.0465   -45.4285     7.6716     0.0180     0.1343   132.6186     2.4528
  256.5000     9.8618     7.6440     8.2184   -45.5012     7.6688     0.0181     0.1357   130.1065     2.4544
  257.0000     9.8746     7.6485     8.2218   -45.5600     7.6683     0.0182     0.1375   132.1939     2.4499
  257.5000     9.9187     7.5994     8.2252   -45.5491     7.6698     0.0183     0.1369   134.4296     2.4495
  258.0000     9.9132     7.6558     8.1719   -45.6905     7.6709     0.0184     0.1345   136.3686     2.4600
  258.5000    10.0581     7.7125     8.1188   -45.9803     7.6721     0.0186     0.1306   137.5658     2.4571
  259.0000    10.1320     7.6629     8.0662   -46.2671     7.6732     0.0187     0.1260   136.9825     2.4632
  259.5000    10.0663     7.6124     7.9878   -46.5560     7.6744     0.0188     0.1224   136.9928     2.4722
  260.0000     9.8648     7.5059     7.9073   -46.6964     7.6905     0.0189     0.1200   137.5964     2.4783
  260.5000     9.7999     7.3112     7.8534   -47.1339     7.6917     0.0184     0.1205   138.2003     2.4791
  261.0000     9.8049     7.0669     7.6399   -47.5716     7.6780     0.0192     0.1226   138.8239     2.4762
  261.5000     9.8769     6.8300     7.4321   -47.7117     7.6792     0.0178     0.1280   139.4822     2.4650
  262.0000     9.9494     6.5555     6.9466   -47.8512     7.6654     0.0164     0.1357   140.4588     2.4509
  262.5000     9.5493     6.3797     6.8533   -47.8410     7.6667     0.0150     0.1450   141.2109     2.4360
  263.0000     7.6054     6.2086     7.0490   -47.9833     7.6681     0.0121     0.1541   142.1113     2.4226
  263.5000     4.6265     6.1262     7.0026   -48.2722     7.6692     0.0093     0.1612   143.6052     2.4070
  264.0000     8.1562     6.0449     6.7683   -48.1125     7.6851     0.0079     0.1634   146.2861     2.4048
  264.5000     9.0506     6.0023     6.4514   -48.2530     7.6863     0.0050     0.1550   143.6257     2.4146
  265.0000     8.6259     5.8856     6.4988   -48.8392     7.7025     0.0021     0.1475   139.9267     2.4289
  265.5000     8.8721     5.7284     6.5919   -49.2882     7.7037     0.0022     0.1430   137.4146     2.4395
  266.0000     9.1877     5.5747     6.5041   -48.8197     7.6897     0.0024     0.1451   132.6771     2.4313
  266.5000     9.5146     5.3138     6.2858   -47.9181     7.6911     0.0025     0.1555   132.3507     2.4142
  267.0000     9.3105     5.1357     5.9092   -48.0582     7.6855     0.0041     0.1600   133.7361     2.4112
  267.5000     7.0230     5.1025     5.2929   -48.0495     7.6786     0.0077     0.1623   134.9332     2.4083
  268.0000     4.8879     5.1050     4.9753   -47.2968     7.6798     0.0094     0.1671   135.8487     2.4031
  268.5000     3.7239     5.1433     5.5983   -46.5441     7.6661     0.0103     0.1680   136.6256     2.3987
  269.0000     6.5205     5.2174     6.2553   -46.0890     7.6673     0.0126     0.1624   135.8566     2.4048
  269.5000     8.7799     5.3663     6.7055   -45.7826     7.6535     0.0158     0.1465   132.7511     2.4393
  270.0000     9.6090     5.5963     7.0895   -45.9228     7.6550     0.0159     0.1218   131.4260     2.4638
  270.5000     9.6795     6.0415     7.3443   -46.2117     7.6560     0.0176     0.1194   130.2493     2.4786
  271.0000     9.6835     6.5220     7.5559   -46.6473     7.6573     0.0177     0.1229   129.0726     2.4792
  271.5000     9.7546     6.8016     7.7655   -47.0850     7.6585     0.0178     0.1265   128.9319     2.4703
  272.0000     9.9630     6.8996     7.8774   -47.2273     7.6595     0.0180     0.1268   132.0604     2.4636
  272.5000     9.3652     6.8081     7.9353   -46.7700     7.6607     0.0181     0.1265   135.1863     2.4675
  273.0000     9.4349     6.6255     7.8831   -46.7613     7.6620     0.0182     0.1255   135.6391     2.4683
  273.5000     9.7033     6.4034     7.6193   -47.3479     7.6781     0.0184     0.1267   130.9041     2.4654
  274.0000     9.7746     6.1461     7.2625   -47.7856     7.6940     0.0200     0.1336   130.1127     2.4594
  274.5000     9.6444     5.8992     6.9224   -47.4792     7.6953     0.0201     0.1374   132.7049     2.4520
  275.0000     8.8194     5.6231     6.4184   -47.3214     7.6965     0.0203     0.1434   136.8694     2.4446
  275.5000     7.2978     5.5086     6.1603   -47.4619     7.6976     0.0174     0.1488   140.3318     2.4365
  276.0000     4.6015     5.3998     5.9948   -47.8996     7.6988     0.0160     0.1512   142.7359     2.4275
  276.5000     5.6558     5.4777     6.2945   -48.3352     7.7000     0.0147     0.1502   144.1727     2.4277
  277.0000     9.7996     5.4425     6.6091   -48.6263     7.7012     0.0148     0.1478   140.0286     2.4363
  277.5000     8.8997     5.5599     6.9876   -48.7664     7.7024     0.0150     0.1382   132.1753     2.4532
  278.0000     6.3456     5.7582     7.2863   -48.7474     7.7036     0.0166     0.1309   127.5835     2.4645
  278.5000     8.7242     5.9636     7.5979   -48.7203     7.7048     0.0182     0.1285   131.3055     2.4661
  279.0000     9.8156     6.2624     7.8682   -48.2540     7.7061     0.0214     0.1246   129.6837     2.4707
  279.5000    10.5221     6.5308     8.0920   -47.9365     7.7071     0.0215     0.1186   124.9461     2.4812
  280.0000    10.6728     6.8579     8.2648   -47.4977     7.7234     0.0216     0.1144   124.3603     2.4903
  280.5000    10.7512     7.1026     8.4444   -47.1883     7.7245     0.0218     0.1165   126.1535     2.4874
  281.0000    10.5339     7.3559     8.6876   -46.5813     7.7257     0.0197     0.1197   127.3507     2.4822
  281.5000    11.0615     7.6184     8.9379   -46.1231     7.7418     0.0145     0.1230   128.5478     2.4755
  282.0000    11.3762     7.7818     9.2470   -45.8138     7.7577     0.0086     0.1285   129.7450     2.4681
  282.5000    11.1473     8.0038     9.5100   -45.8020     7.7648     0.0043     0.1325   130.3487     2.4577
  283.0000    10.6990     8.1192     9.8484   -45.7903     7.7750     0.0047     0.1289   126.4420     2.4610
  283.5000    10.9306     8.2362     9.7836   -45.6297     7.7762     0.0121     0.1217   123.1884     2.4769
  284.0000    11.1611     8.2973     9.5878   -45.3203     7.7774     0.0167     0.1163   120.2928     2.4841
  284.5000    10.9261     8.3013     9.3302   -45.1598     7.7786     0.0199     0.1159   118.0775     2.4827
  285.0000    10.8656     8.3052     9.1425   -44.9454     7.7798     0.0200     0.1168   115.7113     2.4865
  285.5000    11.0989     8.4249     9.0208   -44.6898     7.7810     0.0186     0.1135   119.7300     2.4911
  286.0000    11.1804     8.4290     9.0245   -44.5293     7.7824     0.0173     0.1111   123.5978     2.4964
  286.5000    11.4192     8.4959     8.9660   -44.3690     7.7835     0.0159     0.1146   127.0205     2.4875
  287.0000    11.4239     8.5546     8.9697   -44.2082     7.7847     0.0145     0.1206   129.9980     2.4793
