~VERSION INFORMATION
 VERS.                2.0:   CWLS LOG ASCII STANDARD - VERSION 2.0
 WRAP.                 NO:   ONE LINE PER DEPTH STEP
~WELL INFORMATION
#MNEM.UNIT      DATA TYPE    INFORMATION
#----------   ------------   ------------------------------
 STRT.F            2.5000:   START DEPTH
 STOP.F          548.0000:   STOP DEPTH
 STEP.F            0.5000:   STEP LENGTH
 NULL.          -999.2500:   NO VALUE
 COMP. LAWRENCE/ALLISON INC:   COMPANY
 WELL.    55-61 SX #10-10:   WELL
 FLD .           N.P.R #3:   FIELD
 LOC .      S10 T38N R78W:   LOCATION
 CNTY.            NATRONA:   COUNTY
 STAT.            WYOMING:   STATE
 CTRY. UNITED STATES OF AMERICA:   COUNTRY
 SRVC.            Unknown:   SERVICE COMPANY
 DATE.        05-SEP-1984:   LOGDATE
 API .       490251098100:   API NUMBER
~CURVE INFORMATION
#MNEM.UNIT       API CODE    CURVE DESCRIPTION
#----------   ------------   ------------------------------
 DEPT.F                  :   
 GRR .GAPI   07 310 01 00:   GAMMA RAY FROM RES
 SPR .MV     07 010 01 00:   SPONTANEOUS POTENTIAL
 RFOC.OHMM   07 220 04 00:   RESISTIVITY FOCUSED LOG
 RILD.OHMM   07 120 46 00:   INDUCTION LOG DEEP RESISTIVITY
 RILM.OHMM   07 120 44 00:   INDUCTION LOG MEDIUM RESISTIVITY
 CALD.IN     45 280 60 00:   CALIPER FROM DENSITY LOG
 DEN .G/C3   45 350 01 00:   COMPENSATED BULK DENSTIY
 CNC .DEC    42 890 03 00:   NEUTRON POROSITY SANDSTONE
 PORD.DEC    45 890 12 00:   POROSITY DENSITY SANDSTONE
 CORR.G/C3   45 356 01 00:   DENSITY CORRECTION
 AC  .US/F   60 520 00 00:   ACCOUSTIC SONIC
~PARAMETER INFORMATION
#MNEM.UNIT          VALUE    DESCRIPTION
#----------   ------------   ------------------------------
 PD  .                 GL:   PERMANENT DATUM
 EPD .F              5191:   ELEVATION PERMANENT DATUM
 LMF .                 KB:   LOG MEASURED FROM
 DAPD.F                12:   FEET ABOVE PERMANENT DATUM
 DMF .                 KB:   DRILLING MEASURED FROM
 EKB .F              5203:   KELLING BUSHING
 EGL .F              5191:   GROUND LEVEL
 DATE.         5-SEP-1984:   RUN DATE
 RUN .                  1:   RUN NUMBER
 DD  .F               540:   DEPTH DRILLER
 DL  .F               550:   DEPTH LOGGER
 BLI .F               548:   BOTTOM LOG INTERVAL
 CS  .IN            8.625:   CASING SIZE
 CBD .F                42:   CASING BOTTOM DRILLER
 CBL .F                54:   CASING BOTTOM LOGGER
 BS  .IN            7.875:   BIT SIZE
 BSD .F               540:   BIT SIZE AT DEPTH
 DFT .        KCL POLYMER:   DRILLING FLUID TYPE
 MSS .           FLOWLINE:   MUD SAMPLE SOURCE
 RMS .OHMM            .79:   RESISTIVITY MUD SAMPLE
 MST .F                74:   MUD SAMPLE TEMPERATURE
 RMF .OHMM            .59:   RESISTIVITY MUD FILTRATE SAMPLE
 MFST.F                74:   MUD FILTRATE SAMPLE TEMPERATURE
 RMC .OHMM            .99:   RESISTIVITY MUD CAKE
 MCST.F                74:   MUD CAKE SAMPLE TEMPERATURE
 MFSS.               CALC:   MUD FILTRATE SAMPLE SOURCE
 MCSS.               CALC:   MUD CAKE SAMPLE SOURCE
 RMB .OHMM            .65:   RESISTIVITY MUD AT BHT
 BHT .F                90:   BOTTOM HOLE TEMPERATURE
 TCS .HRS               3:   TIME CURCULATED STOPPED
 MRT .F                90:   MAXIMUM RECORDED TEMPERATURE
 LUN .               6274:   LOGGING UNIT NUMBER
 LUL .               GLTE:   LOGGING UNIT LOCATION
 ENGI.             RAUTIO:   RECORDING ENGINEER
 WITN.            JOHNSON:   WITNESSED BY
 CLNT.            A2DTECH:   CLIENT CODE
 ORIG. 2", 2.5", 5" PRINT:   ORIGIN OF DATA
 UWI .       490251098100:   UNIQUE WELL ID
 DICO. A2D Technologies, Inc.:   DIGITIZING COMPANY
~OTHER INFORMATION
~A    DEPT      GRR       SPR       RFOC       RILD       RILM       CALD        DEN        CNC       PORD       CORR         AC   
# ...
  460.0000    97.8820   -71.0620     5.7440     3.6690     3.6240     7.9220     2.3020     0.4124     0.2130    -0.0020   110.8570
  460.5000    99.3810   -70.7710     4.7580     3.4580     3.3880     7.9210     2.2180     0.4793     0.2580     0.0240   118.8570
  461.0000    99.2800   -70.5290     3.3680     3.4300     3.3070     7.9200     2.1940     0.4353     0.2890     0.0430   127.7490
  461.5000    96.5920   -70.1780     3.5200     3.5050     3.4910     7.9190     2.2470     0.3819     0.2740     0.0460   127.5500
  462.0000    93.8230   -69.8260     4.4410     3.6330     4.1380     7.9170     2.3450     0.3289     0.2300     0.0090   118.6350
  462.5000    91.0450   -69.8270     5.8170     3.7600     4.7840     7.9160     2.4390     0.2903     0.1670     0.0130   110.4680
  463.0000    89.8760   -70.4010     7.1920     4.4120     5.4310     7.9150     2.4710     0.2813     0.1310     0.0100   102.3010
  463.5000    89.4100   -70.9660     8.2830     5.1840     6.0770     7.9140     2.4820     0.2785     0.1200     0.0050    97.1280
  464.0000    89.0340   -71.5270     8.1320     5.9550     6.7230     7.9120     2.4860     0.2784     0.1160     0.0010    96.5450
  464.5000    88.6550   -72.0310     8.0070     6.7260     7.3700     7.9110     2.4870     0.2769     0.1140    -0.0030    96.6450
  465.0000    88.7480   -72.3080     7.9110     7.4040     8.0160     7.9100     2.4940     0.2740     0.1130     0.0150    96.4130
  465.5000    89.1070   -72.3260     8.1930     8.0230     8.2150     7.9090     2.5050     0.2728     0.1100     0.0350    96.0490
  466.0000    90.1390   -72.2180     8.6470     8.6430     8.3150     7.9080     2.5170     0.2721     0.1040     0.0380    95.6850
  466.5000    92.0440   -72.1080     8.9960     9.0220     8.4160     7.8980     2.5300     0.2739     0.0950     0.0180    95.3220
  467.0000    92.0460   -71.9980     9.0700     9.0830     8.5160     7.8930     2.5310     0.2766     0.0880     0.0050    95.0800
  467.5000    91.0410   -71.9960     9.1410     9.1430     8.6170     7.9080     2.5200     0.2818     0.0880     0.0090    95.6080
  468.0000    90.2520   -72.0320     9.2120     9.2030     8.7170     7.9240     2.4960     0.2914     0.0990     0.0050    96.2190
  468.5000    93.1290   -72.0670     9.2830     9.2640     8.8180     7.9140     2.4820     0.2898     0.1140    -0.0030    96.8300
  469.0000    96.0510   -72.1020     9.3540     9.3240     8.8330     7.9060     2.4820     0.2851     0.1190     0.0070    97.4700
  469.5000    98.7570   -72.1380     9.4250     9.3740     8.8330     7.9050     2.4950     0.2832     0.1160     0.0170    97.3580
  470.0000    99.0770   -72.1730     9.4960     9.4190     8.8330     7.9030     2.5090     0.2867     0.1070     0.0270    96.7950
  470.5000    99.3240   -72.1780     9.5060     9.2410     8.8330     7.9020     2.5090     0.2987     0.1000     0.0230    96.2330
  471.0000    99.5720   -72.1780     9.4900     9.1340     8.8510     7.9000     2.5020     0.3001     0.1030     0.0150    96.0760
  471.5000    99.8340   -72.1770     9.4770     9.0260     8.9200     7.8990     2.4930     0.2895     0.1080     0.0070    95.8760
  472.0000   100.3650   -72.1770     9.4640     8.9190     8.9890     7.8970     2.4870     0.2833     0.1130     0.0020    96.3450
  472.5000   101.7830   -72.0350     9.4510     8.8120     9.0790     7.8960     2.4820     0.2700     0.1170     0.0080    96.6730
  473.0000   100.7380   -71.7360     9.4390     8.7050     8.8210     7.8940     2.4760     0.2702     0.1190     0.0050    96.5750
  473.5000    99.3970   -71.4390     9.4260     8.5980     8.4580     7.8930     2.4710     0.2720     0.1220    -0.0010    96.4740
  474.0000   100.9830   -71.1430     9.4190     8.4360     7.9840     7.8910     2.4680     0.2741     0.1260    -0.0040    96.8690
  474.5000   102.7520   -71.0390     9.2350     8.5220     8.0830     7.8900     2.4660     0.2769     0.1260    -0.0050    97.3690
  475.0000   102.6320   -71.2790     9.0660     8.6960     8.2250     7.8880     2.4650     0.2802     0.1270     0.0020    97.6690
  475.5000    99.8700   -71.6640     8.9140     8.8700     8.3670     7.8870     2.4640     0.2836     0.1280     0.0060    97.6690
  476.0000    97.1100   -72.1400     9.0140     9.0430     8.5090     7.8870     2.4700     0.2801     0.1260    -0.0030    97.2670
  476.5000    97.6540   -71.7710     9.1240     9.2480     8.6510     7.8870     2.4760     0.2752     0.1210    -0.0120    96.7670
  477.0000   101.7850   -71.2090     9.2340     9.1870     8.8330     7.8870     2.4750     0.2768     0.1210    -0.0140    96.3710
  477.5000   104.9930   -70.6440     9.3440     9.1010     8.7970     7.8870     2.4760     0.2842     0.1220     0.0030    96.1210
  478.0000   104.2980   -70.0730     9.4190     9.0150     8.7470     7.8870     2.4860     0.2931     0.1190     0.0220    95.8760
  478.5000    99.7680   -70.0860     9.3540     8.9290     8.6980     7.8870     2.4950     0.3018     0.1140     0.0180    96.2180
  479.0000    97.0600   -70.6170     9.2640     8.8430     8.6480     7.8870     2.4900     0.3000     0.1110     0.0080    96.5510
  479.5000    96.4270   -71.1530     9.1750     8.7520     8.5980     7.8870     2.4860     0.2903     0.1140    -0.0020    96.8320
  480.0000    97.6800   -71.5400     9.0790     8.7520     8.5480     7.8870     2.4880     0.2902     0.1160     0.0050    97.0720
  480.5000    99.3270   -71.6120     9.0790     8.7520     8.4990     7.8870     2.4910     0.3015     0.1130     0.0120    97.0720
  481.0000   100.8940   -71.6470     9.1060     8.7520     8.4490     7.8880     2.4960     0.3149     0.1100     0.0170    97.0720
  481.5000   102.0900   -71.6780     9.1260     8.7680     8.2430     7.8900     2.5010     0.3221     0.1080     0.0120    97.0720
  482.0000   102.4060   -71.7100     9.1460     8.7970     7.9850     7.8920     2.5050     0.3234     0.1060     0.0080    97.4130
  482.5000   102.7230   -71.7450     9.1630     8.8330     7.7270     7.8940     2.5030     0.3163     0.1040     0.0120    97.8690
  483.0000   103.0340   -71.7920     8.9140     8.6720     7.4690     7.8950     2.4990     0.3033     0.1060     0.0190    98.9750
  483.5000   104.0120   -71.3330     8.4550     8.5140     7.2110     7.8970     2.4840     0.3014     0.1120     0.0260   100.2610
  484.0000   107.3710   -70.9160     7.7880     7.9510     7.0570     7.8990     2.4740     0.3128     0.1190     0.0340   101.4540
  484.5000   110.9190   -70.4910     7.1210     7.3700     6.9570     7.9010     2.4710     0.3384     0.1240     0.0260   102.2510
  485.0000   113.0950   -70.0740     6.7060     6.8930     7.2090     7.9030     2.4770     0.3250     0.1220     0.0170   101.6140
  485.5000   110.1400   -69.5770     7.2020     7.1060     7.4010     7.9040     2.4830     0.3080     0.1190     0.0080   100.2800
  486.0000   106.3310   -69.8060     7.9470     7.4710     7.5930     7.9060     2.4840     0.2860     0.1170     0.0190    98.9470
  486.5000   103.1960   -70.0670     8.9960     7.8390     7.7860     7.9060     2.4850     0.2785     0.1160     0.0300    97.4700
  487.0000   101.2310   -70.3260     8.9690     8.1000     7.9780     7.9030     2.4880     0.2803     0.1150     0.0150    96.8520
  487.5000    99.7710   -70.5830     8.9140     8.5410     8.2020     7.9000     2.4920     0.2822     0.1130    -0.0020    96.1600
  488.0000    99.1470   -70.8080     9.1520     8.9820     8.5540     7.8970     2.4940     0.2759     0.1110    -0.0090    95.4680
  488.5000    99.0280   -70.5030     9.4500     9.4190     8.8850     7.8950     2.4870     0.2694     0.1130    -0.0100    94.7750
  489.0000    98.9170   -70.1530     9.7470     9.5620     9.1390     7.8920     2.4820     0.2697     0.1170    -0.0100    94.0830
  489.5000    98.9810   -69.8190     9.8930     9.7400     9.3920     7.8890     2.4860     0.2746     0.1180    -0.0080    93.7660
  490.0000    99.8040   -70.3630     9.9440     9.9170     9.6460     7.8860     2.4930     0.2795     0.1140     0.0040    93.7790
