~VERSION INFORMATION
 VERS.                2.0:   CWLS LOG ASCII STANDARD - VERSION 2.0
 WRAP.                 NO:   ONE LINE PER DEPTH STEP
~WELL INFORMATION
#MNEM.UNIT      DATA TYPE    INFORMATION
#----------   ------------   ------------------------------
 STRT.F           86.0000:   START DEPTH
 STOP.F          770.0000:   STOP DEPTH
 STEP.F            0.5000:   STEP LENGTH
 NULL.          -999.2500:   NO VALUE
 COMP.           U S NAVY:   COMPANY
 WELL. NPR 3 TEAPOT DOM #85-S-34:   WELL
 FLD .        TEAPOT DOME:   FIELD
 LOC .      S34 T39N R78W:   LOCATION
 CNTY.            NATRONA:   COUNTY
 STAT.            WYOMING:   STATE
 CTRY. UNITED STATES OF AMERICA:   COUNTRY
 SRVC. Schlumberger Well Surveying Corp:   SERVICE COMPANY
 DATE.        31-JUL-1963:   LOGDATE
 API .       490250652800:   API NUMBER
~CURVE INFORMATION
#MNEM.UNIT       API CODE    CURVE DESCRIPTION
#----------   ------------   ------------------------------
 DEPT.F                  :   
 ASN .OHMM   05 041 16 00:   AMPLIFIED SHORT NORMAL 16"
 CILD.MMHO   05 110 46 00:   CONDUCTIVITY INDUCTION LOG DEEP
 ILD .OHMM   05 120 46 00:   INDUCTION LOG DEEP
 SPR .MV     05 010 01 00:   SPONTANEOUS POTENTIAL FROM RES.
 GR  .GAPI   30 310 01 00:   GAMMA RAY
~PARAMETER INFORMATION
#MNEM.UNIT          VALUE    DESCRIPTION
#----------   ------------   ------------------------------
 PD  .                 GL:   PERMANENT DATUM
 EPD .F              5071:   ELEVATION PERMANENT DATUM
 LMF .                 KB:   LOG MEASURED FROM
 DAPD.F                 5:   FEET ABOVE PERMANENT DATUM
 DMF .                 KB:   DRILLING MEASURED FROM
 EKB .F              5076:   KELLING BUSHING
 EGL .F              5071:   GROUND LEVEL
 DATE.        31-JUL-1963:   RUN DATE
 RUN .                  1:   RUN NUMBER
 DD  .F               770:   DEPTH DRILLER
 DL  .F               771:   DEPTH LOGGER
 BLI .F               770:   BOTTOM LOG INTERVAL
 TLI .F                86:   TOP LOG INTERVAL
 CS  .IN            8.625:   CASING SIZE
 CBD .F                10:   CASING BOTTOM DRILLER
 BS  .IN             6.75:   BIT SIZE
 BSD .F               770:   BIT SIZE AT DEPTH
 DFT .          GEL & OIL:   DRILLING FLUID TYPE
 DFD .                9.6:   DRILLING FLUID DENSITY
 DFV .                 39:   DRILLING FLUID VISCOSITY
 DFPH.                9.0:   DRILLING FLUID PH
 DFL .                8.8:   DRILLING FLUID LOSS
 MSS .           FLOWLINE:   MUD SAMPLE SOURCE
 RMS .OHMM           3.06:   RESISTIVITY MUD SAMPLE
 MST .F                94:   MUD SAMPLE TEMPERATURE
 RMF .OHMM           2.64:   RESISTIVITY MUD FILTRATE SAMPLE
 MFST.F                94:   MUD FILTRATE SAMPLE TEMPERATURE
 MFSS.               MEAS:   MUD FILTRATE SAMPLE SOURCE
 TCS .HRS               1:   TIME CURCULATED STOPPED
 MRT .F           LESS 80:   MAXIMUM RECORDED TEMPERATURE
 LUN .               4507:   LOGGING UNIT NUMBER
 LUL .               CSPR:   LOGGING UNIT LOCATION
 ENGI.            WINKLER:   RECORDING ENGINEER
 WITN.          JORGENSON:   WITNESSED BY
 CLNT.            A2DTECH:   CLIENT CODE
 ORIG.           5" PRINT:   ORIGIN OF DATA
 UWI .       490250652800:   UNIQUE WELL ID
 DICO. A2D Technologies, Inc.:   DIGITIZING COMPANY
~OTHER INFORMATION
~A   DEPT        ASN      CILD         ILD      SPR         GR   
# ...
  635.0000    23.3879    50.3930    19.2322   -37.5038    48.0392
  635.5000    24.9494    48.0045    19.2337   -39.0691    51.6196
  636.0000    25.3430    47.9811    19.2352   -39.3972    53.6466
  636.5000    25.3428    47.9538    19.1583   -40.3147    48.8015
  637.0000    25.5789    47.9312    19.1599   -41.7230    48.5355
  637.5000    25.9724    47.9087    19.5403   -43.1313    48.3877
  638.0000    26.5235    47.8861    21.1225   -43.5988    49.6399
  638.5000    27.4011    45.4968    22.0645   -43.2792    47.4727
  639.0000    29.2790    43.1035    22.6929   -43.1176    47.7909
  639.5000    30.6175    42.2923    22.8512   -46.7288    41.8937
  640.0000    32.9008    42.2698    23.0878   -49.0947    40.6604
  640.5000    34.0030    39.8813    23.6395   -49.6973    43.3088
  641.0000    34.0816    38.1810    24.5245   -49.3776    47.7159
  641.5000    33.7665    36.6760    25.0520   -47.8032    50.3161
  642.0000    32.5065    36.6534    24.5833   -48.7406    48.9256
  642.5000    32.5063    37.4195    23.7227   -49.3639    47.9992
  643.0000    32.5061    38.9743    22.8622   -49.3762    49.7174
  643.5000    32.3485    39.7404    22.5502   -49.1978    50.5017
  644.0000    32.1908    40.5065    22.6301   -49.1931    51.1306
  644.5000    31.7183    40.4783    22.7100   -49.3457    51.1382
  645.0000    30.3008    40.4557    22.5551   -48.8690    53.1652
  645.5000    30.1397    40.4332    22.2432   -45.8817    55.3787
  646.0000    29.0406    41.9879    21.8528   -45.0934    58.1512
  646.5000    28.6467    41.9597    21.6976   -47.2855    55.9840
  647.0000    29.6702    41.9372    21.7775   -47.4380    56.4595
  647.5000    29.1976    41.9146    22.1709   -48.2286    57.5544
  648.0000    28.8038    41.8921    22.4942   -49.1556    58.0280
  648.5000    28.9611    41.8691    22.5661   -49.1499    58.6569
  649.0000    29.1972    41.8413    22.4105   -48.2034    59.2858
  649.5000    28.7245    41.8188    22.3337   -47.7279    58.8272
  650.0000    28.2677    41.7962    22.0689   -48.8216    53.8653
  650.5000    27.3775    41.7737    21.3194   -48.9740    53.2516
  651.0000    24.8045    44.9527    20.5380   -47.3966    54.1912
  651.5000    23.1516    45.7413    19.5214   -44.7218    58.2376
  652.0000    22.6796    48.8959    18.4265   -42.3609    62.2840
  652.5000    22.4441    52.1686    17.6451   -40.7849    61.8256
  653.0000    21.5786    55.2050    16.7853   -41.0914    58.1050
  653.5000    20.4540    58.3596    15.9778   -41.2423    55.7825
  654.0000    19.4540    59.9369    15.3797   -41.7087    56.5835
  654.5000    18.9821    61.5142    15.0685   -41.3872    57.0423
  655.0000    18.5890    62.3028    14.8356   -40.4392    57.6712
  655.5000    18.2747    63.0915    14.7589   -39.6482    58.3002
  656.0000    17.9603    64.6688    14.6834   -39.4851    59.2398
  656.5000    17.6431    64.6688    14.6073   -39.7916    56.2959
  657.0000    17.3316    64.6688    14.6101   -39.6285    54.4394
  657.5000    17.2536    64.6688    14.5340   -39.4655    53.6684
  658.0000    17.1754    64.6688    14.5362   -39.1454    56.7847
  658.5000    17.1761    64.6688    14.5385   -39.2964    59.8991
  659.0000    17.1767    64.6688    14.6191   -39.6043    62.8811
  659.5000    17.1755    64.6688    14.6215   -39.7640    62.1654
  660.0000    17.1780    64.6688    14.6242   -40.0631    60.7004
  660.5000    17.1000    64.6688    14.6265   -40.0555    60.3954
  661.0000    16.9429    63.8801    14.6287   -40.0495    62.5797
  661.5000    17.1012    63.0915    14.6310   -40.0434    63.9834
  662.0000    17.3380    63.0915    14.7900   -40.0373    62.9055
  662.5000    17.3386    61.5142    14.7928   -40.0313    64.6218
  663.0000    17.4180    61.5142    15.0302   -40.1822    62.1440
  663.5000    17.4974    59.1483    15.2675   -40.1746    62.4622
  664.0000    17.4980    58.3596    15.5833   -40.1686    61.6808
  664.5000    17.6561    58.3596    15.7423   -40.1625    61.3900
  665.0000    17.7355    58.3596    15.9013   -40.3149    62.4869
  665.5000    17.6573    58.3596    15.9824   -40.1504    64.6673
  666.0000    17.6579    58.3596    15.9847   -39.9873    64.0536
  666.5000    17.5011    58.3596    15.9870   -39.8143    63.1310
  667.0000    17.5806    58.3596    15.9892   -39.0318    62.2065
  667.5000    17.6599    58.3596    15.9130   -38.3978    61.5928
  668.0000    17.5030    58.3596    15.7586   -38.0777    61.2878
  668.5000    17.4249    59.1483    15.4474   -37.9147    62.8507
  669.0000    17.1893    60.7256    15.2151   -37.9086    59.8997
  669.5000    16.9450    62.3028    15.1384   -37.7456    58.3610
  670.0000    16.7181    64.6688    14.9839   -37.7394    61.6307
  670.5000    16.4826    64.6688    14.8299   -37.7319    62.4169
  671.0000    16.2470    65.4574    14.5972   -37.5689    62.8905
  671.5000    16.0900    65.4574    14.2081   -38.3477    63.5194
  672.0000    15.9332    66.2461    14.0531   -38.8142    64.9250
  672.5000    15.7764    67.8233    13.8208   -38.8066    63.2239
  673.0000    15.6195    67.8233    13.6663   -38.8005    62.1422
  673.5000    15.4626    68.6120    13.5897   -38.7945    61.8408
  674.0000    15.3845    69.4006    13.5925   -39.1008    61.3825
  674.5000    15.3064    69.4006    13.5953   -38.9378    60.6027
  675.0000    15.3859    69.4006    13.5976   -38.9317    59.8443
  675.5000    15.3865    68.6120    13.5998   -39.0827    60.1645
  676.0000    15.4658    69.4006    13.6021   -39.2351    61.1041
  676.5000    15.4666    69.4006    13.6043   -39.5416    61.8884
  677.0000    15.4672    69.4006    13.6066   -39.5123    61.7388
  677.5000    15.4678    69.4006    13.6089   -38.2720    61.7482
  678.0000    15.5471    70.1893    13.6117   -37.7949    62.0665
  678.5000    15.6265    70.2760    13.4572   -37.6319    60.0547
  679.0000    15.6271    70.9779    13.3021   -37.3119    62.8584
  679.5000    15.6278    70.9779    13.3050   -37.6198    65.0578
  680.0000    15.6284    70.9779    13.3072   -38.3986    66.9541
  680.5000    15.6290    67.7997    13.8059   -38.8635    61.6403
  681.0000    16.0307    64.6688    14.7229   -38.0710    59.7819
  681.5000    17.0477    61.5142    15.3522   -36.4951    62.1215
  682.0000    17.9144    58.3596    15.8246   -35.2332    61.3524
  682.5000    18.9387    56.7823    16.0620   -34.2852    59.8066
  683.0000    20.5141    55.2050    16.2994   -33.8082    58.1054
  683.5000    21.7745    54.4164    16.3017   -33.8021    57.4897
  684.0000    22.0901    53.6278    16.0693   -33.7959    59.9846
  684.5000    21.0782    55.9937    15.4446   -33.6315    59.6811
  685.0000    18.3119    60.0949    14.7416   -33.6254    59.3784
  685.5000    17.1314    65.4574    13.9601   -34.5613    64.2035
  686.0000    16.0297    69.4006    13.2571   -35.0262    64.5217
  686.5000    15.2429    73.3438    12.6977   -35.0201    64.5293
  687.0000    14.7710    75.7098    12.3995   -34.7001    65.0029
  687.5000    14.3779    75.7098    12.3234   -33.8958    66.4086
  688.0000    14.1425    75.7098    12.2473   -33.7445    67.8123
  688.5000    14.0642    74.9211    12.2501   -33.7384    63.1597
  689.0000    13.9075    74.9211    12.2524   -33.7324    64.2956
  689.5000    13.9081    74.9211    12.2552   -33.8833    62.8661
  690.0000    13.9087    75.7098    12.2574   -34.3482    63.3501
  690.5000    13.9093    75.7098    12.2597   -34.3421    64.4604
  691.0000    13.8313    75.7098    12.3403   -34.3360    64.9082
  691.5000    13.8319    75.7098    12.3426   -34.3285    63.0517
  692.0000    13.8325    75.7098    12.3448   -34.3224    63.0612
  692.5000    13.7542    75.7098    12.3476   -34.3164    63.0688
  693.0000    13.7550    75.7098    12.3499   -33.9963    63.0764
  693.5000    13.7556    75.7098    12.3522   -33.8333    63.0840
  694.0000    13.7562    75.7098    12.3544   -33.6702    66.0430
  694.5000    13.7570    75.7098    12.2782   -33.6640    65.2052
  695.0000    13.6788    75.7098    12.2806   -33.6566    66.8349
  695.5000    13.6794    76.4984    12.2834   -33.4936    64.7829
