~VERSION INFORMATION
 VERS.                2.0:   CWLS LOG ASCII STANDARD - VERSION 2.0
 WRAP.                 NO:   ONE LINE PER DEPTH STEP
~WELL INFORMATION
#MNEM.UNIT      DATA TYPE    INFORMATION
#----------   ------------   ------------------------------
 STRT.F           20.0000:   START DEPTH
 STOP.F          436.5000:   STOP DEPTH
 STEP.F            0.5000:   STEP LENGTH
 NULL.          -999.2500:   NO VALUE
 COMP. FENIX & SCISSON INC:   COMPANY
 WELL. NPR 3 SX-10 #55-10:   WELL
 FLD .        YEAPOT DOME:   FIELD
 LOC .      S10 T38N R78W:   LOCATION
 CNTY.            NATRONA:   COUNTY
 STAT.            WYOMING:   STATE
 CTRY. UNITED STATES OF AMERICA:   COUNTRY
 SRVC.           BIRDWELL:   SERVICE COMPANY
 DATE.        06-JUN-1978:   LOGDATE
 API .       490251062900:   API NUMBER
~CURVE INFORMATION
#MNEM.UNIT       API CODE    CURVE DESCRIPTION
#----------   ------------   ------------------------------
 DEPT.F                  :   
 GRD .GAPI   45 310 01 00:   GAMMA RAY FROM DENSITY LOG
 CALD.IN     45 280 60 00:   CALIPER FROM DENSITY LOG
 RHOB.G/C3   45 350 01 00:   BULK DENSITY
 DPHI.DEC    45 890 12 00:   DENSITY POROSITY SANDSTONE
 CORR.G/C3   45 356 01 00:   DENSITY CORRECTION
 SPR .MV     05 010 01 00:   SPONTANEOUS POTENTIAL FROM RES.
 SN  .OHMM   05 040 16 00:   SHORT NORMAL 16"
 ILD .OHMM   05 120 46 00:   INDUCTION LOG DEEP
~PARAMETER INFORMATION
#MNEM.UNIT          VALUE    DESCRIPTION
#----------   ------------   ------------------------------
 PD  .                 GL:   PERMANENT DATUM
 EPD .F              5202:   ELEVATION PERMANENT DATUM
 LMF .                 KB:   LOG MEASURED FROM
 DAPD.F                 4:   FEET ABOVE PERMANENT DATUM
 DMF .                 KB:   DRILLING MEASURED FROM
 EKB .F              5206:   KELLING BUSHING
 EGL .F              5202:   GROUND LEVEL
 DATE.             6-6-78:   RUN DATE
 RUN .                  1:   RUN NUMBER
 DD  .F               425:   DEPTH DRILLER
 DL  .F               436:   DEPTH LOGGER
 BLI .F               432:   BOTTOM LOG INTERVAL
 TLI .F                40:   TOP LOG INTERVAL
 CS  .IN            8.625:   CASING SIZE
 CBD .F                40:   CASING BOTTOM DRILLER
 CBL .F                40:   CASING BOTTOM LOGGER
 BS  .IN            7.875:   BIT SIZE
 BSD .F               425:   BIT SIZE AT DEPTH
 DFT .            KCL/OIL:   DRILLING FLUID TYPE
 DFD .                8.6:   DRILLING FLUID DENSITY
 DFV .                 34:   DRILLING FLUID VISCOSITY
 DFPH.                 10:   DRILLING FLUID PH
 DFL .                7.6:   DRILLING FLUID LOSS
 MSS .                PIT:   MUD SAMPLE SOURCE
 TCS .HRS               4:   TIME CURCULATED STOPPED
 LUN .               2958:   LOGGING UNIT NUMBER
 LUL .               CASP:   LOGGING UNIT LOCATION
 ENGI.            POINTER:   RECORDING ENGINEER
 WITN.           MCGINLEY:   WITNESSED BY
 CLNT.            A2DTECH:   CLIENT CODE
 ORIG. 1", 2", 2.5", 5" PRINT:   ORIGIN OF DATA
 UWI .       490251062900:   UNIQUE WELL ID
 DICO. A2D Technologies, Inc.:   DIGITIZING COMPANY
~OTHER INFORMATION
~A   DEPT       GRD      CALD       RHOB       DPHI       CORR        SPR         SN        ILD   
# ...
  182.0000   103.2295     7.7678     2.4478     0.1387     0.0404   -28.1650     5.9994     3.8111
  182.5000   101.8031     7.7645     2.4560     0.1357     0.0404   -28.4637     6.1253     3.9635
  183.0000    99.0977     7.7779     2.4640     0.1320     0.0404   -28.7798     6.2608     4.1220
  183.5000    96.4284     7.8035     2.4720     0.1284     0.0404   -29.0937     6.4795     4.2868
  184.0000    95.0507     7.8234     2.4801     0.1222     0.0404   -29.3617     6.7341     4.4582
  184.5000    96.3777     7.8495     2.4880     0.1158     0.0404   -29.3209     6.9987     4.6365
  185.0000    98.2097     7.8707     2.4961     0.1158     0.0404   -29.2864     7.0910     4.8219
  185.5000   100.1496     7.8726     2.4990     0.1158     0.0404   -29.2525     7.1597     4.9315
  186.0000   100.7982     7.6649     2.4996     0.1158     0.0404   -29.2171     7.2282     4.9727
  186.5000   100.3525     7.4243     2.4946     0.1165     0.0404   -29.1839     7.2118     5.0141
  187.0000    99.9870     7.4508     2.4901     0.1192     0.0404   -29.2774     7.1957     5.0560
  187.5000    99.6683     7.5781     2.4853     0.1220     0.0404   -29.9561     7.1796     5.0981
  188.0000    99.4074     7.6957     2.4807     0.1249     0.0404   -30.5625     7.1635     5.1408
  188.5000   100.4084     7.8112     2.4761     0.1277     0.0404   -30.6890     7.1475     5.1048
  189.0000   101.3689     7.9283     2.4714     0.1306     0.0404   -30.8044     7.1315     5.0690
  189.5000   101.6041     8.0453     2.4667     0.1339     0.0404   -30.9166     7.1155     5.0333
  190.0000   101.3536     8.1621     2.4622     0.1345     0.0404   -31.2969     7.0999     4.9980
  190.5000   102.0979     8.2769     2.4570     0.1360     0.0404   -31.7928     7.0458     4.9629
  191.0000   102.7809     8.3989     2.4562     0.1374     0.0404   -32.1115     6.9825     4.9280
  191.5000   103.6265     8.4306     2.4552     0.1388     0.0392   -32.4274     6.9197     4.8934
  192.0000   103.6790     8.4000     2.4542     0.1402     0.0380   -32.7437     6.8039     4.8373
  192.5000   103.7095     8.3769     2.4459     0.1436     0.0368   -33.0599     6.6699     4.6677
  193.0000   103.6776     8.3333     2.4375     0.1470     0.0356   -33.3759     6.5397     4.5041
  193.5000   103.6587     8.2555     2.4360     0.1504     0.0344   -33.6916     6.4131     4.3461
  194.0000   103.1954     8.1814     2.4344     0.1539     0.0333   -34.2110     6.2950     4.1932
  194.5000   102.7679     8.1042     2.4268     0.1573     0.0321   -34.7917     6.1778     4.0450
  195.0000   102.4589     8.0819     2.4180     0.1623     0.0309   -35.3646     6.0678     4.0543
  195.5000   102.5176     8.0834     2.4187     0.1591     0.0297   -35.8039     6.0489     4.0646
  196.0000   102.5644     8.0835     2.4274     0.1528     0.0285   -35.8844     6.0307     4.0749
  196.5000   103.4950     8.0831     2.4400     0.1465     0.0273   -35.9729     6.0121     4.0835
  197.0000   104.8190     8.0834     2.4520     0.1402     0.0261   -36.0594     6.1424     4.1582
  197.5000   103.8767     8.0833     2.4643     0.1339     0.0249   -36.1467     6.2784     4.2360
  198.0000   104.9390     8.0833     2.4695     0.1294     0.0237   -36.2340     6.5799     4.3150
  198.5000   105.1648     8.0833     2.4703     0.1304     0.0225   -36.3187     6.9204     4.4469
  199.0000   103.2488     8.0833     2.4704     0.1314     0.0213   -36.2831     7.2790     4.6464
  199.5000   101.2726     8.0833     2.4706     0.1323     0.0201   -36.0516     7.7121     4.8746
  200.0000    99.4334     8.0833     2.4714     0.1308     0.0189   -35.8227     7.7112     5.1141
  200.5000    97.3408     8.0833     2.4721     0.1292     0.0177   -35.5921     7.7163     5.3110
  201.0000    99.6677     8.0833     2.4696     0.1311     0.0166   -35.3625     7.7193     5.3846
  201.5000   103.5376     8.0833     2.4668     0.1330     0.0153   -35.1835     7.7226     5.3951
  202.0000   103.1091     8.0834     2.4662     0.1334     0.0142   -35.3169     7.7259     5.4057
  202.5000   102.3688     8.0834     2.4688     0.1322     0.0130   -35.4434     7.7293     5.4163
  203.0000   102.5838     8.0835     2.4732     0.1310     0.0142   -35.5825     7.7327     5.4269
  203.5000   103.8238     8.0835     2.4737     0.1292     0.0156   -36.0164     7.7361     5.4328
  204.0000   104.9569     8.0833     2.4722     0.1298     0.0172   -36.4552     7.7394     5.4329
  204.5000   106.2084     8.0836     2.4709     0.1304     0.0186   -36.7803     7.7428     5.4329
  205.0000   106.8723     8.0833     2.4696     0.1310     0.0202   -36.7737     7.7462     5.4329
  205.5000   106.6038     8.0817     2.4685     0.1316     0.0217   -36.7718     7.7496     5.4329
  206.0000   106.4456     8.0045     2.4697     0.1312     0.0232   -36.7782     7.7529     5.4329
  206.5000   106.2839     7.7623     2.4707     0.1300     0.0247   -37.1206     7.7563     5.4329
  207.0000   106.0913     7.5045     2.4718     0.1289     0.0262   -37.4888     7.7597     5.4329
  207.5000   106.2534     7.2651     2.4739     0.1277     0.0277   -38.2027     7.7631     5.4329
  208.0000   106.4788     7.3096     2.4773     0.1266     0.0292   -38.9607     7.7665     5.4329
  208.5000   106.6845     7.3564     2.4810     0.1254     0.0307   -39.0345     7.7699     5.4329
  209.0000   106.8034     7.4140     2.4814     0.1245     0.0321   -39.0812     7.7732     5.4329
  209.5000   106.0850     7.5162     2.4793     0.1250     0.0344   -39.1306     7.7766     5.4329
  210.0000   105.4819     7.7119     2.4775     0.1258     0.0369   -39.2215     7.7794     5.4329
  210.5000   104.8082     7.9034     2.4756     0.1266     0.0426   -39.6445     7.8132     5.4329
  211.0000   104.1585     8.0956     2.4737     0.1274     0.0477   -40.0850     7.8565     5.4329
  211.5000   103.7698     8.3008     2.4729     0.1268     0.0536   -40.2314     7.9001     5.4337
  212.0000   103.9560     8.4237     2.4743     0.1257     0.0555   -40.3000     7.9256     5.4329
  212.5000   104.6258     8.4346     2.4759     0.1256     0.0526   -40.3622     7.7096     5.3441
  213.0000   105.6480     8.4202     2.4720     0.1283     0.0504   -40.6250     7.5374     5.2392
  213.5000   106.0250     8.4057     2.4659     0.1311     0.0485   -40.9101     7.3690     5.1369
  214.0000   105.7045     8.3502     2.4612     0.1339     0.0492   -41.9030     7.2044     5.0444
  214.5000   105.3407     8.2818     2.4588     0.1367     0.0499   -42.9999     7.0800     5.0325
  215.0000   105.6691     8.2130     2.4558     0.1393     0.0507   -44.0474     7.0312     5.0191
  215.5000   106.3898     8.1452     2.4528     0.1416     0.0513   -44.6798     6.9826     5.0060
  216.0000   106.9088     8.0758     2.4501     0.1438     0.0521   -45.3052     6.9345     4.9136
  216.5000   107.1976     8.0087     2.4470     0.1460     0.0494   -46.3147     6.8869     4.7000
  217.0000   106.8764     7.9419     2.4441     0.1483     0.0460   -47.6356     6.8399     4.4956
  217.5000   106.0321     7.9042     2.4344     0.1514     0.0425   -48.9562     6.7906     4.3002
  218.0000   105.3206     7.8488     2.4269     0.1561     0.0391   -50.2780     6.6227     4.2759
  218.5000   104.5584     7.7912     2.4179     0.1631     0.0357   -51.5878     6.3999     4.2988
  219.0000   104.8023     7.7674     2.4251     0.1582     0.0327   -52.5941     6.2928     4.3448
  219.5000   105.1335     7.7799     2.4438     0.1484     0.0326   -53.5306     6.2934     4.3912
  220.0000   105.5059     7.7873     2.4567     0.1385     0.0325   -54.4670     6.5106     4.4381
  220.5000   105.8118     7.7969     2.4639     0.1268     0.0326   -55.4020     6.6751     4.4855
  221.0000   106.2153     7.8082     2.4710     0.1254     0.0325   -56.4245     6.8401     4.5325
  221.5000   106.4778     7.8619     2.4760     0.1237     0.0325   -57.8422     7.0312     4.6341
  222.0000   106.6843     7.9176     2.4819     0.1220     0.0325   -60.9404     7.0242     4.8069
