~VERSION INFORMATION
 VERS.                2.0:   CWLS LOG ASCII STANDARD - VERSION 2.0
 WRAP.                 NO:   ONE LINE PER DEPTH STEP
~WELL INFORMATION
#MNEM.UNIT      DATA TYPE    INFORMATION
#----------   ------------   ------------------------------
 STRT.F           30.0000:   START DEPTH
 STOP.F         2432.5000:   STOP DEPTH
 STEP.F            0.5000:   STEP LENGTH
 NULL.          -999.2500:   NO VALUE
 COMP. FENIX & SCISSON INC:   COMPANY
 WELL.     72 SHX 4 #72-4:   WELL
 FLD .             TEAPOT:   FIELD
 LOC .       S4 T38N R78W:   LOCATION
 CNTY.            NATRONA:   COUNTY
 STAT.            WYOMING:   STATE
 CTRY. UNITED STATES OF AMERICA:   COUNTRY
 SRVC.           BIRDWELL:   SERVICE COMPANY
 DATE.        05-MAR-1979:   LOGDATE
 API .       490251074300:   API NUMBER
~CURVE INFORMATION
#MNEM.UNIT       API CODE    CURVE DESCRIPTION
#----------   ------------   ------------------------------
 DEPT.F                  :   
 SPR .MV     05 010 01 00:   SPONTANEOUS POTENTIAL FROM RES.
 SN  .OHMM   05 040 16 00:   SHORT NORMAL 16"
 ILD .OHMM   05 120 46 00:   INDUCTION LOG DEEP
 CALD.IN     45 280 60 00:   CALIPER
 GRD .GAPI   45 310 01 00:   GAMMA RAY FROM DENSITY LOG
 RHOB.G/C3   45 350 01 00:   BULK DENSITY
 CORR.G/C3   45 356 01 00:   DENSITY CORRECTION
 DPHI.DEC    45 890 12 00:   DENSITY POROSITY SANDSTONE
~PARAMETER INFORMATION
#MNEM.UNIT          VALUE    DESCRIPTION
#----------   ------------   ------------------------------
 PD  .                 GL:   PERMANENT DATUM
 EPD .F              5194:   ELEVATION PERMANENT DATUM
 LMF .                 KB:   LOG MEASURED FROM
 DAPD.F                10:   FEET ABOVE PERMANENT DATUM
 DMF .                 KB:   DRILLING MEASURED FROM
 EKB .F              5204:   KELLING BUSHING
 EGL .F              5194:   GROUND LEVEL
 DATE.             3-5-79:   RUN DATE
 RUN .                  1:   RUN NUMBER
 DD  .F              2560:   DEPTH DRILLER
 DL  .F              2432:   DEPTH LOGGER
 BLI .F              2432:   BOTTOM LOG INTERVAL
 TLI .F               400:   TOP LOG INTERVAL
 CS  .IN            9.625:   CASING SIZE
 CBD .F               685:   CASING BOTTOM DRILLER
 CBL .F               685:   CASING BOTTOM LOGGER
 BS  .IN             8.75:   BIT SIZE
 BSD .F              2560:   BIT SIZE AT DEPTH
 DFT .                AIR:   DRILLING FLUID TYPE
 TCS .HRS               5:   TIME CURCULATED STOPPED
 LUN .               3006:   LOGGING UNIT NUMBER
 LUL .             CASPER:   LOGGING UNIT LOCATION
 ENGI.         B. ROLLINS:   RECORDING ENGINEER
 WITN.           DINSMORE:   WITNESSED BY
 CLNT.            A2DTECH:   CLIENT CODE
 ORIG.           5" PRINT:   ORIGIN OF DATA
 UWI .       490251074300:   UNIQUE WELL ID
 DICO. A2D Technologies, Inc.:   DIGITIZING COMPANY
~OTHER INFORMATION
~A   DEPT      SPR         SN        ILD        CALD       GRD       RHOB         CORR      DPHI  
# ...
 2379.0000  -999.2500  -999.2500  -999.2500     8.3383    65.0774     2.4548     0.0213     0.0629
 2379.5000  -999.2500  -999.2500  -999.2500     8.3418    64.5535     2.4385     0.0290     0.0635
 2380.0000  -999.2500  -999.2500  -999.2500     8.3453    68.5593     2.4297     0.0246     0.0663
 2380.5000  -999.2500  -999.2500  -999.2500     8.3488    72.9659     2.4239     0.0162     0.0737
 2381.0000  -999.2500  -999.2500  -999.2500     8.3523    76.6570     2.4244     0.0146     0.0636
 2381.5000  -999.2500  -999.2500  -999.2500     8.3557    75.6232     2.4424     0.0235     0.0481
 2382.0000  -999.2500  -999.2500  -999.2500     8.3592    74.1873     2.4606     0.0408     0.0391
 2382.5000  -999.2500  -999.2500  -999.2500     8.3627    74.3410     2.4787     0.0579     0.0312
 2383.0000  -999.2500  -999.2500  -999.2500     8.3662    74.6085     2.4924     0.0720     0.0306
 2383.5000  -999.2500  -999.2500  -999.2500     8.3696    75.9654     2.4978     0.0816     0.0282
 2384.0000  -999.2500  -999.2500  -999.2500     8.3732    77.2862     2.5006     0.0912     0.0245
 2384.5000  -999.2500  -999.2500  -999.2500     8.3766    76.6587     2.5054     0.0958     0.0208
 2385.0000  -999.2500  -999.2500  -999.2500     8.3737    76.3911     2.5114     0.0981     0.0104
 2385.5000  -999.2500  -999.2500  -999.2500     8.3705    77.5478     2.5240     0.0972     0.0008
 2386.0000  -999.2500  -999.2500  -999.2500     8.3673    78.7561     2.5372     0.0942     0.0078
 2386.5000  -999.2500  -999.2500  -999.2500     8.3641    77.7909     2.5370     0.0818     0.0203
 2387.0000  -999.2500  -999.2500  -999.2500     8.3609    76.9140     2.5124     0.0733     0.0302
 2387.5000  -999.2500  -999.2500  -999.2500     8.3576    76.3943     2.4931     0.0811     0.0300
 2388.0000  -999.2500  -999.2500  -999.2500     8.3545    76.0953     2.5039     0.0883     0.0142
 2388.5000  -999.2500  -999.2500  -999.2500     8.3512    77.4221     2.5207     0.0860     0.0057
 2389.0000  -999.2500  -999.2500  -999.2500     8.3480    78.7049     2.5327     0.0733     0.0015
 2389.5000  -999.2500  -999.2500  -999.2500     8.3448    78.1816     2.5299     0.0604     0.0086
 2390.0000  -999.2500  -999.2500  -999.2500     8.3416    76.6204     2.5223     0.0491     0.0111
 2390.5000  -999.2500  -999.2500  -999.2500     8.3384    75.0737     2.5175     0.0396     0.0120
 2391.0000  -999.2500  -999.2500  -999.2500     8.3352    74.3437     2.5175     0.0335     0.0200
 2391.5000  -999.2500  -999.2500  -999.2500     8.3320    76.1934     2.5140     0.0273     0.0228
 2392.0000  -999.2500  -999.2500  -999.2500     8.3288    76.7272     2.5046     0.0237     0.0121
 2392.5000  -999.2500  -999.2500  -999.2500     8.3256    74.8640     2.5181     0.0356     0.0016
 2393.0000  -999.2500  -999.2500  -999.2500     8.3224    70.5923     2.5387     0.0490    -0.0056
 2393.5000  -999.2500  -999.2500  -999.2500     8.3192    65.5353     2.5445     0.0541    -0.0056
 2394.0000  -999.2500  -999.2500  -999.2500     8.3169    60.6318     2.5476     0.0476    -0.0048
 2394.5000  -999.2500  -999.2500  -999.2500     8.3191    61.6837     2.5456     0.0363     0.0067
 2395.0000  -999.2500  -999.2500  -999.2500     8.3212    63.9264     2.5339     0.0250     0.0184
 2395.5000  -999.2500  -999.2500  -999.2500     8.3232    66.1421     2.5186     0.0136     0.0257
 2396.0000  -999.2500  -999.2500  -999.2500     8.3253    67.8562     2.5032     0.0098     0.0306
 2396.5000  -999.2500  -999.2500  -999.2500     8.3273    67.4965     2.4922     0.0095     0.0341
 2397.0000  -999.2500  -999.2500  -999.2500     8.3294    65.5885     2.4896     0.0092     0.0341
 2397.5000  -999.2500  -999.2500  -999.2500     8.3314    63.6865     2.4885     0.0089     0.0255
 2398.0000  -999.2500  -999.2500  -999.2500     8.3335    62.2043     2.4931     0.0086     0.0164
 2398.5000  -999.2500  -999.2500  -999.2500     8.3355    61.4058     2.5054     0.0083     0.0134
 2399.0000  -999.2500  -999.2500  -999.2500     8.3337    61.2301     2.5155     0.0081     0.0163
 2399.5000  -999.2500  -999.2500  -999.2500     8.3270    61.0675     2.5153     0.0095     0.0162
 2400.0000  -999.2500  -999.2500  -999.2500     8.3203    60.5249     2.5151     0.0146     0.0139
 2400.5000  -999.2500  -999.2500  -999.2500     8.3136    59.9798     2.5148     0.0211     0.0161
 2401.0000  -999.2500  -999.2500  -999.2500     8.3069    58.9915     2.5147     0.0241     0.0223
 2401.5000  -999.2500  -999.2500  -999.2500     8.3002    55.7142     2.5091     0.0208     0.0260
 2402.0000  -999.2500  -999.2500  -999.2500     8.2935    52.4302     2.5021     0.0166     0.0200
 2402.5000  -999.2500  -999.2500  -999.2500     8.2868    49.0578     2.4993     0.0185     0.0160
 2403.0000  -999.2500  -999.2500  -999.2500     8.2801    48.8205     2.5166     0.0214     0.0115
 2403.5000  -999.2500  -999.2500  -999.2500     8.2733    50.9957     2.5237     0.0243     0.0048
 2404.0000  -999.2500  -999.2500  -999.2500     8.2668    53.7940     2.5281     0.0257     0.0044
 2404.5000  -999.2500  -999.2500  -999.2500     8.2608    56.6301     2.5295     0.0246     0.0151
 2405.0000  -999.2500  -999.2500  -999.2500     8.2774    57.4095     2.5275     0.0227     0.0283
 2405.5000  -999.2500  -999.2500  -999.2500     8.2732    57.0287     2.5010     0.0197     0.0401
 2406.0000  -999.2500  -999.2500  -999.2500     8.2701    56.9366     2.4763     0.0167     0.0401
 2406.5000  -999.2500  -999.2500  -999.2500     8.2673    58.4261     2.4765     0.0138     0.0250
 2407.0000  -999.2500  -999.2500  -999.2500     8.2645    58.7892     2.5005     0.0132     0.0140
 2407.5000  -999.2500  -999.2500  -999.2500     8.2616    55.8136     2.5140     0.0161     0.0144
 2408.0000  -999.2500  -999.2500  -999.2500     8.2588    52.8244     2.5068     0.0190     0.0253
 2408.5000  -999.2500  -999.2500  -999.2500     8.2571    52.6348     2.4990     0.0220     0.0317
 2409.0000  -999.2500  -999.2500  -999.2500     8.2614    54.5388     2.4924     0.0249     0.0282
 2409.5000  -999.2500  -999.2500  -999.2500     8.2657    56.8741     2.4931     0.0273     0.0291
 2410.0000  -999.2500  -999.2500  -999.2500     8.2699    59.2142     2.4922     0.0294     0.0364
 2410.5000  -999.2500  -999.2500  -999.2500     8.2741    61.5560     2.4860     0.0313     0.0356
 2411.0000  -999.2500  -999.2500  -999.2500     8.2784    63.9015     2.4856     0.0385     0.0261
 2411.5000  -999.2500  -999.2500  -999.2500     8.2826    65.6933     2.5017     0.0476     0.0135
 2412.0000  -999.2500  -999.2500  -999.2500     8.2868    66.3545     2.5193     0.0567     0.0008
 2412.5000  -999.2500  -999.2500  -999.2500     8.2910    67.3253     2.5372     0.0609    -0.0020
 2413.0000  -999.2500  -999.2500  -999.2500     8.2953    68.1502     2.5389     0.0577     0.0142
 2413.5000  -999.2500  -999.2500  -999.2500     8.2995    67.4609     2.5216     0.0569     0.0274
 2414.0000  -999.2500  -999.2500  -999.2500     8.3037    66.7424     2.5044     0.0586     0.0413
 2414.5000  -999.2500  -999.2500  -999.2500     8.3080    66.5755     2.4875     0.0602     0.0407
 2415.0000  -999.2500  -999.2500  -999.2500     8.3123    67.1343     2.4765     0.0620     0.0374
 2415.5000  -999.2500  -999.2500  -999.2500     8.3163    67.6930     2.4799     0.0580     0.0330
 2416.0000  -999.2500  -999.2500  -999.2500     8.3025    67.5423     2.4842     0.0530     0.0281
 2416.5000  -999.2500  -999.2500  -999.2500     8.2873    66.8548     2.4886     0.0479     0.0281
 2417.0000  -999.2500  -999.2500  -999.2500     8.2722    66.1601     2.4894     0.0430     0.0352
 2417.5000  -999.2500  -999.2500  -999.2500     8.2571    65.4626     2.4839     0.0379     0.0416
 2418.0000  -999.2500  -999.2500  -999.2500     8.2420    65.1985     2.4693     0.0361     0.0479
 2418.5000  -999.2500  -999.2500  -999.2500     8.2269    65.6733     2.4550     0.0360     0.0538
 2419.0000  -999.2500  -999.2500  -999.2500     8.2118    66.1560     2.4534     0.0395     0.0541
