~VERSION INFORMATION
 VERS.                2.0:   CWLS LOG ASCII STANDARD - VERSION 2.0
 WRAP.                 NO:   ONE LINE PER DEPTH STEP
~WELL INFORMATION
#MNEM.UNIT      DATA TYPE    INFORMATION
#----------   ------------   ------------------------------
 STRT.F           50.0000:   START DEPTH
 STOP.F         1561.5000:   STOP DEPTH
 STEP.F            0.5000:   STEP LENGTH
 NULL.          -999.2500:   NO VALUE
 COMP. FENIX & SCISSON INC:   COMPANY
 WELL.  72 SH 3 STX #72-3:   WELL
 FLD .             TEAPOT:   FIELD
 LOC .       S3 T38N R78W:   LOCATION
 CNTY.            NATRONA:   COUNTY
 STAT.            WYOMING:   STATE
 CTRY. UNITED STATES OF AMERICA:   COUNTRY
 SRVC.           BIRDWELL:   SERVICE COMPANY
 DATE.        31-JUL-1979:   LOGDATE
 API .       490251078600:   API NUMBER
~CURVE INFORMATION
#MNEM.UNIT       API CODE    CURVE DESCRIPTION
#----------   ------------   ------------------------------
 DEPT.F                  :   
 CALD.IN     45 280 60 00:   CALIPER FROM DENSITY LOG
 GRD .GAPI   45 310 01 00:   GAMMA RAY FROM DENSITY LOG
 RHOB.G/C3   45 350 01 00:   BULK DENSITY
 CORR.G/C3   45 356 01 00:   DENSITY CORRECTION
 DPHI.DEC    45 890 12 00:   DENSITY POROSITY SANDSTONE
 GR  .GAPI   81 310 01 00:   GAMMA RAY
~PARAMETER INFORMATION
#MNEM.UNIT          VALUE    DESCRIPTION
#----------   ------------   ------------------------------
 PD  .                 GL:   PERMANENT DATUM
 EPD .F              5165:   ELEVATION PERMANENT DATUM
 LMF .                 KB:   LOG MEASURED FROM
 DAPD.F                10:   FEET ABOVE PERMANENT DATUM
 DMF .                 KB:   DRILLING MEASURED FROM
 EKB .F              5175:   KELLING BUSHING
 EGL .F              5165:   GROUND LEVEL
 DATE.            7-31-79:   RUN DATE
 RUN .                  1:   RUN NUMBER
 DD  .F              1564:   DEPTH DRILLER
 DL  .F              1560:   DEPTH LOGGER
 BLI .F              1560:   BOTTOM LOG INTERVAL
 TLI .F               700:   TOP LOG INTERVAL
 CS  .IN            9.625:   CASING SIZE
 CBD .F               691:   CASING BOTTOM DRILLER
 CBL .F               680:   CASING BOTTOM LOGGER
 BS  .IN            7.875:   BIT SIZE
 BSD .F              1564:   BIT SIZE AT DEPTH
 DFT .                OIL:   DRILLING FLUID TYPE
 BHT .F                92:   BOTTOM HOLE TEMPERATURE
 TCS .HRS               2:   TIME CURCULATED STOPPED
 MRT .F                92:   MAXIMUM RECORDED TEMPERATURE
 LUN .               3029:   LOGGING UNIT NUMBER
 LUL .                CPR:   LOGGING UNIT LOCATION
 ENGI.             MILLER:   RECORDING ENGINEER
 WITN.           DINSMORE:   WITNESSED BY
 CLNT.            A2DTECH:   CLIENT CODE
 ORIG.       2", 5" PRINT:   ORIGIN OF DATA
 UWI .       490251078600:   UNIQUE WELL ID
 DICO. A2D Technologies, Inc.:   DIGITIZING COMPANY
~OTHER INFORMATION
~A   DEPT     CALD        GRD       RHOB       CORR       DPHI          GR  
# ...
 1142.0000     9.1794    93.4606     2.5769     0.0509    -0.0186    93.7080
 1142.5000     9.1761    94.8511     2.5779     0.0325    -0.0126    89.9642
 1143.0000     9.1731    95.5700     2.5570     0.0097    -0.0050    85.8729
 1143.5000     9.1701    94.7631     2.5420    -0.0027     0.0026    81.8311
 1144.0000     9.1670    94.8484     2.5270    -0.0008     0.0098    81.3224
 1144.5000     9.1640    96.9489     2.5190     0.0024     0.0138    86.7033
 1145.0000     9.1610    99.0321     2.5173     0.0057     0.0170    90.1762
 1145.5000     9.1580    99.9902     2.5260     0.0089     0.0068    91.0380
 1146.0000     9.1549    98.8809     2.5347     0.0121     0.0027    91.3134
 1146.5000     9.1519    97.6232     2.5370     0.0147     0.0076    91.3200
 1147.0000     9.1489    97.0259     2.5366     0.0116     0.0054    88.6726
 1147.5000     9.1458    97.0104     2.5355     0.0084     0.0038    85.9237
 1148.0000     9.1428    98.7185     2.5344     0.0053     0.0037    85.2254
 1148.5000     9.1398   102.0714     2.5335     0.0084     0.0025    86.7205
 1149.0000     9.1367   105.4121     2.5349     0.0152     0.0013    88.1994
 1149.5000     9.1337   108.8052     2.5479     0.0220     0.0001    89.6889
 1150.0000     9.1307   110.4810     2.5612     0.0288    -0.0010    91.1771
 1150.5000     9.1276   110.7897     2.5746     0.0356    -0.0013    92.6452
 1151.0000     9.1246    98.3622     2.5696     0.0375    -0.0010    93.7338
 1151.5000     9.1215    98.7960     2.5615     0.0324    -0.0007    92.4690
 1152.0000     9.1186    99.4275     2.5534     0.0273    -0.0005    90.0466
 1152.5000     9.1189   100.0164     2.5491     0.0270    -0.0003    87.6385
 1153.0000     9.1198    99.3178     2.5480     0.0271    -0.0002    87.8489
 1153.5000     9.1206    97.9088     2.5470     0.0215     0.0000    91.7035
 1154.0000     9.1214    97.4753     2.5418     0.0139     0.0002    94.3677
 1154.5000     9.1222    99.8926     2.5328     0.0063     0.0044    96.9979
 1155.0000     9.1230   101.6845     2.5264     0.0012     0.0094    99.2038
 1155.5000     9.1238   100.0501     2.5289     0.0042     0.0082    97.7990
 1156.0000     9.1246    97.8169     2.5334     0.0070     0.0075    95.7425
 1156.5000     9.1254    95.7725     2.5292     0.0091     0.0112    93.6513
 1157.0000     9.1262    95.6397     2.5231     0.0049     0.0149    91.5449
 1157.5000     9.1270    97.8582     2.5169    -0.0009     0.0182    91.1100
 1158.0000     9.1278   100.1074     2.5156    -0.0030     0.0146    93.7077
 1158.5000     9.1286   101.1112     2.5251     0.0037     0.0107    96.9690
 1159.0000     9.1294   100.0442     2.5370     0.0102     0.0066    96.8023
 1159.5000     9.1302    98.9683     2.5369     0.0168     0.0072    95.8125
 1160.0000     9.1310    98.3092     2.5323     0.0236     0.0082    95.6302
 1160.5000     9.1318   100.9850     2.5358     0.0221     0.0046    96.2506
 1161.0000     9.1326   103.4278     2.5452     0.0183     0.0000    96.6982
 1161.5000     9.1334   102.5407     2.5503     0.0144     0.0025    96.3765
 1162.0000     9.1342   101.2660     2.5414     0.0105     0.0067    93.4859
 1162.5000     9.1350   100.9639     2.5320     0.0066     0.0073    90.3079
 1163.0000     9.1358   102.1719     2.5352     0.0027     0.0049    87.0648
 1163.5000     9.1366   103.2115     2.5392     0.0022     0.0044    90.7685
 1164.0000     9.1374   101.5762     2.5424     0.0055     0.0055    95.1706
 1164.5000     9.1382    99.7190     2.5358     0.0055     0.0065    95.5315
 1165.0000     9.1383    97.8638     2.5288     0.0031     0.0076    88.5241
 1165.5000     9.1383    96.2285     2.5313     0.0062     0.0087    86.0841
 1166.0000     9.1383    96.9533     2.5294     0.0111     0.0097    91.1517
 1166.5000     9.1383    99.6127     2.5272     0.0092     0.0106    93.2696
 1167.0000     9.1383   102.2308     2.5249     0.0041     0.0106    94.5300
 1167.5000     9.1383   104.8831     2.5272    -0.0005     0.0094    94.6706
 1168.0000     9.1383   105.3830     2.5445     0.0118     0.0022    94.3948
 1168.5000     9.1383   101.5755     2.5621     0.0254    -0.0049    95.8285
 1169.0000     9.1383    99.2173     2.5657     0.0209    -0.0094    99.9398
 1169.5000     9.1383    97.1935     2.5578     0.0061    -0.0079    99.1027
 1170.0000     9.1383    96.2377     2.5477     0.0030     0.0006    93.5610
 1170.5000     9.1383   100.9795     2.5377    -0.0004     0.0072    87.6353
 1171.0000     9.1383   103.4144     2.5276    -0.0005     0.0110    82.0975
 1171.5000     9.1383    99.1740     2.5235     0.0031     0.0116    80.5469
 1172.0000     9.1383    94.4393     2.5335     0.0060     0.0090    84.6862
 1172.5000     9.1383    90.2404     2.5357     0.0088     0.0063    90.9887
 1173.0000     9.1383    90.2469     2.5336     0.0111     0.0072    91.1004
 1173.5000     9.1383    97.2642     2.5313     0.0079     0.0090    85.8781
 1174.0000     9.1383    99.0938     2.5362     0.0041     0.0033    86.6212
 1174.5000     9.1383    98.1253     2.5455     0.0020    -0.0022    88.7033
 1175.0000     9.1383    97.1011     2.5549     0.0080    -0.0049    90.7204
 1175.5000     9.1383    97.2980     2.5614     0.0141    -0.0059    92.5390
 1176.0000     9.1383   100.1526     2.5547     0.0103    -0.0065    92.5363
 1176.5000     9.1383   103.0270     2.5559     0.0044    -0.0071    85.7630
 1177.0000     9.1383   105.9041     2.5588    -0.0016    -0.0035    85.0619
 1177.5000     9.1383   108.7292     2.5523    -0.0074     0.0028    85.0787
 1178.0000     9.1383   106.7485     2.5345    -0.0111     0.0092    85.0119
 1178.5000     9.1383   103.6072     2.5203     0.0020     0.0138    88.0582
 1179.0000     9.1383   106.2698     2.5212    -0.0032     0.0130    91.3447
 1179.5000     9.1383   109.6565     2.5435    -0.0131     0.0096    94.3522
 1180.0000     9.1383   111.8087     2.5416    -0.0198     0.0105    93.8488
 1180.5000     9.1383   109.1127     2.5320    -0.0125     0.0123    96.8004
 1181.0000     9.1383   106.3914     2.5288    -0.0054     0.0117   100.0259
 1181.5000     9.1383   105.8979     2.5246     0.0016     0.0110   103.2816
 1182.0000     9.1383   108.3405     2.5213     0.0060     0.0131   105.6569
 1182.5000     9.1383   110.8304     2.5236     0.0000     0.0123   107.0879
 1183.0000     9.1383   113.3360     2.5295    -0.0056     0.0079   108.1945
 1183.5000     9.1383   113.7151     2.5495    -0.0009     0.0034   104.5388
 1184.0000     9.1383   112.5732     2.5578     0.0182    -0.0010   101.9703
 1184.5000     9.1383   111.4315     2.5537     0.0187    -0.0022   107.6675
 1185.0000     9.1383   110.6373     2.5462     0.0152    -0.0001   109.0881
 1185.5000     9.1383   112.6033     2.5387     0.0115     0.0019   107.4427
 1186.0000     9.1383   114.8195     2.5317     0.0079     0.0039   104.4698
 1186.5000     9.1383   114.7926     2.5333     0.0043     0.0058   101.5123
 1187.0000     9.1383   113.2652     2.5351     0.0007     0.0097   101.1217
 1187.5000     9.1374   111.7325     2.5260    -0.0029     0.0134   105.3759
 1188.0000     9.1357   110.1881     2.5177    -0.0067     0.0162   104.4968
 1188.5000     9.1340   109.4619     2.5199    -0.0007     0.0124   101.9504
 1189.0000     9.1323   112.5504     2.5315     0.0067     0.0080    99.5026
 1189.5000     9.1306   115.6188     2.5428     0.0141     0.0036    98.3871
 1190.0000     9.1289   114.7421     2.5540     0.0208    -0.0008    99.5957
 1190.5000     9.1272   111.4708     2.5544     0.0169    -0.0022   100.8069
 1191.0000     9.1255   108.2491     2.5497     0.0079     0.0020   102.0001
 1191.5000     9.1238   106.6256     2.5369    -0.0011     0.0067   103.9825
 1192.0000     9.1221   105.4349     2.5245    -0.0101     0.0129   106.5596
 1192.5000     9.1204   104.0925     2.5178    -0.0131     0.0162   108.9457
 1193.0000     9.1187   102.7610     2.5240    -0.0083     0.0101   108.7394
 1193.5000     9.1171   101.7710     2.5338    -0.0014     0.0044   101.2590
