~VERSION INFORMATION
 VERS.                2.0:   CWLS LOG ASCII STANDARD - VERSION 2.0
 WRAP.                 NO:   ONE LINE PER DEPTH STEP
~WELL INFORMATION
#MNEM.UNIT      DATA TYPE    INFORMATION
#----------   ------------   ------------------------------
 STRT.F           44.0000:   START DEPTH
 STOP.F          461.0000:   STOP DEPTH
 STEP.F            0.5000:   STEP LENGTH
 NULL.          -999.2500:   NO VALUE
 COMP. BROWN JOHN E&C INC:   COMPANY
 WELL. NPR 3 SX-10 #55-41-10:   WELL
 FLD .             TEAPOT:   FIELD
 LOC .      S10 T38N R78W:   LOCATION
 CNTY.            NATRONA:   COUNTY
 STAT.            WYOMING:   STATE
 CTRY. UNITED STATES OF AMERICA:   COUNTRY
 SRVC.       Schlumberger:   SERVICE COMPANY
 DATE.        28-SEP-1990:   LOGDATE
 API .       490251131900:   API NUMBER
~CURVE INFORMATION
#MNEM.UNIT       API CODE    CURVE DESCRIPTION
#----------   ------------   ------------------------------
 DEPT.F                  :   
 GRR .GAPI   07 310 01 00:   GAMMA RAY
 ILD .OHMM   07 120 46 00:   INDUCTION LOG DEEP
 ILM .OHMM   07 120 44 00:   INDUCTION LOG MEDIUM
~PARAMETER INFORMATION
#MNEM.UNIT          VALUE    DESCRIPTION
#----------   ------------   ------------------------------
 PD  .                 GL:   PERMANENT DATUM
 EPD .F              5187:   ELEVATION PERMANENT DATUM
 LMF .                 KB:   LOG MEASURED FROM
 DAPD.F              10.0:   FEET ABOVE PERMANENT DATUM
 DMF .                 KB:   DRILLING MEASURED FROM
 EKB .F              5197:   KELLING BUSHING
 EDF .F              5196:   DRILLING FLOOR
 EGL .F              5187:   GROUND LEVEL
 DATE.        28-SEP-1990:   RUN DATE
 RUN .                  1:   RUN NUMBER
 DD  .F               470:   DEPTH DRILLER
 DL  .F               467:   DEPTH LOGGER
 BLI .F               461:   BOTTOM LOG INTERVAL
 TLI .F                48:   TOP LOG INTERVAL
 CS  .IN            8.625:   CASING SIZE
 CBD .F                48:   CASING BOTTOM DRILLER
 CBL .F                49:   CASING BOTTOM LOGGER
 BS  .IN            7.875:   BIT SIZE
 BSD .F               470:   BIT SIZE AT DEPTH
 DFT .                AIR:   DRILLING FLUID TYPE
 TLAB.HRS            1715:   TIME LOGGER AT BOTTOM
 LUN .               6882:   LOGGING UNIT NUMBER
 LUL .               CODY:   LOGGING UNIT LOCATION
 ENGI.        MIKE FISHER:   RECORDING ENGINEER
 WITN.       GARRY STRONG:   WITNESSED BY
 CLNT.            A2DTECH:   CLIENT CODE
 ORIG.           5" PRINT:   ORIGIN OF DATA
 UWI .       490251131900:   UNIQUE WELL ID
 DICO. A2D Technologies, Inc.:   DIGITIZING COMPANY
~OTHER INFORMATION
~A   DEPT      GRR        ILD        ILM   
# ...
  135.0000   124.1667     8.0014     7.8626
  135.5000   123.2638     8.0582     7.9167
  136.0000   122.3254     8.1154     8.0270
  136.5000   122.3016     8.1159     8.0825
  137.0000   123.8023     8.1735     8.1379
  137.5000   124.3942     8.2894     8.2515
  138.0000   123.4499     8.3482     8.3083
  138.5000   122.2066     8.4075     8.3655
  139.0000   121.8780     8.4671     8.3641
  139.5000   123.0737     8.5272     8.4219
  140.0000   121.8245     8.5879     8.4799
  140.5000   121.4959     8.5885     8.5383
  141.0000   122.3868     8.7103     8.5971
  141.5000   126.3264     8.8337     8.6563
  142.0000   130.5710     8.8964     8.7156
  142.5000   131.1629     8.8970     8.7144
  143.0000   127.4747     8.9602     8.7744
  143.5000   125.6216     8.8983     8.7732
  144.0000   126.8334     8.8989     8.7717
  144.5000   128.0131     8.8995     8.7705
  145.0000   127.0688     8.8380     8.7082
  145.5000   126.4353     8.7769     8.7070
  146.0000   126.4115     8.7162     8.6451
  146.5000   127.9122     8.5956     8.5836
  147.0000   128.8090     8.5362     8.5226
  147.5000   128.4744     8.4181     8.5213
  148.0000   125.0970     8.3598     8.2849
  148.5000   123.8537     8.2966     8.1686
  149.0000   125.7317     8.1798     8.0540
  149.5000   129.2881     8.0646     7.9410
  150.0000   131.5368     7.8957     7.7749
  150.5000   133.1900     7.7249     7.6070
  151.0000   133.1543     7.5153     7.4009
  151.5000   132.2040     7.2557     7.0956
  152.0000   129.7292     6.9079     6.8029
  152.5000   129.6935     6.6229     6.3422
  153.0000   129.6578     6.2179     5.9127
  153.5000   129.6220     5.6768     5.3601
  154.0000   130.8373     5.1828     4.9276
  154.5000   131.3799     4.6336     4.5939
  155.0000   130.7255     4.0283     4.2233
  155.5000   128.2507     3.4635     3.5801
  156.0000   121.5077     2.8391     2.8731
  156.5000   118.7280     2.6842     2.6598
  157.0000   117.4728     2.6465     2.6410
  157.5000   117.1322     2.7209     2.7155
  158.0000   117.7062     2.7974     2.7727
  158.5000   121.9388     2.8963     2.9116
  159.0000   127.7626     3.1053     3.1441
  159.5000   131.5248     3.3999     3.6414
  160.0000   136.1520     3.9091     4.1297
  160.5000   137.0398     4.3831     4.5672
  161.0000   136.9952     5.0602     4.9872
  161.5000   137.5692     5.4634     5.3480
  162.0000   138.1432     5.8169     5.7752
  162.5000   138.4213     5.9888     6.0644
  163.0000   137.7669     6.3169     6.3236
  163.5000   135.5971     6.4047     6.4571
  164.0000   133.4268     6.4025     6.5016
  164.5000   134.3883     6.3561     6.4551
  165.0000   139.4444     6.2223     6.3645
  165.5000   142.4574     6.0487     6.0935
  166.0000   142.7355     5.9213     5.6885
  166.5000   142.6909     5.7160     5.3405
  167.0000   143.2738     5.5151     5.0490
  167.5000   143.8479     5.3202     4.9435
  168.0000   141.9739     5.0344     4.9083
  168.5000   134.3163     4.9631     4.9076
  169.0000   132.7562     5.0671     5.0463
  169.5000   137.7236     5.2096     5.1888
  170.0000   141.8221     5.3938     5.3354
  170.5000   143.0148     5.5845     5.5713
  171.0000   140.5312     5.8635     6.0077
  171.5000   135.3125     6.1998     6.3974
  172.0000   132.5329     6.5614     6.7649
  172.5000   134.0216     6.9392     7.1535
  173.0000   135.8151     7.3281     7.4075
  173.5000   137.6087     7.5872     7.6165
  174.0000   137.5729     7.7462     7.8317
  174.5000   137.5366     7.7991     7.9967
  175.0000   138.4653     7.8512     8.0518
  175.5000   140.2007     7.8491     7.9946
  176.0000   142.6040     7.8469     7.9374
  176.5000   143.4919     7.7900     7.8260
  177.0000   141.0082     7.6796     7.6624
  177.5000   140.0578     7.5706     7.5549
  178.0000   140.9368     7.4628     7.3969
  178.5000   143.3401     7.3570     7.2422
  179.0000   145.4385     7.2020     7.0413
  179.5000   144.4765     7.0999     6.9425
  180.0000   143.8427     6.9504     6.7973
  180.5000   145.0175     6.7565     6.6972
  181.0000   143.7623     6.5222     6.4252
  181.5000   141.8973     6.2521     6.2034
  182.0000   140.6421     5.9485     5.9060
  182.5000   141.5210     5.7785     5.5837
  183.0000   145.4487     5.7430     5.2789
  183.5000   147.5560     5.7822     5.2050
  184.0000   146.9016     5.8212     5.6998
  184.5000   144.4249     5.9017     5.9434
  185.0000   142.5610     6.0250     6.1113
  185.5000   143.4319     6.2819     6.4263
  186.0000   144.9205     6.5957     6.8814
  186.5000   144.5799     6.9253     7.2259
  187.0000   144.2393     7.2747     7.4822
  187.5000   145.7280     7.5371     7.6399
  188.0000   148.1313     7.7401     7.7468
  188.5000   150.5346     7.7924     7.8002
  189.0000   148.6696     7.8450     7.9088
  189.5000   145.8900     7.8980     7.9632
  190.0000   144.0244     7.9514     7.9621
  190.5000   143.6830     7.9486     7.9611
  191.0000   143.6397     8.0024     7.9597
  191.5000   142.9943     8.0564     8.0148
  192.0000   142.0439     7.9980     8.0134
  192.5000   140.4927     7.9957     8.0123
  193.0000   143.1920     7.9930     8.0112
  193.5000   146.8148     7.9908     7.9543
  194.0000   148.3048     7.9887     7.9532
  194.5000   146.7433     7.9307     7.9521
  195.0000   146.4027     7.9286     7.9510
  195.5000   147.6250     7.9264     7.9499
  196.0000   148.1606     7.9242     7.9486
  196.5000   144.1525     7.9778     8.0036
  197.0000   139.2387     7.9756     8.0022
  197.5000   137.9835     7.9733     8.0011
  198.0000   139.4722     7.9707     8.0000
  198.5000   142.5294     7.9685     7.9989
  199.0000   145.8629     7.9663     7.9978
  199.5000   145.2058     7.9086     7.9410
  200.0000   144.5576     7.9066     7.8845
  200.5000   145.7471     7.7941     7.7739
  201.0000   149.6931     7.6300     7.6110
  201.5000   152.7203     7.4693     7.4519
  202.0000   153.9112     7.2610     7.1863
  202.5000   155.0992     7.0584     7.0341
  203.0000   156.2887     6.9098     6.9822
  203.5000   155.9379     6.8117     6.9794
  204.0000   154.0646     6.6214     6.8316
  204.5000   151.5788     6.4819     6.4996
  205.0000   150.3180     6.2571     5.9649
  205.5000   150.2824     6.1254     5.6478
  206.0000   151.4732     5.9964     5.6851
  206.5000   151.7488     5.9947     5.8441
  207.0000   150.4482     6.0777     6.0498
  207.5000   148.5996     6.1653     6.2627
  208.0000   148.2666     6.3346     6.4379
  208.5000   149.4472     6.5128     6.6644
  209.0000   150.0241     6.7431     6.9513
  209.5000   149.9885     7.1799     7.3010
  210.0000   149.3403     7.4860     7.5491
  210.5000   146.5482     7.5901     7.5461
  211.0000   142.3832     7.5346     7.3862
  211.5000   137.5859     7.3742     7.0796
  212.0000   136.0189     7.0572     6.7384
  212.5000   137.2084     6.6362     6.3244
  213.0000   139.0105     6.1856     5.6918
  213.5000   141.1188     5.8062     5.1903
  214.0000   142.3094     5.6442     5.0492
  214.5000   142.5789     5.5642     5.2631
  215.0000   141.2761     5.5238     5.4866
  215.5000   140.3548     5.5223     5.5229
  216.0000   140.3192     5.5622     5.7172
  216.5000   140.2836     5.9194     5.9600
  217.0000   139.0228     6.2588     6.3449
  217.5000   138.3746     6.6177     6.7075
  218.0000   138.0327     6.9484     7.0493
  218.5000   137.6846     7.3985     7.4954
  219.0000   136.9963     7.6601     7.7591
  219.5000   135.4667     7.8207     7.8653
  220.0000   133.2872     7.9288     7.9729
  220.5000   132.0264     8.1015     8.1388
  221.0000   132.6033     8.2646     8.3089
  221.5000   133.1892     8.3204     8.3631
  222.0000   132.8384     8.3175     8.3596
  222.5000   130.9547     8.3153     8.4799
  223.0000   129.0414     8.3130     8.5300
  223.5000   128.7499     8.3108     8.5256
  224.0000   130.2367     8.3669     8.5222
  224.5000   130.5163     8.4234     8.6994
  225.0000   129.2467     8.4803     8.7578
  225.5000   127.9859     8.5376     8.7534
