~VERSION INFORMATION
 VERS.                2.0:   CWLS LOG ASCII STANDARD - VERSION 2.0
 WRAP.                 NO:   ONE LINE PER DEPTH STEP
~WELL INFORMATION
#MNEM.UNIT      DATA TYPE    INFORMATION
#----------   ------------   ------------------------------
 STRT.F           90.0000:   START DEPTH
 STOP.F          799.0000:   STOP DEPTH
 STEP.F            0.5000:   STEP LENGTH
 NULL.          -999.2500:   NO VALUE
 COMP. U S NAVY-INTEX OIL:   COMPANY
 WELL. RES 3 TEAPOT DOM #83S-34:   WELL
 FLD .             TEAPOT:   FIELD
 LOC .      S34 T39N R78W:   LOCATION
 CNTY.            NATRONA:   COUNTY
 STAT.            WYOMING:   STATE
 CTRY. UNITED STATES OF AMERICA:   COUNTRY
 SRVC.       Schlumberger:   SERVICE COMPANY
 DATE.        15-FEB-1961:   LOGDATE
 API .       490250655100:   API NUMBER
~CURVE INFORMATION
#MNEM.UNIT       API CODE    CURVE DESCRIPTION
#----------   ------------   ------------------------------
 DEPT.F                  :   
 ASN .OHMM   05 041 16 00:   AMPLIFIED SHORT NORMAL 16"
 ILD .OHMM   05 120 46 00:   INDUCTION LOG DEEP RESISTIVITY.
 CILD.MMHO   05 110 46 00:   CONDUCTIVITY INDUCTION LOG DEEP
 SPR .MV     05 010 01 00:   SPONTANEOUS POTENTIAL FROM RES.
 GR  .GAPI   30 310 01 00:   GAMMA RAY
~PARAMETER INFORMATION
#MNEM.UNIT          VALUE    DESCRIPTION
#----------   ------------   ------------------------------
 PD  .                 GL:   PERMANENT DATUM
 EPD .F              5090:   ELEVATION PERMANENT DATUM
 LMF .                 KB:   LOG MEASURED FROM
 DAPD.F                 4:   FEET ABOVE PERMANENT DATUM
 DMF .                 KB:   DRILLING MEASURED FROM
 EKB .F              5094:   KELLING BUSHING
 EGL .F              5090:   GROUND LEVEL
 DATE.        15-FEB-1961:   RUN DATE
 RUN .                  1:   RUN NUMBER
 DD  .F               800:   DEPTH DRILLER
 DL  .F               800:   DEPTH LOGGER
 BLI .F               799:   BOTTOM LOG INTERVAL
 TLI .F               100:   TOP LOG INTERVAL
 CBD .F                12:   CASING BOTTOM DRILLER
 BS  .IN            7.875:   BIT SIZE
 BSD .F               800:   BIT SIZE AT DEPTH
 DFT .       OIL EMULSION:   DRILLING FLUID TYPE
 DFD .                9.5:   DRILLING FLUID DENSITY
 DFV .                 50:   DRILLING FLUID VISCOSITY
 RMS .OHMM           1.25:   RESISTIVITY MUD SAMPLE
 MST .F                57:   MUD SAMPLE TEMPERATURE
 RMB .OHMM           0.98:   RESISTIVITY MUD AT BHT
 BHT .F                73:   BOTTOM HOLE TEMPERATURE
 TCS .HRS               1:   TIME CURCULATED STOPPED
 LUN .               2572:   LOGGING UNIT NUMBER
 LUL .                 NC:   LOGGING UNIT LOCATION
 ENGI.            EARNEST:   RECORDING ENGINEER
 WITN.          JORGENSEN:   WITNESSED BY
 CLNT.            A2DTECH:   CLIENT CODE
 ORIG.       2" ,5" PRINT:   ORIGIN OF DATA
 UWI .       490250655100:   UNIQUE WELL ID
 DICO. A2D Technologies, Inc.:   DIGITIZING COMPANY
~OTHER INFORMATION
~A   DEPT        ASN        ILD      CILD       SPR         GR   
# ...
  761.0000    16.9423    14.1684    65.9023   -30.0966    39.7346
  761.5000    16.8695    14.0198    65.8934   -29.9493    40.3328
  762.0000    16.8718    13.8709    67.3877   -29.9522    38.2277
  762.5000    16.8744    13.7968    68.1314   -29.9550    41.6788
  763.0000    16.8766    13.7230    68.1225   -29.9580    46.0308
  763.5000    16.8033    13.7248    68.8664   -29.9615    48.1305
  764.0000    16.7300    13.5762    68.8589   -29.8142    49.7798
  764.5000    16.7327    13.5021    68.8501   -29.8170    51.8161
  765.0000    16.6589    13.4283    68.8430   -29.8199    53.8284
  765.5000    16.7370    13.4301    68.8358   -29.8228    55.3281
  766.0000    16.7392    13.5068    68.8287   -29.9765    47.8176
  766.5000    16.7413    13.6589    68.8213   -29.9793    46.4490
  767.0000    16.7440    13.7355    68.8127   -29.9822    48.4668
  767.5000    16.8216    13.8121    68.8056   -29.9851    50.8129
  768.0000    16.8991    13.8888    68.7984   -29.9880    48.1078
  768.5000    16.9767    13.8902    69.5420   -29.8406    49.6069
  769.0000    17.0543    13.8164    70.2857   -29.8442    47.9529
  769.5000    17.1323    13.8182    71.0293   -29.8471    48.4159
  770.0000    17.2099    13.8196    71.0204   -29.8499    50.0496
  770.5000    17.1366    13.6707    71.0133   -29.8529    49.2964
  771.0000    17.1388    13.4351    71.0060   -29.8564    48.6940
  771.5000    16.9906    13.2224    70.2465   -30.0094    47.9403
  772.0000    16.7665    13.3746    68.7379   -30.0123    47.1804
  772.5000    16.5424    13.3760    68.7308   -30.0151    49.2869
  773.0000    16.3184    13.2271    68.7237   -30.0110    43.8785
  773.5000    16.1697    13.1533    68.7148   -29.8707    37.7199
  774.0000    16.0964    13.1551    70.2091   -29.8743    37.2677
  774.5000    16.0991    13.0810    70.9528   -29.7270    40.5680
  775.0000    16.1012    13.0076    71.6982   -29.5790    45.6707
  775.5000    16.1788    12.9338    73.1908   -29.5826    44.1668
  776.0000    16.1810    12.8604    73.9344   -29.5861    47.4672
  776.5000    16.1836    12.7863    74.6780   -29.4381    48.9669
  777.0000    16.1858    12.7881    74.6691   -29.2916    45.8107
  777.5000    16.1879    12.7895    74.6620   -29.2944    46.7259
  778.0000    16.1146    12.7910    74.6547   -29.2973    46.2558
  778.5000    15.9665    12.6424    73.8952   -29.3009    47.7549
  779.0000    15.8927    12.5686    73.1374   -29.3037    48.8036
  779.5000    15.7440    12.4945    73.1302   -29.3066    50.1525
  780.0000    15.5959    12.3459    73.1231   -29.4596    52.5526
  780.5000    15.5226    12.3474    73.1142   -29.4625    53.9009
  781.0000    15.2991    12.3491    73.1071   -29.3159    55.7003
  781.5000    15.2253    12.2750    73.1000   -29.3188    54.1964
  782.0000    15.1520    12.0512    73.0928   -29.0213    51.4913
  782.5000    15.0038    11.9023    73.0230   -29.0242    49.9460
  783.0000    14.9480    11.6785    71.5771   -29.0270    52.2373
  783.5000    14.8573    11.6044    73.8222   -28.8798    51.0331
  784.0000    14.6337    11.6062    76.0656   -28.8833    49.9767
  784.5000    14.4851    11.4572    77.5600   -29.0363  -999.2500
  785.0000    14.3364    11.3809    79.0526   -29.0392  -999.2500
  785.5000    14.2521    11.1593    79.0454   -29.3423  -999.2500
  786.0000    14.1898    11.1611    79.7909   -29.3453  -999.2500
  786.5000    14.1171    11.1625    80.5345   -29.4990  -999.2500
  787.0000    14.1193    11.1640    81.3010   -29.5018  -999.2500
  787.5000    14.0460    11.0840    82.0200   -29.3538  -999.2500
  788.0000    14.0487    10.8661    83.5126   -29.3574  -999.2500
  788.5000    14.0508    10.7923    83.5054   -29.3604  -999.2500
  789.0000    14.1284    10.8693    83.4875   -29.0631  -999.2500
  789.5000    14.2060    10.9459    83.4284   -29.0664  -999.2500
  790.0000    14.3640    11.0226    83.3692   -28.9184  -999.2500
  790.5000    14.5879    11.0995    83.3101   -28.9220  -999.2500
  791.0000    14.7408    11.1009    83.2510   -28.9249  -999.2500
  791.5000    14.7430    11.1023    83.1919   -28.9284  -999.2500
  792.0000    14.4435    11.1038    83.1328   -28.7804  -999.2500
  792.5000    13.2089    11.0300    83.0736   -28.7840  -999.2500
  793.0000    13.0903    11.1822    83.0145   -28.7868  -999.2500
  793.5000    13.9226    11.3340    82.9554   -28.9399  -999.2500
  794.0000    14.3018    11.4106    82.8963   -28.9434  -999.2500
  794.5000    14.4548    11.4120    82.8371   -28.9463  -999.2500
  795.0000    14.5329    11.3383    82.7780   -28.9492  -999.2500
  795.5000    14.3842    11.2645    82.7189   -28.8019  -999.2500
  796.0000    14.2355    11.2663    82.6598   -28.8048  -999.2500
  796.5000    14.0114    11.2677    82.6007   -28.6574  -999.2500
  797.0000    13.8627    11.2692    82.5415   -28.5102  -999.2500
  797.5000    13.8654    11.1954    82.4824   -28.5137  -999.2500
  798.0000    13.9430    11.1972    82.4233   -28.3664  -999.2500
  798.5000    14.0959    11.2738    82.3642   -28.2192  -999.2500
  799.0000    12.8635    11.2752    82.3050   -28.2222  -999.2500
