~VERSION INFORMATION
 VERS.                2.0:   CWLS LOG ASCII STANDARD - VERSION 2.0
 WRAP.                 NO:   ONE LINE PER DEPTH STEP
~WELL INFORMATION
#MNEM.UNIT      DATA TYPE    INFORMATION
#----------   ------------   ------------------------------
 STRT.F            8.0000:   START DEPTH
 STOP.F          420.0000:   STOP DEPTH
 STEP.F            0.5000:   STEP LENGTH
 NULL.          -999.2500:   NO VALUE
 COMP.    FENIX & SCISSON:   COMPANY
 WELL.    NPR 3 SX #61-10:   WELL
 FLD .             TEAPOT:   FIELD
 LOC .      S10 T38N R78W:   LOCATION
 CNTY.            NATRONA:   COUNTY
 STAT.            WYOMING:   STATE
 CTRY. UNITED STATES OF AMERICA:   COUNTRY
 SRVC.            Unknown:   SERVICE COMPANY
 DATE.        20-NOV-1978:   LOGDATE
 API .       490251074900:   API NUMBER
~CURVE INFORMATION
#MNEM.UNIT       API CODE    CURVE DESCRIPTION
#----------   ------------   ------------------------------
 DEPT.F                  :   
 ILD .OHMM   01 120 46 00:   LOG INDUCTION
 SN  .OHMM   01 040 00 00:   SHORT NORMAL
 SPR .MV     01 010 01 00:   SPONTANEOUS POTENSIAL
 CALD.IN     45 280 60 00:   CALIPER
 GRD .GAPI   45 310 01 00:   GAMMA RAY FROM DENSITY LOG
 DPHI.DEC    45 890 12 00:   DENSITY POROSITY SANDSTONE
 RHOB.G/C3   45 350 01 00:   BULK DENSITY
 CORR.G/C3   45 356 01 00:   DENSITY CORRECTION
~PARAMETER INFORMATION
#MNEM.UNIT          VALUE    DESCRIPTION
#----------   ------------   ------------------------------
 PD  .                 GL:   PERMANENT DATUM
 EPD .F              5145:   ELEVATION PERMANENT DATUM
 LMF .                 KB:   LOG MEASURED FROM
 DAPD.F                 4:   FEET ABOVE PERMANENT DATUM
 DMF .                 KB:   DRILLING MEASURED FROM
 EKB .F              5149:   KELLING BUSHING
 EGL .F              5145:   GROUND LEVEL
 DATE.        20-NOV-1978:   RUN DATE
 RUN .                  1:   RUN NUMBER
 DD  .F               435:   DEPTH DRILLER
 DL  .F               426:   DEPTH LOGGER
 BLI .F               420:   BOTTOM LOG INTERVAL
 TLI .F                48:   TOP LOG INTERVAL
 CS  .IN            8.625:   CASING SIZE
 CBD .F                40:   CASING BOTTOM DRILLER
 CBL .F                42:   CASING BOTTOM LOGGER
 BS  .IN            7.875:   BIT SIZE
 BSD .F               435:   BIT SIZE AT DEPTH
 DFT .                KCL:   DRILLING FLUID TYPE
 DFD .                8.6:   DRILLING FLUID DENSITY
 DFV .                 38:   DRILLING FLUID VISCOSITY
 DFPH.                9.8:   DRILLING FLUID PH
 DFL .                 10:   DRILLING FLUID LOSS
 MSS .           FLOWLINE:   MUD SAMPLE SOURCE
 RMS .OHMM            .39:   RESISTIVITY MUD SAMPLE
 MST .F                54:   MUD SAMPLE TEMPERATURE
 RMF .OHMM            .26:   RESISTIVITY MUD FILTRATE SAMPLE
 MFST.F                72:   MUD FILTRATE SAMPLE TEMPERATURE
 RMC .OHMM            .34:   RESISTIVITY MUD CAKE
 MCST.F                74:   MUD CAKE SAMPLE TEMPERATURE
 MFSS.           MEASURED:   MUD FILTRATE SAMPLE SOURCE
 RMB .OHMM            .33:   RESISTIVITY MUD AT BHT
 BHT .F                63:   BOTTOM HOLE TEMPERATURE
 TCS .HRS               1:   TIME CURCULATED STOPPED
 MRT .F                63:   MAXIMUM RECORDED TEMPERATURE
 LUN .               2958:   LOGGING UNIT NUMBER
 LUL .               CASP:   LOGGING UNIT LOCATION
 ENGI.             MILLER:   RECORDING ENGINEER
 WITN.              AMEND:   WITNESSED BY
 CLNT.            A2DTECH:   CLIENT CODE
 ORIG.        2" 5" PRINT:   ORIGIN OF DATA
 UWI .       490251074900:   UNIQUE WELL ID
 DICO. A2D Technologies, Inc.:   DIGITIZING COMPANY
~OTHER INFORMATION
~A    DEPT     ILD         SN        SPR       CALD         GRD      DPHI       RHOB       CORR   
# ...
  129.5000     7.3918     8.9633   -20.2866     7.5888   100.4701     0.1492     2.4390     0.0339
  130.0000     7.2452     8.9073   -21.7711     7.5894   101.0726     0.1455     2.4383     0.0354
  130.5000     7.3049     8.9791   -22.1917     7.6048   101.2272     0.1356     2.4406     0.0401
  131.0000     7.3632     9.0495   -21.7221     7.6054   100.7866     0.1323     2.4609     0.0416
  131.5000     7.5779     9.1838   -21.4060     7.5910    98.1138     0.1269     2.4662     0.0447
  132.0000     7.7988     9.3850   -21.3885     7.5917   101.6910     0.1136     2.4716     0.0478
  132.5000     7.9707     9.5906   -21.6695     7.5774   104.5242     0.1163     2.4889     0.0464
  133.0000     8.2031     9.7332   -21.8013     7.5929   108.9943     0.1259     2.4912     0.0419
  133.5000     8.3261     9.8097   -21.6389     7.5935   110.9346     0.1304     2.4634     0.0345
  134.0000     8.3928     9.8884   -21.7706     7.6089   107.5833     0.1334     2.4613     0.0315
  134.5000     8.3430     9.8972   -21.8985     7.5946   101.7200     0.1328     2.4598     0.0361
  135.0000     8.3536     9.8353   -22.0299     7.5953   102.1737     0.1279     2.4667     0.0362
  135.5000     8.3621     9.7106   -22.0119     7.6108   103.6676     0.1255     2.4735     0.0363
  136.0000     8.3107     9.7191   -21.9940     7.6263   102.3341     0.1285     2.4735     0.0424
  136.5000     8.3213     9.7277   -21.9728     7.6269    99.2150     0.1255     2.4728     0.0440
  137.0000     8.3297     9.7362   -22.1045     7.6274    98.6255     0.1198     2.4759     0.0456
  137.5000     8.2785     9.6107   -22.2406     7.6130    98.3322     0.1213     2.4827     0.0440
  138.0000     8.2315     9.5527   -22.3680     7.6137    98.6371     0.1225     2.4813     0.0427
  138.5000     8.1831     9.5611   -22.2012     7.6292   100.1310     0.1272     2.4761     0.0382
  139.0000     8.1561     9.4378   -22.3330     7.6298   100.7321     0.1362     2.4676     0.0353
  139.5000     8.1081     9.3161   -22.3154     7.6304    99.0040     0.1434     2.4488     0.0308
  140.0000     7.8971     9.1324   -22.2979     7.6310    97.3225     0.1464     2.4391     0.0294
  140.5000     7.5840     8.9524   -22.2804     7.6315    99.1140     0.1485     2.4384     0.0310
  141.0000     7.1340     8.7172   -22.2627     7.6323   101.3520     0.1569     2.4377     0.0326
  141.5000     6.5277     8.4863   -22.4144     7.6328   103.5899     0.1659     2.4333     0.0311
  142.0000     6.0534     8.1478   -22.8205     7.6334   102.8517     0.1764     2.4091     0.0282
  142.5000     5.9790     7.6090   -23.1059     7.6340   101.8143     0.1848     2.3872     0.0298
  143.0000     5.9866     7.2551   -23.5317     7.6197   102.1192     0.1803     2.3794     0.0359
  143.5000     5.9926     7.1615   -23.8171     7.6203   102.5714     0.1550     2.3802     0.0375
  144.0000     5.9987     7.1183   -23.3474     7.6058   102.2659     0.1313     2.4104     0.0315
  144.5000     6.0048     7.2256   -23.1807     7.6066   101.3940     0.1301     2.4435     0.0286
  145.0000     6.0109     7.6442   -22.8646     7.5923   104.0784     0.1319     2.4699     0.0257
  145.5000     6.4474     8.1433   -22.6979     7.5929   108.1021     0.1339     2.4685     0.0242
  146.0000     7.2583     8.8573   -22.5311     7.6083   106.0245     0.1324     2.4640     0.0258
  146.5000     7.8394     9.4357   -22.5134     7.6073   105.5825     0.1270     2.4641     0.0259
  147.0000     8.1233     9.8449   -22.4766     7.5946   109.6061     0.1240     2.4710     0.0260
  147.5000     8.1881    10.1306   -21.8772     7.5953   105.2979     0.1276     2.4786     0.0215
  148.0000     8.1981    10.2810   -21.5611     7.5662   104.4107     0.1252     2.4754     0.0140
  148.5000     8.2064    10.4338   -21.5436     7.5220   104.7142     0.1221     2.4735     0.0051
  149.0000     8.2717    10.5158   -21.5261     7.5227    99.1577     0.1234     2.4803     0.0051
  149.5000     8.3952    10.6003   -21.5086     7.5233    98.3285     0.1245     2.4766     0.0022
  150.0000     8.5798    10.7577   -21.1926     7.5239    98.5468     0.1137     2.4677     0.0008
  150.5000     8.7683    10.8420   -20.7273     7.5244   101.1800     0.1122     2.4896     0.0241
  151.0000     8.8993    11.0795   -20.5605     7.5250   107.5726     0.1209     2.5001     0.0431
  151.5000     9.0323    11.1664   -20.2445     7.5256   106.3880     0.1256     2.4912     0.0327
  152.0000     9.1085    11.1762   -20.0776     7.5262   105.2018     0.1319     2.4777     0.0312
  152.5000     9.1769    11.1861   -19.9104     7.5268   104.0186     0.1316     2.4695     0.0298
  153.0000     9.1881    11.1968   -19.8921     7.5274    97.6256     0.1295     2.4681     0.0314
  153.5000     9.1974    11.2899   -19.7253     7.5281    93.6136     0.1244     2.4708     0.0330
  154.0000     9.2067    11.3792   -19.5463     7.5287    96.4468     0.1226     2.4833     0.0361
  154.5000     9.2160    11.5489   -19.3910     7.5293   104.0419     0.1235     2.4834     0.0407
  155.0000     9.2246    11.4800   -19.3699     7.5298   106.7263     0.1180     2.4819     0.0407
  155.5000     9.2098    11.4115   -19.3524     7.5304   109.4384     0.1147     2.4820     0.0468
  156.0000     9.1801    11.3434   -19.3349     7.5310   111.7974     0.1087     2.5032     0.0575
  156.5000     9.1897    11.1979   -19.3174     7.5316   105.7035     0.1153     2.5062     0.0606
  157.0000     9.1991    10.9779   -19.4535     7.5322   104.0724     0.1207     2.5018     0.0576
  157.5000     9.2086    10.7647   -19.5853     7.5140   103.4816     0.1258     2.4914     0.0447
  158.0000     9.2199    10.6266   -19.8619     7.5083   104.2329     0.1297     2.4689     0.0231
  158.5000     9.1634    10.5607   -19.9937     7.5687   104.8339     0.1351     2.4690     0.0156
  159.0000     9.0490    10.5001   -19.9761     7.5696   104.6909     0.1328     2.4638     0.0127
  159.5000     8.9316    10.5101   -20.1079     7.5707   104.3977     0.1263     2.4571     0.0164
  160.0000     8.6991    10.4474   -20.2397     7.5716   105.2978     0.1212     2.4699     0.0219
  160.5000     8.5293    10.3850   -20.3714     7.5723   108.1310     0.1194     2.4813     0.0251
  161.0000     8.3628    10.3231   -20.2003     7.5733   110.8234     0.1206     2.4859     0.0267
  161.5000     8.2563    10.2615   -20.1828     7.5742   110.7778     0.1205     2.4860     0.0253
  162.0000     8.1477    10.1322   -20.1653     7.5751   108.8940     0.1193     2.4838     0.0270
  162.5000     8.0386    10.0022   -20.3014     7.5759   109.1974     0.1223     2.4823     0.0256
  163.0000     8.0051     9.8738   -20.5781     7.5619   111.4354     0.1310     2.4832     0.0258
  163.5000     7.8490     9.7471   -20.8591     7.5182   116.2031     0.1325     2.4817     0.0229
  164.0000     7.6942     9.5556   -21.1401     7.5190   118.7387     0.1346     2.4609     0.0246
  164.5000     7.4387     9.3032   -21.2776     7.5199   118.4469     0.1392     2.4609     0.0202
  165.0000     7.0927     9.0451   -21.5528     7.5208   110.2682     0.1475     2.4579     0.0204
  165.5000     6.7161     8.4025   -21.8338     7.5219   101.0478     0.1565     2.4429     0.0205
  166.0000     6.2286     7.9568   -22.2597     7.5077    99.4167     0.1667     2.4256     0.0207
  166.5000     5.6969     7.4828   -22.5407     7.4937    99.7202     0.1736     2.4135     0.0299
  167.0000     5.1747     6.9884   -22.8217     7.4948    99.5000     0.1919     2.4023     0.0330
  167.5000     4.4657     6.3923   -23.2520     7.4659    94.2273     0.2189     2.3872     0.0301
  168.0000     3.8610     5.7268   -23.8315     7.4816    92.4474     0.2403     2.3363     0.0303
  168.5000     3.4960     5.0952   -25.1573     7.4676    91.7091     0.2622     2.3003     0.0335
  169.0000     3.2875     4.5019   -26.4831     7.4685    91.5647     0.2715     2.2620     0.0368
  169.5000     3.1783     4.1171   -27.0626     7.4694    91.8696     0.2763     2.2328     0.0398
