~VERSION INFORMATION
 VERS.                2.0:   CWLS LOG ASCII STANDARD - VERSION 2.0
 WRAP.                 NO:   ONE LINE PER DEPTH STEP
~WELL INFORMATION
#MNEM.UNIT      DATA TYPE    INFORMATION
#----------   ------------   ------------------------------
 STRT.F           80.0000:   START DEPTH
 STOP.F          814.0000:   STOP DEPTH
 STEP.F            0.5000:   STEP LENGTH
 NULL.          -999.2500:   NO VALUE
 COMP.          U.S. NAVY:   COMPANY
 WELL. RES 3 TEAPOT DOM #17-S-35:   WELL
 FLD .             TEAPOT:   FIELD
 LOC .      S35 T39N R78W:   LOCATION
 CNTY.            NATRONA:   COUNTY
 STAT.            WYOMING:   STATE
 CTRY. UNITED STATES OF AMERICA:   COUNTRY
 SRVC. Schlumberger Well Surveying Corp:   SERVICE COMPANY
 DATE.        20-JUL-1952:   LOGDATE
 API .       490250650200:   API NUMBER
~CURVE INFORMATION
#MNEM.UNIT       API CODE    CURVE DESCRIPTION
#----------   ------------   ------------------------------
 DEPT.F                  :   
 SPR .MV     05 010 01 00:   SPONTANEOUS POTENTIAL FROM RES.
 ILD .OHMM   05 120 46 00:   INDUCTION LOG DEEP
 ASN .OHMM   05 041 16 00:   AMPLIFIED SHORT NORMAL 16"
 CILD.MMHO   05 110 46 00:   CONDUCTIVITY INDUCTION LOG DEEP
 GR  .GAPI   30 310 01 00:   GAMMA RAY
~PARAMETER INFORMATION
#MNEM.UNIT          VALUE    DESCRIPTION
#----------   ------------   ------------------------------
 PD  .                 KB:   PERMANENT DATUM
 LMF .                 KB:   LOG MEASURED FROM
 DMF .                 KB:   DRILLING MEASURED FROM
 EKB .F              5101:   KELLING BUSHING
 EGL .F              5096:   GROUND LEVEL
 DATE.        20-JUL-1962:   RUN DATE
 RUN .                  1:   RUN NUMBER
 DD  .F               815:   DEPTH DRILLER
 DL  .F               815:   DEPTH LOGGER
 BLI .F               814:   BOTTOM LOG INTERVAL
 TLI .F                80:   TOP LOG INTERVAL
 BS  .IN             6.75:   BIT SIZE
 BSD .F               815:   BIT SIZE AT DEPTH
 DFT .       OIL EMULSION:   DRILLING FLUID TYPE
 DFD .               10.0:   DRILLING FLUID DENSITY
 DFV .                 45:   DRILLING FLUID VISCOSITY
 DFL .                2.7:   DRILLING FLUID LOSS
 RMS .OHMM           3.64:   RESISTIVITY MUD SAMPLE
 MST .F                89:   MUD SAMPLE TEMPERATURE
 RMF .OHMM           3.01:   RESISTIVITY MUD FILTRATE SAMPLE
 MFST.F                89:   MUD FILTRATE SAMPLE TEMPERATURE
 RMC .OHMM           3.41:   RESISTIVITY MUD CAKE
 MCST.F                89:   MUD CAKE SAMPLE TEMPERATURE
 RMB .OHMM           3.41:   RESISTIVITY MUD AT BHT
 BHT .F                89:   BOTTOM HOLE TEMPERATURE
 TCS .HRS              .5:   TIME CURCULATED STOPPED
 LUN .               2503:   LOGGING UNIT NUMBER
 LUL .               CSPR:   LOGGING UNIT LOCATION
 ENGI.             DANNER:   RECORDING ENGINEER
 WITN.          JORGENSEN:   WITNESSED BY
 CLNT.            A2DTECH:   CLIENT CODE
 ORIG.           5" PRINT:   ORIGIN OF DATA
 UWI .       490250650200:   UNIQUE WELL ID
 DICO. A2D Technologies, Inc.:   DIGITIZING COMPANY
~OTHER INFORMATION
~A   DEPT      SPR          ILD        ASN      CILD        GR   
# ...
  324.0000   -50.0534     7.7610     7.7394   128.6612  -999.2500
  324.5000   -50.0659     7.9066     7.8800   131.8397  -999.2500
  325.0000   -50.0785     7.9927     7.9743   132.6479  -999.2500
  325.5000   -50.0935     8.1316     8.0492   127.9771  -999.2500
  326.0000   -49.9458     8.2820     8.0642   124.0835  -999.2500
  326.5000   -49.8043     8.2766     8.0788   121.7520  -999.2500
  327.0000   -49.6566     8.3511     8.1250   118.6511  -999.2500
  327.5000   -49.5120     8.3443     8.2027   117.1114  -999.2500
  328.0000   -49.3673     8.3388     8.2647   117.9282  -999.2500
  328.5000   -49.2227     8.2548     8.2323   119.5291  -999.2500
  329.0000   -49.2382     8.0921     8.0741   121.9152  -999.2500
  329.5000   -49.2506     7.8508     7.9317   123.5165  -999.2500
  330.0000   -49.2630     7.6881     7.7892   125.2226  -999.2500
  330.5000   -49.5893     7.5255     7.6783   126.8600  -999.2500
  331.0000   -49.6017     7.4414     7.5515   129.8961  -999.2500
  331.5000   -49.6141     7.3573     7.4405   133.0669  -999.2500
  332.0000   -49.3125     7.2733     7.4082   135.4527  -999.2500
  332.5000   -49.1679     7.2678     7.3915   137.0536  -999.2500
  333.0000   -49.1920     7.2624     7.3906   137.8696  -999.2500
  333.5000   -49.8414     7.3357     7.3897   138.6855  -999.2500
  334.0000   -50.4909     7.4088     7.3887   138.7166  -999.2500
  334.5000   -51.1044     7.5605     7.3876   138.7476  -999.2500
  335.0000   -51.2738     7.6337     7.4024   137.2088  -999.2500
  335.5000   -51.2861     7.7855     7.4331   136.4471  -999.2500
  336.0000   -51.1384     7.8587     7.5106   134.9083  -999.2500
  336.5000   -50.8368     7.9318     7.5882   133.3695  -999.2500
  337.0000   -50.5353     7.9250     7.6974   131.8384  -999.2500
  337.5000   -50.0798     7.9196     7.8065   131.0832  -999.2500
  338.0000   -49.7751     7.8355     7.8215   130.3297  -999.2500
  338.5000   -49.4735     7.7515     7.6631   130.3616  -999.2500
  339.0000   -49.4890     7.7460     7.5050   130.3927  -999.2500
  339.5000   -49.5014     7.7406     7.4254   130.4239  -999.2500
  340.0000   -49.6707     7.8151     7.4245   130.4552  -999.2500
  340.5000   -49.6831     7.9655     7.5022   130.4867  -999.2500
  341.0000   -49.6955     8.1187     7.7057   129.7319  -999.2500
  341.5000   -49.7080     8.2705     7.8951   128.1931  -999.2500
  342.0000   -49.7206     8.3436     8.0354   126.6620  -999.2500
  342.5000   -49.5757     8.4168     8.0959   124.3382  -999.2500
  343.0000   -49.5912     8.3314     8.0791   123.5843  -999.2500
  343.5000   -49.6035     8.1687     8.0152   123.6154  -999.2500
  344.0000   -49.6159     8.0060     7.7156   125.2163  -999.2500
  344.5000   -49.6283     7.7647     7.4631   129.1720  -999.2500
  345.0000   -49.6407     7.5234     7.3049   137.0523  -999.2500
  345.5000   -49.6531     7.3608     7.1939   143.3627  -999.2500
  346.0000   -49.6655     7.1981     7.0986   144.9637  -999.2500
  346.5000   -49.6778     7.1140     7.0034   146.5645  -999.2500
  347.0000   -49.8472     7.1085     6.9867   148.1654  -999.2500
  347.5000   -50.0166     7.1029     7.0015   148.9814  -999.2500
  348.0000   -49.8720     7.2549     7.0006   150.5823  -999.2500
  348.5000   -49.5699     7.3281     6.9996   152.1832  -999.2500
  349.0000   -49.2684     7.3213     7.0144   152.9992  -999.2500
  349.5000   -48.9672     7.3159     7.0135   154.6001  -999.2500
  350.0000   -48.9796     7.2015     6.9654   156.2009  -999.2500
  350.5000   -49.0634     6.7555     6.8865   154.3564  -999.2500
  351.0000   -49.1460     6.4364     6.7904   156.2951  -999.2500
  351.5000   -48.9936     6.3531     6.7109   157.1272  -999.2500
  352.0000   -48.9984     6.3484     6.6627   157.9592  -999.2500
  352.5000   -49.1601     6.4223     6.6775   158.0053  -999.2500
  353.0000   -49.1658     6.4974     6.7709   156.4046  -999.2500
  353.5000   -49.1704     6.6500     6.9587   153.2995  -999.2500
  354.0000   -49.1751     6.8800     7.0992   150.1936  -999.2500
  354.5000   -49.1798     7.1567     7.2398   146.1849  -999.2500
  355.0000   -49.3414     7.4685     7.3961   141.6271  -999.2500
  355.5000   -49.5031     7.5746     7.5052   137.7369  -999.2500
  356.0000   -49.6648     7.6486     7.5202   132.4427  -999.2500
  356.5000   -50.1404     7.8011     7.5348   128.5532  -999.2500
  357.0000   -50.6160     7.8750     7.5967   128.6118  -999.2500
  357.5000   -50.9347     7.9490     7.7373   128.6587  -999.2500
  358.0000   -50.9393     7.9431     7.8152   128.7056  -999.2500
  358.5000   -50.7858     7.8598     7.7983   128.7525  -999.2500
  359.0000   -50.3207     7.7765     7.7502   128.7994  -999.2500
  359.5000   -49.6974     7.6146     7.6707   129.6312  -999.2500
  360.0000   -48.9172     7.4527     7.5911   131.2480  -999.2500
  360.5000   -48.7637     7.2908     7.4958   134.4346  -999.2500
  361.0000   -49.2405     7.0502     7.3848   138.4062  -999.2500
  361.5000   -49.5591     6.9669     7.2895   142.3777  -999.2500
  362.0000   -50.0348     6.8836     7.1314   147.9191  -999.2500
  362.5000   -49.5685     6.8789     7.1461   150.3208  -999.2500
  363.0000   -48.9452     6.8742     7.1926   149.5711  -999.2500
  363.5000   -48.6359     7.0309     7.1914   146.4900  -999.2500
  364.0000   -48.6406     7.1855     7.1748   141.8273  -999.2500
  364.5000   -48.8022     7.4187     7.2053   137.1646  -999.2500
  365.0000   -48.9639     7.6520     7.3301   132.5019  -999.2500
  365.5000   -49.1255     7.9514     7.4550   129.3974  -999.2500
  366.0000   -49.2873     8.1040     7.6742   125.5314  -999.2500
  366.5000   -49.2920     8.2554     7.9091   123.2118  -999.2500
  367.0000   -49.2967     8.4079     8.1911   120.1307  -999.2500
  367.5000   -49.3014     8.4830     8.3474   117.0378  -999.2500
  368.0000   -49.1489     8.5558     8.4566   118.6546  -999.2500
  368.5000   -49.1547     8.5511     8.5028   120.2714  -999.2500
  369.0000   -49.0013     8.5464     8.4232   122.6731  -999.2500
  369.5000   -48.8489     8.4631     8.2493   125.8597  -999.2500
  370.0000   -49.0118     8.2226     8.0283   128.2614  -999.2500
  370.5000   -49.4874     8.0606     7.8701   132.2329  -999.2500
  371.0000   -49.6491     7.8201     7.7119   135.4195  -999.2500
  371.5000   -49.6537     7.5796     7.5695   139.3911  -999.2500
  372.0000   -49.6584     7.3390     7.4427   142.5777  -999.2500
  372.5000   -49.5049     7.1771     7.3003   145.7643  -999.2500
  373.0000   -49.3526     7.0938     7.1893   150.5208  -999.2500
  373.5000   -49.0445     7.1689     7.1569   152.1375  -999.2500
  374.0000   -49.0491     7.2429     7.2189   152.1844  -999.2500
  374.5000   -49.0538     7.3954     7.3752   145.9519  -999.2500
  375.0000   -49.0585     7.6254     7.5629   140.5043  -999.2500
  375.5000   -49.2190     8.0138     7.9566   134.2718  -999.2500
  376.0000   -49.0666     8.3247     8.5376   128.8242  -999.2500
  376.5000   -49.2295     8.5547     8.5978   128.8711  -999.2500
  377.0000   -49.2341     8.5500     8.2136   128.9180  -999.2500
  377.5000   -49.3958     8.4667     8.2406   128.1799  -999.2500
  378.0000   -49.5575     8.3834     8.5164   123.5173  -999.2500
  378.5000   -49.5621     8.3001     8.2723   121.2088  -999.2500
  379.0000   -49.0958     8.2168     8.0237   120.4444  -999.2500
  379.5000   -48.7865     8.1335     7.9475   123.6580  -999.2500
  380.0000   -48.6342     8.1237     7.9822   129.1994  -999.2500
  380.5000   -48.6443     8.2814     8.1075   133.1711  -999.2500
  381.0000   -48.9576     8.4339     8.2120   130.8630  -999.2500
  381.5000   -49.1193     8.5865     8.2110   127.7702  -999.2500
  382.0000   -49.2810     8.6604     8.2101   125.4108  -999.2500
  382.5000   -49.2857     8.7344     8.2249   122.3049  -999.2500
  383.0000   -49.2914     8.5723     8.2397   121.6315  -999.2500
  383.5000   -49.2960     8.4009     8.2228   124.0346  -999.2500
  384.0000   -49.3007     8.2369     8.1275   125.6515  -999.2500
  384.5000   -49.3054     8.0865     7.9850   127.3864  -999.2500
