~VERSION INFORMATION
 VERS.                2.0:   CWLS LOG ASCII STANDARD - VERSION 2.0
 WRAP.                 NO:   ONE LINE PER DEPTH STEP
~WELL INFORMATION
#MNEM.UNIT      DATA TYPE    INFORMATION
#----------   ------------   ------------------------------
 STRT.F           88.0000:   START DEPTH
 STOP.F          893.0000:   STOP DEPTH
 STEP.F            0.5000:   STEP LENGTH
 NULL.          -999.2500:   NO VALUE
 COMP.          U.S. NAVY:   COMPANY
 WELL. RES 3 TEAPOT DOM #24S-35:   WELL
 FLD .        TEAPOT DOME:   FIELD
 LOC .      S35 T39N R78W:   LOCATION
 CNTY.            NATRONA:   COUNTY
 STAT.            WYOMING:   STATE
 CTRY. UNITED STATES OF AMERICA:   COUNTRY
 SRVC.       Schlumberger:   SERVICE COMPANY
 DATE.        26-JUL-1963:   LOGDATE
 API .       490250654800:   API NUMBER
~CURVE INFORMATION
#MNEM.UNIT       API CODE    CURVE DESCRIPTION
#----------   ------------   ------------------------------
 DEPT.F                  :   
 CALS.IN     60 280 50 00:   CALIPER FROM SONIC LOG
 DT  .US/F   60 520 00 00:   INTERVAL TRANSIT TIME
 GR  .GAPI   30 310 01 00:   GAMMA RAY
 ASN .OHMM   05 041 16 00:   AMPLIFIED SHORT NORMAL 16"
 CILD.MMHO   05 110 46 00:   CONDUCTIVITY INDUCTION LOG DEEP
 ILD .OHMM   05 120 46 00:   INDUCTION LOG DEEP
 SPR .MV     05 010 01 00:   SPONTANEOUS POTENTIAL FROM RES.
~PARAMETER INFORMATION
#MNEM.UNIT          VALUE    DESCRIPTION
#----------   ------------   ------------------------------
 PD  .                 GL:   PERMANENT DATUM
 EPD .F              5116:   ELEVATION PERMANENT DATUM
 LMF .                 KB:   LOG MEASURED FROM
 DAPD.F                 5:   FEET ABOVE PERMANENT DATUM
 DMF .                 KB:   DRILLING MEASURED FROM
 EKB .F              5121:   KELLING BUSHING
 EGL .F              5116:   GROUND LEVEL
 DATE.        26-JUL-1963:   RUN DATE
 RUN .                  1:   RUN NUMBER
 DD  .F               900:   DEPTH DRILLER
 DL  .F               894:   DEPTH LOGGER
 BLI .F               893:   BOTTOM LOG INTERVAL
 TLI .F                88:   TOP LOG INTERVAL
 CBD .F                10:   CASING BOTTOM DRILLER
 BS  .IN             6.75:   BIT SIZE
 BSD .F               900:   BIT SIZE AT DEPTH
 DFT .            GEL-OIL:   DRILLING FLUID TYPE
 DFD .                9.5:   DRILLING FLUID DENSITY
 DFV .                 92:   DRILLING FLUID VISCOSITY
 DFPH.                9.5:   DRILLING FLUID PH
 DFL .                5.8:   DRILLING FLUID LOSS
 MSS .           FLOWLINE:   MUD SAMPLE SOURCE
 RMS .OHMM           4.05:   RESISTIVITY MUD SAMPLE
 MST .F                75:   MUD SAMPLE TEMPERATURE
 RMF .OHMM           3.91:   RESISTIVITY MUD FILTRATE SAMPLE
 MFST.F                75:   MUD FILTRATE SAMPLE TEMPERATURE
 RMC .OHMM           3.54:   RESISTIVITY MUD CAKE
 MCST.F                75:   MUD CAKE SAMPLE TEMPERATURE
 MFSS.               MEAS:   MUD FILTRATE SAMPLE SOURCE
 MCSS.               MEAS:   MUD CAKE SAMPLE SOURCE
 TCS .HRS             0.5:   TIME CURCULATED STOPPED
 LUN .               4507:   LOGGING UNIT NUMBER
 LUL .               CSPR:   LOGGING UNIT LOCATION
 ENGI.             KNOBEL:   RECORDING ENGINEER
 WITN.          JORGENSON:   WITNESSED BY
 CLNT.            A2DTECH:   CLIENT CODE
 ORIG.           5" PRINT:   ORIGIN OF DATA
 UWI .       490250654800:   UNIQUE WELL ID
 DICO. A2D Technologies, Inc.:   DIGITIZING COMPANY
~OTHER INFORMATION
~A   DEPT     CALS         DT         GR          ASN      CILD         ILD      SPR   
# ...
  224.5000  -999.2500  -999.2500  -999.2500     8.3435   143.3866     7.4428   -24.3494
  225.0000  -999.2500  -999.2500  -999.2500     8.3737   140.3660     7.5900   -24.3594
  225.5000  -999.2500  -999.2500  -999.2500     8.3887   137.3453     7.6216   -24.3695
  226.0000  -999.2500  -999.2500  -999.2500     8.4641   135.0632     7.6652   -24.3818
  226.5000  -999.2500  -999.2500  -999.2500     8.5699   132.0627     7.7307   -24.3918
  227.0000  -999.2500  -999.2500  -999.2500     8.7210   130.5630     7.8774   -24.4018
  227.5000  -999.2500  -999.2500  -999.2500     8.8419   129.8186     7.8738   -24.5651
  228.0000  -999.2500  -999.2500  -999.2500     8.9930   129.0741     7.9449   -24.8767
  228.5000  -999.2500  -999.2500  -999.2500     8.9475   128.3331     7.9413   -24.8866
  229.0000  -999.2500  -999.2500  -999.2500     8.8112   128.3460     7.9378   -24.4441
  229.5000  -999.2500  -999.2500  -999.2500     8.7203   128.3612     7.9342   -24.3032
  230.0000  -999.2500  -999.2500  -999.2500     8.8260   128.4775     7.9298   -24.1624
  230.5000  -999.2500  -999.2500  -999.2500     8.9166   129.1524     7.8507   -24.3257
  231.0000  -999.2500  -999.2500  -999.2500     8.9316   129.1666     7.7716   -24.3357
  231.5000  -999.2500  -999.2500  -999.2500     8.8841   130.6983     7.6926   -24.3456
  232.0000  -999.2500  -999.2500  -999.2500     8.7044   133.7510     6.6307   -24.3560
  232.5000  -999.2500  -999.2500  -999.2500     8.5983   136.8001     6.5516   -24.3681
  233.0000  -999.2500  -999.2500  -999.2500     8.5679   139.8493     6.6245   -24.3780
  233.5000  -999.2500  -999.2500  -999.2500     8.5224   141.3810     6.6956   -24.2368
  234.0000  -999.2500  -999.2500  -999.2500     8.4163   144.4337     6.7676   -24.2474
  234.5000  -999.2500  -999.2500  -999.2500     8.3254   147.4828     6.8396   -24.1063
  235.0000  -999.2500  -999.2500  -999.2500     8.2194   149.7732     6.9862   -23.9654
  235.5000  -999.2500  -999.2500  -999.2500     8.0830   152.0865     7.1337   -23.8245
  236.0000  -999.2500  -999.2500  -999.2500     8.0224   155.8750     7.2057   -23.8371
  236.5000  -999.2500  -999.2500  -999.2500     7.9315   157.4067     7.2012   -23.6961
  237.0000  -999.2500  -999.2500  -999.2500     7.8405   156.6587     7.1221   -23.4045
  237.5000  -999.2500  -999.2500  -999.2500     7.7950   155.1590     6.9675   -23.2636
  238.0000  -999.2500  -999.2500  -999.2500     7.8705   153.6594     6.8876   -23.1252
  238.5000  -999.2500  -999.2500  -999.2500     7.9914   153.6736     6.7329   -22.8335
  239.0000  -999.2500  -999.2500  -999.2500     8.0517   153.6879     6.5783   -22.8460
  239.5000  -999.2500  -999.2500  -999.2500     7.6734   153.7026     6.4237   -22.7051
  240.0000  -999.2500  -999.2500  -999.2500     6.8109   156.7548     6.2682   -22.7151
  240.5000  -999.2500  -999.2500  -999.2500     7.3251   159.0452     6.1892   -22.8776
  241.0000  -999.2500  -999.2500  -999.2500     8.1419   161.3356     6.1101   -23.1892
  241.5000  -999.2500  -999.2500  -999.2500     8.2174   165.1470     5.9554   -23.5008
  242.0000  -999.2500  -999.2500  -999.2500     7.6877   168.9549     5.8755   -23.5133
  242.5000  -999.2500  -999.2500  -999.2500     7.4153   172.0040     5.7964   -23.5232
  243.0000  -999.2500  -999.2500  -999.2500     7.1125   175.8119     5.7929   -23.3824
  243.5000  -999.2500  -999.2500  -999.2500     6.9006   178.1059     5.7893   -23.3923
  244.0000  -999.2500  -999.2500  -999.2500     6.8248   178.8788     5.7849   -23.2515
  244.5000  -999.2500  -999.2500  -999.2500     6.8559   178.8931     5.7813   -23.1131
  245.0000  -999.2500  -999.2500  -999.2500     6.9909   178.1486     5.8533   -22.9698
  245.5000  -999.2500  -999.2500  -999.2500     7.1269   175.8902     5.9253   -22.9822
  246.0000  -999.2500  -999.2500  -999.2500     7.3688   172.1108     5.9208   -22.9925
  246.5000  -999.2500  -999.2500  -999.2500     7.5694   169.0902     5.9937   -23.1555
  247.0000  -999.2500  -999.2500  -999.2500     7.5349   167.4558     6.0648   -23.3163
  247.5000  -999.2500  -999.2500  -999.2500     7.0053   165.3250     6.1417   -23.1729
  248.0000  -999.2500  -999.2500  -999.2500     7.0354   164.5805     6.2843   -23.0267
  248.5000  -999.2500  -999.2500  -999.2500     7.4437   163.0809     6.3562   -22.7429
  249.0000  -999.2500  -999.2500  -999.2500     7.3830   164.6131     6.5038   -22.6020
  249.5000  -999.2500  -999.2500  -999.2500     7.2770   165.3891     6.4992   -22.4611
  250.0000  -999.2500  -999.2500  -999.2500     7.1558   167.6795     6.4202   -22.7753
  250.5000  -999.2500  -999.2500  -999.2500     7.0649   169.1874     6.3429   -23.0894
  251.0000  -999.2500  -999.2500  -999.2500     7.0193   173.7326     6.1900   -23.4010
  251.5000  -999.2500  -999.2500  -999.2500     6.9436   179.1023     6.0376   -23.4110
  252.0000  -999.2500  -999.2500  -999.2500     6.8204   186.6148     6.0362   -23.4209
  252.5000  -999.2500  -999.2500  -999.2500     6.6104   191.9187     5.9592   -23.4334
  253.0000  -999.2500  -999.2500  -999.2500     6.4136   192.6721     5.8819   -23.5805
  253.5000  -999.2500  -999.2500  -999.2500     6.2622   191.1457     5.8805   -23.1409
  254.0000  -999.2500  -999.2500  -999.2500     6.2154   189.6192     5.7280   -22.8477
  254.5000  -999.2500  -999.2500  -999.2500     6.2000   188.0946     5.7266   -22.5545
  255.0000  -999.2500  -999.2500  -999.2500     6.2148   186.5700     5.7248   -22.5650
  255.5000  -999.2500  -999.2500  -999.2500     6.5170   185.0454     5.7234   -22.7243
  256.0000  -999.2500  -999.2500  -999.2500     6.9404   183.5190     5.7221   -22.8857
  256.5000  -999.2500  -999.2500  -999.2500     7.0158   182.7531     5.7205   -22.8941
  257.0000  -999.2500  -999.2500  -999.2500     6.9247   181.2285     5.7188   -22.7517
  257.5000  -999.2500  -999.2500  -999.2500     6.7125   179.7039     5.7174   -22.6093
  258.0000  -999.2500  -999.2500  -999.2500     6.6971   179.6965     5.7160   -22.3182
  258.5000  -999.2500  -999.2500  -999.2500     6.6817   179.6878     5.7145   -22.3266
  259.0000  -999.2500  -999.2500  -999.2500     6.6814   179.6813     5.7128   -22.3351
  259.5000  -999.2500  -999.2500  -999.2500     6.6659   179.6737     5.8624   -22.4965
  260.0000  -999.2500  -999.2500  -999.2500     6.6505   179.6662     5.8610   -22.6557
  260.5000  -999.2500  -999.2500  -999.2500     6.6199   179.6573     6.0103   -22.8150
  261.0000  -999.2500  -999.2500  -999.2500     6.5894   179.6502     6.0844   -22.9744
  261.5000  -999.2500  -999.2500  -999.2500     6.5891   179.6430     6.1589   -22.9848
  262.0000  -999.2500  -999.2500  -999.2500     6.6795   178.1184     6.1621   -22.9932
  262.5000  -999.2500  -999.2500  -999.2500     6.8608   177.3507     6.1554   -23.0017
  263.0000  -999.2500  -999.2500  -999.2500     6.8149   176.5857     6.0029   -22.8614
  263.5000  -999.2500  -999.2500  -999.2500     6.6937   176.5777     6.0015   -22.7190
  264.0000  -999.2500  -999.2500  -999.2500     6.7994   176.5705     5.9245   -22.7274
  264.5000  -999.2500  -999.2500  -999.2500     6.9504   175.8028     5.9230   -23.0377
  265.0000  -999.2500  -999.2500  -999.2500     7.0408   175.0369     5.8458   -23.0481
  265.5000  -999.2500  -999.2500  -999.2500     7.1010   175.0298     5.8444   -23.2074
  266.0000  -999.2500  -999.2500  -999.2500     7.1159   175.0226     5.7671   -23.0649
  266.5000  -999.2500  -999.2500  -999.2500     6.9945   180.4351     5.6901   -22.7717
  267.0000  -999.2500  -999.2500  -999.2500     6.4877   185.6286     5.6887   -22.3298
  267.5000  -999.2500  -999.2500  -999.2500     6.0408   187.1389     5.6873   -22.0345
  268.0000  -999.2500  -999.2500  -999.2500     6.5246   190.1667     5.6100   -21.7434
  268.5000  -999.2500  -999.2500  -999.2500     6.5547   193.3308     5.6086   -21.6010
  269.0000  -999.2500  -999.2500  -999.2500     6.3399   197.7378     5.6072   -21.6115
  269.5000  -999.2500  -999.2500  -999.2500     6.2363   198.4911     5.3036   -21.7708
