~VERSION INFORMATION
 VERS.                2.0:   CWLS LOG ASCII STANDARD - VERSION 2.0
 WRAP.                 NO:   ONE LINE PER DEPTH STEP
~WELL INFORMATION
#MNEM.UNIT      DATA TYPE    INFORMATION
#----------   ------------   ------------------------------
 STRT.F           20.0000:   START DEPTH
 STOP.F          500.0000:   STOP DEPTH
 STEP.F            0.5000:   STEP LENGTH
 NULL.          -999.2500:   NO VALUE
 COMP.    FENIX & SCISSON:   COMPANY
 WELL. RES 3 TEAPOT DOM #81SX10-10:   WELL
 FLD .             TEAPOT:   FIELD
 LOC .      S10 T38N R78W:   LOCATION
 CNTY.            NATRONA:   COUNTY
 STAT.            WYOMING:   STATE
 CTRY. UNITED STATES OF AMERICA:   COUNTRY
 SRVC.           BIRDWELL:   SERVICE COMPANY
 DATE.        22-NOV-1978:   LOGDATE
 API .       490251075100:   API NUMBER
~CURVE INFORMATION
#MNEM.UNIT       API CODE    CURVE DESCRIPTION
#----------   ------------   ------------------------------
 DEPT.F                  :   
 ILD .OHMM   05 120 46 00:   INDUCTION LOG DEEP
 SN  .OHMM   05 040 16 00:   SHORT NORMAL 16"
 SPR .MV     05 010 01 00:   SPONTANEOUS POTENTIAL FROM RES.
 CALD.IN     45 280 60 00:   CALIPER FROM DENSITY LOG
 CORR.G/C3   45 356 01 00:   DENSITY CORRECTION
 DPHI.DEC    45 890 10 00:   DENSITY POROSITY LIMESTONE
 GRD .GAPI   45 310 01 00:   GAMMA RAY FROM DENSITY LOG
 RHOB.G/C3   45 350 01 00:   BULK DENSITY
~PARAMETER INFORMATION
#MNEM.UNIT          VALUE    DESCRIPTION
#----------   ------------   ------------------------------
 PD  .                 GL:   PERMANENT DATUM
 EPD .F              5129:   ELEVATION PERMANENT DATUM
 LMF .                 KB:   LOG MEASURED FROM
 DAPD.F                 4:   FEET ABOVE PERMANENT DATUM
 DMF .                 KB:   DRILLING MEASURED FROM
 EKB .F              5133:   KELLING BUSHING
 EGL .F              5129:   GROUND LEVEL
 DATE.        22-NOV-1978:   RUN DATE
 RUN .                  1:   RUN NUMBER
 DD  .F               500:   DEPTH DRILLER
 DL  .F               500:   DEPTH LOGGER
 BLI .F               500:   BOTTOM LOG INTERVAL
 TLI .F                20:   TOP LOG INTERVAL
 CS  .IN            8.625:   CASING SIZE
 CBD .F                40:   CASING BOTTOM DRILLER
 CBL .F                40:   CASING BOTTOM LOGGER
 BS  .IN            7.875:   BIT SIZE
 BSD .F               500:   BIT SIZE AT DEPTH
 DFT .                KCL:   DRILLING FLUID TYPE
 DFD .                8.7:   DRILLING FLUID DENSITY
 DFV .                 36:   DRILLING FLUID VISCOSITY
 DFPH.               11.2:   DRILLING FLUID PH
 DFL .                 94:   DRILLING FLUID LOSS
 MSS .            MUD PIT:   MUD SAMPLE SOURCE
 RMS .OHMM           0.28:   RESISTIVITY MUD SAMPLE
 MST .F                62:   MUD SAMPLE TEMPERATURE
 RMF .OHMM           0.24:   RESISTIVITY MUD FILTRATE SAMPLE
 MFST.F                66:   MUD FILTRATE SAMPLE TEMPERATURE
 RMC .OHMM           0.31:   RESISTIVITY MUD CAKE
 MCST.F                66:   MUD CAKE SAMPLE TEMPERATURE
 MFSS.               MEAS:   MUD FILTRATE SAMPLE SOURCE
 MCSS.               MEAS:   MUD CAKE SAMPLE SOURCE
 RMB .OHMM            0.3:   RESISTIVITY MUD AT BHT
 BHT .F                58:   BOTTOM HOLE TEMPERATURE
 TCS .HRS               1:   TIME CURCULATED STOPPED
 MRT .F                58:   MAXIMUM RECORDED TEMPERATURE
 LUN .               3029:   LOGGING UNIT NUMBER
 LUL .               CASP:   LOGGING UNIT LOCATION
 ENGI.           REYNOLDS:   RECORDING ENGINEER
 WITN.              AMEND:   WITNESSED BY
 CLNT.            A2DTECH:   CLIENT CODE
 ORIG.           5" PRINT:   ORIGIN OF DATA
 UWI .       490251075100:   UNIQUE WELL ID
 DICO. A2D Technologies, Inc.:   DIGITIZING COMPANY
~OTHER INFORMATION
~A   DEPT      ILD         SN        SPR       CALD       CORR       DPHI         GRD      RHOB   
# ...
  303.5000     7.5556     9.2226   -45.8936     7.5469     0.0121     0.1535   136.8516     2.4495
  304.0000     7.7119     9.3211   -45.2534     7.5467     0.0076     0.1745   138.6507     2.4142
  304.5000     7.7631     9.4507   -44.5688     7.5550     0.0286     0.1808   137.4513     2.3924
  305.0000     7.8162     9.3846   -44.2729     7.5622     0.0496     0.1595   125.2771     2.3893
  305.5000     7.9284     9.3190   -44.2774     7.5762     0.0432     0.1358   107.4663     2.4102
  306.0000     8.1405     9.2540   -44.2819     7.5760     0.0271     0.1181   108.5157     2.4501
  306.5000     8.4249     9.1894   -44.2864     7.5700     0.0391     0.0995   112.1139     2.5064
  307.0000     8.9646     9.1888   -44.2809     7.5458     0.0451     0.0926   112.7136     2.5289
  307.5000     9.5488     9.2521   -44.1454     7.5457     0.0451     0.0947   107.1664     2.5273
  308.0000     9.9401     9.4508   -43.7001     7.5455     0.0422     0.1010   105.5172     2.5160
  308.5000     9.9368     9.7226   -43.2449     7.5442     0.0422     0.1001   106.7587     2.5168
  309.0000     9.9338     9.9834   -42.3606     7.5302     0.0437     0.0986   111.0645     2.5228
  309.5000     9.9994    10.1927   -41.6153     7.5151     0.0407     0.0977   113.9130     2.5250
  310.0000    10.2869    10.4787   -40.8695     7.5000     0.0317     0.0995   110.6147     2.5189
  310.5000    10.7841    10.7505   -40.1244     7.4849     0.0273     0.1097   109.7151     2.5099
  311.0000    11.3956    11.3077   -39.5242     7.4698     0.0303     0.1148   110.6147     2.5008
  311.5000    12.0418    11.8694   -39.0847     7.4696     0.0378     0.1166   104.6151     2.4941
  312.0000    12.5493    12.4591   -38.9391     7.4695     0.0499     0.1205    70.1349     2.4738
  312.5000    13.6328    13.1690   -38.6932     7.4693     0.0573     0.1301    57.3913     2.4512
  313.0000    14.7087    13.9304   -38.1980     7.4691     0.0588     0.1502    55.5922     2.4203
  313.5000    15.6509    15.1262   -37.3395     7.4887     0.0558     0.1748    53.3912     2.3595
  314.0000    16.7694    15.9881   -36.5585     7.5138     0.0513     0.2000    49.4453     2.3535
  314.5000    17.5978    16.8992   -35.8725     7.5286     0.0498     0.1925    53.6432     2.3587
  315.0000    18.2127    17.5378   -35.2340     7.5284     0.0514     0.1919    57.5412     2.3632
  315.5000    18.5880    17.9973   -34.3225     7.5120     0.0618     0.1919    61.8891     2.3669
  316.0000    18.9725    18.4896   -33.6139     7.4832     0.0678     0.2015    64.2879     2.3496
  316.5000    19.3650    18.7467   -32.8329     7.4681     0.0634     0.2144    63.5382     2.3301
  317.0000    19.8126    18.8762   -32.8366     7.4680     0.0544     0.2159    60.4279     2.3308
  317.5000    20.0351    19.1942   -32.9035     7.4678     0.0514     0.2192    56.3418     2.3173
  318.0000    20.2340    19.4151   -32.9956     7.4677     0.0559     0.2258    54.9925     2.3015
  318.5000    20.3005    19.9485   -32.5452     7.4675     0.0638     0.2342    54.6927     2.2902
  319.0000    20.5755    20.5083   -32.0650     7.4823     0.0679     0.2422    57.5412     2.2789
  319.5000    20.7172    20.7934   -31.2105     7.5000     0.0635     0.2606    60.8396     2.2721
  320.0000    20.8498    21.1249   -30.4648     7.5120     0.0635     0.2643    66.5367     2.2698
  320.5000    20.8417    21.3755   -29.7198     7.5268     0.0650     0.2242    70.1460     2.2815
  321.0000    20.8354    21.5225   -29.4193     7.5266     0.0680     0.1885    66.6867     2.3531
  321.5000    20.8279    21.5210   -29.2789     7.5265     0.0664     0.1441    59.9400     2.4011
  322.0000    20.8209    21.5196   -29.1340     7.5263     0.0426     0.1321    55.7421     2.4236
  322.5000    20.8125    21.5182   -29.2879     7.5411     0.0261     0.1306    53.9430     2.4363
  323.0000    20.8792    21.5168   -29.2925     7.5410     0.0216     0.1300    55.4423     2.4258
  323.5000    20.9453    21.6650   -29.4468     7.5409     0.0232     0.1465    56.4918     2.3770
  324.0000    20.9366    21.8141   -29.8211     7.5407     0.0262     0.2281    58.6307     2.3192
  324.5000    21.2215    21.9648   -29.9055     7.5406     0.0262     0.2386    62.7886     2.2868
  325.0000    21.2133    22.2698   -29.9529     7.5479     0.0245     0.2212    67.5862     2.3063
  325.5000    21.3547    22.2683   -30.0645     7.5552     0.0202     0.2113    70.8846     2.3228
  326.0000    21.3469    22.2664   -30.0732     7.5701     0.0158     0.2017    69.6852     2.3430
  326.5000    21.6379    22.2652   -30.2242     7.5849     0.0113     0.1975    67.1364     2.3535
  327.0000    22.0837    22.1098   -30.1771     7.5847     0.0083     0.1978    62.3388     2.3527
  327.5000    22.3848    22.1082   -30.0821     7.5846     0.0023     0.2113    56.3118     2.3302
  328.0000    22.6900    21.9539   -29.9372     7.5844    -0.0007     0.2394    52.7436     2.2842
  328.5000    23.1613    22.1052   -29.4917     7.5843    -0.0021     0.2704    51.8441     2.2438
  329.0000    23.3129    22.4122   -29.4970     7.5794    -0.0021     0.2713    53.3433     2.2385
  329.5000    23.6462    22.8818   -29.5007     7.5690    -0.0002     0.2665    57.2414     2.2385
  330.0000    23.7873    23.1999   -29.3546     7.5539     0.0024     0.2617    63.2384     2.2444
  330.5000    23.7775    23.5224   -29.2100     7.5537     0.0039     0.2551    68.3358     2.2542
  331.0000    23.7697    24.0154   -28.9145     7.5593     0.0070     0.2473    71.6440     2.2654
  331.5000    23.7618    23.5189   -28.7688     7.5684     0.0084     0.2394    73.9520     2.2760
  332.0000    23.4249    23.1934   -29.6737     7.5683     0.0055     0.2290    75.8321     2.2901
  332.5000    23.0946    22.8725   -29.9775     7.5723     0.0025     0.2239    74.3328     2.3013
  333.0000    22.7689    22.7149   -29.9822     7.5829     0.0008     0.2203    71.4843     2.3163
  333.5000    22.5383    22.3981   -29.9065     7.5828    -0.0020     0.2191    70.7346     2.3223
  334.0000    22.2770    22.0881   -29.6912     7.5976    -0.0035     0.2206    71.3783     2.3110
  334.5000    21.9693    21.7396   -29.9961     7.5975    -0.0035     0.2317    67.4363     2.3020
  335.0000    21.8103    21.2760   -30.6001     7.6035     0.0011     0.2404    63.6882     2.2929
  335.5000    21.5028    20.8918   -31.0541     7.6271     0.0056     0.2431    67.7361     2.2862
  336.0000    21.2824    20.4376   -31.2084     7.6301     0.0101     0.2359    71.1844     2.2974
  336.5000    20.8884    19.9127   -31.2137     7.6418     0.0131     0.2134    74.4828     2.3274
  337.0000    20.4217    19.4701   -31.0675     7.6416     0.0116     0.1972    79.1304     2.3529
  337.5000    19.8954    19.2180   -31.2219     7.6415     0.0120     0.1869    81.2294     2.3701
  338.0000    19.4793    18.8210   -31.3765     7.6413     0.0131     0.1848    80.3298     2.3768
  338.5000    19.2774    18.6159   -31.9905     7.6561     0.0131     0.1833    76.8957     2.3768
  339.0000    18.9917    18.3036   -33.0353     7.6643     0.0131     0.1824    73.1334     2.3737
  339.5000    18.9271    18.1757   -33.9391     7.6708     0.0102     0.1884    73.4333     2.3685
  340.0000    18.9198    17.9241   -34.5431     7.6856     0.0087     0.1908    75.6822     2.3640
  340.5000    18.7080    17.9229   -34.9970     7.6855     0.0064     0.1932    77.9310     2.3579
  341.0000    18.5181    17.9217   -35.1514     7.7003     0.0027     0.2007    79.2804     2.3504
  341.5000    18.5117    17.9205   -35.1567     7.7002     0.0022     0.2013    79.4443     2.3436
  342.0000    18.5053    17.9191   -35.0100     7.6850    -0.0017     0.2010    77.6032     2.3391
  342.5000    18.4982    17.9180   -34.6152     7.6699    -0.0032     0.2064    76.8816     2.3368
  343.0000    18.4924    18.0414   -34.3765     7.6634    -0.0032     0.2104    80.0300     2.3345
  343.5000    18.3582    18.2473   -34.2743     7.6546    -0.0032     0.2109    81.0795     2.3345
