~VERSION INFORMATION
 VERS.                2.0:   CWLS LOG ASCII STANDARD - VERSION 2.0
 WRAP.                 NO:   ONE LINE PER DEPTH STEP
~WELL INFORMATION
#MNEM.UNIT      DATA TYPE    INFORMATION
#----------   ------------   ------------------------------
 STRT.F           20.0000:   START DEPTH
 STOP.F          678.0000:   STOP DEPTH
 STEP.F            0.5000:   STEP LENGTH
 NULL.          -999.2500:   NO VALUE
 COMP. FENIX & SCISSON INC:   COMPANY
 WELL. 27-42 SX 11 WO #27-11:   WELL
 FLD .        TEAPOT DOME:   FIELD
 LOC .      S11 T38N R78W:   LOCATION
 CNTY.            NATRONA:   COUNTY
 STAT.            WYOMING:   STATE
 CTRY. UNITED STATES OF AMERICA:   COUNTRY
 SRVC.      Dresser Atlas:   SERVICE COMPANY
 DATE.        13-AUG-1985:   LOGDATE
 API .       490251083800:   API NUMBER
~CURVE INFORMATION
#MNEM.UNIT       API CODE    CURVE DESCRIPTION
#----------   ------------   ------------------------------
 DEPT.F                  :   
 RHOB.G/C3   45 350 01 00:   BULK DENSITY
 CORR.G/C3   45 356 01 00:   DENSITY CORRECTION
 CALD.IN     45 280 60 00:   CALIPER
 GRD .GAPI   45 310 01 00:   GAMMA RAY FROM DENSITY LOG
 DPOR.DEC    45 890 12 00:   DENSITY POROSITY SANDSTONE
 NPOR.DEC    42 890 03 00:   NEUTRON POROSITY SANDSTONE
 SPR .MV     07 010 01 00:   SPONTANEOUS POTENTIAL
 SFL .OHMM   07 220 01 00:   SHALLOW FOCUSED LOG RESISTIVITY
 ILD .OHMM   07 120 46 00:   INDUCTION LOG DEEP
 ILM .OHMM   07 120 44 00:   INDUCTION LOG MEDIUM
~PARAMETER INFORMATION
#MNEM.UNIT          VALUE    DESCRIPTION
#----------   ------------   ------------------------------
 PD  .                 GL:   PERMANENT DATUM
 EPD .F              5188:   ELEVATION PERMANENT DATUM
 LMF .                 KB:   LOG MEASURED FROM
 DAPD.F                 5:   FEET ABOVE PERMANENT DATUM
 DMF .                 KB:   DRILLING MEASURED FROM
 EKB .F              5193:   KELLING BUSHING
 EGL .F              5188:   GROUND LEVEL
 DATE.          8-13-1985:   RUN DATE
 RUN .                  8:   RUN NUMBER
 DD  .F               632:   DEPTH DRILLER
 BLI .F               598:   BOTTOM LOG INTERVAL
 TLI .F               303:   TOP LOG INTERVAL
 CBL .F               303:   CASING BOTTOM LOGGER
 BS  .IN              .75:   BIT SIZE
 BSD .F               632:   BIT SIZE AT DEPTH
 DFT .          KCL WATER:   DRILLING FLUID TYPE
 LUN .            HL-6274:   LOGGING UNIT NUMBER
 LUL .           GILLETTE:   LOGGING UNIT LOCATION
 ENGI.             RAUTIO:   RECORDING ENGINEER
 WITN.            SCHULTE:   WITNESSED BY
 CLNT.            A2DTECH:   CLIENT CODE
 ORIG.           2" PRINT:   ORIGIN OF DATA
 UWI .       490251083800:   UNIQUE WELL ID
 DICO. A2D Technologies, Inc.:   DIGITIZING COMPANY
~OTHER INFORMATION
~A   DEPT     RHOB       CORR       CALD        GRD       DPOR       NPOR        SPR        SFL        ILD          ILM 
# ...
  489.0000     2.3748     0.0364     8.7359    89.8110     0.1822     0.2597    -2.3126    14.1513    12.9178    12.6737
  489.5000     2.3671     0.0372     8.7340    92.0000     0.1861     0.2589    -2.4246    13.9846    12.9656    12.7402
  490.0000     2.3487     0.0307     8.7321    94.2321     0.1936     0.2606    -2.5591    13.9846    12.9968    12.7588
  490.5000     2.3414     0.0244     8.7299    94.2709     0.1982     0.2621    -2.4465    14.2415    12.9927    12.7588
  491.0000     2.3551     0.0289     8.7307    94.3538     0.1939     0.2621    -2.1501    14.5073    12.9931    12.6164
  491.5000     2.3743     0.0349     8.7354    94.9319     0.1857     0.2629    -1.8675    14.3461    12.8719    12.4975
  492.0000     2.3790     0.0411     8.7399    95.9130     0.1805     0.2664    -1.5689    14.1902    12.7848    12.3797
  492.5000     2.3841     0.0475     8.7443    94.4215     0.1770     0.2701    -1.3762    14.0361    12.7587    12.2631
  493.0000     2.3885     0.0476     8.7488    94.7467     0.1738     0.2701    -1.3965    13.8836    12.7589    12.1475
  493.5000     2.3916     0.0478     8.7534    96.0269     0.1718     0.2701    -1.3942    13.4808    12.7301    12.0755
  494.0000     2.3871     0.0445     8.7577    95.0266     0.1727     0.2664    -1.3915    13.5477    12.6526    12.0592
  494.5000     2.3828     0.0407     8.7622    96.7426     0.1767     0.2627    -1.3912    13.8722    12.5754    11.9884
  495.0000     2.3846     0.0428     8.7671    98.3257     0.1750     0.2590    -1.3955    14.2436    12.4986    11.9180
  495.5000     2.3953     0.0485     8.7652    99.1507     0.1688     0.2557    -1.4048    13.9812    12.4225    11.8480
  496.0000     2.4070     0.0536     8.7561    97.6040     0.1623     0.2616    -1.5891    13.6902    12.3469    11.7784
  496.5000     2.4011     0.0552     8.7472    98.7956     0.1669     0.2661    -1.7521    13.4052    12.2717    11.7092
  497.0000     2.3876     0.0431     8.7396    98.1870     0.1782     0.2652    -1.9268    13.2357    12.1968    11.6404
  497.5000     2.3876     0.0412     8.7303    96.4980     0.1738     0.2640    -2.1072    13.2357    12.1223    11.5720
  498.0000     2.3969     0.0476     8.7543    98.7755     0.1663     0.2629    -2.1991    13.1643    12.0482    11.5030
  498.5000     2.3996     0.0517     8.7829    98.0264     0.1696     0.2624    -2.1907    13.0094    11.9746    11.4288
  499.0000     2.3951     0.0490     8.8082    99.0466     0.1711     0.2606    -2.1913    12.8563    11.9015    11.4780
  499.5000     2.3973     0.0463     8.7935    98.5595     0.1717     0.2588    -2.1928    12.7588    11.8548    11.5325
  500.0000     2.3963     0.0439     8.7733    97.2738     0.1747     0.2615    -2.1914    13.0548    11.8550    11.5872
  500.5000     2.3938     0.0488     8.7524    95.9137     0.1729     0.2660    -2.1916    13.5801    11.8558    11.6405
  501.0000     2.3969     0.0551     8.7315    94.6044     0.1677     0.2693    -2.1912    13.9846    11.8564    11.6405
  501.5000     2.4114     0.0611     8.7117    93.4933     0.1584     0.2716    -2.1908    13.7002    11.8572    11.6405
  502.0000     2.4198     0.0674     8.6904    92.6732     0.1551     0.2678    -2.1912    13.3798    11.8542    11.6387
  502.5000     2.4209     0.0676     8.6895    91.9832     0.1551     0.2627    -2.1895    13.0668    11.8600    11.6376
  503.0000     2.4223     0.0680     8.6889    91.8751     0.1551     0.2575    -2.1911    12.9951    11.8532    11.6363
  503.5000     2.4255     0.0677     8.6892    92.8459     0.1508     0.2569    -2.1923    12.9951    12.0739    11.6351
  504.0000     2.4304     0.0669     8.6892    94.6480     0.1404     0.2581    -2.1811    12.9167    12.2897    11.7817
  504.5000     2.4551     0.0652     8.6892    96.3689     0.1238     0.2551    -2.2884    12.7426    12.5133    12.1221
  505.0000     2.4775     0.0715     8.6930    97.1139     0.1072     0.2509    -2.4686    12.5708    12.7410    12.6631
  505.5000     2.5094     0.0768     8.6973    95.7564     0.0905     0.2472    -2.6431    13.5856    12.9728    13.4254
  506.0000     2.5429     0.0836     8.7016    94.6246     0.0738     0.2370    -2.8138    15.1892    13.2089    14.2307
  506.5000     2.5752     0.0788     8.7059    93.3991     0.0647     0.2233    -2.9673    16.9818    13.4493    15.0844
  507.0000     2.5662     0.0669     8.7102    92.1328     0.0714     0.2088    -2.9919    18.9857    13.7304    16.4955
  507.5000     2.5430     0.0556     8.7146    91.5548     0.0883     0.2008    -3.0620    21.2254    13.7304    16.0002
  508.0000     2.5208     0.0444     8.7188    90.7881     0.1046     0.1928    -3.4297    22.9504    13.2611    14.9851
  508.5000     2.4947     0.0440     8.7230    88.1421     0.1152     0.1981    -3.3724    20.2798    12.8399    14.0345
  509.0000     2.4815     0.0435     8.7281    87.1451     0.1253     0.2033    -3.3872    17.7144    12.4322    13.1441
  509.5000     2.4659     0.0436     8.7232    88.6133     0.1359     0.2152    -3.3943    15.4735    12.0373    12.3103
  510.0000     2.4530     0.0484     8.7109    90.0962     0.1367     0.2296    -3.3333    13.5162    11.6550    11.6452
  510.5000     2.4546     0.0685     8.6995    91.2013     0.1305     0.2437    -3.1907    11.8064    11.2849    11.1654
  511.0000     2.4634     0.0855     8.6882    92.7087     0.1248     0.2788    -3.0420    11.0171    10.9265    10.7053
  511.5000     2.4715     0.1029     8.6767    94.5178     0.1345     0.2816    -2.9741    11.4860    10.5795    10.2375
  512.0000     2.4506     0.0946     8.6653    96.7340     0.1454     0.2847    -3.1136    11.8560    10.4270    10.0514
  512.5000     2.4301     0.0774     8.6541    95.9331     0.1543     0.2884    -3.4179    11.7477    10.4270     9.8686
  513.0000     2.4232     0.0662     8.6439    94.8055     0.1486     0.2884    -3.7055    11.6405    10.4270    10.0573
  513.5000     2.4327     0.0743     8.6343    95.1298     0.1399     0.2860    -3.7801    11.6021    10.4270    10.2375
  514.0000     2.4458     0.0878     8.6249    94.7589     0.1449     0.2860    -3.5677    11.5564    10.4270    10.1340
  514.5000     2.4391     0.0816     8.6155    94.9079     0.1547     0.2811    -3.3412    11.5109    10.4270     9.9825
  515.0000     2.4228     0.0710     8.6062    97.5860     0.1646     0.2754    -3.1127    11.4656    10.2948     9.8333
  515.5000     2.4079     0.0606     8.5969    96.3031     0.1711     0.2696    -2.8847    11.4288    10.1784     9.6863
  516.0000     2.3974     0.0497     8.5870    96.6873     0.1664     0.2639    -2.6534    11.2307    10.0635     9.5415
  516.5000     2.4026     0.0429     8.5785    95.7113     0.1594     0.2589    -2.4326    11.0686     9.9498     9.3989
  517.0000     2.4118     0.0478     8.5715    94.8631     0.1515     0.2632    -2.1988    10.9091     9.8374     9.2584
  517.5000     2.4256     0.0546     8.5981    96.4797     0.1432     0.2670    -2.1951    10.7519     9.7263     9.1200
  518.0000     2.4463     0.0632     8.6227    97.8872     0.1319     0.2693    -2.1988    10.6199     9.6164     9.0036
  518.5000     2.4564     0.0609     8.6489    99.5204     0.1335     0.2693    -2.4523    10.6828     9.5078     9.0036
  519.0000     2.4528     0.0551     8.6747    98.7386     0.1389     0.2741    -2.7009    10.8534     9.4004     9.0036
  519.5000     2.4467     0.0493     8.7003    97.2141     0.1424     0.2796    -2.9611    11.0171     9.3401     9.0036
  520.0000     2.4435     0.0442     8.7261    96.7403     0.1391     0.2851    -3.2197    10.9193     9.3162     9.0964
  520.5000     2.4527     0.0441     8.7519    98.7059     0.1333     0.2905    -3.4706    10.7726     9.1703     9.1859
  521.0000     2.4613     0.0502     8.7775    99.9550     0.1275     0.3051    -3.7270    10.6201     9.1926     9.2763
  521.5000     2.4705     0.0573     8.8034    98.9020     0.1216     0.3076    -3.7939    10.6201     9.2598     9.3676
  522.0000     2.4789     0.0645     8.8293    98.4377     0.1200     0.3011    -3.7345    10.6201     9.3275     9.4598
