~VERSION INFORMATION
 VERS.                2.0:   CWLS LOG ASCII STANDARD - VERSION 2.0
 WRAP.                 NO:   ONE LINE PER DEPTH STEP
~WELL INFORMATION
#MNEM.UNIT      DATA TYPE    INFORMATION
#----------   ------------   ------------------------------
 STRT.F           30.0000:   START DEPTH
 STOP.F         1178.5000:   STOP DEPTH
 STEP.F            0.5000:   STEP LENGTH
 NULL.          -999.2500:   NO VALUE
 COMP. FENIX & SCISSON INC:   COMPANY
 WELL.     64-S-14 #14-14:   WELL
 FLD .        TEAPOT DOME:   FIELD
 LOC .      S14 T38N R78W:   LOCATION
 CNTY.            NATRONA:   COUNTY
 STAT.            WYOMING:   STATE
 CTRY. UNITED STATES OF AMERICA:   COUNTRY
 SRVC.            Unknown:   SERVICE COMPANY
 DATE.        19-APR-1978:   LOGDATE
 API .       490251061400:   API NUMBER
~CURVE INFORMATION
#MNEM.UNIT       API CODE    CURVE DESCRIPTION
#----------   ------------   ------------------------------
 DEPT.F                  :   
 SPR .MV     05 010 01 00:   SPONTANEOUS POTENTIAL
 SN  .OHMM   05 040 16 00:   SHORT NORMAL 16'
 ILD .OHMM   05 120 46 00:   INDUCTION LOG DEEP
 CALD.IN     45 280 60 00:   CALIPER
 GRD .GAPI   45 310 01 00:   GAMMA RAY FROM DENSITY LOG
 RHOB.G/C3   45 350 01 00:   BULK DENSITY
 DPHI.DEC    45 890 12 00:   DENSITY POROSITY SANDSTONE
 CORR.G/C3   45 356 01 00:   DENSITY CORRECTION
~PARAMETER INFORMATION
#MNEM.UNIT          VALUE    DESCRIPTION
#----------   ------------   ------------------------------
 PD  .                 GL:   PERMANENT DATUM
 EPD .F              5235:   ELEVATION PERMANENT DATUM
 LMF .                 KB:   LOG MEASURED FROM
 DMF .                 KB:   DRILLING MEASURED FROM
 EKB .F              5299:   KELLING BUSHING
 EGL .F              5295:   GROUND LEVEL
 DATE.          4-19-1978:   RUN DATE
 RUN .                  1:   RUN NUMBER
 DD  .F              1180:   DEPTH DRILLER
 DL  .F              1182:   DEPTH LOGGER
 BLI .F              1176:   BOTTOM LOG INTERVAL
 TLI .F                50:   TOP LOG INTERVAL
 CS  .IN            8.625:   CASING SIZE
 CBD .F                40:   CASING BOTTOM DRILLER
 CBL .F                50:   CASING BOTTOM LOGGER
 BS  .IN            7.875:   BIT SIZE
 BSD .F              1180:   BIT SIZE AT DEPTH
 DFT .                KCL:   DRILLING FLUID TYPE
 DFD .                8.7:   DRILLING FLUID DENSITY
 DFV .                 33:   DRILLING FLUID VISCOSITY
 DFPH.               10.5:   DRILLING FLUID PH
 DFL .               12.3:   DRILLING FLUID LOSS
 MSS .            MUD PIT:   MUD SAMPLE SOURCE
 RMS .OHMM            .54:   RESISTIVITY MUD SAMPLE
 MST .F                62:   MUD SAMPLE TEMPERATURE
 RMF .OHMM            .65:   RESISTIVITY MUD FILTRATE SAMPLE
 MFST.F                60:   MUD FILTRATE SAMPLE TEMPERATURE
 RMC .OHMM            .35:   RESISTIVITY MUD CAKE
 MCST.F                60:   MUD CAKE SAMPLE TEMPERATURE
 MFSS.           MEASURED:   MUD FILTRATE SAMPLE SOURCE
 RMB .OHMM            .42:   RESISTIVITY MUD AT BHT
 BHT .F                80:   BOTTOM HOLE TEMPERATURE
 TCS .HRS               2:   TIME CURCULATED STOPPED
 MRT .F                80:   MAXIMUM RECORDED TEMPERATURE
 LUN .               2955:   LOGGING UNIT NUMBER
 LUL .               CASP:   LOGGING UNIT LOCATION
 ENGI.             MILLER:   RECORDING ENGINEER
 WITN.           MCGINLEY:   WITNESSED BY
 CLNT.            A2DTECH:   CLIENT CODE
 ORIG.      2" & 5" PRINT:   ORIGIN OF DATA
 UWI .       490251061400:   UNIQUE WELL ID
 DICO. A2D Technologies, Inc.:   DIGITIZING COMPANY
~OTHER INFORMATION
~A   DEPT      SPR         SN        ILD       CALD         GRD      RHOB       DPHI       CORR   
# ...
  192.0000   -44.6044     5.5473     5.2876     7.9367    84.7885     2.4554     0.1329     0.0027
  192.5000   -44.6044     5.5439     5.2956     7.9396    85.7791     2.4290     0.1397     0.0008
  193.0000   -44.6044     5.5671     5.3098     7.9425    88.1403     2.4175     0.1441     0.0078
  193.5000   -44.6044     5.6762     5.3762     7.9453    89.4252     2.4244     0.1410     0.0148
  194.0000   -44.6044     5.7874     5.4437     7.9482    86.1873     2.4312     0.1380     0.0202
  194.5000   -44.6044     5.9008     5.5120     7.9501    82.5556     2.4379     0.1356     0.0170
  195.0000   -44.6044     5.9727     5.5811     7.9502    80.0526     2.4382     0.1358     0.0140
  195.5000   -44.6044     5.9887     5.6511     7.9243    80.6360     2.4373     0.1370     0.0110
  196.0000   -44.6044     6.0052     5.7219     7.8085    81.4938     2.4364     0.1383     0.0079
  196.5000   -44.6044     6.0215     5.7937     7.6890    82.3653     2.4334     0.1396     0.0049
  197.0000   -44.6044     6.0378     5.8039     7.6496    83.2728     2.4304     0.1423     0.0019
  197.5000   -44.6044     6.0542     5.7509     7.6853    84.5703     2.4239     0.1481     0.0005
  198.0000   -44.6044     6.0707     5.6626     7.7229    85.9389     2.4106     0.1532     0.0028
  198.5000   -44.6044     6.0873     5.5813     7.7300    86.6409     2.4045     0.1529     0.0058
  199.0000   -44.6050     6.1044     5.5011     7.7301    85.0463     2.4097     0.1492     0.0089
  199.5000   -44.6072     6.1203     5.4221     7.7300    83.2574     2.4148     0.1461     0.0099
  200.0000   -44.6095     6.1319     5.3442     7.7299    81.4660     2.4161     0.1485     0.0084
  200.5000   -44.6117     5.8545     5.2675     7.7303    79.7580     2.4131     0.1521     0.0069
  201.0000   -44.6139     5.6495     5.1918     7.7548    79.0122     2.4102     0.1521     0.0054
  201.5000   -44.6161     5.4516     5.1173     7.7818    78.2185     2.4086     0.1508     0.0048
  202.0000   -44.6183     5.3155     5.0436     7.8088    77.9643     2.4129     0.1495     0.0066
  202.5000   -44.6205     5.2059     4.9704     7.8358    78.7921     2.4112     0.1478     0.0084
  203.0000   -44.6227     5.1520     4.9194     7.8628    80.5403     2.4059     0.1454     0.0102
  203.5000   -44.6249     5.1050     4.8763     7.8896    82.2686     2.4148     0.1430     0.0119
  204.0000   -44.6271     5.0907     4.8657     7.9166    83.8136     2.4253     0.1406     0.0137
  204.5000   -44.6293     5.0778     4.8560     7.9298    84.1024     2.4343     0.1382     0.0145
  205.0000   -44.6315     5.0649     4.8463     7.9300    84.0953     2.4376     0.1373     0.0143
  205.5000   -44.6337     5.0520     4.8367     7.9302    84.1224     2.4397     0.1369     0.0127
  206.0000   -44.6359     5.0391     4.8271     7.9248    85.0921     2.4418     0.1347     0.0111
  206.5000   -44.6381     5.0263     4.8174     7.9181    86.0559     2.4423     0.1336     0.0096
  207.0000   -44.6403     5.0135     4.8079     7.9113    85.5895     2.4379     0.1368     0.0084
  207.5000   -44.6426     5.0008     4.7983     7.9046    85.1091     2.4335     0.1393     0.0106
  208.0000   -44.6448     4.9881     4.7887     7.8979    85.0973     2.4349     0.1407     0.0125
  208.5000   -44.6470     4.9754     4.7792     7.8911    85.1007     2.4339     0.1422     0.0101
  209.0000   -44.6492     4.9628     4.7697     7.8844    84.9023     2.4276     0.1436     0.0075
  209.5000   -44.6514     4.9501     4.7602     7.8777    84.4993     2.4243     0.1451     0.0048
  210.0000   -44.6536     4.9376     4.7507     7.8709    83.6595     2.4215     0.1465     0.0072
  210.5000   -44.6558     4.9250     4.7413     7.8642    82.7832     2.4188     0.1472     0.0105
  211.0000   -44.6580     4.9125     4.7318     7.8575    82.0907     2.4185     0.1460     0.0138
  211.5000   -44.6602     4.9000     4.7224     7.8507    82.3000     2.4202     0.1444     0.0171
  212.0000   -44.6624     4.8875     4.7130     7.8440    82.8741     2.4254     0.1428     0.0175
  212.5000   -44.6646     4.8751     4.7036     7.8372    85.0003     2.4281     0.1412     0.0159
  213.0000   -44.6668     4.8627     4.6908     7.8300    87.2049     2.4292     0.1404     0.0141
  213.5000   -44.6690     4.8504     4.6765     7.8286    86.8911     2.4303     0.1404     0.0124
  214.0000   -44.6712     4.8381     4.6622     7.8566    86.2990     2.4314     0.1406     0.0107
  214.5000   -44.6734     4.8317     4.6480     7.8778    85.6716     2.4311     0.1407     0.0090
  215.0000   -44.6757     4.8317     4.6338     7.8984    84.0580     2.4306     0.1409     0.0073
  215.5000   -44.6778     4.8473     4.6154     7.9145    82.4000     2.4301     0.1410     0.0056
  216.0000   -44.6801     4.8611     4.6573     7.9247    81.2286     2.4296     0.1411     0.0044
  216.5000   -44.6823     4.8763     4.7177     7.9349    80.8373     2.4294     0.1409     0.0067
  217.0000   -44.6845     4.9223     4.7789     7.9451    80.7036     2.4308     0.1391     0.0092
  217.5000   -44.6867     4.9738     4.8409     7.9708    80.8185     2.4353     0.1373     0.0120
  218.0000   -44.6889     5.0259     4.9037     8.0106    82.1409     2.4399     0.1360     0.0147
  218.5000   -44.6911     5.1050     4.9673     8.0482    83.8974     2.4389     0.1373     0.0165
  219.0000   -44.6933     5.1031     5.0123     8.0263    85.3225     2.4336     0.1386     0.0159
  219.5000   -44.6955     5.0993     5.0123     8.0016    83.4630     2.4323     0.1399     0.0153
  220.0000   -44.6977     5.0956     5.0057     7.9770    79.5751     2.4335     0.1412     0.0148
  220.5000   -44.6999     5.0918     4.9964     7.9523    75.7469     2.4306     0.1416     0.0166
  221.0000   -44.7021     5.0880     4.9870     7.9683    75.2718     2.4300     0.1369     0.0215
  221.5000   -44.7043     5.0843     4.9777     7.9887    79.8048     2.4398     0.1323     0.0263
  222.0000   -44.7065     5.0805     4.9684     7.9708    83.9337     2.4495     0.1278     0.0307
  222.5000   -44.7088     5.0768     4.9591     7.9514    85.7924     2.4592     0.1255     0.0299
  223.0000   -44.7109     5.0730     4.9499     7.9765    82.6903     2.4553     0.1288     0.0256
  223.5000   -44.7132     5.0693     4.9405     8.0042    78.5570     2.4478     0.1329     0.0213
  224.0000   -44.7154     5.0658     4.9313     8.0308    77.2197     2.4404     0.1370     0.0170
  224.5000   -44.7176     5.0618     4.9207     7.9944    79.5339     2.4333     0.1381     0.0126
  225.0000   -44.7198     5.0584     4.9206     7.9304    80.7429     2.4325     0.1398     0.0084
  225.5000   -44.7220     5.1363     4.9820     7.8666    81.8565     2.4326     0.1415     0.0091
  226.0000   -44.7242     5.2081     5.0375     7.7589    83.3041     2.4268     0.1431     0.0112
  226.5000   -44.7264     5.2809     5.0937     7.6341    84.0222     2.4234     0.1445     0.0133
  227.0000   -44.7286     5.3548     5.1506     7.5135    84.7426     2.4230     0.1446     0.0141
  227.5000   -44.7308     5.4296     5.2081     7.5257    86.0126     2.4227     0.1448     0.0131
  228.0000   -44.7330     5.5055     5.2663     7.6175    89.7400     2.4184     0.1468     0.0121
  228.5000   -44.7352     5.5969     5.3444     7.6193    93.3986     2.4121     0.1511     0.0110
  229.0000   -44.7374     5.5451     5.2956     7.6065    95.4058     2.4058     0.1534     0.0100
  229.5000   -44.7396     5.4722     5.2267     7.5927    94.7607     2.4080     0.1513     0.0089
  230.0000   -44.7419     5.4007     5.1587     7.6009    93.2938     2.4158     0.1478     0.0102
  230.5000   -44.7440     5.3304     5.0916     7.6415    91.7281     2.4227     0.1442     0.0132
  231.0000   -44.7463     5.2611     5.0254     7.7339    94.3288     2.4281     0.1405     0.0163
  231.5000   -44.7485     5.1926     4.9601     7.7790    97.9956     2.4337     0.1369     0.0200
  232.0000   -44.7507     5.1248     4.8955     7.7588   101.6855     2.4427     0.1291     0.0262
