~VERSION INFORMATION
 VERS.                2.0:   CWLS LOG ASCII STANDARD - VERSION 2.0
 WRAP.                 NO:   ONE LINE PER DEPTH STEP
~WELL INFORMATION
#MNEM.UNIT      DATA TYPE    INFORMATION
#----------   ------------   ------------------------------
 STRT.F            6.0000:   START DEPTH
 STOP.F         1351.5000:   STOP DEPTH
 STEP.F            0.5000:   STEP LENGTH
 NULL.          -999.2500:   NO VALUE
 COMP. BROWN JOHN E&C INC:   COMPANY
 WELL. NAVAL PETROLEUM RESERVE 3 STX- #71-10:   WELL
 FLD .             TEAPOT:   FIELD
 LOC .      S10 T38N R78W:   LOCATION
 CNTY.            NATRONA:   COUNTY
 STAT.            WYOMING:   STATE
 CTRY. UNITED STATES OF AMERICA:   COUNTRY
 SRVC.           BIRDWELL:   SERVICE COMPANY
 DATE.        02-MAR-1978:   LOGDATE
 API .       490251058900:   API NUMBER
~CURVE INFORMATION
#MNEM.UNIT       API CODE    CURVE DESCRIPTION
#----------   ------------   ------------------------------
 DEPT.F                  :   
 GRD .GAPI   45 310 01 00:   GAMMA RAY FROM DENSITY LOG
 CALD.IN     45 280 60 00:   CALIPER
 RHOB.G/C3   45 350 01 00:   BULK DENSITY
 DPOR.DEC    45 890 12 00:   DENSITY POROSITY SANDSTONE
 CORR.G/C3   45 356 01 00:   DENSITY CORRECTION
~PARAMETER INFORMATION
#MNEM.UNIT          VALUE    DESCRIPTION
#----------   ------------   ------------------------------
 PD  .                 GL:   PERMANENT DATUM
 EPD .F              5162:   ELEVATION PERMANENT DATUM
 LMF .                 KB:   LOG MEASURED FROM
 DAPD.F                10:   FEET ABOVE PERMANENT DATUM
 DMF .                 KB:   DRILLING MEASURED FROM
 EKB .F              5172:   KELLING BUSHING
 EGL .F              5162:   GROUND LEVEL
 DATE.           3-2-1978:   RUN DATE
 RUN .                  1:   RUN NUMBER
 DD  .F              1357:   DEPTH DRILLER
 DL  .F              1352:   DEPTH LOGGER
 BLI .F              1350:   BOTTOM LOG INTERVAL
 TLI .F                20:   TOP LOG INTERVAL
 CS  .IN                7:   CASING SIZE
 CBD .F              1140:   CASING BOTTOM DRILLER
 CBL .F              1140:   CASING BOTTOM LOGGER
 BS  .IN             6.25:   BIT SIZE
 BSD .F              1357:   BIT SIZE AT DEPTH
 DFT .           AIR MIST:   DRILLING FLUID TYPE
 TCS .HRS              12:   TIME CURCULATED STOPPED
 MRT .F                75:   MAXIMUM RECORDED TEMPERATURE
 LUN .               2958:   LOGGING UNIT NUMBER
 LUL .               CASP:   LOGGING UNIT LOCATION
 ENGI.             MILLER:   RECORDING ENGINEER
 WITN.           MCGINLEY:   WITNESSED BY
 CLNT.            A2DTECH:   CLIENT CODE
 ORIG.       2", 5" PRINT:   ORIGIN OF DATA
 UWI .       490251058900:   UNIQUE WELL ID
 DICO. A2D Technologies, Inc.:   DIGITIZING COMPANY
~OTHER INFORMATION
~A    DEPT      GRD      CALD       RHOB       DPOR       CORR   
# ...
 1104.0000    85.3787  -999.2500  -999.2500  -999.2500  -999.2500
 1104.5000    87.1088  -999.2500  -999.2500  -999.2500  -999.2500
 1105.0000    85.7339  -999.2500  -999.2500  -999.2500  -999.2500
 1105.5000    84.2948  -999.2500  -999.2500  -999.2500  -999.2500
 1106.0000    81.8980  -999.2500  -999.2500  -999.2500  -999.2500
 1106.5000    78.6140  -999.2500  -999.2500  -999.2500  -999.2500
 1107.0000    78.0768  -999.2500  -999.2500  -999.2500  -999.2500
 1107.5000    79.0961  -999.2500  -999.2500  -999.2500  -999.2500
 1108.0000    80.1952  -999.2500  -999.2500  -999.2500  -999.2500
 1108.5000    80.4623  -999.2500  -999.2500  -999.2500  -999.2500
 1109.0000    80.0444  -999.2500  -999.2500  -999.2500  -999.2500
 1109.5000    79.6294  -999.2500  -999.2500  -999.2500  -999.2500
 1110.0000    77.7335  -999.2500  -999.2500  -999.2500  -999.2500
 1110.5000    75.6815  -999.2500  -999.2500  -999.2500  -999.2500
 1111.0000    75.9938  -999.2500  -999.2500  -999.2500  -999.2500
 1111.5000    76.2697  -999.2500  -999.2500  -999.2500  -999.2500
 1112.0000    76.7300  -999.2500  -999.2500  -999.2500  -999.2500
 1112.5000    78.3390  -999.2500  -999.2500  -999.2500  -999.2500
 1113.0000    78.7966  -999.2500  -999.2500  -999.2500  -999.2500
 1113.5000    78.4936  -999.2500  -999.2500  -999.2500  -999.2500
 1114.0000    78.4253  -999.2500  -999.2500  -999.2500  -999.2500
 1114.5000    82.5077  -999.2500  -999.2500  -999.2500  -999.2500
 1115.0000    86.7883  -999.2500  -999.2500  -999.2500  -999.2500
 1115.5000    85.6093  -999.2500  -999.2500  -999.2500  -999.2500
 1116.0000    84.9627  -999.2500  -999.2500  -999.2500  -999.2500
 1116.5000    84.9959  -999.2500  -999.2500  -999.2500  -999.2500
 1117.0000    85.0984  -999.2500  -999.2500  -999.2500  -999.2500
 1117.5000    85.2105  -999.2500  -999.2500  -999.2500  -999.2500
 1118.0000    85.7796  -999.2500  -999.2500  -999.2500  -999.2500
 1118.5000    88.8881  -999.2500  -999.2500  -999.2500  -999.2500
 1119.0000    88.7831  -999.2500  -999.2500  -999.2500  -999.2500
 1119.5000    87.2262  -999.2500  -999.2500  -999.2500  -999.2500
 1120.0000    86.7465  -999.2500  -999.2500  -999.2500  -999.2500
 1120.5000    86.9065  -999.2500  -999.2500  -999.2500  -999.2500
 1121.0000    87.0220  -999.2500  -999.2500  -999.2500  -999.2500
 1121.5000    89.4445  -999.2500  -999.2500  -999.2500  -999.2500
 1122.0000    91.1276  -999.2500  -999.2500  -999.2500  -999.2500
 1122.5000    88.6677  -999.2500  -999.2500  -999.2500  -999.2500
 1123.0000    87.8648  -999.2500  -999.2500  -999.2500  -999.2500
 1123.5000    88.2330  -999.2500  -999.2500  -999.2500  -999.2500
 1124.0000    87.6155  -999.2500  -999.2500  -999.2500  -999.2500
 1124.5000    83.8390  -999.2500  -999.2500  -999.2500  -999.2500
 1125.0000    82.3676  -999.2500  -999.2500  -999.2500  -999.2500
 1125.5000    82.4325  -999.2500  -999.2500  -999.2500  -999.2500
 1126.0000    82.3009  -999.2500  -999.2500  -999.2500  -999.2500
 1126.5000    82.0858  -999.2500  -999.2500  -999.2500  -999.2500
 1127.0000    83.8252  -999.2500  -999.2500  -999.2500  -999.2500
 1127.5000    85.3252  -999.2500  -999.2500  -999.2500  -999.2500
 1128.0000    84.2853  -999.2500  -999.2500  -999.2500  -999.2500
 1128.5000    83.4869  -999.2500  -999.2500  -999.2500  -999.2500
 1129.0000    83.8453  -999.2500  -999.2500  -999.2500  -999.2500
 1129.5000    84.6410  -999.2500  -999.2500  -999.2500  -999.2500
 1130.0000    89.7422  -999.2500  -999.2500  -999.2500  -999.2500
 1130.5000    90.5968  -999.2500  -999.2500  -999.2500  -999.2500
 1131.0000    87.9476  -999.2500  -999.2500  -999.2500  -999.2500
 1131.5000    86.1123  -999.2500  -999.2500  -999.2500  -999.2500
 1132.0000    84.5649  -999.2500  -999.2500  -999.2500  -999.2500
 1132.5000    86.4912  -999.2500  -999.2500  -999.2500  -999.2500
 1133.0000    88.9198  -999.2500  -999.2500  -999.2500  -999.2500
 1133.5000    89.0216  -999.2500  -999.2500  -999.2500  -999.2500
 1134.0000    87.4114  -999.2500  -999.2500  -999.2500  -999.2500
 1134.5000    87.2662  -999.2500  -999.2500  -999.2500  -999.2500
 1135.0000    87.1408  -999.2500  -999.2500  -999.2500  -999.2500
 1135.5000    86.2559  -999.2500  -999.2500  -999.2500  -999.2500
 1136.0000    85.2754  -999.2500  -999.2500  -999.2500  -999.2500
 1136.5000    86.5983  -999.2500  -999.2500  -999.2500  -999.2500
 1137.0000    88.9132  -999.2500  -999.2500  -999.2500  -999.2500
 1137.5000    89.7932  -999.2500  -999.2500  -999.2500  -999.2500
 1138.0000    89.8754  -999.2500  -999.2500  -999.2500  -999.2500
 1138.5000    87.7954  -999.2500  -999.2500  -999.2500  -999.2500
 1139.0000    80.6492  -999.2500  -999.2500  -999.2500  -999.2500
 1139.5000    74.1977  -999.2500     2.0914     0.2626  -999.2500
 1140.0000    71.9969     6.8500     2.0914     0.2614     0.2287
 1140.5000    75.4445     6.9509     2.1469     0.2675     0.3471
 1141.0000    83.8747     7.0461     2.2147     0.2714     0.2772
 1141.5000   105.8846     7.1227     2.2315     0.3016     0.2261
 1142.0000   111.1636     7.2179     2.1440     0.3426     0.1935
 1142.5000   112.1492     7.2309     2.0506     0.3865     0.2338
 1143.0000   114.3897     7.2298     1.9762     0.4060     0.3042
 1143.5000   116.8281     7.1744     1.9220     0.4279     0.3678
 1144.0000   118.0483     6.9295     1.8591     0.3173     0.0259
 1144.5000   115.7508     6.6932     1.8317     0.1230     0.0350
 1145.0000   114.7096     6.5710     2.2858     0.1075     0.0512
 1145.5000   114.5659     6.5745     2.4742     0.0909     0.0556
 1146.0000   113.0310     6.5774     2.4940     0.0883     0.0501
 1146.5000   105.5577     6.5805     2.5000     0.0893     0.0486
 1147.0000   106.4357     6.5835     2.4983     0.0932     0.0507
 1147.5000   111.5012     6.5866     2.4931     0.0906     0.0530
 1148.0000   117.7789     6.5896     2.4842     0.0880     0.0465
 1148.5000   122.0917     6.5926     2.4962     0.1030     0.0393
 1149.0000   118.8330     6.5956     2.4874     0.1091     0.0395
 1149.5000   115.6946     6.5986     2.4725     0.1100     0.0397
 1150.0000   113.5804     6.6017     2.4592     0.1109     0.0425
 1150.5000   114.3090     6.6047     2.4599     0.1076     0.0548
 1151.0000   113.9279     6.6077     2.4575     0.1005     0.0716
 1151.5000   112.9249     6.6107     2.4541     0.0935     0.0673
 1152.0000   116.6767     6.6138     2.4885     0.0895     0.0597
 1152.5000   120.5372     6.6168     2.4985     0.0886     0.0608
 1153.0000   119.6741     6.6198     2.4962     0.0862     0.0609
 1153.5000   116.9432     6.6228     2.4944     0.0820     0.0594
 1154.0000   115.0197     6.6259     2.5129     0.0844     0.0577
 1154.5000   114.9287     6.6289     2.5054     0.0867     0.0595
 1155.0000   115.7816     6.6319     2.4959     0.0887     0.0621
 1155.5000   118.2647     6.6349     2.4931     0.0881     0.0649
 1156.0000   117.6267     6.6379     2.4977     0.0829     0.0622
 1156.5000   116.7036     6.6410     2.5111     0.0792     0.0612
 1157.0000   116.6988     6.6440     2.5094     0.0836     0.0608
 1157.5000   117.3871     6.6470     2.5060     0.0871     0.0604
 1158.0000   118.7844     6.6500     2.5022     0.0917     0.0599
 1158.5000   120.7022     6.6530     2.4954     0.0988     0.0595
 1159.0000   121.8214     6.6561     2.4838     0.1048     0.0617
 1159.5000   117.5868     6.6591     2.4740     0.1162     0.0642
 1160.0000   114.6812     6.6620     2.4615     0.1287     0.0731
 1160.5000   113.2417     6.6650     2.4410     0.1413     0.0865
 1161.0000   112.0969     6.6692     2.4206     0.1571     0.1285
 1161.5000   110.9569     6.7339     2.3930     0.1695     0.1872
 1162.0000   110.9029     6.9040     2.3678     0.1575     0.2348
 1162.5000   112.5453     6.9726     2.3662     0.1439     0.1407
 1163.0000   116.1611     6.9842     2.4137     0.1429     0.0771
 1163.5000   121.3664     7.0091     2.4421     0.1625     0.0807
 1164.0000   124.9372     7.1073     2.3861     0.1743     0.0952
 1164.5000   122.4091     7.1327     2.3510     0.1598     0.1054
