~VERSION INFORMATION
 VERS.                2.0:   CWLS LOG ASCII STANDARD - VERSION 2.0
 WRAP.                 NO:   ONE LINE PER DEPTH STEP
~WELL INFORMATION
#MNEM.UNIT      DATA TYPE    INFORMATION
#----------   ------------   ------------------------------
 STRT.F           90.0000:   START DEPTH
 STOP.F         1312.0000:   STOP DEPTH
 STEP.F            0.5000:   STEP LENGTH
 NULL.          -999.2500:   NO VALUE
 COMP. US NAVY/ INTEX OIL CO:   COMPANY
 WELL. RES 3 TEAPOT DOME NPR "S' #42-2:   WELL
 FLD .             TEAPOT:   FIELD
 LOC .       S2 T38N R78W:   LOCATION
 CNTY.            NATRONA:   COUNTY
 STAT.            WYOMING:   STATE
 CTRY. UNITED STATES OF AMERICA:   COUNTRY
 SRVC. Schlumberger Well Surveying Corp:   SERVICE COMPANY
 DATE.        17-JUL-1964:   LOGDATE
 API .       490250646400:   API NUMBER
~CURVE INFORMATION
#MNEM.UNIT       API CODE    CURVE DESCRIPTION
#----------   ------------   ------------------------------
 DEPT.F                  :   
 GR  .GAPI   30 310 01 00:   GAMMA RAY
 CALS.IN     60 280 50 00:   CALIPER FROM SONIC LOG
 DT  .US/F   60 520 32 00:   INTERVAL TRANSIT TIME
 SPR .MV     05 010 01 00:   SPONTANEOUS POTENTIAL FROM RES.
 CILD.MMHO   05 110 46 00:   CONDUCTIVITY INDUCTION LOG DEEP
 ILD .OHMM   05 120 46 00:   INDUCTION LOG DEEP
 ASN .OHMM   05 040 16 00:   AMPLIFIED SHORT NORMAL 16"
~PARAMETER INFORMATION
#MNEM.UNIT          VALUE    DESCRIPTION
#----------   ------------   ------------------------------
 PD  .                 GL:   PERMANENT DATUM
 EPD .F              5142:   ELEVATION PERMANENT DATUM
 LMF .                 KB:   LOG MEASURED FROM
 DAPD.F                 8:   FEET ABOVE PERMANENT DATUM
 DMF .                 KB:   DRILLING MEASURED FROM
 EKB .F              5150:   KELLING BUSHING
 EGL .F              5142:   GROUND LEVEL
 DATE.          7-17-1964:   RUN DATE
 RUN .                  1:   RUN NUMBER
 DD  .F              1300:   DEPTH DRILLER
 DL  .F              1310:   DEPTH LOGGER
 BLI .F              1309:   BOTTOM LOG INTERVAL
 TLI .F               107:   TOP LOG INTERVAL
 CS  .IN            12.25:   CASING SIZE
 CBD .F                10:   CASING BOTTOM DRILLER
 BS  .IN               11:   BIT SIZE
 BSD .F              1300:   BIT SIZE AT DEPTH
 DFT .            GEL-OIL:   DRILLING FLUID TYPE
 DFD .                9.6:   DRILLING FLUID DENSITY
 DFV .                 63:   DRILLING FLUID VISCOSITY
 DFPH.                  8:   DRILLING FLUID PH
 DFL .                9.6:   DRILLING FLUID LOSS
 MSS .           FLOWLINE:   MUD SAMPLE SOURCE
 RMS .OHMM           2.07:   RESISTIVITY MUD SAMPLE
 MST .F                92:   MUD SAMPLE TEMPERATURE
 RMF .OHMM           1.42:   RESISTIVITY MUD FILTRATE SAMPLE
 MFST.F                92:   MUD FILTRATE SAMPLE TEMPERATURE
 RMC .OHMM           2.33:   RESISTIVITY MUD CAKE
 MCST.F                92:   MUD CAKE SAMPLE TEMPERATURE
 MFSS.                 FP:   MUD FILTRATE SAMPLE SOURCE
 MCSS.                 FP:   MUD CAKE SAMPLE SOURCE
 TCS .HRS               1:   TIME CURCULATED STOPPED
 LUN .               4507:   LOGGING UNIT NUMBER
 LUL .              CSPR.:   LOGGING UNIT LOCATION
 ENGI.             DANNER:   RECORDING ENGINEER
 WITN.          JORGENSEN:   WITNESSED BY
 CLNT.            A2DTECH:   CLIENT CODE
 ORIG.        2" 5" PRINT:   ORIGIN OF DATA
 UWI .       490250646400:   UNIQUE WELL ID
 DICO. A2D Technologies, Inc.:   DIGITIZING COMPANY
~OTHER INFORMATION
~A   DEPT       GR       CALS         DT        SPR        CILD         ILD        ASN 
# ...
  181.0000  -999.2500  -999.2500  -999.2500   -50.9622   192.6464     6.3558     5.9802
  181.5000  -999.2500  -999.2500  -999.2500   -51.0042   190.3772     6.3588     6.0057
  182.0000  -999.2500  -999.2500  -999.2500   -51.0421   188.1081     6.3913     6.0317
  182.5000  -999.2500  -999.2500  -999.2500   -51.0880   185.8390     6.4287     6.0571
  183.0000  -999.2500  -999.2500  -999.2500   -51.0886   184.3544     6.4651     6.0842
  183.5000  -999.2500  -999.2500  -999.2500   -51.0429   183.6820     6.5020     6.0785
  184.0000  -999.2500  -999.2500  -999.2500   -51.0049   183.0097     6.5388     6.0095
  184.5000  -999.2500  -999.2500  -999.2500   -50.9629   181.7946     6.5756     6.0585
  185.0000  -999.2500  -999.2500  -999.2500   -50.9231   180.0658     6.6125     6.2001
  185.5000  -999.2500  -999.2500  -999.2500   -50.8820   178.3369     6.6492     6.3382
  186.0000  -999.2500  -999.2500  -999.2500   -50.8420   176.6767     6.6863     6.3819
  186.5000  -999.2500  -999.2500  -999.2500   -50.8008   176.2573     6.7227     6.3098
  187.0000  -999.2500  -999.2500  -999.2500   -50.7613   175.8539     6.7573     6.3366
  187.5000  -999.2500  -999.2500  -999.2500   -50.7190   176.2387     6.7461     6.4247
  188.0000  -999.2500  -999.2500  -999.2500   -50.7009   177.2473     6.6245     6.4950
  188.5000  -999.2500  -999.2500  -999.2500   -50.7033   180.1827     6.4971     6.5238
  189.0000  -999.2500  -999.2500  -999.2500   -50.7022   184.5529     6.3708     6.4953
  189.5000  -999.2500  -999.2500  -999.2500   -50.7029   188.9231     6.2449     6.3009
  190.0000  -999.2500  -999.2500  -999.2500   -50.7027   192.6927     6.1175     6.0958
  190.5000  -999.2500  -999.2500  -999.2500   -50.7029   196.0423     5.9933     5.9654
  191.0000  -999.2500  -999.2500  -999.2500   -50.7030   199.4367     5.8622     5.8875
  191.5000  -999.2500  -999.2500  -999.2500   -50.7029   202.7597     5.7658     5.8043
  192.0000  -999.2500  -999.2500  -999.2500   -50.7035   207.3198     5.8033     5.7343
  192.5000  -999.2500  -999.2500  -999.2500   -50.7025   209.8169     5.8481     5.7097
  193.0000  -999.2500  -999.2500  -999.2500   -50.7045   206.4450     5.8919     5.6900
  193.5000  -999.2500  -999.2500  -999.2500   -50.6945   201.1691     5.9360     5.7354
  194.0000  -999.2500  -999.2500  -999.2500   -50.6177   196.7280     5.9800     5.8127
  194.5000  -999.2500  -999.2500  -999.2500   -50.5452   192.4895     6.0240     5.8827
  195.0000  -999.2500  -999.2500  -999.2500   -50.4688   188.8589     6.0683     5.9493
  195.5000  -999.2500  -999.2500  -999.2500   -50.3997   186.0936     6.1118     6.0225
  196.0000  -999.2500  -999.2500  -999.2500   -50.3183   183.7404     6.1566     6.1027
  196.5000  -999.2500  -999.2500  -999.2500   -50.3502   181.3872     6.1990     6.1779
  197.0000  -999.2500  -999.2500  -999.2500   -50.4512   180.9630     6.2449     6.2357
  197.5000  -999.2500  -999.2500  -999.2500   -50.5325   181.3664     6.2440     6.2319
  198.0000  -999.2500  -999.2500  -999.2500   -50.6219   181.6817     6.2159     6.1864
  198.5000  -999.2500  -999.2500  -999.2500   -50.7085   183.3608     6.1950     6.1597
  199.0000  -999.2500  -999.2500  -999.2500   -50.7939   184.7390     6.1708     6.1724
  199.5000  -999.2500  -999.2500  -999.2500   -50.8829   186.1171     6.1483     6.1881
  200.0000  -999.2500  -999.2500  -999.2500   -50.8828   187.4953     6.1249     6.1892
  200.5000  -999.2500  -999.2500  -999.2500   -50.8359   188.8735     6.1020     6.1315
  201.0000  -999.2500  -999.2500  -999.2500   -50.8018   190.2516     6.0789     6.0711
  201.5000  -999.2500  -999.2500  -999.2500   -50.7620   191.6298     6.0559     6.0269
  202.0000  -999.2500  -999.2500  -999.2500   -50.7252   193.0080     6.0329     6.0079
  202.5000  -999.2500  -999.2500  -999.2500   -50.6868   194.6947     6.0097     5.9833
  203.0000  -999.2500  -999.2500  -999.2500   -50.6492   195.0851     5.9868     5.9591
  203.5000  -999.2500  -999.2500  -999.2500   -50.6112   195.6957     5.9632     5.9548
  204.0000  -999.2500  -999.2500  -999.2500   -50.5734   195.6957     5.9410     5.9561
  204.5000  -999.2500  -999.2500  -999.2500   -50.5356   195.6957     5.9163     5.9556
  205.0000  -999.2500  -999.2500  -999.2500   -50.4978   195.6957     5.8962     5.9623
  205.5000  -999.2500  -999.2500  -999.2500   -50.4598   195.6957     5.8661     5.9697
  206.0000  -999.2500  -999.2500  -999.2500   -50.4222   195.6957     5.8798     5.9887
  206.5000  -999.2500  -999.2500  -999.2500   -50.3840   195.6957     5.9656     6.0309
  207.0000  -999.2500  -999.2500  -999.2500   -50.3465   195.6957     6.0479     6.0498
  207.5000  -999.2500  -999.2500  -999.2500   -50.3073   194.0440     6.1318     6.0656
  208.0000  -999.2500  -999.2500  -999.2500   -50.3506   190.3143     6.2172     6.0845
  208.5000  -999.2500  -999.2500  -999.2500   -50.4216   183.0711     6.2988     6.1097
  209.0000  -999.2500  -999.2500  -999.2500   -50.4870   174.6747     6.4425     6.1607
  209.5000  -999.2500  -999.2500  -999.2500   -50.5552   170.7838     6.6782     6.1978
  210.0000  -999.2500  -999.2500  -999.2500   -50.6217   166.2305     6.9253     6.3985
  210.5000  -999.2500  -999.2500  -999.2500   -50.6990   161.5627     7.1569     6.9536
  211.0000  -999.2500  -999.2500  -999.2500   -50.8078   156.8922     7.4247     7.3229
  211.5000  -999.2500  -999.2500  -999.2500   -50.9483   151.6056     7.5734     7.4591
  212.0000  -999.2500  -999.2500  -999.2500   -51.0751   150.5802     7.5440     7.6488
  212.5000  -999.2500  -999.2500  -999.2500   -51.2266   150.5736     7.3914     7.6424
  213.0000  -999.2500  -999.2500  -999.2500   -51.3115   153.1636     7.1789     7.4037
  213.5000  -999.2500  -999.2500  -999.2500   -51.2466   160.0054     6.9823     7.0666
  214.0000  -999.2500  -999.2500  -999.2500   -51.1782   166.7993     6.7781     6.8234
  214.5000  -999.2500  -999.2500  -999.2500   -51.1053   173.5898     6.5761     6.6749
  215.0000  -999.2500  -999.2500  -999.2500   -51.0345   178.8789     6.3780     6.4738
  215.5000  -999.2500  -999.2500  -999.2500   -50.9636   181.8969     6.3867     6.4619
  216.0000  -999.2500  -999.2500  -999.2500   -50.8907   183.6837     6.4329     6.4904
  216.5000  -999.2500  -999.2500  -999.2500   -50.8226   182.6867     6.4708     6.5084
  217.0000  -999.2500  -999.2500  -999.2500   -50.7431   180.2723     6.5117     6.4536
  217.5000  -999.2500  -999.2500  -999.2500   -50.7001   177.6777     6.5597     6.4032
  218.0000  -999.2500  -999.2500  -999.2500   -50.7450   173.5159     6.6854     6.4211
  218.5000  -999.2500  -999.2500  -999.2500   -50.7942   169.0184     6.8302     6.5664
  219.0000  -999.2500  -999.2500  -999.2500   -50.8454   164.5210     6.9713     6.7336
  219.5000  -999.2500  -999.2500  -999.2500   -50.8954   160.0235     7.1151     6.8974
  220.0000  -999.2500  -999.2500  -999.2500   -50.9461   155.5261     7.2554     7.0621
  220.5000  -999.2500  -999.2500  -999.2500   -50.9966   151.0287     7.4014     7.2274
  221.0000  -999.2500  -999.2500  -999.2500   -51.0472   146.5312     7.5372     7.3924
  221.5000  -999.2500  -999.2500  -999.2500   -51.0977   141.9059     7.6931     7.5297
  222.0000  -999.2500  -999.2500  -999.2500   -51.1481   139.4950     7.7628     7.6515
  222.5000  -999.2500  -999.2500  -999.2500   -51.1985   139.4955     7.7634     7.7300
  223.0000  -999.2500  -999.2500  -999.2500   -51.2494   140.9510     7.6884     7.7673
  223.5000  -999.2500  -999.2500  -999.2500   -51.2966   143.9899     7.5115     7.7158
  224.0000  -999.2500  -999.2500  -999.2500   -51.2388   148.3608     7.3522     7.6293
  224.5000  -999.2500  -999.2500  -999.2500   -51.1544   154.1290     7.1849     7.4731
  225.0000  -999.2500  -999.2500  -999.2500   -51.0755   159.8936     7.0189     7.2335
  225.5000  -999.2500  -999.2500  -999.2500   -50.9939   165.6657     6.8689     7.0126
  226.0000  -999.2500  -999.2500  -999.2500   -50.9138   167.6877     6.8543     6.7752
