~VERSION INFORMATION
 VERS.                2.0:   CWLS LOG ASCII STANDARD - VERSION 2.0
 WRAP.                 NO:   ONE LINE PER DEPTH STEP
~WELL INFORMATION
#MNEM.UNIT      DATA TYPE    INFORMATION
#----------   ------------   ------------------------------
 STRT.F            0.0000:   START DEPTH
 STOP.F          844.0000:   STOP DEPTH
 STEP.F            0.5000:   STEP LENGTH
 NULL.          -999.2500:   NO VALUE
 COMP. BROWN JOHN E&C INC:   COMPANY
 WELL. NAVAL PETROLEUM RESERVE 3 SX-1 #42-1-14:   WELL
 FLD .             TEAPOT:   FIELD
 LOC .      S14 T38N R78W:   LOCATION
 CNTY.            NATRONA:   COUNTY
 STAT.            WYOMING:   STATE
 CTRY. UNITED STATES OF AMERICA:   COUNTRY
 SRVC.     Atlas Wireline:   SERVICE COMPANY
 DATE.        11-JAN-1992:   LOGDATE
 API .       490252247700:   API NUMBER
~CURVE INFORMATION
#MNEM.UNIT       API CODE    CURVE DESCRIPTION
#----------   ------------   ------------------------------
 DEPT.F                  :   
 GRR .GAPI   07 310 01 00:   GAMMA RAY
 RFOC.OHMM   07 220 04 00:   RESISTIVITY FOCUSED LOG
 RILD.OHMM   07 120 46 00:   INDUCTION LOG DEEP RESISTIVITY
 RILM.OHMM   07 120 44 00:   INDUCTION LOG MEDIUM RESISTIVITY
 SPR .MV     07 010 01 00:   SPONTANEOUS POTENTIAL
~PARAMETER INFORMATION
#MNEM.UNIT          VALUE    DESCRIPTION
#----------   ------------   ------------------------------
 PD  .                 GL:   PERMANENT DATUM
 EPD .F              5201:   ELEVATION PERMANENT DATUM
 LMF .                 KB:   LOG MEASURED FROM
 DAPD.F                10:   FEET ABOVE PERMANENT DATUM
 DMF .                 KB:   DRILLING MEASURED FROM
 EKB .F              5211:   KELLING BUSHING
 EGL .F              5201:   GROUND LEVEL
 DATE.        11-JAN-1992:   RUN DATE
 RUN .                  1:   RUN NUMBER
 DD  .F               848:   DEPTH DRILLER
 DL  .F               847:   DEPTH LOGGER
 BLI .F               845:   BOTTOM LOG INTERVAL
 CS  .IN            10.75:   CASING SIZE
 CBD .F               101:   CASING BOTTOM DRILLER
 CBL .F               101:   CASING BOTTOM LOGGER
 BS  .IN             8.75:   BIT SIZE
 BSD .F               848:   BIT SIZE AT DEPTH
 DFT .               CHEM:   DRILLING FLUID TYPE
 DFD .                9.0:   DRILLING FLUID DENSITY
 DFV .                 40:   DRILLING FLUID VISCOSITY
 DFPH.                9.0:   DRILLING FLUID PH
 DFL .                8.4:   DRILLING FLUID LOSS
 MSS .           FLOWLINE:   MUD SAMPLE SOURCE
 RMS .OHMM           0.22:   RESISTIVITY MUD SAMPLE
 MST .F                78:   MUD SAMPLE TEMPERATURE
 RMF .OHMM           0.17:   RESISTIVITY MUD FILTRATE SAMPLE
 MFST.F                78:   MUD FILTRATE SAMPLE TEMPERATURE
 RMC .OHMM           0.28:   RESISTIVITY MUD CAKE
 MCST.F                78:   MUD CAKE SAMPLE TEMPERATURE
 MFSS.               MEAS:   MUD FILTRATE SAMPLE SOURCE
 MCSS.               CALC:   MUD CAKE SAMPLE SOURCE
 RMB .OHMM           0.14:   RESISTIVITY MUD AT BHT
 BHT .F               126:   BOTTOM HOLE TEMPERATURE
 TCS .HRS               3:   TIME CURCULATED STOPPED
 MRT .F               126:   MAXIMUM RECORDED TEMPERATURE
 LUN .            HL-6274:   LOGGING UNIT NUMBER
 LUL .         CASPER, WY:   LOGGING UNIT LOCATION
 ENGI.             ZIEGER:   RECORDING ENGINEER
 WITN.         MR. STRONG:   WITNESSED BY
 CLNT.            A2DTECH:   CLIENT CODE
 ORIG.           5" PRINT:   ORIGIN OF DATA
 UWI .       490252247700:   UNIQUE WELL ID
 DICO. A2D Technologies, Inc.:   DIGITIZING COMPANY
~OTHER INFORMATION
~A    DEPT      GRR      RFOC       RILD       RILM        SPR   
# ...
  366.0000   108.8400     9.1268     9.0144     8.8651   -12.9806
  366.5000   110.0183     9.1274     8.9501     8.9169   -12.8314
  367.0000   109.6893     9.1281     9.0733     9.0051   -12.5321
  367.5000   108.7655     9.1928     9.2632     9.0652   -12.0827
  368.0000   106.3402     9.1934     9.5228     9.2071   -11.6190
  368.5000   104.2152     9.2804     9.5878     9.3173   -11.3337
  369.0000   102.6867     9.4555     9.7198     9.3801   -11.3356
  369.5000   102.3618     9.5894     9.7862     9.5087   -11.4874
  370.0000   102.3389     9.7251     9.7152     9.5727   -11.7896
  370.5000   103.2169     9.7259     9.6454     9.5695   -12.0919
  371.0000   105.5964     9.6586     9.5717     9.5004   -12.0933
  371.5000   107.3753     9.5919     9.4404     9.3662   -12.3955
  372.0000   108.5536     9.4593     9.3073     9.2746   -12.4030
  372.5000   109.1255     9.3287     9.2403     9.2314   -12.6995
  373.0000   109.4086     9.1998     9.1100     9.2289   -12.7010
  373.5000   109.6860     9.2006     9.1079     9.2259   -13.0032
  374.0000   108.1559     9.2011     9.1057     9.2234   -13.1550
  374.5000   106.3311     9.1375     9.1674     9.1568   -13.3068
  375.0000   108.4046     9.1383     9.1647     9.0275   -13.6090
  375.5000   111.6850     9.0751     9.2273     9.0251   -13.5865
  376.0000   113.1636     9.0758     9.1604     8.9921   -13.1608
  376.5000   112.5400     9.0765     9.1582     8.9574   -13.0119
  377.0000   112.2162     9.0772     9.0923     8.9549   -13.1640
  377.5000   112.1882     9.0778     9.0902     8.9521   -13.3159
  378.0000   109.7629     9.0784     9.0247     8.9499   -13.3173
  378.5000   106.4366     9.0790     9.0222     9.0105   -13.3188
  379.0000   108.2155     9.0797     8.9573     9.0075   -13.3206
  379.5000   110.3383     9.0803     8.9552     9.0050   -13.3220
  380.0000   111.1727     9.0809     8.8909     9.0655   -13.7746
  380.5000   111.4501     9.0815     8.8887     9.0630   -14.2272
  381.0000   111.1211     9.1221     8.8247     9.0602   -14.8301
  381.5000   110.1973     9.1466     8.8221     8.9950   -14.6692
  382.0000   109.5736     9.2114     8.8104     8.9925   -14.0815
  382.5000   111.9476     9.2120     8.7569     8.9274   -13.7818
  383.0000   114.6273     9.2127     8.7545     8.9225   -13.7836
  383.5000   115.8114     9.2133     8.7888     8.7984   -13.9354
  384.0000   115.1821     9.2141     8.8118     8.7673   -14.2376
  384.5000   113.3554     9.2147     8.9336     8.6718   -13.9383
  385.0000   112.4278     9.2153     8.9309     8.6695   -13.6394
  385.5000   114.5070     9.2159     8.9288     8.5470   -13.1897
  386.0000   117.4871     9.0885     8.8029     8.4546   -12.7400
  386.5000   118.3651     9.0258     8.6184     8.2614   -12.5907
  387.0000   119.2431     8.9012     8.4377     8.0569   -12.4421
  387.5000   120.1211     8.4174     8.0896     7.7969   -12.4436
  388.0000   120.0924     8.0158     7.8590     7.5803   -12.4451
  388.5000   118.8683     7.7951     7.5400     7.4213   -12.4469
  389.0000   117.6442     7.6875     7.3306     7.3165   -12.5987
  389.5000   118.5222     7.5812     7.2779     7.2636   -12.7505
  390.0000   121.5415     7.5290     7.2255     7.3632   -13.0527
  390.5000   122.3802     7.5295     7.3255     7.5170   -13.3549
  391.0000   121.1504     7.5829     7.5311     7.5681   -13.8075
  391.5000   121.1275     7.7985     7.7426     7.7256   -13.9597
  392.0000   120.5040     8.0203     7.9596     7.7776   -13.9611
  392.5000   119.8498     8.2503     8.0139     7.8854   -13.6618
  393.0000   118.0500     8.4831     8.0682     7.9929   -13.3621
  393.5000   116.5256     8.7243     8.1223     8.0472   -12.7624
  394.0000   112.2985     8.6036     8.1774     8.1581   -12.6135
  394.5000   111.3373     8.5442     8.1754     8.2130   -12.7657
  395.0000   111.6520     8.4854     8.1161     8.0685   -12.9174
  395.5000   111.9294     8.4859     8.0017     8.0705   -13.0692
  396.0000   111.3002     8.3686     7.9446     8.0721   -13.3714
  396.5000   110.6767     8.2531     8.1672     8.0738   -13.3732
  397.0000   110.6537     8.2536     8.1653     8.0754   -13.2239
  397.5000   110.6306     8.1965     8.0502     8.0774   -12.9250
  398.0000   109.7013     8.1972     7.9881     8.1358   -12.7757
  398.5000   107.8766     8.1978     7.9904     8.1945   -12.7775
  399.0000   107.2530     8.3154     8.1576     8.3116   -12.9293
  399.5000   107.2301     8.7317     8.3290     8.4896   -12.7804
  400.0000   107.5037     8.9800     8.5026     8.6109   -12.4817
  400.5000   108.3816     9.1710     8.6200     8.7953   -12.4875
  401.0000   111.9622     9.2360     8.6784     8.9839   -12.6436
  401.5000   112.8408     9.2366     8.7978     9.0488   -12.8000
  402.0000   112.1922     9.2372     8.9195     9.0506   -12.9574
  402.5000   109.1847     9.2378     8.9090     9.0524   -12.9632
  403.0000   109.4620     9.2386     8.8527     9.0543   -12.9689
  403.5000   111.5411     9.1109     8.7279     9.0562   -13.1251
  404.0000   113.9205     8.9848     8.7259     8.9326   -13.1309
  404.5000   113.8975     8.7989     8.6631     8.7489   -13.4376
  405.0000   112.6426     8.6169     8.5409     8.5686   -13.7454
  405.5000   109.6415     8.4978     8.4202     8.3928   -13.7512
  406.0000   106.3152     8.3221     8.2437     8.2513   -13.7569
  406.5000   105.3970     8.2070     8.1844     8.1077   -13.9131
  407.0000   111.3743     8.0936     8.1255     8.0461   -13.7684
  407.5000   117.0570     8.0376     8.1236     7.9984   -14.0088
  408.0000   116.6367     8.0383     8.1214     7.9443   -14.0822
  408.5000   114.3025     7.9271     8.0069     7.8903   -14.0880
  409.0000   113.6789     7.9277     7.9493     7.8664   -14.0938
  409.5000   113.3556     7.8730     7.9474     7.8389   -14.0996
  410.0000   112.7320     7.8736     7.8898     7.7859   -13.8045
  410.5000   109.9539     7.8192     7.7786     7.7284   -13.8105
  411.0000   108.1814     7.8198     7.7226     7.6808   -13.8176
  411.5000   110.2548     7.8203     7.6671     7.6826   -13.8234
  412.0000   117.1387     7.7664     7.6653     7.6843   -13.8292
  412.5000   118.0223     7.7669     7.6102     7.6323   -13.8349
  413.0000   114.6903     7.5803     7.5554     7.5806   -13.8407
  413.5000   111.9330     7.5783     7.6066     7.6358   -13.8466
  414.0000   111.3352     7.6293     7.6581     7.6909   -13.8537
  414.5000   110.4113     7.6806     7.7095     7.7464   -13.8586
  415.0000   108.5865     7.7865     7.7621     7.8024   -13.7135
  415.5000   107.3623     7.8510     7.8690     7.9139   -13.7203
  416.0000   107.9399     7.8917     7.9778     7.9711   -13.7265
  416.5000   109.1662     7.9448     8.0318     8.0290   -13.7323
  417.0000   110.5908     7.9421     8.0862     8.0304   -13.7383
  417.5000   110.8738     7.9956     8.0838     8.0886   -13.7444
  418.0000   111.1511     7.9929     8.0819     8.0901   -13.7510
  418.5000   110.8221     8.0473     8.0238     8.0918   -13.6064
  419.0000   109.5556     7.9886     7.9660     8.0935   -13.6120
  419.5000   105.9655     7.9865     7.9641     8.0998   -13.4676
  420.0000   105.6479     7.9288     7.9621     8.1540   -13.3230
  420.5000   111.9255     7.8881     7.9600     8.0988   -13.1784
  421.0000   115.8064     7.8690     7.9581     7.9879   -13.1856
  421.5000   115.7834     7.7578     7.8848     7.8786   -13.1914
  422.0000   112.9610     7.7018     7.8430     7.7425   -13.3476
  422.5000   109.7256     7.6462     7.7330     7.6113   -13.6566
  423.0000   109.4023     7.6442     7.6240     7.5500   -13.6613
  423.5000   110.5805     7.6421     7.5165     7.5082   -13.6671
  424.0000   111.1581     7.6396     7.4105     7.4057   -13.6729
  424.5000   110.8348     7.6375     7.2847     7.3341   -13.6787
  425.0000   109.9051     7.5297     7.2030     7.3059   -13.5338
  425.5000   110.4827     7.4753     7.1511     7.3074   -13.6902
  426.0000   111.6666     7.4213     7.0993     7.3092   -13.7203
  426.5000   112.2423     7.3677     7.0977     7.2597   -13.8536
