~VERSION INFORMATION
 VERS.                2.0:   CWLS LOG ASCII STANDARD - VERSION 2.0
 WRAP.                 NO:   ONE LINE PER DEPTH STEP
~WELL INFORMATION
#MNEM.UNIT      DATA TYPE    INFORMATION
#----------   ------------   ------------------------------
 STRT.F           29.0000:   START DEPTH
 STOP.F          720.0000:   STOP DEPTH
 STEP.F            0.5000:   STEP LENGTH
 NULL.          -999.2500:   NO VALUE
 COMP.    FENIX & SCISSON:   COMPANY
 WELL. RES 3 TEAPOT DOM #21-S-14:   WELL
 FLD .        TEAPOT DOME:   FIELD
 LOC .      S14 T38N R78W:   LOCATION
 CNTY.            NATRONA:   COUNTY
 STAT.            WYOMING:   STATE
 CTRY. UNITED STATES OF AMERICA:   COUNTRY
 SRVC.            Unknown:   SERVICE COMPANY
 DATE.        25-MAY-1978:   LOGDATE
 API .       490251063300:   API NUMBER
~CURVE INFORMATION
#MNEM.UNIT       API CODE    CURVE DESCRIPTION
#----------   ------------   ------------------------------
 DEPT.F                  :   
 CALD.IN     45 280 60 00:   CALIPER FROM DENSITY LOG
 CORR.G/C3   45 356 01 00:   DENSITY CORRECTION
 DPHI.DEC    45 890 12 00:   DENSITY POROSITY SANDSTONE
 GRD .GAPI   45 310 01 00:   GAMMA RAY FROM DENSITY LOG
 RHOB.G/C3   45 350 01 00:   BULK DENSITY
 ILD .OHMM   05 120 46 00:   INDUCTION LOG DEEP
 SN  .OHMM   05 040 16 00:   SHORT NORMAL 16"
 SPR .MV     05 010 01 00:   SPONTANEOUS POTENTIAL FROM RES.
~PARAMETER INFORMATION
#MNEM.UNIT          VALUE    DESCRIPTION
#----------   ------------   ------------------------------
 PD  .                 GL:   PERMANENT DATUM
 EPD .F              5232:   ELEVATION PERMANENT DATUM
 LMF .                 KB:   LOG MEASURED FROM
 DAPD.F                 4:   FEET ABOVE PERMANENT DATUM
 DMF .                 KB:   DRILLING MEASURED FROM
 EKB .F              5236:   KELLING BUSHING
 EGL .F              5232:   GROUND LEVEL
 DATE.        25-MAY-1978:   RUN DATE
 RUN .                  1:   RUN NUMBER
 DD  .F               716:   DEPTH DRILLER
 DL  .F               727:   DEPTH LOGGER
 BLI .F               720:   BOTTOM LOG INTERVAL
 TLI .F                44:   TOP LOG INTERVAL
 CS  .IN            8.625:   CASING SIZE
 CBD .F                40:   CASING BOTTOM DRILLER
 CBL .F                44:   CASING BOTTOM LOGGER
 BS  .IN            7.875:   BIT SIZE
 BSD .F               716:   BIT SIZE AT DEPTH
 DFT .                KCL:   DRILLING FLUID TYPE
 DFD .                8.6:   DRILLING FLUID DENSITY
 DFV .                 31:   DRILLING FLUID VISCOSITY
 DFPH.                9.5:   DRILLING FLUID PH
 DFL .               10.8:   DRILLING FLUID LOSS
 MSS .            MUD PIT:   MUD SAMPLE SOURCE
 RMS .OHMM           0.32:   RESISTIVITY MUD SAMPLE
 MST .F                82:   MUD SAMPLE TEMPERATURE
 RMF .OHMM           0.34:   RESISTIVITY MUD FILTRATE SAMPLE
 MFST.F                72:   MUD FILTRATE SAMPLE TEMPERATURE
 RMC .OHMM            0.8:   RESISTIVITY MUD CAKE
 MCST.F                72:   MUD CAKE SAMPLE TEMPERATURE
 MFSS.               MEAS:   MUD FILTRATE SAMPLE SOURCE
 RMB .OHMM           0.35:   RESISTIVITY MUD AT BHT
 BHT .F                74:   BOTTOM HOLE TEMPERATURE
 TCS .HRS               1:   TIME CURCULATED STOPPED
 MRT .F                74:   MAXIMUM RECORDED TEMPERATURE
 LUN .               2958:   LOGGING UNIT NUMBER
 LUL .               CASP:   LOGGING UNIT LOCATION
 ENGI.             MILLER:   RECORDING ENGINEER
 WITN.           MCGINLEY:   WITNESSED BY
 CLNT.            A2DTECH:   CLIENT CODE
 ORIG.           5" PRINT:   ORIGIN OF DATA
 UWI .       490251063300:   UNIQUE WELL ID
 DICO. A2D Technologies, Inc.:   DIGITIZING COMPANY
~OTHER INFORMATION
~A   DEPT     CALD       CORR       DPHI         GRD      RHOB        ILD         SN        SPR   
# ...
  191.0000     7.5141    -0.0038     0.1391    81.7436     2.4433     7.1631     6.8706   -27.7292
  191.5000     7.5006    -0.0035     0.1393    82.5088     2.4441     7.1693     6.8761   -27.7060
  192.0000     7.5024    -0.0033     0.1390    82.6769     2.4435     7.1755     6.8816   -27.6873
  192.5000     7.5038    -0.0016     0.1383    81.5017     2.4443     7.2316     6.8871   -27.6686
  193.0000     7.5053     0.0001     0.1371    79.1325     2.4452     7.1879     6.8926   -27.6500
  193.5000     7.5067     0.0003     0.1353    76.9126     2.4468     7.1957     6.8982   -27.4825
  194.0000     7.5082     0.0005     0.1319    75.2897     2.4500     7.2518     6.9529   -27.3150
  194.5000     7.5100     0.0007     0.1292    77.1388     2.4529     7.2581     7.0067   -27.2961
  195.0000     7.5114    -0.0022     0.1274    78.0187     2.4553     7.2643     7.0123   -27.2731
  195.5000     7.5129    -0.0064     0.1273    78.6346     2.4576     7.2706     7.0666   -27.2544
  196.0000     7.5143    -0.0077     0.1279    82.9818     2.4584     7.2269     7.1212   -27.2357
  196.5000     7.5307    -0.0059     0.1329    82.2544     2.4533     7.2347     7.1269   -27.2171
  197.0000     7.5322     0.0003     0.1361    78.5419     2.4482     7.1417     7.1328   -27.1984
  197.5000     7.5635     0.0079     0.1265    79.3071     2.4484     7.1479     7.0906   -27.1797
  198.0000     7.5650     0.0066     0.1328    81.5647     2.4626     7.0545     7.0460   -27.1607
  198.5000     7.5668     0.0069     0.1333    81.4344     2.4515     6.9175     6.9548   -27.2912
  199.0000     7.5682     0.0071     0.1324    81.1393     2.4493     6.7816     6.8649   -27.2679
  199.5000     7.5697     0.0058     0.1323    80.2828     2.4509     6.6945     6.6844   -27.2492
  200.0000     7.5731     0.0061     0.1299    79.6999     2.4524     6.6542     6.5525   -27.2328
  200.5000     7.5878     0.0072     0.1281    81.3612     2.4566     6.7066     6.4330   -27.2177
  201.0000     7.6041     0.0079     0.1268    81.5317     2.4587     6.7598     6.3423   -27.2026
  201.5000     7.6055     0.0081     0.1274    81.5491     2.4595     6.7177     6.3484   -27.1855
  202.0000     7.6070     0.0053     0.1345    81.5665     2.4589     6.6327     6.4441   -27.1711
  202.5000     7.6084    -0.0004     0.1375    81.5839     2.4463     6.5477     6.4502   -27.1567
  203.0000     7.5949    -0.0062     0.1393    81.4477     2.4404     6.5535     6.5010   -27.1424
  203.5000     7.5814    -0.0106     0.1440    84.9023     2.4397     6.5139     6.4607   -27.1280
  204.0000     7.5679    -0.0088     0.1481    87.1585     2.4338     6.4748     6.3780   -27.2624
  204.5000     7.5698    -0.0025     0.1430    88.5194     2.4317     6.4818     6.3855   -27.2445
  205.0000     7.5712     0.0056     0.1271    88.8358     2.4385     6.4874     6.3915   -27.2301
  205.5000     7.5727     0.0128     0.1283    87.6628     2.4453     6.5380     6.3989   -27.2157
  206.0000     7.5741     0.0100     0.1297    83.5011     2.4567     6.5890     6.4940   -27.2014
  206.5000     7.5756     0.0087     0.1306    83.2157     2.4598     6.6864     6.5452   -27.1870
  207.0000     7.5770     0.0089     0.1273    81.4464     2.4583     6.7399     6.5967   -27.1726
  207.5000     7.5785     0.0076     0.1302    79.9712     2.4577     6.7925     6.6948   -27.1583
  208.0000     7.5800     0.0079     0.1308    77.8991     2.4541     6.8928     6.7943   -27.2927
  208.5000     7.5665     0.0125     0.1259    75.9761     2.4526     6.9466     6.8501   -27.2748
  209.0000     7.5683     0.0204     0.1196    77.0388     2.4558     7.0008     6.9512   -27.2604
  209.5000     7.5697     0.0219     0.1160    76.9065     2.4678     7.0553     7.0043   -27.3984
  210.0000     7.5712     0.0176     0.1142    77.0775     2.4739     7.1104     6.9146   -27.3805
  210.5000     7.5876     0.0134     0.1159    77.3934     2.4763     7.1167     6.9227   -27.3661
  211.0000     7.5891     0.0076     0.1247    80.0974     2.4778     7.0251     6.9292   -27.3517
  211.5000     7.6055     0.0033     0.1294    78.6223     2.4615     6.9829     6.9356   -27.6350
  212.0000     7.6069     0.0035     0.1334    77.1471     2.4563     6.9409     6.9422   -27.6170
  212.5000     7.6084     0.0052     0.1289    77.9108     2.4564     6.8517     6.8533   -27.7515
  213.0000     7.6099     0.0040     0.1301    80.6249     2.4543     6.8591     6.7205   -27.7371
  213.5000     7.6116     0.0042     0.1315    80.7814     2.4536     6.7710     6.5888   -27.7227
  214.0000     7.6131     0.0074     0.1288    80.5003     2.4530     6.7770     6.5044   -27.7083
  214.5000     7.6594     0.0136     0.1252    80.5221     2.4553     6.7362     6.5105   -27.6935
  215.0000     7.6908     0.0168     0.1189    80.2410     2.4638     6.7435     6.5166   -27.6761
  215.5000     7.6769     0.0155     0.1204    79.3629     2.4705     6.7493     6.5227   -27.5129
  216.0000     7.6485     0.0127     0.1242    78.4847     2.4713     6.7552     6.5290   -27.4985
  216.5000     7.6054     0.0129     0.1244    79.6962     2.4669     6.8079     6.5818   -27.3353
  217.0000     7.5919     0.0146     0.1250    80.3106     2.4678     6.8138     6.6336   -27.3210
  217.5000     7.5934     0.0148     0.1259    80.0174     2.4664     6.8197     6.6858   -27.3065
  218.0000     7.5949     0.0181     0.1276    81.2453     2.4650     6.8258     6.6921   -27.4411
  218.5000     7.6116     0.0198     0.1279    82.0089     2.4636     6.9279     6.7448   -27.4231
  219.0000     7.6280     0.0215     0.1269    82.1756     2.4614     6.9340     6.7979   -27.5575
  219.5000     7.6444     0.0292     0.1236    81.5960     2.4593     7.0364     6.8576   -27.5432
  220.0000     7.6309     0.0458     0.1155    79.5238     2.4729     7.0913     7.0031   -27.6776
  220.5000     7.6025     0.0445     0.1146    79.8397     2.4775     7.2459     7.1565   -27.6632
  221.0000     7.5886     0.0118     0.1348    80.6034     2.4775     7.4038     7.3639   -27.6488
  221.5000     7.5905    -0.0015     0.1342    79.7179     2.4567     7.5688     7.5252   -27.7833
  222.0000     7.5919    -0.0009     0.1246    77.6532     2.4478     7.6787     7.5322   -27.9142
  222.5000     7.5784     0.0080     0.1263    79.0182     2.4599     7.5784     7.4873   -27.8998
  223.0000     7.5802     0.0082     0.1269    79.6326     2.4645     7.4810     7.3915   -27.8854
  223.5000     7.5817     0.0114     0.1239    79.2022     2.4623     7.2853     7.2986   -27.8711
  224.0000     7.5832     0.0146     0.1215    77.7271     2.4647     7.1901     7.2034   -27.7079
  224.5000     7.5846     0.0207     0.1234    78.1923     2.4670     7.0991     7.0639   -27.5446
  225.0000     7.5861     0.0090     0.1338    81.7918     2.4604     7.0081     6.9238   -27.5298
  225.5000     7.5875     0.0032     0.1315    81.2122     2.4515     6.9181     6.7430   -27.5124
  226.0000     7.5890     0.0049     0.1294    79.0906     2.4486     6.8765     6.6566   -27.4980
  226.5000     7.5904     0.0052     0.1287    77.6649     2.4592     6.8351     6.6170   -27.4837
  227.0000     7.5919     0.0054     0.1266    81.7165     2.4600     6.9376     6.6707   -27.4693
  227.5000     7.5937     0.0040     0.1257    84.8682     2.4616     6.9917     6.7698   -27.4549
  228.0000     7.5952     0.0043     0.1250    85.1841     2.4639     7.0462     6.8704   -27.4405
  228.5000     7.5966     0.0029     0.1247    82.5150     2.4648     7.1503     6.9725   -27.4256
  229.0000     7.5828    -0.0014     0.1259    76.7115     2.4641     7.2062     7.0762   -27.4082
  229.5000     7.5995    -0.0026     0.1294    78.0721     2.4605     7.2638     7.1813   -27.3939
  230.0000     7.5857    -0.0024     0.1323    78.0896     2.4539     7.2701     7.1915   -27.3795
  230.5000     7.5427    -0.0007     0.1329    77.6592     2.4517     7.2764     7.2464   -27.3651
  231.0000     7.5142     0.0011     0.1203    79.3227     2.4541     7.3332     7.3034   -27.5000
