~VERSION INFORMATION
 VERS.                2.0:   CWLS LOG ASCII STANDARD - VERSION 2.0
 WRAP.                 NO:   ONE LINE PER DEPTH STEP
~WELL INFORMATION
#MNEM.UNIT      DATA TYPE    INFORMATION
#----------   ------------   ------------------------------
 STRT.F           14.0000:   START DEPTH
 STOP.F          549.0000:   STOP DEPTH
 STEP.F            0.5000:   STEP LENGTH
 NULL.          -999.2500:   NO VALUE
 COMP.   LAWRENCE-ALLISON:   COMPANY
 WELL.    NPR 3 #58-64SX3:   WELL
 FLD .           NPR NO 3:   FIELD
 LOC .       S3 T38N R78W:   LOCATION
 CNTY.            NATRONA:   COUNTY
 STAT.            WYOMING:   STATE
 CTRY. UNITED STATES OF AMERICA:   COUNTRY
 SRVC.      Dresser Atlas:   SERVICE COMPANY
 DATE.        05-DEC-1984:   LOGDATE
 API .       490251099700:   API NUMBER
~CURVE INFORMATION
#MNEM.UNIT       API CODE    CURVE DESCRIPTION
#----------   ------------   ------------------------------
 DEPT.F                  :   
 RFOC.OHMM   07 220 04 00:   RESISTIVITY FOCUSED LOG
 RILD.OHMM   07 120 46 00:   INDUCTION LOG DEEP RESISTIVITY
 RILM.OHMM   07 120 44 00:   INDUCTION LOG MEDIUM RESISTIVITY
 SPR .MV     07 010 01 00:   SPONTANEOUS POTENTIAL
 DT  .US/F   60 520 00 00:   INTERVAL TRANSIT TIME
 CALD.IN     45 280 60 00:   CALIPER FROM DENSITY LOG
 CORR.G/C3   45 356 01 00:   DENSITY CORRECTION
 CNC .DEC    42 890 03 00:   NEUTRON POROSITY SANDSTONE
 DEN .G/C3   45 350 01 00:   COMPENSATED BULK DENSTIY
 GRD .GAPI   45 310 01 00:   GAMMA RAY FROM DENSITY LOG
 PORD.DEC    45 890 12 00:   POROSITY DENSITY SANDSTONE
~PARAMETER INFORMATION
#MNEM.UNIT          VALUE    DESCRIPTION
#----------   ------------   ------------------------------
 PD  .                 GL:   PERMANENT DATUM
 EPD .F              5188:   ELEVATION PERMANENT DATUM
 LMF .                 KB:   LOG MEASURED FROM
 DMF .                 KB:   DRILLING MEASURED FROM
 EGL .F              5188:   GROUND LEVEL
 DATE.        05-DEC-1984:   RUN DATE
 RUN .                  1:   RUN NUMBER
 DD  .F               556:   DEPTH DRILLER
 DL  .F               551:   DEPTH LOGGER
 BLI .F               548:   BOTTOM LOG INTERVAL
 CS  .IN            8.625:   CASING SIZE
 CBD .F                20:   CASING BOTTOM DRILLER
 CBL .F                20:   CASING BOTTOM LOGGER
 BS  .IN            7.875:   BIT SIZE
 BSD .F               556:   BIT SIZE AT DEPTH
 DFT .          KCL WATER:   DRILLING FLUID TYPE
 MSS .           FLOWLINE:   MUD SAMPLE SOURCE
 RMS .OHMM            .36:   RESISTIVITY MUD SAMPLE
 MST .F                70:   MUD SAMPLE TEMPERATURE
 RMF .OHMM            .26:   RESISTIVITY MUD FILTRATE SAMPLE
 MFST.F                70:   MUD FILTRATE SAMPLE TEMPERATURE
 RMC .OHMM            .46:   RESISTIVITY MUD CAKE
 MCST.F                70:   MUD CAKE SAMPLE TEMPERATURE
 MFSS.               CALC:   MUD FILTRATE SAMPLE SOURCE
 MCSS.               CALC:   MUD CAKE SAMPLE SOURCE
 RMB .OHMM            .29:   RESISTIVITY MUD AT BHT
 BHT .F                85:   BOTTOM HOLE TEMPERATURE
 TCS .HRS               3:   TIME CURCULATED STOPPED
 MRT .F               100:   MAXIMUM RECORDED TEMPERATURE
 LUN .               6274:   LOGGING UNIT NUMBER
 LUL .               GLTE:   LOGGING UNIT LOCATION
 ENGI.             PAUTIO:   RECORDING ENGINEER
 WITN.       GROONS/LUERS:   WITNESSED BY
 CLNT.            A2DTECH:   CLIENT CODE
 ORIG.           5" PRINT:   ORIGIN OF DATA
 UWI .       490251099700:   UNIQUE WELL ID
 DICO. A2D Technologies, Inc.:   DIGITIZING COMPANY
~OTHER INFORMATION
~A   DEPT     RFOC       RILD       RILM        SPR         DT       CALD       CORR          CNC      DEN         GRD      PORD   
# ...
  288.5000    26.1198    27.5984    25.1262   -51.0662    98.7619     8.0614     0.0432     0.2650     2.3586    79.8724     0.1875
  289.0000    24.2593    27.1759    24.0280   -51.3949    97.5770     8.0605     0.0352     0.2594     2.3800    78.6296     0.1751
  289.5000    23.5415    26.5648    23.6590   -51.7092    97.0256     8.0596     0.0383     0.2524     2.4046    78.2963     0.1612
  290.0000    23.3515    25.9675    23.2957   -52.0513    97.3500     8.0587     0.0446     0.2479     2.4173    77.9218     0.1586
  290.5000    23.3329    25.1986    23.1062   -52.6872    97.5143     8.0577     0.0397     0.2448     2.4157    77.6306     0.1580
  291.0000    23.3144    24.4525    22.9181   -53.2919    97.5993     8.0568     0.0333     0.2452     2.4101    78.5320     0.1603
  291.5000    23.4671    24.0781    22.8983   -53.4594    97.6842     8.0559     0.0332     0.2468     2.4013    82.5137     0.1677
  292.0000    23.4481    23.7064    22.7119   -53.6270    97.7691     8.0859     0.0363     0.2462     2.3989    87.4274     0.1683
  292.5000    23.2587    23.1733    22.6922   -53.9484    97.6159     8.0695     0.0394     0.2444     2.4029    88.3350     0.1642
  293.0000    23.0708    23.1549    22.5076   -53.9621    97.2247     8.0686     0.0425     0.2404     2.4109    86.1438     0.1582
  293.5000    22.7176    23.1365    22.1619   -53.6647    96.9128     8.0522     0.0424     0.2356     2.4179    84.2674     0.1570
  294.0000    22.5100    23.1181    21.9816   -53.5245    96.8376     8.0513     0.0360     0.2302     2.4138    88.2553     0.1583
  294.5000    22.1892    23.0997    21.8027   -53.0767    97.0033     8.0349     0.0359     0.2445     2.4098    87.9221     0.1602
  295.0000    22.0065    22.9131    21.6253   -52.9365    97.0882     8.0340     0.0390     0.2506     2.4090    86.6630     0.1619
  295.5000    21.8289    22.8949    21.6065   -53.1075    97.0130     8.0331     0.0421     0.2535     2.4072    83.5520     0.1643
  296.0000    21.6526    22.8767    21.7461   -53.1212    96.9392     8.0321     0.0436     0.2523     2.4032    81.0584     0.1677
  296.5000    21.7985    22.8585    22.2133   -53.1349    96.7874     8.0312     0.0308     0.2511     2.3977    81.6573     0.1693
  297.0000    22.2597    23.0080    22.5276   -53.4563    96.7136     8.0303     0.0212     0.2498     2.3969    82.2439     0.1693
  297.5000    22.9019    23.6724    23.1633   -53.6238    96.0842     8.0294     0.0259     0.2467     2.3976    84.3799     0.1681
  298.0000    23.9097    24.5348    23.8564   -53.9452    93.9469     8.0284     0.0226     0.2251     2.4056    86.2072     0.1560
  298.5000    24.9618    25.9929    25.2358   -54.1128    86.8096     8.0430     0.0193     0.2009     2.4564    88.0345     0.1377
  299.0000    26.4440    27.3369    27.3234   -54.1264    83.9581     8.0420     0.0240     0.1886     2.4818    88.9420     0.1248
  299.5000    27.4120    28.7504    27.1010   -54.1401    81.5827     8.0411     0.0256     0.1919     2.5008    87.0595     0.1001
  300.0000    26.6009    28.9384    26.4964   -53.6934    83.0948     8.0402     0.0287     0.2033     2.4897    86.1152     0.1059
  300.5000    25.6198    28.0778    25.6954   -53.3960    84.6395     8.0386     0.0303     0.2228     2.4689    85.4584     0.1251
  301.0000    24.5115    26.4606    24.1867   -53.1021    90.7164     8.0371     0.0417     0.2295     2.4442    84.8107     0.1401
  301.5000    22.9433    25.4899    22.4665   -52.9619    93.8618     8.0355     0.0559     0.2324     2.4195    83.5457     0.1490
  302.0000    21.7912    24.5548    21.3167   -52.9791    95.5122     8.0337     0.0504     0.2362     2.4075    82.5893     0.1630
  302.5000    21.3100    23.4816    20.1438   -52.9928    96.0661     8.0322     0.0455     0.2391     2.4011    81.3244     0.1681
  303.0000    20.9921    22.7863    19.5497   -53.0065    96.4698     8.0307     0.0422     0.2419     2.3971    80.9853     0.1704
  303.5000    20.6790    22.4374    19.1122   -53.0202    96.7942     8.0291     0.0405     0.2456     2.3962    81.5722     0.1707
  304.0000    20.6700    22.0939    19.0984   -53.0339    97.1025     8.0276     0.0388     0.2507     2.3962    82.4677     0.1698
  304.5000    20.3617    21.7557    18.9457   -53.2015    97.4247     8.0261     0.0339     0.2542     2.3969    83.3632     0.1692
  305.0000    20.2049    21.5799    18.7943   -53.2154    97.6675     8.0246     0.0290     0.2501     2.3976    83.3328     0.1689
  305.5000    20.1961    21.4055    18.7807   -53.2292    97.8310     8.0230     0.0257     0.2416     2.3975    83.3024     0.1709
  306.0000    20.1874    21.3885    18.6306   -53.2431    97.7564     8.0374     0.0192     0.2371     2.3879    83.9053     0.1747
  306.5000    20.1786    21.0610    18.6171   -53.2569    97.5230     8.0354     0.0206     0.2398     2.3831    85.1625     0.1779
  307.0000    20.3176    20.7386    18.4683   -53.2734    97.1309     8.0339     0.0237     0.2440     2.3830    89.4896     0.1777
  307.5000    20.4576    20.7221    18.4550   -53.2871    96.6594     8.0324     0.0315     0.2503     2.3830    91.2055     0.1752
  308.0000    20.5985    20.7056    18.7130   -53.3008    97.2197     8.0309     0.0378     0.2538     2.3869    86.8465     0.1704
  308.5000    20.7404    20.6890    18.9781   -53.1573    98.0975     8.0448     0.0376     0.2500     2.3964    85.2805     0.1698
  309.0000    20.7312    20.8244    19.5237   -53.1744    99.0546     8.0433     0.0343     0.2453     2.3979    86.1684     0.1708
  309.5000    20.8743    20.9606    19.7965   -53.0308    99.6149     8.0417     0.0310     0.2444     2.3931    87.9898     0.1727
  310.0000    20.7113    20.9439    20.0732   -52.7369    99.7783     8.0402     0.0327     0.2493     2.3906    87.3421     0.1741
  310.5000    20.7023    21.0809    20.2056   -52.6002    99.7831     8.0383     0.0403     0.2499     2.3890    86.0772     0.1744
  311.0000    20.5428    21.0599    20.1908   -52.4600    99.6279     8.0368     0.0497     0.2483     2.3881    84.5035     0.1738
  311.5000    20.5354    20.8897    20.1761   -52.4737    99.3163     8.0353     0.0576     0.2445     2.3888    82.6213     0.1732
  312.0000    20.2276    20.8731    20.0146   -52.6413    99.0036     8.0496     0.0558     0.2382     2.3904    87.2205     0.1725
  312.5000    20.0718    20.5535    20.0000   -52.8088    98.5321     8.0477     0.0493     0.2319     2.3935    92.7456     0.1710
  313.0000    19.7724    20.3623    19.5495   -53.1302    98.0607     8.0462     0.0444     0.2275     2.3960    92.4066     0.1692
  313.5000    19.6202    20.0753    19.3932   -53.4516    97.5099     8.0601     0.0364     0.2288     2.4005    91.4503     0.1688
  314.0000    19.3275    19.9131    19.0982   -53.7730    96.8003     8.0586     0.0251     0.2307     2.3925    89.8725     0.1708
  314.5000    18.9007    19.6083    18.8076   -53.7868    96.2495     8.0416     0.0138     0.2327     2.3892    88.5885     0.1728
  315.0000    18.4834    19.3081    18.5215   -53.8005    95.8574     8.0401     0.0009     0.2360     2.3916    88.2726     0.1709
  315.5000    18.1190    18.8739    18.3734   -53.8142    96.0208     8.0385     0.0024     0.2410     2.3971    88.8595     0.1687
  316.0000    17.6761    18.5850    18.2266   -53.8279    96.4224     8.0370     0.0118     0.2418     2.3946    86.3523     0.1726
  316.5000    17.4125    18.3004    17.9508   -53.6877    96.9033     8.0355     0.0151     0.2376     2.3842    84.4701     0.1771
  317.0000    17.1527    18.1526    17.8071   -53.7015    97.3049     8.0495     0.0116     0.2335     2.3834    83.2051     0.1761
  317.5000    16.7740    17.8747    17.6635   -53.5613    97.1509     8.0479     0.0131     0.2297     2.3865    83.1747     0.1717
  318.0000    16.4036    17.7303    17.3947   -53.5754    96.6794     8.0309     0.0241     0.2396     2.4079    84.0778     0.1641
  318.5000    16.2773    17.4588    17.3822   -53.6118    96.2080     8.0294     0.0371     0.2426     2.4166    83.1139     0.1584
