~VERSION INFORMATION
 VERS.                2.0:   CWLS LOG ASCII STANDARD - VERSION 2.0
 WRAP.                 NO:   ONE LINE PER DEPTH STEP
~WELL INFORMATION
#MNEM.UNIT      DATA TYPE    INFORMATION
#----------   ------------   ------------------------------
 STRT.F           24.0000:   START DEPTH
 STOP.F          487.5000:   STOP DEPTH
 STEP.F            0.5000:   STEP LENGTH
 NULL.          -999.2500:   NO VALUE
 COMP. FENIX & SCISSON INC:   COMPANY
 WELL.       NPR #35-SX-3:   WELL
 FLD .        TEAPOT DOME:   FIELD
 LOC .       S3 T38N R78W:   LOCATION
 CNTY.            NATRONA:   COUNTY
 STAT.            WYOMING:   STATE
 CTRY. UNITED STATES OF AMERICA:   COUNTRY
 SRVC.       Schlumberger:   SERVICE COMPANY
 DATE.        26-MAR-1977:   LOGDATE
 API .       490251030700:   API NUMBER
~CURVE INFORMATION
#MNEM.UNIT       API CODE    CURVE DESCRIPTION
#----------   ------------   ------------------------------
 DEPT.F                  :   
 SPR .MV     07 010 01 00:   SPONTANEOUS POTENTIAL
 LL8 .OHMM   07 220 08 00:   LATEROLOG-8 RES.
 ILD .OHMM   07 120 46 00:   INDUCTION LOG DEEP
 ILM .OHMM   07 120 44 00:   INDUCTION LOG MEDIUM
 CALD.IN     45 280 60 00:   CALIPER FROM DENSITY LOG
 RHOB.G/C3   45 350 01 00:   BULK DENSITY
 DPOR.DEC    45 890 12 00:   DENSITY POROSITY SANDSTONE
 CORR.G/C3   45 356 01 00:   DENSITY CORRECTION
 GRD .GAPI   45 310 01 00:   GAMMA RAY FROM DENSITY LOG
~PARAMETER INFORMATION
#MNEM.UNIT          VALUE    DESCRIPTION
#----------   ------------   ------------------------------
 PD  .                 GL:   PERMANENT DATUM
 EPD .F          EST 5200:   ELEVATION PERMANENT DATUM
 LMF .                 GL:   LOG MEASURED FROM
 DMF .                 KB:   DRILLING MEASURED FROM
 EKB .F              5205:   KELLING BUSHING
 EGL .F          EST 5200:   GROUND LEVEL
 DATE.            3-26-77:   RUN DATE
 RUN .                  1:   RUN NUMBER
 DD  .F               524:   DEPTH DRILLER
 DL  .F               489:   DEPTH LOGGER
 BLI .F               483:   BOTTOM LOG INTERVAL
 TLI .F                39:   TOP LOG INTERVAL
 CS  .IN            8.625:   CASING SIZE
 CBD .F                40:   CASING BOTTOM DRILLER
 CBL .F                39:   CASING BOTTOM LOGGER
 BS  .IN            7.875:   BIT SIZE
 BSD .F               524:   BIT SIZE AT DEPTH
 DFT .                KCL:   DRILLING FLUID TYPE
 DFD .                8.8:   DRILLING FLUID DENSITY
 DFV .                 31:   DRILLING FLUID VISCOSITY
 DFPH.                  8:   DRILLING FLUID PH
 DFL .                9.1:   DRILLING FLUID LOSS
 MSS .          FLOW LINE:   MUD SAMPLE SOURCE
 RMS .OHMM            .18:   RESISTIVITY MUD SAMPLE
 MST .F                76:   MUD SAMPLE TEMPERATURE
 RMF .OHMM            .15:   RESISTIVITY MUD FILTRATE SAMPLE
 MFST.F                76:   MUD FILTRATE SAMPLE TEMPERATURE
 RMC .OHMM             .1:   RESISTIVITY MUD CAKE
 MCST.F                76:   MUD CAKE SAMPLE TEMPERATURE
 MFSS.                  M:   MUD FILTRATE SAMPLE SOURCE
 MCSS.                  C:   MUD CAKE SAMPLE SOURCE
 RMB .OHMM            .25:   RESISTIVITY MUD AT BHT
 BHT .F                55:   BOTTOM HOLE TEMPERATURE
 TCS .HRS               6:   TIME CURCULATED STOPPED
 MRT .F            EST 55:   MAXIMUM RECORDED TEMPERATURE
 LUN .               5642:   LOGGING UNIT NUMBER
 LUL .               CSPR:   LOGGING UNIT LOCATION
 ENGI.     LOHBECK/MARTIN:   RECORDING ENGINEER
 WITN.         STUEBINGER:   WITNESSED BY
 CLNT.            A2DTECH:   CLIENT CODE
 ORIG.       2", 5" PRINT:   ORIGIN OF DATA
 UWI .       490251030700:   UNIQUE WELL ID
 DICO. A2D Technologies, Inc.:   DIGITIZING COMPANY
~OTHER INFORMATION
~A   DEPT      SPR        LL8        ILD        ILM       CALD       RHOB       DPOR       CORR        GRD   
# ...
  352.5000   -41.6495    23.5324    21.5334    22.6863     8.1613     2.3587     0.1762     0.0281    87.4126
  353.0000   -41.6904    23.2192    21.2550    22.4909     8.1622     2.3547     0.1837     0.0228    86.5688
  353.5000   -41.7329    22.9103    20.9802    22.2971     8.1631     2.3699     0.1710     0.0331    87.1495
  354.0000   -41.7762    22.8441    20.7089    22.0430     8.1640     2.3628     0.1779     0.0207    87.7662
  354.5000   -41.8191    22.8087    20.4411    22.0456     8.1649     2.3549     0.1798     0.0140    88.0974
  355.0000   -41.8491    22.7739    20.1768    22.0441     8.1659     2.3722     0.1722     0.0287    89.3222
  355.5000   -41.8496    22.7391    19.9160    22.0442     8.1668     2.3805     0.1626     0.0350    91.9294
  356.0000   -41.8827    22.7042    19.7104    22.0434     8.1677     2.3598     0.1790     0.0208    95.2683
  356.5000   -42.0041    22.6691    19.6424    22.0446     8.1686     2.3812     0.1645     0.0369    96.3715
  357.0000   -42.1223    22.3758    19.5745    21.7408     8.1695     2.3763     0.1674     0.0435    91.6571
  357.5000   -42.2489    22.0497    19.5069    21.4617     8.1704     2.3843     0.1686     0.0352    89.2681
  358.0000   -42.0038    21.7283    19.4395    21.1862     8.1713     2.3905     0.1558     0.0420    87.0554
  358.5000   -41.8518    21.2441    19.3723    20.9143     8.1723     2.3824     0.1611     0.0341    86.6541
  359.0000   -41.8505    21.3144    19.3054    20.6629     8.1726     2.3751     0.1676     0.0255    88.2389
  359.5000   -41.9809    21.4662    19.2387    20.8327     8.1726     2.3566     0.1784     0.0169    89.8939
  360.0000   -42.2226    21.6307    19.0129    20.9935     8.1726     2.3390     0.1910     0.0189    90.4519
  360.5000   -42.4649    21.5628    19.1510    21.0486     8.1726     2.3444     0.1884     0.0313    90.7818
  361.0000   -42.7080    21.4415    19.2745    21.0486     8.1726     2.3671     0.1765     0.0435    90.7940
  361.5000   -42.9511    21.5108    19.4010    21.0486     8.1726     2.3822     0.1631     0.0476    89.8674
  362.0000   -43.1940    21.6641    19.5299    21.0486     8.1726     2.3808     0.1649     0.0405    88.2188
  362.5000   -43.4369    21.8417    19.1813    21.0486     8.1726     2.3924     0.1624     0.0366    88.4763
  363.0000   -43.6799    21.6092    18.7599    20.7723     8.1748     2.4145     0.1416     0.0604    88.5419
  363.5000   -43.9228    21.2561    18.3477    20.5125     8.1851     2.4185     0.1442     0.0540    87.2870
  364.0000   -44.1657    20.9082    17.9446    19.5461     8.1952     2.4384     0.1274     0.0840    86.3818
  364.5000   -44.4087    20.8553    17.3337    18.1923     8.2056     2.4765     0.1041     0.1276    84.5353
  365.0000   -44.6516    20.8610    17.3729    16.9323     8.2092     2.4827     0.0966     0.1077    83.9939
  365.5000   -44.8945    20.4053    17.4622    15.6573     8.1409     2.4864     0.0985     0.0766    81.2316
  366.0000   -45.1378    19.3778    18.2678    18.1049     8.0735     2.5162     0.0857     0.0450    78.1945
  366.5000   -45.3818    24.6167    19.5504    22.2494     8.0159     2.5317     0.0737     0.0166    72.3972
  367.0000   -45.6228    39.5620    20.9230    29.6244     8.0483     2.5200     0.0725     0.0193    66.9740
  367.5000   -45.8159    73.3437    22.2645    45.7672     8.0808     2.5027     0.0952     0.0268    64.8721
  368.0000   -45.7058    67.6404    23.2443    45.0484     8.1130     2.4848     0.1136     0.0177    63.5481
  368.5000   -45.6222    56.0051    24.2672    43.4158     8.1449     2.4751     0.1122     0.0345    67.0977
  369.0000   -45.4057    47.4478    25.0914    39.2021     8.1703     2.4589     0.1223     0.0426    73.6635
  369.5000   -45.4291    43.5154    24.6232    32.4077     8.1447     2.4426     0.1318     0.0139    82.7436
  370.0000   -45.5817    35.3801    24.2474    26.7909     8.1194     2.4667     0.1191     0.0395    88.7984
  370.5000   -45.7394    26.7290    21.8606    22.5220     8.0943     2.4815     0.1118     0.0634    91.2301
  371.0000   -45.8952    20.2843    19.3296    20.1039     8.0931     2.4483     0.1244     0.0556    90.4634
  371.5000   -45.9978    18.8379    17.3666    17.9454     8.0932     2.4420     0.1280     0.0729    88.3919
  372.0000   -45.8178    18.9193    16.1309    17.0933     8.0933     2.4443     0.1230     0.0798    86.3408
  372.5000   -45.6428    19.0034    15.5942    16.9624     8.0933     2.4376     0.1320     0.0603    84.8620
  373.0000   -45.4687    18.9063    15.0753    16.8594     8.0933     2.4248     0.1466     0.0669    85.0230
  373.5000   -45.2943    18.7327    14.6294    17.1226     8.0932     2.4219     0.1410     0.0530    86.8814
  374.0000   -45.1198    18.5902    14.4070    17.3435     8.0932     2.4134     0.1474     0.0454    88.7160
  374.5000   -44.9450    18.4681    14.4762    17.5672     8.0933     2.4262     0.1366     0.0578    88.2342
  375.0000   -44.7719    18.3467    14.5455    17.6572     8.0988     2.4240     0.1418     0.0489    86.8643
  375.5000   -44.6275    18.0412    14.6151    17.4955     8.1132     2.4339     0.1310     0.0567    88.3402
  376.0000   -44.6320    17.6955    14.6850    17.0966     8.1274     2.4329     0.1394     0.0371    89.9118
  376.5000   -44.6323    17.3564    14.7552    16.7040     8.1417     2.4405     0.1254     0.0392    89.0555
  377.0000   -44.6319    17.0238    14.8122    16.1519     8.1560     2.4351     0.1287     0.0325    86.7977
  377.5000   -44.6320    16.6975    14.7525    15.6144     8.1702     2.4273     0.1341     0.0257    84.8593
  378.0000   -44.6461    16.2472    14.6926    15.0887     8.1843     2.4195     0.1395     0.0289    85.1308
  378.5000   -44.7216    16.4540    14.6329    15.1749     8.1881     2.4118     0.1449     0.0291    88.9757
  379.0000   -44.7894    16.8121    14.5735    15.2627     8.1778     2.4195     0.1490     0.0200    92.8413
  379.5000   -45.0489    17.3337    14.5142    15.3510     8.1677     2.4401     0.1345     0.0488    95.7304
  380.0000   -45.1292    16.9203    14.4553    15.4398     8.1575     2.4609     0.1229     0.0380    96.1884
  380.5000   -45.2831    15.9495    14.3883    15.5132     8.1474     2.4650     0.1166     0.0342    93.9005
  381.0000   -45.4421    16.0561    14.2838    15.2345     8.1372     2.4480     0.1290     0.0369    94.2478
  381.5000   -45.6039    16.2472    14.1802    15.0020     8.1271     2.4553     0.1186     0.0301    96.5824
  382.0000   -45.5214    16.0551    14.0772    14.7730     8.1170     2.4508     0.1215     0.0417    98.6650
  382.5000   -45.3962    15.6889    13.9750    14.5476     8.1068     2.4449     0.1257     0.0462    96.6794
  383.0000   -45.2690    15.7687    13.8736    14.3255     8.0967     2.4527     0.1277     0.0504    96.1545
  383.5000   -45.1423    16.0731    13.7729    14.1444     8.0865     2.4479     0.1216     0.0574    95.6515
  384.0000   -45.0158    16.3994    13.6294    14.3775     8.0759     2.4416     0.1282     0.0508    94.4234
  384.5000   -44.8893    16.3253    13.6568    14.5842     8.0796     2.4235     0.1389     0.0716    92.4604
  385.0000   -44.7629    16.2475    13.7326    14.7932     8.0915     2.4031     0.1525     0.0275    90.8091
  385.5000   -44.6364    16.6402    13.8088    15.0048     8.1035     2.4135     0.1438     0.0319    88.0960
  386.0000   -44.5099    17.0591    13.8856    15.2194     8.1154     2.4030     0.1526     0.0151    85.2433
  386.5000   -44.3846    17.2819    13.9627    15.4370     8.1275     2.4127     0.1438     0.0232    85.0075
  387.0000   -44.2584    16.6809    14.0402    15.6577     8.1247     2.4197     0.1418     0.0194    86.9451
  387.5000   -44.1109    16.0977    14.1182    15.9096     8.1099     2.4323     0.1332     0.0222    90.6883
  388.0000   -43.7245    16.5430    14.1966    16.2185     8.0949     2.4467     0.1247     0.0464    92.8931
  388.5000   -44.0604    17.3858    14.2754    16.5505     8.0799     2.4635     0.1158     0.0433    93.5222
