~VERSION INFORMATION
 VERS.                2.0:   CWLS LOG ASCII STANDARD - VERSION 2.0
 WRAP.                 NO:   ONE LINE PER DEPTH STEP
~WELL INFORMATION
#MNEM.UNIT      DATA TYPE    INFORMATION
#----------   ------------   ------------------------------
 STRT.F           30.0000:   START DEPTH
 STOP.F          481.0000:   STOP DEPTH
 STEP.F            0.5000:   STEP LENGTH
 NULL.          -999.2500:   NO VALUE
 COMP. FENIX & SCISSON INC:   COMPANY
 WELL.       NPR-3 #47-10:   WELL
 FLD .             TEAPOT:   FIELD
 LOC .      S10 T38N R78W:   LOCATION
 CNTY.            NATRONA:   COUNTY
 STAT.            WYOMING:   STATE
 CTRY. UNITED STATES OF AMERICA:   COUNTRY
 SRVC.           BIRDWELL:   SERVICE COMPANY
 DATE.        16-JUN-1978:   LOGDATE
 API .       490251064800:   API NUMBER
~CURVE INFORMATION
#MNEM.UNIT       API CODE    CURVE DESCRIPTION
#----------   ------------   ------------------------------
 DEPT.F                  :   
 SPR .MV     05 010 01 00:   SPONTANEOUS POTENTIAL FROM RES.
 SN  .OHMM   05 040 16 00:   SHORT NORMAL 16"
 ILD .OHMM   05 120 46 00:   INDUCTION LOG DEEP
 CALD.IN     45 280 60 00:   CALIPER FROM DENSITY LOG
 GRD .GAPI   45 310 01 00:   GAMMA RAY FROM DENSITY LOG
 CORR.G/C3   45 356 01 00:   DENSITY CORRECTION
 DPHI.DEC    45 890 12 00:   DENSITY POROSITY SANDSTONE
 DEN .G/C3   45 350 01 00:   COMPENSATED BULK DENSITY
~PARAMETER INFORMATION
#MNEM.UNIT          VALUE    DESCRIPTION
#----------   ------------   ------------------------------
 PD  .                 GL:   PERMANENT DATUM
 EPD .F              5200:   ELEVATION PERMANENT DATUM
 LMF .                 KB:   LOG MEASURED FROM
 DAPD.F                 4:   FEET ABOVE PERMANENT DATUM
 DMF .                 KB:   DRILLING MEASURED FROM
 EKB .F              5204:   KELLING BUSHING
 EGL .F              5200:   GROUND LEVEL
 DATE.        16-JUN-1978:   RUN DATE
 RUN .                  1:   RUN NUMBER
 DD  .F               513:   DEPTH DRILLER
 DL  .F               481:   DEPTH LOGGER
 BLI .F               475:   BOTTOM LOG INTERVAL
 TLI .F                40:   TOP LOG INTERVAL
 CS  .IN            8.625:   CASING SIZE
 CBD .F                40:   CASING BOTTOM DRILLER
 CBL .F                40:   CASING BOTTOM LOGGER
 BS  .IN            7.875:   BIT SIZE
 BSD .F               513:   BIT SIZE AT DEPTH
 DFT .                KCL:   DRILLING FLUID TYPE
 DFD .                8.6:   DRILLING FLUID DENSITY
 DFV .                 30:   DRILLING FLUID VISCOSITY
 DFPH.                 10:   DRILLING FLUID PH
 DFL .                 16:   DRILLING FLUID LOSS
 MSS .           FLOWLINE:   MUD SAMPLE SOURCE
 RMS .OHMM            .36:   RESISTIVITY MUD SAMPLE
 MST .F                72:   MUD SAMPLE TEMPERATURE
 RMF .OHMM            .34:   RESISTIVITY MUD FILTRATE SAMPLE
 MFST.F                70:   MUD FILTRATE SAMPLE TEMPERATURE
 RMC .OHMM            .52:   RESISTIVITY MUD CAKE
 MCST.F                72:   MUD CAKE SAMPLE TEMPERATURE
 MFSS.               MEAS:   MUD FILTRATE SAMPLE SOURCE
 MCSS.               MEAS:   MUD CAKE SAMPLE SOURCE
 RMB .OHMM            .32:   RESISTIVITY MUD AT BHT
 BHT .F                82:   BOTTOM HOLE TEMPERATURE
 TCS .HRS            0400:   TIME CURCULATED STOPPED
 MRT .F                82:   MAXIMUM RECORDED TEMPERATURE
 LUN .               2958:   LOGGING UNIT NUMBER
 LUL .               CASP:   LOGGING UNIT LOCATION
 ENGI.           REYNOLDS:   RECORDING ENGINEER
 WITN.           MCGINLEY:   WITNESSED BY
 CLNT.            A2DTECH:   CLIENT CODE
 ORIG.           5" PRINT:   ORIGIN OF DATA
 UWI .       490251064800:   UNIQUE WELL ID
 DICO. A2D Technologies, Inc.:   DIGITIZING COMPANY
~OTHER INFORMATION
~A   DEPT      SPR         SN        ILD       CALD         GRD      CORR       DPHI        DEN   
# ...
  354.0000   -48.8268    10.6763     9.6702     7.0495   105.4709     0.0136     0.1209     2.4728
  354.5000   -48.2207    11.2021    10.2809     7.0657   104.7362     0.0167     0.1235     2.4654
  355.0000   -47.4825    12.5229    10.8916     7.0816    99.3747     0.0228     0.1245     2.4617
  355.5000   -46.8743    14.5607    11.7563     7.0535    90.5803     0.0259     0.1334     2.4528
  356.0000   -46.3002    15.7061    12.9471     7.0548    83.8755     0.0424     0.1480     2.4185
  356.5000   -46.9054    16.9314    13.9616     7.0561    75.5289     0.0521     0.1596     2.4036
  357.0000   -45.5024    17.7646    14.8483     7.0577    71.9584     0.0650     0.1683     2.3902
  357.5000   -44.9623    18.5170    15.7908     7.0590    69.5771     0.0547     0.1769     2.3694
  358.0000   -44.9669    19.2880    16.2282     6.8520    68.9966     0.0325     0.1844     2.3597
  358.5000   -45.1216    19.9518    16.3290     6.8232    69.1604     0.0251     0.1918     2.3380
  359.0000   -44.8078    20.3710    16.2109     6.8248    71.2615     0.0282     0.2032     2.3273
  359.5000   -44.0794    20.6389    16.0937     6.8261    76.6463     0.0298     0.2120     2.3203
  360.0000   -44.0841    20.7842    16.1998     6.8572    74.1206     0.0270     0.2205     2.3181
  360.5000   -44.0886    21.0566    16.5413     6.8585    72.0426     0.0271     0.2201     2.3182
  361.0000   -44.2433    21.0492    16.9908     6.7682    73.5468     0.0240     0.2192     2.3219
  361.5000   -44.3977    21.0420    17.1117     6.7420    76.2449     0.0229     0.2108     2.3407
  362.0000   -44.0780    20.8899    17.2154     6.7284    75.3292     0.0066     0.2024     2.3497
  362.5000   -43.6311    20.8707    16.8563     6.7301    74.7756     0.0097     0.2030     2.3333
  363.0000   -43.4845    20.7316    16.8505     6.7463    74.6409     0.0232     0.2083     2.3289
  363.5000   -43.1876    20.7245    16.8447     6.7476    72.2645     0.0293     0.2095     2.3252
  364.0000   -42.9187    20.7173    16.9557     6.7786    71.3776     0.0264     0.2146     2.3178
  364.5000   -42.7731    20.7101    16.9498     6.8246    71.8399     0.0102     0.2181     2.3164
  365.0000   -42.4784    20.5604    17.1798     6.8725    72.0008     0.0073     0.2211     2.3187
  365.5000   -42.6330    20.5533    17.2929     6.9614    71.8627     0.0104     0.2229     2.3292
  366.0000   -42.4862    20.5463    17.5403     6.8139    71.7255     0.0090     0.2034     2.3360
  366.5000   -42.4919    20.5392    17.7652     6.8450    71.9742     0.0092     0.2070     2.3323
  367.0000   -42.6465    20.5321    17.8961     6.9058    76.2292     0.0108     0.2100     2.3316
  367.5000   -42.8012    20.5250    18.1248     6.9518    76.6886     0.0169     0.2057     2.3324
  368.0000   -42.8057    20.5179    18.1184     6.9679    74.6107     0.0229     0.2165     2.3071
  368.5000   -42.8102    20.5108    18.2379     6.9841    71.9357     0.0171     0.2260     2.3019
  369.0000   -42.8147    20.5037    18.2314     7.0152    72.2458     0.0172     0.2281     2.3072
  369.5000   -42.8191    20.3555    18.2251     7.0314    72.5559     0.0173     0.2274     2.3364
  370.0000   -42.5222    20.3485    18.0934     7.0479    72.5676     0.0249     0.1972     2.3529
  370.5000   -42.2275    20.3415    18.0871     7.0938    72.2807     0.0295     0.1960     2.3522
  371.0000   -41.9306    20.1944    17.9564     7.0951    71.9938     0.0311     0.2013     2.3523
  371.5000   -41.9362    20.1874    17.6863     7.0964    71.7069     0.0312     0.2019     2.3538
  372.0000   -41.9407    20.1805    17.4548     7.0829    72.6169     0.0328     0.2019     2.3584
  372.5000   -42.8461    20.1734    17.2093     7.0689    75.1658     0.0255     0.2002     2.3749
  373.0000   -43.0008    20.3066    16.9494     7.0259    75.3267     0.0122     0.1713     2.4078
  373.5000   -43.0053    20.2993    16.4813     6.9677    75.6368     0.0004     0.1569     2.4214
  374.0000   -43.3101    20.2923    16.1372     6.8453    76.2454     0.0053     0.1545     2.4222
  374.5000   -43.4647    20.4262    16.0382     6.8665    77.4511     0.0185     0.1563     2.4162
  375.0000   -43.6194    20.3955    16.1441     6.9273    80.7463     0.0186     0.1592     2.4013
  375.5000   -43.6239    20.1082    16.1383     6.9435    82.1012     0.0203     0.1646     2.3983
  376.0000   -43.6284    19.7116    16.0216     6.9745    81.9635     0.0234     0.1670     2.3940
  376.5000   -43.6329    19.5694    15.6875     7.0354    81.3810     0.0279     0.1705     2.3918
  377.0000   -43.6374    19.2942    15.3604     6.9623    79.4523     0.0340     0.1761     2.3911
  377.5000   -43.7920    19.1547    15.1444     6.9338    77.2251     0.0431     0.1774     2.3957
  378.0000   -43.7965    18.9918    14.9122     6.9653    75.7413     0.0521     0.1710     2.4032
  378.5000   -44.2514    18.7243    14.7214     7.1245    78.1439     0.0629     0.1674     2.4070
  379.0000   -44.4061    18.4851    14.5143     7.1907    81.7376     0.0613     0.1674     2.4078
  379.5000   -44.7109    18.3515    14.4094     7.1030    84.7432     0.0436     0.1653     2.4184
  380.0000   -44.8655    18.3439    14.3042     7.0895    85.9801     0.0362     0.1524     2.4221
  380.5000   -44.8700    18.3375    14.1030     7.1205    86.2529     0.0438     0.1554     2.4170
  381.0000   -44.8745    18.2050    14.0011     7.1367    86.2645     0.0439     0.1619     2.4185
  381.5000   -44.8790    18.1987    13.9962     7.1231    86.4254     0.0425     0.1604     2.4260
  382.0000   -44.8835    18.0671    13.8951     7.0649    85.2430     0.0263     0.1547     2.4313
  382.5000   -44.8880    17.9365    13.8903     7.0067    84.5054     0.0174     0.1448     2.4329
  383.0000   -44.8925    17.9304    13.9830     7.0080    85.8632     0.0176     0.1462     2.4232
  383.5000   -45.0472    18.0484    13.9769     7.0096    86.6211     0.0177     0.1570     2.4082
  384.0000   -45.0517    18.0422    14.0690     7.0109    86.3223     0.0178     0.1653     2.4001
  384.5000   -45.0562    17.9118    14.1616     7.0271    85.1066     0.0164     0.1707     2.3972
  385.0000   -44.9094    17.9056    14.1568     7.0433    84.4200     0.0166     0.1741     2.3973
  385.5000   -44.9145    18.0235    14.2512     7.0446    85.0287     0.0152     0.1715     2.3974
  386.0000   -44.9195    18.0173    14.2451     7.0309    85.9358     0.0153     0.1679     2.3967
  386.5000   -44.6233    18.0111    14.2402     7.0174    86.3952     0.0154     0.1736     2.3938
  387.0000   -44.4781    18.0049    14.2352     7.0336    86.4068     0.0095     0.1742     2.3961
  387.5000   -44.4825    18.1235    14.2303     7.0176    86.5676     0.0067     0.1741     2.3984
  388.0000   -44.4870    18.1172    14.1275     6.9767    86.7285     0.0068     0.1729     2.4008
  388.5000   -44.4915    18.2365    14.0253     6.9631    86.7492     0.0055     0.1687     2.4015
  389.0000   -44.4960    18.2302    13.9240     6.9647    87.0507     0.0056     0.1666     2.4008
  389.5000   -44.5005    18.2239    13.8233     6.9660    87.3633     0.0072     0.1665     2.4001
  390.0000   -44.6552    17.9676    13.7234     6.9673    89.4644     0.0058     0.1668     2.3994
  390.5000   -45.1101    17.8378    13.7187     6.9687    89.6253     0.0059     0.1677     2.3987
  391.0000   -45.2648    17.5869    13.6195     6.9700    87.2488     0.0061     0.1683     2.3973
  391.5000   -45.1191    17.4598    13.6148     6.9713    85.3202     0.0077     0.1688     2.3973
  392.0000   -45.1236    17.3335    13.5164     6.9729    84.8840     0.0063     0.1712     2.3952
  392.5000   -44.9772    17.2083    13.5117     6.9590    82.6568     0.0064     0.1741     2.3937
  393.0000   -44.9825    17.2023    13.5071     6.9606    81.6236     0.0065     0.1756     2.3945
  393.5000   -44.9870    17.1964    13.5024     6.9467    81.6382     0.0082     0.1765     2.3976
  394.0000   -44.9915    17.0721    13.4048     6.9483    81.7990     0.0083     0.1735     2.4021
