~VERSION INFORMATION
 VERS.                2.0:   CWLS LOG ASCII STANDARD - VERSION 2.0
 WRAP.                 NO:   ONE LINE PER DEPTH STEP
~WELL INFORMATION
#MNEM.UNIT      DATA TYPE    INFORMATION
#----------   ------------   ------------------------------
 STRT.F           20.5000:   START DEPTH
 STOP.F          725.0000:   STOP DEPTH
 STEP.F            0.5000:   STEP LENGTH
 NULL.          -999.2500:   NO VALUE
 COMP. FENIX & SCISSON INC:   COMPANY
 WELL.       NPR 3 #67-27:   WELL
 FLD .             TEAPOT:   FIELD
 LOC .      S27 T39N R78W:   LOCATION
 CNTY.            NATRONA:   COUNTY
 STAT.            WYOMING:   STATE
 CTRY. UNITED STATES OF AMERICA:   COUNTRY
 SRVC.           BIRDWELL:   SERVICE COMPANY
 DATE.        15-SEP-1978:   LOGDATE
 API .       490251069400:   API NUMBER
~CURVE INFORMATION
#MNEM.UNIT       API CODE    CURVE DESCRIPTION
#----------   ------------   ------------------------------
 DEPT.F                  :   
 CALD.IN     45 280 60 00:   CALIPER
 GRD .GAPI   45 310 01 00:   GAMMA RAY FROM DENSITY LOG
 RHOB.G/C3   45 350 01 00:   BULK DENSITY
 DPHI.DEC    45 890 12 00:   DENSITY POROSITY SANDSTONE
 CORR.G/C3   45 356 01 00:   DENSITY CORRECTION
 SPR .MV     05 010 01 00:   SPONTANEOUS POTENTIAL FROM RES.
 ILD .OHMM   05 120 46 00:   INDUCTION LOG DEEP
 SN  .OHMM   05 040 16 00:   SHORT NORMAL 16"
~PARAMETER INFORMATION
#MNEM.UNIT          VALUE    DESCRIPTION
#----------   ------------   ------------------------------
 PD  .                 GL:   PERMANENT DATUM
 EPD .F              5027:   ELEVATION PERMANENT DATUM
 LMF .                 KB:   LOG MEASURED FROM
 DAPD.F                 4:   FEET ABOVE PERMANENT DATUM
 DMF .                 KB:   DRILLING MEASURED FROM
 EKB .F              5031:   KELLING BUSHING
 EGL .F              5027:   GROUND LEVEL
 DATE.            9-15-78:   RUN DATE
 RUN .                  1:   RUN NUMBER
 DD  .F               728:   DEPTH DRILLER
 DL  .F               719:   DEPTH LOGGER
 BLI .F               713:   BOTTOM LOG INTERVAL
 TLI .F                30:   TOP LOG INTERVAL
 CS  .IN            8.625:   CASING SIZE
 CBD .F                34:   CASING BOTTOM DRILLER
 CBL .F                34:   CASING BOTTOM LOGGER
 BS  .IN            7.875:   BIT SIZE
 BSD .F               728:   BIT SIZE AT DEPTH
 DFT .            KCL MUD:   DRILLING FLUID TYPE
 DFD .                  9:   DRILLING FLUID DENSITY
 DFV .                 46:   DRILLING FLUID VISCOSITY
 DFPH.                  9:   DRILLING FLUID PH
 DFL .                7.6:   DRILLING FLUID LOSS
 MSS .          FLOW LINE:   MUD SAMPLE SOURCE
 RMS .OHMM            .34:   RESISTIVITY MUD SAMPLE
 MST .F                68:   MUD SAMPLE TEMPERATURE
 RMF .OHMM             .3:   RESISTIVITY MUD FILTRATE SAMPLE
 MFST.F                68:   MUD FILTRATE SAMPLE TEMPERATURE
 RMC .OHMM            .38:   RESISTIVITY MUD CAKE
 MCST.F                70:   MUD CAKE SAMPLE TEMPERATURE
 MFSS.               MEAS:   MUD FILTRATE SAMPLE SOURCE
 MCSS.               MEAS:   MUD CAKE SAMPLE SOURCE
 RMB .OHMM            .32:   RESISTIVITY MUD AT BHT
 BHT .F                72:   BOTTOM HOLE TEMPERATURE
 TCS .HRS               2:   TIME CURCULATED STOPPED
 MRT .F                72:   MAXIMUM RECORDED TEMPERATURE
 LUN .               2958:   LOGGING UNIT NUMBER
 LUL .               CASP:   LOGGING UNIT LOCATION
 ENGI.           REYNOLDS:   RECORDING ENGINEER
 WITN.           DINSMORE:   WITNESSED BY
 CLNT.            A2DTECH:   CLIENT CODE
 ORIG.           5" PRINT:   ORIGIN OF DATA
 UWI .       490251069400:   UNIQUE WELL ID
 DICO. A2D Technologies, Inc.:   DIGITIZING COMPANY
~OTHER INFORMATION
~A   DEPT     CALD        GRD       RHOB       DPHI       CORR        SPR        ILD         SN   
   20.5000  -999.2500   104.5553  -999.2500  -999.2500  -999.2500  -999.2500  -999.2500  -999.2500
   21.0000  -999.2500   104.2777  -999.2500  -999.2500  -999.2500  -999.2500  -999.2500  -999.2500
   21.5000  -999.2500   104.0581  -999.2500  -999.2500  -999.2500  -999.2500  -999.2500  -999.2500
   22.0000  -999.2500   103.5515  -999.2500  -999.2500  -999.2500  -999.2500  -999.2500  -999.2500
   22.5000  -999.2500   103.8524  -999.2500  -999.2500  -999.2500  -999.2500  -999.2500  -999.2500
   23.0000  -999.2500   104.1352  -999.2500  -999.2500  -999.2500  -999.2500  -999.2500  -999.2500
   23.5000  -999.2500   104.1696  -999.2500  -999.2500  -999.2500  -999.2500  -999.2500  -999.2500
   24.0000  -999.2500   103.8571  -999.2500  -999.2500  -999.2500  -999.2500  -999.2500  -999.2500
   24.5000     8.1890   103.5404  -999.2500  -999.2500  -999.2500  -999.2500  -999.2500  -999.2500
   25.0000     8.2023   103.8294  -999.2500  -999.2500  -999.2500  -999.2500  -999.2500  -999.2500
   25.5000     8.2186   104.2284  -999.2500  -999.2500  -999.2500  -999.2500  -999.2500  -999.2500
   26.0000     8.1759   104.6383  -999.2500  -999.2500  -999.2500  -999.2500  -999.2500  -999.2500
   26.5000     8.1292   104.7233  -999.2500  -999.2500  -999.2500  -999.2500  -999.2500  -999.2500
   27.0000     8.0793   104.4109  -999.2500  -999.2500  -999.2500  -999.2500  -999.2500  -999.2500
   27.5000     8.0293   101.5643  -999.2500  -999.2500  -999.2500  -999.2500  -999.2500  -999.2500
   28.0000     7.9784    98.6105  -999.2500  -999.2500  -999.2500  -999.2500  -999.2500  -999.2500
   28.5000     7.9823    97.4798  -999.2500  -999.2500  -999.2500  -999.2500  -999.2500  -999.2500
   29.0000     8.0021    96.5138  -999.2500  -999.2500  -999.2500  -999.2500  -999.2500  -999.2500
   29.5000     8.0208    96.2052  -999.2500  -999.2500  -999.2500  -999.2500  -999.2500  -999.2500
   30.0000     8.0497    96.2219  -999.2500  -999.2500    -0.0681  -999.2500  -999.2500  -999.2500
   30.5000     8.0447    96.4090  -999.2500  -999.2500    -0.0205  -999.2500  -999.2500  -999.2500
   31.0000     8.0411    97.0116     2.0062  -999.2500     0.0876  -999.2500  -999.2500  -999.2500
   31.5000     8.0369    98.2833     2.0352     0.2954     0.1725  -999.2500  -999.2500  -999.2500
   32.0000     8.0340   101.5523     2.0873     0.2704     0.2641  -999.2500  -999.2500  -999.2500
   32.5000     8.0290   105.9005     2.1022     0.2591     0.3017  -999.2500  -999.2500  -999.2500
   33.0000     8.6666   110.9398     2.1139     0.2512     0.2476  -999.2500  -999.2500  -999.2500
   33.5000     8.8570   114.2813     2.1387     0.2413     0.1742  -999.2500  -999.2500  -999.2500
   34.0000     9.0980   113.9431     2.2180     0.2278     0.1005  -999.2500  -999.2500  -999.2500
   34.5000     9.5001   113.5576     2.4088     0.2298     0.0336  -999.2500     0.8107     1.5846
   35.0000     9.5615   113.7757     2.4052     0.1703     0.0200   -31.9000     1.6786     2.1265
   35.5000     8.0862   114.4761     2.4161     0.1635     0.0216   -31.9000     2.4625     3.2481
   36.0000     8.1069   116.8303     2.4009     0.1829     0.0247   -32.0744     3.3461     4.0029
   36.5000     8.1161   119.2246     2.3810     0.1958     0.0316   -37.7953     4.1486     4.8428
   37.0000     7.9993   119.5436     2.3712     0.1920     0.0457   -40.7164     4.8788     5.3931
   37.5000     7.9795   118.5395     2.3767     0.1867     0.0598   -42.8719     5.2600     5.8681
   38.0000     7.9562   117.5289     2.3850     0.1839     0.0738   -44.5196     5.5264     6.1011
   38.5000     7.8914   117.8814     2.3884     0.1823     0.0718   -47.0853     5.8064     6.3497
   39.0000     7.8144   117.2031     2.3920     0.1743     0.0570   -50.7239     5.8987     6.6085
   39.5000     7.7372   116.2512     2.4121     0.1586     0.0301   -51.4436     5.9379     6.8777
   40.0000     7.6609   118.4923     2.4325     0.1448     0.0142   -52.2223     5.9773     7.1580
   40.5000     7.6092   118.7416     2.4399     0.1641     0.0116   -53.0085     5.9971     7.4083
   41.0000     7.6099   118.0967     2.4021     0.1859     0.0098   -53.7951     6.0170     7.5025
   41.5000     7.6463   118.1869     2.3835     0.1877     0.0119   -54.5537     6.0327     7.5964
   42.0000     7.7135   118.6971     2.3835     0.1865     0.0139   -55.2940     6.0158     7.6255
   42.5000     7.7964   118.5770     2.3849     0.1854     0.0159   -56.0363     6.0018     7.6542
   43.0000     7.8885   118.4838     2.3861     0.1843     0.0173   -56.7824     5.9879     7.6830
   43.5000     7.9545   118.3772     2.3874     0.1835     0.0159   -56.9568     5.9741     7.7119
   44.0000     8.0155   118.4049     2.3900     0.1813     0.0146   -57.0178     5.9602     7.7409
   44.5000     8.0762   118.7425     2.3947     0.1784     0.0133   -57.2028     5.9465     7.7700
   45.0000     8.1369   119.0752     2.3995     0.1725     0.0120   -59.5503     5.9325     7.8095
   45.5000     8.1901   119.4213     2.4042     0.1665     0.0113   -59.8999     5.9081     7.7930
   46.0000     8.1771   119.4744     2.4090     0.1646     0.0108   -59.8954     5.8491     7.7669
   46.5000     8.1651   119.4418     2.4123     0.1639     0.0104   -60.2458     5.7914     7.7412
   47.0000     8.1527   119.4066     2.4154     0.1643     0.0100   -60.6471     5.7178     7.7378
   47.5000     8.1577   119.3720     2.4157     0.1658     0.0095   -61.0504     5.6269     7.7378
   48.0000     8.1683   119.3375     2.4149     0.1663     0.0111   -61.4450     5.5374     7.7046
   48.5000     8.1790   119.3053     2.4141     0.1650     0.0134   -61.7427     5.4493     7.5963
   49.0000     8.1898   119.1226     2.4106     0.1673     0.0175   -62.0133     5.3626     7.5961
   49.5000     8.2005   118.8742     2.4068     0.1731     0.0218   -62.4200     5.2544     7.5992
   50.0000     8.2088   118.6242     2.4030     0.1763     0.0264   -62.8709     5.0948     7.4327
   50.5000     8.1943   118.3735     2.4020     0.1714     0.0247   -63.0738     5.0132     7.1976
   51.0000     8.1802   118.1231     2.4102     0.1650     0.0208   -63.0210     5.0010     6.9781
   51.5000     8.1842   117.9274     2.4187     0.1637     0.0169   -62.9692     4.9889     6.7074
   52.0000     8.2349   118.1731     2.4222     0.1591     0.0130   -62.9137     4.9768     6.4052
   52.5000     8.2779   118.4307     2.4253     0.1540     0.0101   -62.9959     4.9648     6.3173
   53.0000     8.2608   118.3641     2.4198     0.1562     0.0075   -63.1300     4.9527     6.3173
   53.5000     8.2023   118.1738     2.4118     0.1631     0.0108   -63.2667     4.9407     6.1134
   54.0000     8.1499   117.9817     2.4037     0.1699     0.0143   -63.4017     4.9288     5.9337
   54.5000     8.1454   117.7910     2.4002     0.1771     0.0179   -63.4752     4.8827     5.7593
   55.0000     8.1416   117.5914     2.4021     0.1763     0.0214   -63.3580     4.8210     5.5901
   55.5000     8.1375   117.0491     2.4086     0.1718     0.0195   -63.2469     4.7608     5.4258
   56.0000     8.1323   115.4574     2.4152     0.1626     0.0168   -63.1360     4.7013     5.2663
   56.5000     8.1258   113.8811     2.4218     0.1532     0.0141   -63.0251     4.6601     5.1102
   57.0000     8.2446   113.1034     2.4272     0.1527     0.0120   -62.9136     4.6794     5.1267
   57.5000     9.0806   114.4255     2.4251     0.1655     0.0250   -62.8009     4.6943     5.1504
   58.0000     8.0217   116.2840     2.4192     0.1747     0.0288   -62.7138     4.7093     5.1742
   58.5000     8.0990   118.1585     2.4090     0.1737     0.0322   -62.9824     4.7243     5.1981
   59.0000     8.0972   119.1634     2.4100     0.1714     0.0355   -63.2534     4.7393     5.2221
   59.5000     8.0691   119.8364     2.4107     0.1691     0.0387   -63.4818     4.7642     5.2535
   60.0000     8.0472   120.5133     2.4148     0.1632     0.0457   -63.1825     4.7990     5.2405
   60.5000     8.0387   120.6944     2.4209     0.1587     0.0533   -62.9172     4.8340     5.2219
