~VERSION INFORMATION
 VERS.                2.0:   CWLS LOG ASCII STANDARD - VERSION 2.0
 WRAP.                 NO:   ONE LINE PER DEPTH STEP
~WELL INFORMATION
#MNEM.UNIT      DATA TYPE    INFORMATION
#----------   ------------   ------------------------------
 STRT.F           33.0000:   START DEPTH
 STOP.F         1310.0000:   STOP DEPTH
 STEP.F            0.5000:   STEP LENGTH
 NULL.          -999.2500:   NO VALUE
 COMP. FENIX & SCISSON INC:   COMPANY
 WELL.    NPR-3 #76-14 SX:   WELL
 FLD .        TEAPOT DOME:   FIELD
 LOC .      S14 T38N R78W:   LOCATION
 CNTY.            NATRONA:   COUNTY
 STAT.            WYOMING:   STATE
 CTRY. UNITED STATES OF AMERICA:   COUNTRY
 SRVC.            Unknown:   SERVICE COMPANY
 DATE.        12-APR-1978:   LOGDATE
 API .       490251061200:   API NUMBER
~CURVE INFORMATION
#MNEM.UNIT       API CODE    CURVE DESCRIPTION
#----------   ------------   ------------------------------
 DEPT.F                  :   
 SPR .MV     05 010 01 00:   SPONTANEOUS POTENTIAL FROM RES.
 SN  .OHMM   05 040 16 00:   SHORT NORMAL 16"
 ILD .OHMM   05 120 46 00:   INDUCTION LOG DEEP
 CALD.IN     45 280 60 00:   CALIPER FROM DENSITY LOG
 GRD .GAPI   45 310 01 00:   GAMMA RAY FROM DENSITY LOG
 DPOR.DEC    45 890 12 00:   DENSITY POROSITY SANDSTONE
 CORR.G/C3   45 356 01 00:   DENSITY CORRECTION
 RHOB.G/C3   45 350 01 00:   BULK DENSITY
~PARAMETER INFORMATION
#MNEM.UNIT          VALUE    DESCRIPTION
#----------   ------------   ------------------------------
 PD  .                 GL:   PERMANENT DATUM
 EPD .F              5332:   ELEVATION PERMANENT DATUM
 LMF .                 KB:   LOG MEASURED FROM
 DMF .                 KB:   DRILLING MEASURED FROM
 EKB .F              5336:   KELLING BUSHING
 EGL .F              5332:   GROUND LEVEL
 DATE.          4-12-1978:   RUN DATE
 RUN .                  1:   RUN NUMBER
 DD  .F              1300:   DEPTH DRILLER
 DL  .F              1302:   DEPTH LOGGER
 BLI .F              1298:   BOTTOM LOG INTERVAL
 TLI .F                50:   TOP LOG INTERVAL
 CS  .IN            8.625:   CASING SIZE
 CBD .F                40:   CASING BOTTOM DRILLER
 CBL .F                46:   CASING BOTTOM LOGGER
 BS  .IN            7.875:   BIT SIZE
 BSD .F              1300:   BIT SIZE AT DEPTH
 DFT .                KCL:   DRILLING FLUID TYPE
 DFD .                8.5:   DRILLING FLUID DENSITY
 DFV .                 28:   DRILLING FLUID VISCOSITY
 MSS .            MUD PIT:   MUD SAMPLE SOURCE
 RMS .OHMM           1.45:   RESISTIVITY MUD SAMPLE
 MST .F                50:   MUD SAMPLE TEMPERATURE
 RMF .OHMM           1.25:   RESISTIVITY MUD FILTRATE SAMPLE
 MFST.F                62:   MUD FILTRATE SAMPLE TEMPERATURE
 RMC .OHMM           1.65:   RESISTIVITY MUD CAKE
 MCST.F                61:   MUD CAKE SAMPLE TEMPERATURE
 MFSS.           MEASURED:   MUD FILTRATE SAMPLE SOURCE
 MCSS.           MEASURED:   MUD CAKE SAMPLE SOURCE
 RMB .OHMM            .93:   RESISTIVITY MUD AT BHT
 BHT .F                78:   BOTTOM HOLE TEMPERATURE
 TCS .HRS               6:   TIME CURCULATED STOPPED
 MRT .F                78:   MAXIMUM RECORDED TEMPERATURE
 LUN .               2958:   LOGGING UNIT NUMBER
 LUL .                CAS:   LOGGING UNIT LOCATION
 ENGI.             MILLER:   RECORDING ENGINEER
 WITN.           MCGINLEY:   WITNESSED BY
 CLNT.            A2DTECH:   CLIENT CODE
 ORIG.      2" , 5" PRINT:   ORIGIN OF DATA
 UWI .       490251061200:   UNIQUE WELL ID
 DICO. A2D Technologies, Inc.:   DIGITIZING COMPANY
~OTHER INFORMATION
~A   DEPT      SPR         SN        ILD       CALD         GRD      DPOR       CORR       RHOB   
# ...
  519.0000   -15.5338     8.0916     6.8409     7.7900    53.1697     0.1101     0.0419     2.4626
  519.5000   -15.5429     8.1806     6.8526     7.7900    53.6520     0.1120     0.0430     2.4656
  520.0000   -15.5520     8.2705     6.8644     7.7900    52.6203     0.1140     0.0441     2.4595
  520.5000   -15.5611     8.3613     6.8764     7.7900    51.5285     0.1159     0.0452     2.4537
  521.0000   -15.5701     8.3613     6.8885     7.7900    50.5462     0.1161     0.0463     2.4516
  521.5000   -15.5792     8.3613     6.9005     7.7900    51.1238     0.1102     0.0474     2.4583
  522.0000   -15.5883     8.3620     6.9126     7.7900    51.6557     0.1071     0.0479     2.4670
  522.5000   -15.5974     8.3028     6.9247     7.7900    50.9190     0.1092     0.0447     2.4708
  523.0000   -15.6065     8.2367     6.9367     7.7900    50.4757     0.1114     0.0389     2.4670
  523.5000   -15.6156     8.1708     6.9520     7.7900    51.9314     0.1135     0.0331     2.4628
  524.0000   -15.6247     8.1055     6.8682     7.7900    54.0024     0.1152     0.0274     2.4586
  524.5000   -15.6338     8.0407     6.7565     7.7900    55.7756     0.1160     0.0236     2.4545
  525.0000   -15.6429     7.9764     6.6465     7.7900    56.5800     0.1164     0.0231     2.4523
  525.5000   -15.6519     7.9126     6.5384     7.7900    56.8413     0.1168     0.0226     2.4549
  526.0000   -15.6610     7.8493     6.4544     7.7900    56.8968     0.1178     0.0221     2.4499
  526.5000   -15.6701     7.7866     6.4450     7.7900    56.5930     0.1188     0.0216     2.4477
  527.0000   -15.6792     7.7662     6.4352     7.7900    55.5683     0.1188     0.0211     2.4495
  527.5000   -15.6883     7.7662     6.4255     7.7900    54.5805     0.1152     0.0206     2.4512
  528.0000   -15.6974     8.0199     6.4159     7.7900    50.3430     0.1068     0.0201     2.4610
  528.5000   -15.7065     8.3807     6.4060     7.7900    43.4543     0.0984     0.0189     2.4740
  529.0000   -15.7156     8.7603     6.3796     7.7900    36.5863     0.0919     0.0170     2.4866
  529.5000   -15.7247     9.0031     6.2743     7.7900    29.5132     0.0979     0.0152     2.4989
  530.0000   -15.7338     9.0049     6.1708     7.7900    28.4248     0.1045     0.0168     2.4807
  530.5000   -15.7428     8.3825     6.0689     7.7900    37.7865     0.1092     0.0293     2.4637
  531.0000   -15.7519     7.9695     5.9977     7.7900    50.0034     0.1092     0.0407     2.4649
  531.5000   -15.7610     7.4211     6.0077     7.7900    57.5802     0.1092     0.0439     2.4658
  532.0000   -15.7701     6.8406     6.0171     7.7900    57.3665     0.1101     0.0436     2.4668
  532.5000   -15.7792     6.4573     6.0266     7.7900    57.1774     0.1111     0.0433     2.4651
  533.0000   -15.7883     6.3392     6.0361     7.7900    57.4410     0.1115     0.0431     2.4626
  533.5000   -15.7974     6.2760     6.0456     7.7900    57.9697     0.1107     0.0429     2.4616
  534.0000   -15.8065     6.2770     6.0533     7.7902    58.5298     0.1102     0.0426     2.4635
  534.5000   -15.8155     6.2671     6.0544     7.7941    57.8844     0.1117     0.0424     2.4651
  535.0000   -15.8246     6.2614     6.0522     7.7981    56.6036     0.1131     0.0422     2.4630
  535.5000   -15.8337     6.2556     5.6350     7.8021    53.7666     0.1140     0.0420     2.4604
  536.0000   -15.8428     6.2498     5.3068     7.8061    53.2906     0.1144     0.0417     2.4579
  536.5000   -15.8519     6.2441     5.2656     7.8101    55.9722     0.1138     0.0415     2.4570
  537.0000   -15.8610     6.2383     5.2553     7.8141    56.9090     0.1139     0.0413     2.4569
  537.5000   -15.8701     6.2326     5.2450     7.8180    55.1369     0.1147     0.0410     2.4570
  538.0000   -15.8792     6.2262     5.2347     7.8220    53.4533     0.1154     0.0408     2.4569
  538.5000   -15.8883     6.1739     5.2244     7.8260    51.7167     0.1161     0.0406     2.4548
  539.0000   -15.8976     6.0479     5.1731     7.8300    50.7316     0.1168     0.0404     2.4526
  539.5000   -15.9095     5.9243     5.0924     7.8339    49.9289     0.1153     0.0401     2.4505
  540.0000   -15.9228     5.8339     5.0130     7.8379    49.1320     0.1131     0.0399     2.4500
  540.5000   -15.9361     5.8373     4.9410     7.8419    49.0929     0.1127     0.0397     2.4567
  541.0000   -15.9495     5.8424     4.9357     7.8459    49.0890     0.1135     0.0394     2.4621
  541.5000   -15.9628     5.8475     4.9307     7.8499    50.7495     0.1143     0.0392     2.4600
  542.0000   -15.9762     5.8526     4.9258     7.8484    54.2364     0.1152     0.0390     2.4573
  542.5000   -15.9895     5.8577     4.9208     7.8462    57.7232     0.1152     0.0387     2.4549
  543.0000   -16.0029     5.8629     4.9159     7.8441    61.2272     0.1152     0.0385     2.4548
  543.5000   -16.0162     5.8680     4.9110     7.8419    64.6440     0.1133     0.0383     2.4592
  544.0000   -16.0296     5.8731     4.9059     7.8398    65.0818     0.1105     0.0380     2.4651
  544.5000   -16.0429     5.8782     4.9011     7.8376    63.4824     0.1088     0.0378     2.4709
  545.0000   -16.0562     5.8834     4.8962     7.8355    61.8442     0.1106     0.0376     2.4664
  545.5000   -16.0696     5.8875     4.8312     7.8334    60.2161     0.1124     0.0374     2.4604
  546.0000   -16.0829     5.7538     4.7593     7.8312    58.5893     0.1141     0.0371     2.4545
  546.5000   -16.0963     5.6345     4.6884     7.8291    56.9591     0.1156     0.0369     2.4498
  547.0000   -16.1096     5.5176     4.6185     7.8269    55.3232     0.1164     0.0367     2.4506
  547.5000   -16.1230     5.4032     4.5877     7.8248    55.3037     0.1164     0.0364     2.4523
  548.0000   -16.1363     5.2911     4.5848     7.8226    55.6171     0.1159     0.0362     2.4539
  548.5000   -16.1497     5.2223     4.5819     7.8205    55.8912     0.1152     0.0360     2.4539
  549.0000   -16.1630     5.2223     4.5790     7.8184    55.3857     0.1144     0.0358     2.4539
  549.5000   -16.1763     5.2266     4.5761     7.8162    53.1685     0.1137     0.0355     2.4567
  550.0000   -16.1897     5.2316     4.5732     7.8141    52.2583     0.1129     0.0353     2.4608
  550.5000   -16.2030     5.2365     4.5703     7.8119    53.7570     0.1124     0.0351     2.4650
  551.0000   -16.2164     5.2415     4.5674     7.8098    55.1780     0.1133     0.0348     2.4618
  551.5000   -16.2297     5.2465     4.5645     7.8077    55.4487     0.1146     0.0346     2.4560
  552.0000   -16.2431     5.2515     4.5617     7.8055    55.4017     0.1160     0.0344     2.4518
  552.5000   -16.2564     5.2565     4.5588     7.8034    52.8902     0.1160     0.0341     2.4545
  553.0000   -16.2698     5.2618     4.5559     7.8012    50.2967     0.1140     0.0339     2.4579
  553.5000   -16.2831     5.2654     4.5530     7.7991    48.9338     0.1112     0.0337     2.4614
  554.0000   -16.2964     5.3221     4.5501     7.7969    50.4124     0.1103     0.0334     2.4650
  554.5000   -16.3098     5.3176     4.5473     7.7948    52.0203     0.1125     0.0332     2.4598
  555.0000   -16.3231     5.2878     4.5472     7.7927    52.2925     0.1147     0.0330     2.4531
  555.5000   -16.3365     5.2470     4.5472     7.7905    51.7057     0.1168     0.0327     2.4462
  556.0000   -16.3498     5.2065     4.5470     7.7884    51.2962     0.1190     0.0325     2.4459
  556.5000   -16.3632     5.1662     4.5484     7.7862    51.2978     0.1212     0.0323     2.4476
  557.0000   -16.3765     5.1263     4.4890     7.7841    51.1760     0.1224     0.0321     2.4493
  557.5000   -16.3899     5.0868     4.4178     7.7819    50.8245     0.1228     0.0318     2.4492
  558.0000   -16.4032     5.0475     4.3477     7.7798    51.6908     0.1228     0.0297     2.4474
  558.5000   -16.4165     4.9804     4.2788     7.7777    53.3225     0.1232     0.0275     2.4455
  559.0000   -16.4299     4.8980     4.2109     7.7755    54.5241     0.1277     0.0254     2.4436
