~VERSION INFORMATION
 VERS.                2.0:   CWLS LOG ASCII STANDARD - VERSION 2.0
 WRAP.                 NO:   ONE LINE PER DEPTH STEP
~WELL INFORMATION
#MNEM.UNIT      DATA TYPE    INFORMATION
#----------   ------------   ------------------------------
 STRT.F           50.0000:   START DEPTH
 STOP.F          854.0000:   STOP DEPTH
 STEP.F            0.5000:   STEP LENGTH
 NULL.          -999.2500:   NO VALUE
 COMP. FENIX & SCISSON INC:   COMPANY
 WELL.    45 SX 11 #45-11:   WELL
 FLD .             TEAPOT:   FIELD
 LOC .      S11 T38N R78W:   LOCATION
 CNTY.            NATRONA:   COUNTY
 STAT.            WYOMING:   STATE
 CTRY. UNITED STATES OF AMERICA:   COUNTRY
 SRVC.           BIRDWELL:   SERVICE COMPANY
 DATE.        01-MAR-1978:   LOGDATE
 API .       490251058600:   API NUMBER
~CURVE INFORMATION
#MNEM.UNIT       API CODE    CURVE DESCRIPTION
#----------   ------------   ------------------------------
 DEPT.F                  :   
 CALD.IN     45 280 60 00:   CALIPER
 CORR.G/C3   45 356 01 00:   DENSITY CORRECTION
 RHOB.G/C3   45 350 01 00:   BULK DENSITY
 DPOR.DEC    45 890 12 00:   DENSITY POROSITY SANDSTONE
 GRD .GAPI   45 310 01 00:   GAMMA RAY FROM DENSITY LOG
 SPR .MV     05 010 01 00:   SPONTANEOUS POTENTIAL FROM RES.
 SN  .OHMM   05 040 16 00:   SHORT NORMAL 16"
 ILD .OHMM   05 120 46 00:   INDUCTION LOG DEEP
~PARAMETER INFORMATION
#MNEM.UNIT          VALUE    DESCRIPTION
#----------   ------------   ------------------------------
 PD  .                 GL:   PERMANENT DATUM
 EPD .F              5186:   ELEVATION PERMANENT DATUM
 LMF .                 KB:   LOG MEASURED FROM
 DAPD.F                 4:   FEET ABOVE PERMANENT DATUM
 DMF .                 KB:   DRILLING MEASURED FROM
 EKB .F              5190:   KELLING BUSHING
 EGL .F              5186:   GROUND LEVEL
 DATE.           3-1-1978:   RUN DATE
 RUN .                  1:   RUN NUMBER
 DD  .F               848:   DEPTH DRILLER
 DL  .F               856:   DEPTH LOGGER
 BLI .F               851:   BOTTOM LOG INTERVAL
 TLI .F                50:   TOP LOG INTERVAL
 CS  .IN            8.625:   CASING SIZE
 CBD .F                40:   CASING BOTTOM DRILLER
 CBL .F                40:   CASING BOTTOM LOGGER
 BS  .IN            7.875:   BIT SIZE
 BSD .F               848:   BIT SIZE AT DEPTH
 DFT .          LIGNOSULF:   DRILLING FLUID TYPE
 DFD .                8.5:   DRILLING FLUID DENSITY
 DFV .                 30:   DRILLING FLUID VISCOSITY
 DFPH.               11.5:   DRILLING FLUID PH
 MSS .                PIT:   MUD SAMPLE SOURCE
 RMS .OHMM              2:   RESISTIVITY MUD SAMPLE
 MST .F                59:   MUD SAMPLE TEMPERATURE
 RMF .OHMM            1.8:   RESISTIVITY MUD FILTRATE SAMPLE
 MFST.F                60:   MUD FILTRATE SAMPLE TEMPERATURE
 RMC .OHMM            2.2:   RESISTIVITY MUD CAKE
 MCST.F                60:   MUD CAKE SAMPLE TEMPERATURE
 MFSS.               MEAS:   MUD FILTRATE SAMPLE SOURCE
 MCSS.               MEAS:   MUD CAKE SAMPLE SOURCE
 RMB .OHMM           1.69:   RESISTIVITY MUD AT BHT
 BHT .F                70:   BOTTOM HOLE TEMPERATURE
 TCS .HRS               3:   TIME CURCULATED STOPPED
 MRT .F                70:   MAXIMUM RECORDED TEMPERATURE
 LUN .               2959:   LOGGING UNIT NUMBER
 LUL .               CASP:   LOGGING UNIT LOCATION
 ENGI.            POINTER:   RECORDING ENGINEER
 WITN.         HARRINGTON:   WITNESSED BY
 CLNT.            A2DTECH:   CLIENT CODE
 ORIG.       2", 5" PRINT:   ORIGIN OF DATA
 UWI .       490251058600:   UNIQUE WELL ID
 DICO. A2D Technologies, Inc.:   DIGITIZING COMPANY
~OTHER INFORMATION
~A   DEPT       CALD      CORR      RHOB       DPOR        GRD        SPR         SN        ILD   
# ...
  374.0000     7.6939     0.0965     2.4108     0.1416   112.0644   -24.2918     7.2822     7.0693
  374.5000     7.6911     0.1112     2.4173     0.1368   111.6827   -23.7892     7.2591     7.0033
  375.0000     7.7428     0.1071     2.4213     0.1329   113.3396   -23.4158     7.2383     6.9380
  375.5000     7.7940     0.0745     2.4246     0.1307   115.4220   -23.3993     7.2178     6.8732
  376.0000     7.8456     0.0524     2.4282     0.1192   115.0531   -23.3778     7.3339     6.8291
  376.5000     7.8639     0.0549     2.4511     0.1161   114.5503   -23.3563     7.4801     6.8848
  377.0000     7.8636     0.0566     2.4415     0.1193   114.5577   -23.3345     7.6293     6.9933
  377.5000     7.8631     0.0556     2.4282     0.1275   114.4847   -23.3128     7.7814     7.1034
  378.0000     7.8625     0.0528     2.4292     0.1270   113.0274   -23.2910     7.8518     7.2153
  378.5000     7.8620     0.0500     2.4620     0.1118   111.5588   -23.2693     7.8148     7.3568
  379.0000     7.8614     0.0472     2.4698     0.1146   110.0949   -23.2475     7.7873     7.3465
  379.5000     7.8609     0.0445     2.4652     0.1174   108.6488   -23.2258     7.7600     7.3330
  380.0000     7.8603     0.0452     2.4588     0.1202   108.4047   -23.2040     7.7327     7.3196
  380.5000     7.8598     0.0462     2.4524     0.1230   108.3217   -23.1822     7.7056     7.3061
  381.0000     7.8592     0.0463     2.4466     0.1246   108.2404   -23.1605     7.6785     7.2927
  381.5000     7.8587     0.0415     2.4493     0.1227   108.1570   -23.1388     7.6516     7.2793
  382.0000     7.8581     0.0367     2.4535     0.1214   107.9668   -23.1170     7.6357     7.2659
  382.5000     7.8576     0.0326     2.4566     0.1205   107.1181   -23.0952     7.6771     7.2527
  383.0000     7.8570     0.0367     2.4531     0.1273   104.2098   -23.0733     7.7449     7.2350
  383.5000     7.8565     0.0405     2.4478     0.1315   100.7262   -23.0522     7.8108     7.2362
  384.0000     7.8559     0.0400     2.4402     0.1303    98.2929   -23.0266     7.9218     7.1543
  384.5000     7.8554     0.0385     2.4355     0.1327   101.3564   -23.2326     7.8783     7.2644
  385.0000     7.8549     0.0370     2.4353     0.1302   106.4597   -23.5482     7.8423     7.3060
  385.5000     7.8543     0.0363     2.4373     0.1276   115.0666   -23.8626     7.8056     7.3479
  386.0000     7.8538     0.0408     2.4471     0.1250   117.6431   -23.7969     7.7791     7.3900
  386.5000     7.8532     0.0466     2.4570     0.1238   116.6631   -23.2842     7.8048     7.4324
  387.0000     7.8527     0.0523     2.4519     0.1270   118.9848   -23.0934     7.8340     7.4750
  387.5000     7.8521     0.0512     2.4456     0.1109   120.5926   -23.2405     7.8635     7.5179
  388.0000     7.8516     0.0475     2.4520     0.1062   116.2896   -23.3970     7.8931     7.5650
  388.5000     7.8510     0.0439     2.4658     0.1070   110.8938   -23.1593     7.9257     7.5293
  389.0000     7.8505     0.0404     2.4757     0.1115   108.4657   -22.7844     7.9188     7.4910
  389.5000     7.8499     0.0386     2.4758     0.1160   109.8706   -22.4035     7.9067     7.4591
  390.0000     7.8494     0.0397     2.4656     0.1205   111.4790   -22.0272     7.8945     7.4274
  390.5000     7.8489     0.0408     2.4546     0.1246   112.1403   -22.1645     7.8824     7.3958
  391.0000     7.8483     0.0418     2.4444     0.1263   111.0099   -22.3385     7.8703     7.3643
  391.5000     7.8478     0.0427     2.4436     0.1280   107.3233   -22.4042     7.8582     7.3330
  392.0000     7.8472     0.0473     2.4394     0.1310   103.6707   -22.3815     7.8461     7.3018
  392.5000     7.8467     0.0518     2.4334     0.1292   101.7142   -22.3578     7.8341     7.2806
  393.0000     7.8461     0.0564     2.4404     0.1270   106.1422   -22.3339     7.8221     7.2667
  393.5000     7.8456     0.0537     2.4434     0.1250   110.1418   -22.3101     7.8101     7.2528
  394.0000     7.8450     0.0482     2.4505     0.1250   107.6042   -22.2863     7.7980     7.2389
  394.5000     7.8445     0.0428     2.4595     0.1246   104.9234   -22.2625     7.7861     7.2251
  395.0000     7.8439     0.0384     2.4592     0.1224   104.4097   -22.2374     7.7791     7.2113
  395.5000     7.8434     0.0396     2.4522     0.1190   104.9987   -22.2052     7.7735     7.1975
  396.0000     7.8429     0.0406     2.4452     0.1273   105.6043   -22.5896     7.7647     7.1838
  396.5000     7.8423     0.0416     2.4387     0.1319   110.6028   -23.0140     7.7558     7.1700
  397.0000     7.8418     0.0427     2.4369     0.1308   110.5459   -23.0238     7.7470     7.1563
  397.5000     7.8412     0.0437     2.4344     0.1295   111.4465   -22.9210     7.7381     7.1427
  398.0000     7.8407     0.0444     2.4346     0.1291   112.1326   -22.4522     7.7293     7.1290
  398.5000     7.8401     0.0429     2.4410     0.1186   111.6909   -22.2342     7.7204     7.1154
  399.0000     7.8396     0.0413     2.4557     0.1184   109.7439   -22.3431     7.7116     7.1018
  399.5000     7.8390     0.0398     2.4561     0.1207   107.8753   -22.4257     7.7028     7.0882
  400.0000     7.8385     0.0383     2.4554     0.1197   108.0025   -21.8406     7.6940     7.0747
  400.5000     7.8379     0.0367     2.4589     0.1169   108.4301   -21.8023     7.6852     7.0611
  401.0000     7.8374     0.0384     2.4595     0.1208   106.2504   -21.7989     7.6765     7.0476
  401.5000     7.8369     0.0412     2.4565     0.1291   103.0989   -21.7523     7.6677     7.0342
  402.0000     7.8363     0.0440     2.4442     0.1319   102.0406   -21.7043     7.6589     7.0223
  402.5000     7.8358     0.0464     2.4316     0.1327   109.4388   -21.6565     7.6502     7.0399
  403.0000     7.8352     0.0486     2.4360     0.1293   115.9855   -21.6087     7.6415     7.0589
  403.5000     7.8347     0.0513     2.4429     0.1228   118.8519   -21.5608     7.6360     7.0778
  404.0000     7.8341     0.0548     2.4490     0.1147   119.1517   -21.5130     7.6549     7.0969
  404.5000     7.8336     0.0338     2.4550     0.1028   119.2818   -21.4652     7.6755     7.1160
  405.0000     7.8330     0.0395     2.4696     0.1024   119.4478   -21.4173     7.6960     7.1352
  405.5000     7.8325     0.0471     2.4868     0.1083   117.2230   -21.3695     7.7166     7.1544
  406.0000     7.8319     0.0437     2.4728     0.1144   114.3113   -21.3214     7.7373     7.1736
  406.5000     7.8314     0.0375     2.4556     0.1206   113.9561   -21.2735     7.7580     7.1930
  407.0000     7.8308     0.0333     2.4543     0.1222   112.7546   -21.2279     7.7788     7.2123
  407.5000     7.8303     0.0400     2.4544     0.1298   110.9696   -21.3049     7.7996     7.2318
  408.0000     7.8298     0.0463     2.4321     0.1327   113.1373   -21.5934     7.8205     7.2512
  408.5000     7.8292     0.0444     2.4635     0.1311   114.9294   -21.8797     7.8414     7.2708
  409.0000     7.8287     0.0410     2.4575     0.1215   112.9298   -22.1652     7.8624     7.2903
  409.5000     7.8281     0.0425     2.4658     0.1117   110.8752   -22.4398     7.8835     7.3100
  410.0000     7.8276     0.0476     2.4666     0.1207   108.9200   -22.1986     7.9045     7.3297
  410.5000     7.8270     0.0528     2.4451     0.1208   108.3622   -21.3827     7.9251     7.3568
  411.0000     7.8265     0.0567     2.4493     0.1176   107.8538   -21.4217     7.9161     7.3432
  411.5000     7.8259     0.0565     2.4539     0.1126   108.1819   -21.4421     7.9053     7.3219
  412.0000     7.8254     0.0589     2.4632     0.1016   110.2191   -21.4617     7.8944     7.3004
  412.5000     7.8250     0.0611     2.4748     0.1118   111.7914   -21.4809     7.8836     7.2791
  413.0000     7.8242     0.0651     2.4794     0.1216   113.3616   -21.5002     7.8726     7.2579
  413.5000     7.8086     0.0715     2.4471     0.1246   115.2663   -21.5194     7.8619     7.2366
  414.0000     7.7384     0.0916     2.4424     0.1304   117.1773   -21.5387     7.8542     7.2155
