~VERSION INFORMATION
 VERS.                2.0:   CWLS LOG ASCII STANDARD - VERSION 2.0
 WRAP.                 NO:   ONE LINE PER DEPTH STEP
~WELL INFORMATION
#MNEM.UNIT      DATA TYPE    INFORMATION
#----------   ------------   ------------------------------
 STRT.F           65.0000:   START DEPTH
 STOP.F          860.0000:   STOP DEPTH
 STEP.F            0.5000:   STEP LENGTH
 NULL.          -999.2500:   NO VALUE
 COMP.          U.S. NAVY:   COMPANY
 WELL. NPR 3 TEAPOT DOM #71-S-34:   WELL
 FLD .             TEAPOT:   FIELD
 LOC .      S34 T39N R78W:   LOCATION
 CNTY.            NATRONA:   COUNTY
 STAT.            WYOMING:   STATE
 CTRY. UNITED STATES OF AMERICA:   COUNTRY
 SRVC. Schlumberger Well Surveying Corp:   SERVICE COMPANY
 DATE.        22-FEB-1961:   LOGDATE
 API .       490250657300:   API NUMBER
~CURVE INFORMATION
#MNEM.UNIT       API CODE    CURVE DESCRIPTION
#----------   ------------   ------------------------------
 DEPT.F                  :   
 GR  .GAPI   30 310 01 00:   GAMMA RAY
 ASN .OHMM   05 041 16 00:   AMPLIFIED SHORT NORMAL 16"
 CILD.MMHO   05 110 46 00:   CONDUCTIVITY INDUCTION LOG DEEP
 ILD .OHMM   05 120 46 00:   INDUCTION LOG DEEP
 SPR .MV     05 010 01 00:   SPONTANEOUS POTENTIAL FROM RES.
~PARAMETER INFORMATION
#MNEM.UNIT          VALUE    DESCRIPTION
#----------   ------------   ------------------------------
 LMF .                 KB:   LOG MEASURED FROM
 DMF .                 KB:   DRILLING MEASURED FROM
 EKB .F              5067:   KELLING BUSHING
 EGL .F              5063:   GROUND LEVEL
 DATE.        22-FEB-1961:   RUN DATE
 RUN .                  1:   RUN NUMBER
 DD  .F               861:   DEPTH DRILLER
 DL  .F               861:   DEPTH LOGGER
 BLI .F               860:   BOTTOM LOG INTERVAL
 TLI .F                80:   TOP LOG INTERVAL
 CBD .F                12:   CASING BOTTOM DRILLER
 BS  .IN            7.875:   BIT SIZE
 BSD .F               861:   BIT SIZE AT DEPTH
 DFT .       GEL-OIL EMUL:   DRILLING FLUID TYPE
 DFD .                9.6:   DRILLING FLUID DENSITY
 DFV .                 38:   DRILLING FLUID VISCOSITY
 DFPH.                  9:   DRILLING FLUID PH
 DFL .               15.4:   DRILLING FLUID LOSS
 MSS .           FLOWLINE:   MUD SAMPLE SOURCE
 RMS .OHMM           0.86:   RESISTIVITY MUD SAMPLE
 MST .F                68:   MUD SAMPLE TEMPERATURE
 RMF .OHMM           0.52:   RESISTIVITY MUD FILTRATE SAMPLE
 MFST.F                68:   MUD FILTRATE SAMPLE TEMPERATURE
 RMC .OHMM           1.98:   RESISTIVITY MUD CAKE
 MCST.F                68:   MUD CAKE SAMPLE TEMPERATURE
 MFSS.               MEAS:   MUD FILTRATE SAMPLE SOURCE
 MCSS.               MEAS:   MUD CAKE SAMPLE SOURCE
 RMB .OHMM           0.77:   RESISTIVITY MUD AT BHT
 BHT .F                78:   BOTTOM HOLE TEMPERATURE
 TCS .HRS               1:   TIME CURCULATED STOPPED
 MRT .F                78:   MAXIMUM RECORDED TEMPERATURE
 LUN .               2523:   LOGGING UNIT NUMBER
 LUL .               CSPR:   LOGGING UNIT LOCATION
 ENGI.             KNOBEL:   RECORDING ENGINEER
 WITN.          JORGENSEN:   WITNESSED BY
 CLNT.            A2DTECH:   CLIENT CODE
 ORIG.      2" , 5" PRINT:   ORIGIN OF DATA
 UWI .       490250657300:   UNIQUE WELL ID
 DICO. A2D Technologies, Inc.:   DIGITIZING COMPANY
~OTHER INFORMATION
~A   DEPT       GR          ASN       CILD        ILD      SPR   
# ...
  187.0000  -999.2500     4.0736   372.3582     2.7858   -23.9608
  187.5000  -999.2500     4.3505   356.6810     3.0564   -23.9616
  188.0000  -999.2500     4.6360   314.3573     3.3448   -23.9625
  188.5000  -999.2500     4.9033   259.9652     3.7153   -23.9632
  189.0000  -999.2500     5.1017   227.3274     3.9185   -23.9640
  189.5000  -999.2500     5.1857   214.0319     4.1136   -23.9647
  190.0000  -999.2500     5.2300   207.7064     4.2320   -23.9655
  190.5000  -999.2500     5.2582   213.3764     4.2320   -23.9663
  191.0000  -999.2500     5.2895   215.5873     4.1536   -23.8105
  191.5000  -999.2500     5.2895   216.7228     4.1486   -23.8111
  192.0000  -999.2500     5.2895   218.8610     3.9969   -23.8119
  192.5000  -999.2500     5.2531   221.8450     3.8911   -23.8127
  193.0000  -999.2500     5.1956   223.9943     3.6834   -23.8135
  193.5000  -999.2500     5.0621   226.5608     3.4269   -23.8143
  194.0000  -999.2500     4.8623   229.6395     3.1693   -23.8150
  194.5000  -999.2500     4.7418   239.0085     2.8997   -23.9726
  195.0000  -999.2500     4.6362   273.5500     2.6541   -23.9734
  195.5000  -999.2500     4.4857   310.9969     2.4914   -23.9741
  196.0000  -999.2500     4.2880   340.9825     2.4295   -23.9749
  196.5000  -999.2500     4.0793   369.9330     2.3511   -23.9758
  197.0000  -999.2500     3.7341   379.3653     2.3621   -23.9765
  197.5000  -999.2500     3.6620   371.3362     2.5078   -23.9773
  198.0000  -999.2500     3.7196   357.3819     2.6531   -24.1349
  198.5000  -999.2500     3.8225   345.8424     2.8268   -24.1356
  199.0000  -999.2500     3.9750   333.1111     3.0564   -24.1364
  199.5000  -999.2500     4.0709   267.2446     3.2970   -24.1373
  200.0000  -999.2500     4.4131   237.0996     3.6834   -24.1379
  200.5000  -999.2500     5.4489   206.8763     4.0418   -24.2955
  201.0000  -999.2500     5.5828   198.5502     4.3359   -24.2941
  201.5000  -999.2500     5.6661   191.2682     4.4827   -24.2891
  202.0000  -999.2500     5.7269   188.0068     4.6295   -24.2842
  202.5000  -999.2500     5.8271   188.3033     4.7866   -24.2786
  203.0000  -999.2500     5.9018   189.5794     4.5718   -24.2759
  203.5000  -999.2500     5.9176   196.0906     4.3186   -24.2727
  204.0000  -999.2500     5.8554   201.8182     4.0669   -24.2696
  204.5000  -999.2500     5.5615   206.7184     3.9109   -24.2665
  205.0000  -999.2500     5.2926   212.8134     3.6953   -24.2631
  205.5000  -999.2500     5.1052   227.8096     3.3928   -24.2602
  206.0000  -999.2500     4.8269   254.4634     3.0502   -24.2372
  206.5000  -999.2500     4.4136   276.4325     2.7584   -24.0385
  207.0000  -999.2500     4.1588   299.0978     2.7594   -23.9373
  207.5000  -999.2500     4.0892   312.7155     2.7606   -23.7774
  208.0000  -999.2500     4.1208   321.0049     2.8840   -23.6782
  208.5000  -999.2500     4.2215   321.7643     3.0904   -23.6144
  209.0000  -999.2500     4.3499   319.2086     3.2345   -23.6110
  209.5000  -999.2500     4.5130   312.3235     3.4248   -23.5332
  210.0000  -999.2500     4.6020   286.2851     3.5541   -23.4485
  210.5000  -999.2500     4.7327   269.0247     3.7455   -23.6019
  211.0000  -999.2500     4.8801   244.8647     3.9083   -23.5987
  211.5000  -999.2500     5.0137   231.2108     4.1024   -23.7523
  212.0000  -999.2500     5.1562   220.9820     4.1818   -23.7492
  212.5000  -999.2500     5.3091   215.0274     4.1830   -23.9032
  213.0000  -999.2500     5.5032   213.2210     4.1060   -23.8994
  213.5000  -999.2500     5.5945   212.6358     4.0786   -24.0887
  214.0000  -999.2500     5.6269   211.8339     4.0298   -24.2070
  214.5000  -999.2500     5.5177   213.5698     3.9057   -24.2032
  215.0000  -999.2500     5.4319   217.2773     3.7800   -24.2006
  215.5000  -999.2500     5.3214   227.5744     3.5632   -24.3541
  216.0000  -999.2500     5.1900   239.9682     3.4504   -24.3511
  216.5000  -999.2500     5.1164   248.5802     3.2407   -24.1912
  217.0000  -999.2500     5.0341   258.4873     3.0183   -24.1877
  217.5000  -999.2500     4.9418   273.6065     2.8925   -24.0282
  218.0000  -999.2500     4.6623   284.6657     2.7069   -23.8683
  218.5000  -999.2500     4.3622   294.8551     2.7508   -23.7605
  219.0000  -999.2500     4.2503   300.9169     2.7875   -23.7053
  219.5000  -999.2500     4.1382   305.4741     2.7104   -23.5453
  220.0000  -999.2500     3.9823   307.9921     2.6332   -23.5423
  220.5000  -999.2500     3.9521   310.6701     2.6344   -23.6962
  221.0000  -999.2500     3.9568   313.6598     2.5857   -23.6924
  221.5000  -999.2500     3.9884   318.9032     2.5092   -23.7521
  222.0000  -999.2500     3.9783   322.7744     2.4029   -23.8433
  222.5000  -999.2500     3.8169   327.4874     2.3256   -23.8401
  223.0000  -999.2500     3.7317   337.2386     2.2398   -23.8370
  223.5000  -999.2500     3.6141   349.5808     2.0931   -23.8339
  224.0000  -999.2500     3.4329   371.3138     2.0157   -23.8307
  224.5000  -999.2500     3.3575   403.0421     1.9385   -23.8276
  225.0000  -999.2500     3.2708   429.2712     1.9397   -23.8245
  225.5000  -999.2500     3.1787   460.1503     1.8623   -23.8213
  226.0000  -999.2500     3.1138   472.3382     1.8638   -23.8182
  226.5000  -999.2500     3.1465   453.5051     1.8992   -23.8150
  227.0000  -999.2500     3.2125   432.4950     2.0272   -23.8119
  227.5000  -999.2500     3.3506   410.5212     2.1552   -23.8085
  228.0000  -999.2500     3.5679   389.9648     2.3615   -23.8056
  228.5000  -999.2500     3.8574   365.3616     2.5749   -23.8025
  229.0000  -999.2500     4.1184   307.6399     2.6959   -23.7988
  229.5000  -999.2500     4.3664   276.6186     2.9023   -23.7962
  230.0000  -999.2500     4.6041   251.2278     3.1271   -23.7931
  230.5000  -999.2500     4.6417   245.6670     3.2065   -23.7900
  231.0000  -999.2500     4.6094   245.1489     3.1291   -23.7868
  231.5000  -999.2500     4.5268   247.9816     3.0034   -23.6266
  232.0000  -999.2500     4.4655   254.9113     2.8777   -23.5883
  232.5000  -999.2500     4.4139   269.7297     2.6627   -23.4610
  233.0000  -999.2500     4.3243   278.4852     2.5481   -23.3943
  233.5000  -999.2500     4.2471   289.8576     2.3514   -23.3277
  234.0000  -999.2500     4.1528   308.7935     2.2745   -23.2977
  234.5000  -999.2500     3.9731   332.5563     2.1971   -23.1723
  235.0000  -999.2500     3.7673   355.3159     2.1199   -23.1348
  235.5000  -999.2500     3.6529   383.4037     2.0427   -23.1317
  236.0000  -999.2500     3.5030   400.5642     2.0439   -23.1285
  236.5000  -999.2500     3.3872   427.8384     2.0452   -23.2822
  237.0000  -999.2500     3.3622   429.8982     2.1578   -23.2790
  237.5000  -999.2500     3.3568   421.4668     2.2858   -23.2759
  238.0000  -999.2500     3.3884   409.1686     2.4655   -23.2726
  238.5000  -999.2500     3.5194   390.8735     2.6420   -23.2696
  239.0000  -999.2500     3.7161   352.0979     2.8347   -23.3269
  239.5000  -999.2500     4.1093   327.6032     3.0733   -23.4196
  240.0000  -999.2500     4.3182   297.3354     3.3281   -23.4169
  240.5000  -999.2500     4.7828   237.9530     3.6220   -23.4138
  241.0000  -999.2500     5.2369   211.9358     3.8378   -23.4443
  241.5000  -999.2500     5.7568   202.3865     4.0161   -23.5259
  242.0000  -999.2500     6.0044   194.2772     4.2691   -23.6207
  242.5000  -999.2500     6.0934   188.5122     4.5239   -23.7312
  243.0000  -999.2500     6.1954   182.2337     4.8034   -23.8751
  243.5000  -999.2500     6.3324   176.1914     4.9974   -23.9567
  244.0000  -999.2500     6.4887   171.8390     5.2100   -24.0481
  244.5000  -999.2500     6.6789   165.1832     5.5124   -24.1724
  245.0000  -999.2500     6.9609   161.5596     5.6949   -24.2960
  245.5000  -999.2500     7.2731   157.0781     5.8280   -24.3229
  246.0000  -999.2500     7.5093   155.7181     5.8725   -24.3195
  246.5000  -999.2500     7.6465   156.7777     5.9087   -24.3166
  247.0000  -999.2500     7.7290   157.2492     5.9100   -24.3297
  247.5000  -999.2500     7.7788   158.4835     5.8790   -24.4671
