~VERSION INFORMATION
 VERS.                2.0:   CWLS LOG ASCII STANDARD - VERSION 2.0
 WRAP.                 NO:   ONE LINE PER DEPTH STEP
~WELL INFORMATION
#MNEM.UNIT      DATA TYPE    INFORMATION
#----------   ------------   ------------------------------
 STRT.F          350.0000:   START DEPTH
 STOP.F         2259.0000:   STOP DEPTH
 STEP.F            0.5000:   STEP LENGTH
 NULL.          -999.2500:   NO VALUE
 COMP. LAWRENCE/ALLISON INC:   COMPANY
 WELL.        45 X #33-33:   WELL
 FLD .             TEAPOT:   FIELD
 LOC .      S33 T39N R78W:   LOCATION
 CNTY.            NATRONA:   COUNTY
 STAT.            WYOMING:   STATE
 CTRY. UNITED STATES OF AMERICA:   COUNTRY
 SRVC.      NL McCullough:   SERVICE COMPANY
 DATE.        19-MAY-1988:   LOGDATE
 API .       490251119400:   API NUMBER
~CURVE INFORMATION
#MNEM.UNIT       API CODE    CURVE DESCRIPTION
#----------   ------------   ------------------------------
 DEPT.F                  :   
 ROP .MIN/FT 91 810 01 00:   RATE OF DRILLING PENETRATION
 GR  .GAPI   81 310 01 00:   GAMMA RAY
 TGAS.UNITS  91 830 01 00:   TOTAL GAS FROM HOTWIRE
~PARAMETER INFORMATION
#MNEM.UNIT          VALUE    DESCRIPTION
#----------   ------------   ------------------------------
 PD  .                 GL:   PERMANENT DATUM
 EPD .F              5198:   ELEVATION PERMANENT DATUM
 LMF .                 KB:   LOG MEASURED FROM
 DAPD.F                11:   FEET ABOVE PERMANENT DATUM
 DMF .                 KB:   DRILLING MEASURED FROM
 EKB .F              5209:   KELLING BUSHING
 EGL .F              5198:   GROUND LEVEL
 DATE.            5-19-88:   RUN DATE
 RUN .                  1:   RUN NUMBER
 DD  .F              2232:   DEPTH DRILLER
 DL  .F               750:   DEPTH LOGGER
 BLI .F               746:   BOTTOM LOG INTERVAL
 TLI .F               350:   TOP LOG INTERVAL
 CS  .IN                7:   CASING SIZE
 CBD .F               808:   CASING BOTTOM DRILLER
 DFT .              WATER:   DRILLING FLUID TYPE
 TCS .HRS            0830:   TIME CURCULATED STOPPED
 TLAB.HRS            0930:   TIME LOGGER AT BOTTOM
 ENGI.          SANGERTER:   RECORDING ENGINEER
 WITN.             NORMAN:   WITNESSED BY
 CLNT.            A2DTECH:   CLIENT CODE
 ORIG.           5" PRINT:   ORIGIN OF DATA
 UWI .       490251119400:   UNIQUE WELL ID
 DICO. A2D Technologies, Inc.:   DIGITIZING COMPANY
~OTHER INFORMATION
~A   DEPT      ROP          GR      TGAS   
# ...
 1169.0000     0.3778  -999.2500     4.4872
 1169.5000     0.3674  -999.2500     4.5178
 1170.0000     0.3674  -999.2500     4.1161
 1170.5000     0.3675  -999.2500     4.1561
 1171.0000     0.3780  -999.2500     4.1844
 1171.5000     0.3780  -999.2500     4.2150
 1172.0000     0.3990  -999.2500     3.8180
 1172.5000     0.3990  -999.2500     3.4305
 1173.0000     0.4095  -999.2500     3.0311
 1173.5000     0.4096  -999.2500     2.6412
 1174.0000     0.4096  -999.2500     2.6789
 1174.5000     0.4097  -999.2500     2.6818
 1175.0000     0.4097  -999.2500     2.6824
 1175.5000     0.4098  -999.2500     2.6831
 1176.0000     0.4203  -999.2500     2.6838
 1176.5000     0.4203  -999.2500     2.6845
 1177.0000     0.4412  -999.2500     2.6852
 1177.5000     0.4517  -999.2500     2.6859
 1178.0000     0.4518  -999.2500     2.6865
 1178.5000     0.4518  -999.2500     2.6872
 1179.0000     0.4728  -999.2500     2.6879
 1179.5000     0.4937  -999.2500     2.6886
 1180.0000     0.4937  -999.2500     2.6893
 1180.5000     0.4938  -999.2500     2.6900
 1181.0000     0.4939  -999.2500     2.6907
 1181.5000     0.4834  -999.2500     2.6913
 1182.0000     0.4626  -999.2500     2.6920
 1182.5000     0.4522  -999.2500     2.6927
 1183.0000     0.4210  -999.2500     2.6934
 1183.5000     0.4106  -999.2500     2.6941
 1184.0000     0.4107  -999.2500     2.6948
 1184.5000     0.4003  -999.2500     2.6954
 1185.0000     0.3794  -999.2500     2.6961
 1185.5000     0.3795  -999.2500     2.6968
 1186.0000     0.3795  -999.2500     2.6975
 1186.5000     0.4005  -999.2500     2.6982
 1187.0000     0.4005  -999.2500     2.6989
 1187.5000     0.4006  -999.2500     2.6996
 1188.0000     0.4111  -999.2500     2.7002
 1188.5000     0.4111  -999.2500     2.7009
 1189.0000     0.4112  -999.2500     2.7016
 1189.5000     0.4112  -999.2500     2.7023
 1190.0000     0.4113  -999.2500     2.7030
 1190.5000     0.4113  -999.2500     2.7037
 1191.0000     0.4114  -999.2500     2.7043
 1191.5000     0.4114  -999.2500     2.7050
 1192.0000     0.4115  -999.2500     2.7057
 1192.5000     0.4115  -999.2500     2.7064
 1193.0000     0.4220  -999.2500     2.7071
 1193.5000     0.4221  -999.2500     2.7078
 1194.0000     0.4221  -999.2500     2.7085
 1194.5000     0.4222  -999.2500     2.7091
 1195.0000     0.4222  -999.2500     2.7098
 1195.5000     0.4223  -999.2500     2.7105
 1196.0000     0.4223  -999.2500     2.7112
 1196.5000     0.4224  -999.2500     2.7119
 1197.0000     0.4225  -999.2500     2.7126
 1197.5000     0.4225  -999.2500     2.7132
 1198.0000     0.4225  -999.2500     2.7139
 1198.5000     0.4226  -999.2500     2.7146
 1199.0000     0.4227  -999.2500     2.7153
 1199.5000     0.4227  -999.2500     2.7160
 1200.0000     0.4228  -999.2500     2.7167
 1200.5000     0.4228  -999.2500     2.7174
 1201.0000     0.4229  -999.2500     2.7180
 1201.5000     0.4229  -999.2500     2.7187
 1202.0000     0.4230  -999.2500     2.7194
 1202.5000     0.4230  -999.2500     2.7201
 1203.0000     0.4231  -999.2500     2.7208
 1203.5000     0.4541  -999.2500     2.7228
 1204.0000     0.4541  -999.2500     2.7283
 1204.5000     0.4541  -999.2500     2.7338
 1205.0000     0.4541  -999.2500     2.7393
 1205.5000     0.4541  -999.2500     2.7448
 1206.0000     0.4541  -999.2500     2.7503
 1206.5000     0.4436  -999.2500     2.7558
 1207.0000     0.4436  -999.2500     2.7613
 1207.5000     0.4436  -999.2500     2.7668
 1208.0000     0.4541  -999.2500     2.7723
 1208.5000     0.4436  -999.2500     2.7778
 1209.0000     0.4436  -999.2500     2.7833
 1209.5000     0.4436  -999.2500     2.7888
 1210.0000     0.4541  -999.2500     2.7943
 1210.5000     0.4541  -999.2500     2.7998
 1211.0000     0.4541  -999.2500     2.8053
 1211.5000     0.4541  -999.2500     2.8108
 1212.0000     0.4541  -999.2500     2.8163
 1212.5000     0.4541  -999.2500     2.8218
 1213.0000     0.4541  -999.2500     2.8273
 1213.5000     0.4749  -999.2500     2.8328
 1214.0000     0.4541  -999.2500     2.8383
 1214.5000     0.4541  -999.2500     2.8438
 1215.0000     0.4436  -999.2500     2.8493
 1215.5000     0.4436  -999.2500     2.8547
 1216.0000     0.4332  -999.2500     2.8602
 1216.5000     0.4123  -999.2500     2.8657
 1217.0000     0.4123  -999.2500     2.8712
 1217.5000     0.4019  -999.2500     2.8767
 1218.0000     0.4019  -999.2500     2.8822
 1218.5000     0.4019  -999.2500     2.8877
 1219.0000     0.4019  -999.2500     2.8932
 1219.5000     0.4019  -999.2500     2.8987
 1220.0000     0.3914  -999.2500     2.9042
 1220.5000     0.3914  -999.2500     2.9097
 1221.0000     0.3914  -999.2500     2.9152
 1221.5000     0.3706  -999.2500     2.9207
 1222.0000     0.3706  -999.2500     2.9262
 1222.5000     0.3706  -999.2500     2.9317
 1223.0000     0.3706  -999.2500     2.9372
 1223.5000     0.3706  -999.2500     2.9427
 1224.0000     0.3706  -999.2500     2.9482
 1224.5000     0.4019  -999.2500     2.9537
 1225.0000     0.4123  -999.2500     2.9592
 1225.5000     0.4436  -999.2500     2.9647
 1226.0000     0.4645  -999.2500     2.9702
 1226.5000     0.4749  -999.2500     2.9757
 1227.0000     0.4854  -999.2500     2.9812
 1227.5000     0.4854  -999.2500     2.9867
 1228.0000     0.4854  -999.2500     2.9922
 1228.5000     0.4854  -999.2500     2.9977
 1229.0000     0.4749  -999.2500     3.0032
 1229.5000     0.4749  -999.2500     3.0087
 1230.0000     0.4749  -999.2500     3.0142
 1230.5000     0.4749  -999.2500     3.0197
 1231.0000     0.4541  -999.2500     3.0252
 1231.5000     0.4541  -999.2500     3.0307
 1232.0000     0.4541  -999.2500     3.0362
 1232.5000     0.4436  -999.2500     3.0417
 1233.0000     0.4436  -999.2500     3.0472
 1233.5000     0.4436  -999.2500     3.0527
 1234.0000     0.4436  -999.2500     3.0582
 1234.5000     0.4436  -999.2500     3.0637
 1235.0000     0.4436  -999.2500     3.0692
 1235.5000     0.4436  -999.2500     3.0747
 1236.0000     0.4436  -999.2500     3.0802
 1236.5000     0.4541  -999.2500     3.0857
 1237.0000     0.4854  -999.2500     3.0912
 1237.5000     0.5167  -999.2500     3.0967
 1238.0000     0.5376  -999.2500     3.1022
 1238.5000     0.5689  -999.2500     3.1077
 1239.0000     0.5689  -999.2500     3.1132
 1239.5000     0.5689  -999.2500     3.1187
 1240.0000     0.5689  -999.2500     3.1241
 1240.5000     0.5689  -999.2500     3.1296
 1241.0000     0.5689  -999.2500     3.1351
 1241.5000     0.5689  -999.2500     3.1406
 1242.0000     0.5689  -999.2500     3.1461
 1242.5000     0.5689  -999.2500     3.1516
 1243.0000     0.5689  -999.2500     3.1571
 1243.5000     0.5689  -999.2500     3.1626
 1244.0000     0.5689  -999.2500     3.1681
 1244.5000     0.5689  -999.2500     3.1736
 1245.0000     0.5689  -999.2500     3.1791
 1245.5000     0.5585  -999.2500     3.1846
 1246.0000     0.5376  -999.2500     3.1901
 1246.5000     0.5271  -999.2500     3.1956
 1247.0000     0.5271  -999.2500     3.2011
 1247.5000     0.4958  -999.2500     3.2066
 1248.0000     0.4541  -999.2500     3.2121
 1248.5000     0.4332  -999.2500     3.2176
 1249.0000     0.4019  -999.2500     3.2231
 1249.5000     0.4019  -999.2500     3.2286
 1250.0000     0.3914  -999.2500     3.2341
 1250.5000     0.3706  -999.2500     3.2396
 1251.0000     0.3706  -999.2500     3.2451
 1251.5000     0.3706  -999.2500     3.2506
 1252.0000     0.3706  -999.2500     3.2561
 1252.5000     0.3706  -999.2500     3.2616
 1253.0000     0.3601  -999.2500     3.2671
 1253.5000     0.3601  -999.2500     3.2726
 1254.0000     0.3601  -999.2500     3.2781
 1254.5000     0.3601  -999.2500     3.2836
 1255.0000     0.3601  -999.2500     3.2891
 1255.5000     0.3601  -999.2500     3.2946
 1256.0000     0.3601  -999.2500     3.3001
 1256.5000     0.3601  -999.2500     3.3056
 1257.0000     0.3601  -999.2500     3.3111
 1257.5000     0.3706  -999.2500     3.3166
 1258.0000     0.4019  -999.2500     3.3221
 1258.5000     0.4123  -999.2500     3.3276
 1259.0000     0.4436  -999.2500     3.3331
 1259.5000     0.4749  -999.2500     3.3386
