~VERSION INFORMATION
 VERS.                2.0:   CWLS LOG ASCII STANDARD - VERSION 2.0
 WRAP.                 NO:   ONE LINE PER DEPTH STEP
~WELL INFORMATION
#MNEM.UNIT      DATA TYPE    INFORMATION
#----------   ------------   ------------------------------
 STRT.F          148.5000:   START DEPTH
 STOP.F          882.5000:   STOP DEPTH
 STEP.F            0.5000:   STEP LENGTH
 NULL.          -999.2500:   NO VALUE
 COMP.               NAVY:   COMPANY
 WELL. RES 3 TEAPOT DOM #55S-11:   WELL
 FLD .             TEAPOT:   FIELD
 LOC .      S11 T38N R78W:   LOCATION
 CNTY.            NATRONA:   COUNTY
 STAT.            WYOMING:   STATE
 CTRY. UNITED STATES OF AMERICA:   COUNTRY
 SRVC.       Schlumberger:   SERVICE COMPANY
 DATE.        05-AUG-1961:   LOGDATE
 API .       490250634000:   API NUMBER
~CURVE INFORMATION
#MNEM.UNIT       API CODE    CURVE DESCRIPTION
#----------   ------------   ------------------------------
 DEPT.F                  :   
 GR  .GAPI   30 310 01 00:   GAMMA RAY
 SPR .MV     05 010 01 00:   SPONTANEOUS POTENTIAL FROM RES.
 CILD.MMHO   05 110 46 00:   CONDUCTIVITY INDUCTION LOG DEEP
 ASN .OHMM   05 041 16 00:   AMPLIFIED SHORT NORMAL 16"
 ILD .OHMM   05 120 46 00:   INDUCTION LOG DEEP
~PARAMETER INFORMATION
#MNEM.UNIT          VALUE    DESCRIPTION
#----------   ------------   ------------------------------
 PD  .                 GL:   PERMANENT DATUM
 EPD .F              5201:   ELEVATION PERMANENT DATUM
 LMF .                 KB:   LOG MEASURED FROM
 DAPD.F                 6:   FEET ABOVE PERMANENT DATUM
 DMF .                 KB:   DRILLING MEASURED FROM
 EKB .F              5207:   KELLING BUSHING
 EGL .F              5201:   GROUND LEVEL
 DATE.             8-5-61:   RUN DATE
 RUN .                  1:   RUN NUMBER
 DD  .F               880:   DEPTH DRILLER
 DL  .F               882:   DEPTH LOGGER
 BLI .F               881:   BOTTOM LOG INTERVAL
 TLI .F               150:   TOP LOG INTERVAL
 BS  .IN            7.875:   BIT SIZE
 BSD .F               880:   BIT SIZE AT DEPTH
 DFT .       OIL EMULSION:   DRILLING FLUID TYPE
 DFV .                 40:   DRILLING FLUID VISCOSITY
 MSS .           FLOWLINE:   MUD SAMPLE SOURCE
 RMS .OHMM            .96:   RESISTIVITY MUD SAMPLE
 MST .F                74:   MUD SAMPLE TEMPERATURE
 TCS .HRS               1:   TIME CURCULATED STOPPED
 LUN .               2544:   LOGGING UNIT NUMBER
 LUL .                 NC:   LOGGING UNIT LOCATION
 ENGI.            EARNEST:   RECORDING ENGINEER
 WITN.          JORGENSEN:   WITNESSED BY
 CLNT.            A2DTECH:   CLIENT CODE
 ORIG.       2", 5" PRINT:   ORIGIN OF DATA
 UWI .       490250634000:   UNIQUE WELL ID
 DICO. A2D Technologies, Inc.:   DIGITIZING COMPANY
~OTHER INFORMATION
~A   DEPT       GR        SPR       CILD        ASN        ILD   
# ...
  331.5000  -999.2500   -54.0348    95.8347    11.4293    10.9685
  332.0000  -999.2500   -54.0500    94.2486    11.5538    11.1413
  332.5000  -999.2500   -54.1054    92.6625    11.6726    11.3156
  333.0000  -999.2500   -54.1721    91.0764    11.7920    11.4882
  333.5000  -999.2500   -54.2325    89.6274    11.9103    11.6614
  334.0000  -999.2500   -54.2983    88.9627    12.0307    11.7853
  334.5000  -999.2500   -54.3570    88.3510    12.1356    11.8711
  335.0000  -999.2500   -54.4271    87.7392    12.1964    11.9596
  335.5000  -999.2500   -54.4230    87.1274    12.2542    12.0459
  336.0000  -999.2500   -54.1889    86.5156    12.3044    12.1335
  336.5000  -999.2500   -53.9710    85.9038    12.3695    12.2200
  337.0000  -999.2500   -53.7375    85.2920    12.4045    12.3058
  337.5000  -999.2500   -53.5291    84.6803    12.5402    12.3492
  338.0000  -999.2500   -53.2804    84.0685    12.6459    12.4572
  338.5000  -999.2500   -53.3938    83.5851    12.6525    12.5512
  339.0000  -999.2500   -53.7217    81.4703    12.8480    12.6829
  339.5000  -999.2500   -53.9847    79.7223    13.0060    13.0845
  340.0000  -999.2500   -54.2769    77.9629    13.1848    13.4479
  340.5000  -999.2500   -54.5540    76.2222    13.5507    13.8153
  341.0000  -999.2500   -54.8378    74.4786    13.8793    14.1798
  341.5000  -999.2500   -55.1218    72.7351    14.2085    14.5468
  342.0000  -999.2500   -55.4166    70.9949    14.5392    14.9118
  342.5000  -999.2500   -55.4749    69.2563    14.8648    15.2801
  343.0000  -999.2500   -55.3096    67.5155    15.2017    15.6426
  343.5000  -999.2500   -55.1758    65.4874    15.5162    16.0150
  344.0000  -999.2500   -54.9849    65.1449    15.8813    16.3687
  344.5000  -999.2500   -54.7737    64.2386    16.0766    16.7663
  345.0000  -999.2500   -54.5725    63.3322    16.0460    17.0025
  345.5000  -999.2500   -54.3630    62.4259    15.8398    16.8614
  346.0000  -999.2500   -54.1637    61.4300    15.5849    16.5843
  346.5000  -999.2500   -53.9445    61.4300    15.3261    16.3054
  347.0000  -999.2500   -53.8191    63.2930    15.0749    16.0146
  347.5000  -999.2500   -53.9071    65.3323    14.8188    15.7541
  348.0000  -999.2500   -54.0710    67.3716    14.5641    15.5304
  348.5000  -999.2500   -54.2352    69.4109    14.3089    15.2923
  349.0000  -999.2500   -54.3992    71.5005    14.0544    15.0615
  349.5000  -999.2500   -54.5637    71.9977    13.7971    14.8260
  350.0000  -999.2500   -54.7272    72.5076    13.5559    14.5951
  350.5000  -999.2500   -54.8939    73.0174    13.4404    14.3592
  351.0000  -999.2500   -55.0411    73.5146    13.3410    14.2121
  351.5000  -999.2500   -55.0527    73.5146    13.2388    14.1530
  352.0000  -999.2500   -55.0549    73.5146    13.1371    14.1186
  352.5000  -999.2500   -55.0481    73.5146    13.0321    14.0694
  353.0000  -999.2500   -55.0635    73.5146    12.9359    13.9887
  353.5000  -999.2500   -55.0087    73.5146    12.8288    13.9885
  354.0000  -999.2500   -54.8037    73.5146    12.7123    13.6940
  354.5000  -999.2500   -54.5038    77.1736    12.3650    13.2542
  355.0000  -999.2500   -54.1681    79.5569    12.0227    12.4993
  355.5000  -999.2500   -53.8503    91.7758    11.6995    11.4255
  356.0000  -999.2500   -53.5238   102.6519    11.1962    10.4752
  356.5000  -999.2500   -53.2005   113.5280    10.7401     9.4668
  357.0000  -999.2500   -52.8782   124.4042    10.1741     8.4911
  357.5000  -999.2500   -52.5512   135.2803     9.8596     7.5168
  358.0000  -999.2500   -52.2344   146.1564     8.9154     7.0047
  358.5000  -999.2500   -51.9059   157.0326     8.4429     6.7599
  359.0000  -999.2500   -51.8324   160.1208     7.8814     6.4780
  359.5000  -999.2500   -52.0748   163.8595     7.5009     6.2987
  360.0000  -999.2500   -52.2642   166.1631     7.4053     6.2854
  360.5000  -999.2500   -52.4969   168.1772     7.4074     6.3358
  361.0000  -999.2500   -52.6467   166.3041     7.4087     6.4992
  361.5000  -999.2500   -52.5462   163.8570     7.4141     6.6732
  362.0000  -999.2500   -52.2943   162.1349     7.4204     6.7035
  362.5000  -999.2500   -52.0323   162.6070     7.3826     6.6739
  363.0000  -999.2500   -51.7715   164.1365     7.3263     6.6086
  363.5000  -999.2500   -51.5102   165.6659     7.2689     6.5401
  364.0000  -999.2500   -51.2381   167.1954     7.2102     6.4720
  364.5000  -999.2500   -51.1483   168.1772     7.1528     6.4023
  365.0000  -999.2500   -51.0844   168.1772     7.0929     6.3945
  365.5000  -999.2500   -51.0214   167.2022     7.0381     6.4169
  366.0000  -999.2500   -51.1259   166.0899     7.0647     6.4426
  366.5000  -999.2500   -51.2674   164.9776     7.1345     6.4680
  367.0000  -999.2500   -51.4023   163.8652     7.2019     6.4939
  367.5000  -999.2500   -51.5403   162.7529     7.2703     6.4949
  368.0000  -999.2500   -51.6763   162.8813     7.3372     6.4987
  368.5000  -999.2500   -51.8137   164.5607     7.3244     6.4672
  369.0000  -999.2500   -51.9497   166.2401     7.2749     6.3955
  369.5000  -999.2500   -52.0886   167.9196     7.2288     6.3291
  370.0000  -999.2500   -52.2133   169.5990     7.1803     6.2601
  370.5000  -999.2500   -52.2251   171.2784     7.1328     6.1920
  371.0000  -999.2500   -52.2243   172.9578     7.0849     6.1246
  371.5000  -999.2500   -52.2229   174.6372     7.0388     6.0539
  372.0000  -999.2500   -52.2273   176.2336     7.0056     6.0016
  372.5000  -999.2500   -52.1994   176.2336     6.9705     6.0585
  373.0000  -999.2500   -51.9468   176.2336     6.9580     6.1253
  373.5000  -999.2500   -51.6871   176.2336     6.9555     6.1902
  374.0000  -999.2500   -51.4200   174.2195     6.9835     6.2558
  374.5000  -999.2500   -51.1706   170.9182     7.0886     6.3211
  375.0000  -999.2500   -50.8898   168.7902     7.1879     6.3865
  375.5000  -999.2500   -50.8914   166.6623     7.2868     6.4519
  376.0000  -999.2500   -51.0957   164.5343     7.3881     6.5172
  376.5000  -999.2500   -51.2543   162.4064     7.4252     6.5825
  377.0000  -999.2500   -51.4347   160.2785     7.4160     6.6476
  377.5000  -999.2500   -51.6038   158.1505     7.4020     6.7133
  378.0000  -999.2500   -51.7784   156.0226     7.4274     6.7759
  378.5000  -999.2500   -51.9512   153.8947     7.5299     6.8106
  379.0000  -999.2500   -52.1233   151.7667     7.6145     6.9006
  379.5000  -999.2500   -52.2992   149.6388     7.7064     6.9849
  380.0000  -999.2500   -52.4248   148.0363     7.7904     7.0727
  380.5000  -999.2500   -52.3457   145.4935     7.8895     7.1524
  381.0000  -999.2500   -52.2500   144.0081     7.9670     7.2512
  381.5000  -999.2500   -52.0646   144.0081     7.9704     7.2900
  382.0000  -999.2500   -51.8652   145.4179     7.9798     7.2244
  382.5000  -999.2500   -51.6931   147.2023     7.9850     7.1703
  383.0000  -999.2500   -51.4943   148.9867     7.9883     7.1094
  383.5000  -999.2500   -51.3229   150.7710     7.9677     7.0523
  384.0000  -999.2500   -51.1066   152.5554     7.8779     6.9932
  384.5000  -999.2500   -51.0530   154.3398     7.7743     6.9350
  385.0000  -999.2500   -51.2287   156.1241     7.6614     6.8764
  385.5000  -999.2500   -51.3763   158.1068     7.5765     6.8181
  386.0000  -999.2500   -51.5401   158.4089     7.5236     6.7594
  386.5000  -999.2500   -51.6943   158.7401     7.4686     6.7021
  387.0000  -999.2500   -51.8554   159.0845     7.4683     6.6965
  387.5000  -999.2500   -52.0045   159.4231     7.5658     6.7130
  388.0000  -999.2500   -51.9949   159.7588     7.7773     6.7306
  388.5000  -999.2500   -51.9611   160.1053     7.9781     6.7485
  389.0000  -999.2500   -51.9284   158.7888     8.2029     6.7663
  389.5000  -999.2500   -51.9015   157.4208     8.1604     6.7841
  390.0000  -999.2500   -51.8598   156.0532     7.9661     6.8019
  390.5000  -999.2500   -51.8489   154.6851     7.7637     6.8198
  391.0000  -999.2500   -51.6620   154.9323     7.5628     6.8374
  391.5000  -999.2500   -51.3174   156.6814     7.4978     6.8554
  392.0000  -999.2500   -50.9903   158.4352     7.5208     6.8727
