~VERSION INFORMATION
 VERS.                2.0:   CWLS LOG ASCII STANDARD - VERSION 2.0
 WRAP.                 NO:   ONE LINE PER DEPTH STEP
~WELL INFORMATION
#MNEM.UNIT      DATA TYPE    INFORMATION
#----------   ------------   ------------------------------
 STRT.F          420.0000:   START DEPTH
 STOP.F         1937.0000:   STOP DEPTH
 STEP.F            0.5000:   STEP LENGTH
 NULL.          -999.2500:   NO VALUE
 COMP. LAWRENCE/ALLISON INC:   COMPANY
 WELL.      85 "X" #85-29:   WELL
 FLD .             TEAPOT:   FIELD
 LOC .      S29 T39N R78W:   LOCATION
 CNTY.            NATRONA:   COUNTY
 STAT.            WYOMING:   STATE
 CTRY. UNITED STATES OF AMERICA:   COUNTRY
 SRVC.            Unknown:   SERVICE COMPANY
 DATE.        28-SEP-1987:   LOGDATE
 API .       490251119100:   API NUMBER
~CURVE INFORMATION
#MNEM.UNIT       API CODE    CURVE DESCRIPTION
#----------   ------------   ------------------------------
 DEPT.F                  :   
 ROP .FT/HR  91 810 01 00:   RAT OF DRILLING PENETRATION
 TGAS.TC/CC  91 830 01 00:   TOTAL GAS UNIT
~PARAMETER INFORMATION
#MNEM.UNIT          VALUE    DESCRIPTION
#----------   ------------   ------------------------------
 DATE.        28-SEP-1987:   RUN DATE
 BLI .F              1937:   BOTTOM LOG INTERVAL
 TLI .F               420:   TOP LOG INTERVAL
 LUN .              T-146:   LOGGING UNIT NUMBER
 CLNT.            A2DTECH:   CLIENT CODE
 ORIG.           5" PRINT:   ORIGIN OF DATA
 UWI .       490251119100:   UNIQUE WELL ID
 DICO. A2D Technologies, Inc.:   DIGITIZING COMPANY
~OTHER INFORMATION
~A   DEPT        ROP       TGAS 
# ...
 1513.5000     0.2654    15.8038
 1514.0000     0.2651    15.9132
 1514.5000     0.2648    16.0226
 1515.0000     0.2644    16.1321
 1515.5000     0.2641    16.2384
 1516.0000     0.2637    16.2228
 1516.5000     0.2634    15.8249
 1517.0000     0.2630    16.1896
 1517.5000     0.2627    16.1746
 1518.0000     0.2623    16.1596
 1518.5000     0.2620    16.1446
 1519.0000     0.2617    16.1295
 1519.5000     0.2613    16.1165
 1520.0000     0.2610    16.0995
 1520.5000     0.2609    16.4642
 1521.0000     0.2611    16.4492
 1521.5000     0.2612    16.0545
 1522.0000     0.2614    15.6597
 1522.5000     0.2615    15.2649
 1523.0000     0.2617    14.8702
 1523.5000     0.2618    14.8552
 1524.0000     0.2619    14.8402
 1524.5000     0.2621    14.8251
 1525.0000     0.2622    14.8101
 1525.5000     0.2624    15.1749
 1526.0000     0.2625    15.1595
 1526.5000     0.2627    15.1443
 1527.0000     0.2628    15.1291
 1527.5000     0.2630    15.1110
 1528.0000     0.2631    15.0960
 1528.5000     0.2633    14.7013
 1529.0000     0.2634    14.6863
 1529.5000     0.2636    15.0547
 1530.0000     0.2637    15.0360
 1530.5000     0.2639    15.0210
 1531.0000     0.2640    15.0059
 1531.5000     0.2641    14.9909
 1532.0000     0.2643    14.5999
 1532.5000     0.2644    14.9647
 1533.0000     0.2646    14.9459
 1533.5000     0.2647    14.9309
 1534.0000     0.2649    14.9159
 1534.5000     0.2650    14.9008
 1535.0000     0.2652    15.2658
 1535.5000     0.2653    15.6303
 1536.0000     0.2655    15.6152
 1536.5000     0.2656    15.6000
 1537.0000     0.2658    15.9650
 1537.5000     0.2659    16.3297
 1538.0000     0.2661    16.3110
 1538.5000     0.2662    16.2987
 1539.0000     0.2663    16.2809
 1539.5000     0.2665    16.6494
 1540.0000     0.2665    17.0142
 1540.5000     0.2664    16.9954
 1541.0000     0.2664    16.9804
 1541.5000     0.2663    16.9654
 1542.0000     0.2662    16.9503
 1542.5000     0.2661    16.9353
 1543.0000     0.2660    16.9203
 1543.5000     0.2659    16.5256
 1544.0000     0.2658    16.8940
 1544.5000     0.2657    16.8753
 1545.0000     0.2656    16.8603
 1545.5000     0.2655    16.4655
 1546.0000     0.2654    16.0707
 1546.5000     0.2653    16.0557
 1547.0000     0.2652    16.0405
 1547.5000     0.2651    16.0253
 1548.0000     0.2650    16.0101
 1548.5000     0.2649    15.9919
 1549.0000     0.2648    15.9769
 1549.5000     0.2647    15.9619
 1550.0000     0.2647    16.3266
 1550.5000     0.2646    16.3116
 1551.0000     0.2645    16.2966
 1551.5000     0.2644    16.2816
 1552.0000     0.2643    16.2666
 1552.5000     0.2652    15.8718
 1553.0000     0.2661    15.8568
 1553.5000     0.2670    15.8418
 1554.0000     0.2679    15.8267
 1554.5000     0.2688    15.8117
 1555.0000     0.2696    15.7967
 1555.5000     0.2705    15.7738
 1556.0000     0.2714    15.7399
 1556.5000     0.2723    15.7060
 1557.0000     0.2732    15.6722
 1557.5000     0.2740    15.6383
 1558.0000     0.2749    15.6044
 1558.5000     0.2758    15.5705
 1559.0000     0.2767    15.5367
 1559.5000     0.2858    15.5028
 1560.0000     0.2949    15.4689
 1560.5000     0.2945    15.4351
 1561.0000     0.2091    15.4012
 1561.5000     0.2181    15.3673
 1562.0000     0.2272    15.3335
 1562.5000     0.2268    15.2996
 1563.0000     0.2265    15.2717
 1563.5000     0.2265    15.6430
 1564.0000     0.2265    16.3913
 1564.5000     0.2265    17.8962
 1565.0000     0.2266    19.4039
 1565.5000     0.2266    19.7753
 1566.0000     0.2266    19.7612
 1566.5000     0.2266    19.7500
 1567.0000     0.2267    19.7387
 1567.5000     0.2267    19.7275
 1568.0000     0.2267    19.7162
 1568.5000     0.2267    20.4645
 1569.0000     0.2268    20.8330
 1569.5000     0.2268    20.8215
 1570.0000     0.2268    20.8101
 1570.5000     0.2268    20.7987
 1571.0000     0.2268    20.7852
 1571.5000     0.2269    20.7740
 1572.0000     0.2269    20.7646
 1572.5000     0.2269    21.1312
 1573.0000     0.2269    21.1200
 1573.5000     0.2270    20.7290
 1574.0000     0.2270    20.7178
 1574.5000     0.2270    20.7065
 1575.0000     0.2363    20.6962
 1575.5000     0.2643    20.7760
 1576.0000     0.3017    21.0532
 1576.5000     0.3013    20.6615
 1577.0000     0.3009    20.6503
 1577.5000     0.3006    20.6391
 1578.0000     0.2993    20.6278
 1578.5000     0.2904    20.6165
 1579.0000     0.2994    20.6051
 1579.5000     0.2991    20.5937
 1580.0000     0.2987    20.5800
 1580.5000     0.2983    20.5688
 1581.0000     0.2979    20.1778
 1581.5000     0.2975    20.1666
 1582.0000     0.2972    20.1553
 1582.5000     0.2968    20.1456
 1583.0000     0.2964    20.1342
 1583.5000     0.2960    20.1228
 1584.0000     0.2957    20.1114
 1584.5000     0.2953    20.1000
 1585.0000     0.2949    20.0886
 1585.5000     0.2945    20.0772
 1586.0000     0.2941    20.0658
 1586.5000     0.2938    20.0544
 1587.0000     0.2934    20.0430
 1587.5000     0.2930    20.0316
 1588.0000     0.2926    20.0203
 1588.5000     0.2922    20.0089
 1589.0000     0.2919    19.9975
 1589.5000     0.2915    19.9861
 1590.0000     0.2911    19.9747
 1590.5000     0.2907    19.9633
 1591.0000     0.2904    19.9519
 1591.5000     0.2900    19.9405
 1592.0000     0.2896    19.9291
 1592.5000     0.2797    19.9177
 1593.0000     0.2793    19.9063
 1593.5000     0.2695    19.8949
 1594.0000     0.2030    19.8835
 1594.5000     0.1837    19.8722
 1595.0000     0.1833    19.8608
 1595.5000     0.1830    19.8494
 1596.0000     0.2394    19.8380
 1596.5000     0.2011    19.8266
 1597.0000     0.1629    19.8152
 1597.5000     0.1626    19.8038
 1598.0000     0.1622    19.7924
 1598.5000     0.1618    19.7810
 1599.0000     0.1520    19.7696
 1599.5000     0.1516    19.7582
 1600.0000     0.1517    19.7468
 1600.5000     0.1532    19.7337
 1601.0000     0.1547    19.7396
 1601.5000     0.1562    19.7465
 1602.0000     0.1577    19.7535
 1602.5000     0.1592    19.7604
 1603.0000     0.1607    19.7674
 1603.5000     0.1621    19.7743
 1604.0000     0.1636    19.7813
 1604.5000     0.1651    19.7882
 1605.0000     0.1666    19.7951
 1605.5000     0.1681    19.8021
 1606.0000     0.1696    19.8090
 1606.5000     0.1711    19.8160
 1607.0000     0.1726    19.8229
 1607.5000     0.1741    19.8298
 1608.0000     0.1756    20.2034
 1608.5000     0.1771    21.6990
 1609.0000     0.1786    23.5790
 1609.5000     0.1801    25.4590
 1610.0000     0.1817    26.5795
 1610.5000     0.1848    26.9452
 1611.0000     0.1880    25.4028
 1611.5000     0.1912    23.1055
 1612.0000     0.2118    21.5678
 1612.5000     0.2308    21.5491
 1613.0000     0.2593    21.5303
 1613.5000     0.2595    21.1319
 1614.0000     0.2502    20.7334
 1614.5000     0.2220    20.7146
 1615.0000     0.1938    20.6959
 1615.5000     0.1845    20.6772
 1616.0000     0.1846    20.6428
 1616.5000     0.1942    20.2595
 1617.0000     0.1944    20.2405
 1617.5000     0.1851    20.2178
 1618.0000     0.1879    20.1990
 1618.5000     0.1913    20.2122
 1619.0000     0.1946    20.2284
 1619.5000     0.1979    20.2446
 1620.0000     0.2012    20.2608
 1620.5000     0.2046    20.2770
 1621.0000     0.2079    20.2932
 1621.5000     0.2112    20.3094
 1622.0000     0.2145    20.3256
 1622.5000     0.2179    20.3418
 1623.0000     0.2212    20.3580
 1623.5000     0.2248    20.3742
 1624.0000     0.2250    20.3904
 1624.5000     0.2346    20.4066
 1625.0000     0.2347    20.4228
 1625.5000     0.2349    20.4390
 1626.0000     0.2405    20.4552
 1626.5000     0.2541    20.4714
 1627.0000     0.2543    20.4876
 1627.5000     0.2544    20.5038
 1628.0000     0.2546    20.5200
 1628.5000     0.2547    20.5361
 1629.0000     0.2643    20.5523
 1629.5000     0.2645    20.5685
 1630.0000     0.2647    20.5847
 1630.5000     0.2741    20.6009
 1631.0000     0.2736    20.6171
 1631.5000     0.2731    20.6333
 1632.0000     0.2726    20.6495
 1632.5000     0.2721    20.6657
 1633.0000     0.2716    20.6819
 1633.5000     0.2711    20.6981
 1634.0000     0.2706    20.7143
 1634.5000     0.2702    20.7305
