~VERSION INFORMATION
 VERS.                2.0:   CWLS LOG ASCII STANDARD - VERSION 2.0
 WRAP.                 NO:   ONE LINE PER DEPTH STEP
~WELL INFORMATION
#MNEM.UNIT      DATA TYPE    INFORMATION
#----------   ------------   ------------------------------
 STRT.F          131.0000:   START DEPTH
 STOP.F         1085.0000:   STOP DEPTH
 STEP.F            0.5000:   STEP LENGTH
 NULL.          -999.2500:   NO VALUE
 COMP. U S NAVY-INTEX OIL:   COMPANY
 WELL.     UPR #3 #66-S-2:   WELL
 FLD .             TEAPOT:   FIELD
 LOC .       S2 T38N R78W:   LOCATION
 CNTY.            NATRONA:   COUNTY
 STAT.            WYOMING:   STATE
 CTRY. UNITED STATES OF AMERICA:   COUNTRY
 SRVC.       Schlumberger:   SERVICE COMPANY
 DATE.        18-JUL-1964:   LOGDATE
 API .       490250641300:   API NUMBER
~CURVE INFORMATION
#MNEM.UNIT       API CODE    CURVE DESCRIPTION
#----------   ------------   ------------------------------
 DEPT.F                  :   
 ASN .OHMM   05 041 16 00:   AMPLIFIED SHORT NORMAL 16"
 CILD.MMHO   05 110 46 00:   CONDUCTIVITY INDUCTION LOG DEEP
 ILD .OHMM   05 120 46 00:   INDUCTION LOG DEEP
 SPR .MV     05 010 01 00:   SPONTANEOUS POTENTIAL FROM RES.
 GR  .GAPI   30 310 01 00:   GAMMA RAY
 CALS.IN     60 280 50 00:   CALIPER FROM SONIC LOG
 DT  .US/F   60 520 33 00:   INTERVAL TRANSIT TIME
~PARAMETER INFORMATION
#MNEM.UNIT          VALUE    DESCRIPTION
#----------   ------------   ------------------------------
 PD  .                 GL:   PERMANENT DATUM
 EPD .F              5204:   ELEVATION PERMANENT DATUM
 LMF .                 KB:   LOG MEASURED FROM
 DAPD.F                 5:   FEET ABOVE PERMANENT DATUM
 DMF .                 KB:   DRILLING MEASURED FROM
 EKB .F              5209:   KELLING BUSHING
 EGL .F              5204:   GROUND LEVEL
 DATE.          7-18-1964:   RUN DATE
 RUN .                  1:   RUN NUMBER
 DD  .F              1085:   DEPTH DRILLER
 DL  .F              1086:   DEPTH LOGGER
 BLI .F              1085:   BOTTOM LOG INTERVAL
 TLI .F               131:   TOP LOG INTERVAL
 CS  .IN            8.625:   CASING SIZE
 CBD .F                10:   CASING BOTTOM DRILLER
 BS  .IN             6.75:   BIT SIZE
 BSD .F              5204:   BIT SIZE AT DEPTH
 DFT .                GEL:   DRILLING FLUID TYPE
 DFD .                9.5:   DRILLING FLUID DENSITY
 DFV .                 47:   DRILLING FLUID VISCOSITY
 DFL .                 10:   DRILLING FLUID LOSS
 MSS .           FLOWLINE:   MUD SAMPLE SOURCE
 RMS .OHMM           2.58:   RESISTIVITY MUD SAMPLE
 MST .F                93:   MUD SAMPLE TEMPERATURE
 RMF .OHMM           2.27:   RESISTIVITY MUD FILTRATE SAMPLE
 MFST.F                93:   MUD FILTRATE SAMPLE TEMPERATURE
 MFSS.                 FP:   MUD FILTRATE SAMPLE SOURCE
 TCS .HRS             1.5:   TIME CURCULATED STOPPED
 LUN .               3527:   LOGGING UNIT NUMBER
 LUL .              CSPR.:   LOGGING UNIT LOCATION
 ENGI.            WINKLER:   RECORDING ENGINEER
 WITN.          JORGENSEN:   WITNESSED BY
 CLNT.            A2DTECH:   CLIENT CODE
 ORIG.    1" , 2.5" PRINT:   ORIGIN OF DATA
 UWI .       490250641300:   UNIQUE WELL ID
 DICO. A2D Technologies, Inc.:   DIGITIZING COMPANY
~OTHER INFORMATION
~A   DEPT      ASN       CILD        ILD        SPR         GR       CALS         DT   
# ...
  631.5000     7.4168   151.2985     7.4324   -35.6493    79.4942     6.5188   101.4356
  632.0000     7.4172   149.7910     7.4346   -35.3334    72.3897     6.5204   101.8819
  632.5000     7.4775   149.7761     7.5856   -35.0174    72.0967     6.5372   101.9533
  633.0000     7.5685   148.2687     7.5878   -34.4037    73.1740     6.5853   102.0234
  633.5000     7.6637   146.7612     7.6096   -33.9286    69.5510     6.6339   102.4684
  634.0000     7.7865   146.1295     7.7698   -33.9286    67.7429     6.7249   102.7655
  634.5000     7.8645   144.5323     7.8921   -34.2262    73.9717     6.7874   102.3828
  635.0000     7.8947   143.7314     8.0432   -34.2262    75.6517     6.7586   101.3995
  635.5000     7.8951   145.2060     8.1942   -34.5238    75.6652     6.6539   100.7838
  636.0000     7.8955   146.6841     8.1310   -34.5238    74.8928     6.7923   100.4108
  636.5000     7.8960   148.1621     8.0499   -34.8214    73.9469     6.8851   100.4046
  637.0000     7.8630   149.6418     7.9682   -34.8214    68.1328     6.7500   100.7757
  637.5000     7.7783   152.6107     7.9055   -34.8214    64.2068     6.5996   101.2972
  638.0000     7.6303   152.5962     7.6105   -34.8155    61.7959     6.5860   101.5930
  638.5000     7.4231   154.0743     7.4638   -34.4995    60.9002     6.6029   102.9423
  639.0000     7.2751   155.5523     7.3172   -33.9286    59.3984     6.5561   103.6143
  639.5000     7.2162   155.6469     7.3193   -33.6310    60.7754     6.5965   103.7610
  640.0000     7.2463   157.2141     7.3215   -33.3333    65.1827     6.7450   103.7545
  640.5000     7.3654   158.4939     7.3237   -33.3333    71.8627     6.8074   103.3732
  641.0000     7.4549   158.8558     7.1770   -33.3333    72.4822     6.7483   102.5333
  641.5000     7.4256   159.9575     7.1793   -33.3333    72.3440     6.6735   103.3286
  642.0000     7.3667   159.3830     7.1548   -33.3333    71.7354     6.7819   104.0349
  642.5000     7.3007   158.4328     7.0347   -33.3333    70.8358     6.8135   102.7493
  643.0000     7.2696   158.4179     7.0372   -33.3333    70.1147     6.6936   102.1422
  643.5000     7.2493   157.5771     7.0394   -33.3333    70.2796     6.8020   102.2123
  644.0000     7.3092   156.8927     7.0417   -33.6310    71.6566     6.8645   102.5834
  644.5000     7.3690   158.3708     7.0439   -33.9286    72.5791     6.8661   102.9544
  645.0000     7.3694   158.3563     7.0461   -34.2262    77.2894     6.7857   102.4978
  645.5000     7.3700   158.3418     7.0488   -34.5238    78.0570     6.7022   102.0412
  646.0000     7.3407   156.8348     7.0509   -34.5238    74.4374     6.7498   102.0360
  646.5000     7.3412   155.3277     7.2019   -34.2262    73.9929     6.7971   102.6329
  647.0000     7.3416   153.8207     7.2041   -33.9286    74.6156     6.8595   102.1761
  647.5000     7.3420   152.3134     7.2063   -33.9286    76.7502     6.8763   102.0193
  648.0000     7.3721   152.2985     7.2084   -34.2262    79.1940     6.8324   102.0907
  648.5000     7.4319   152.2836     7.3594   -34.5238    79.9588     6.7732   102.1608
  649.0000     7.4917   152.2687     7.3616   -34.9335    78.0233     6.6989   102.1543
  649.5000     7.5249   150.7612     7.3638   -35.1190    77.5613     6.6397   102.1492
  650.0000     7.5865   150.2486     7.5149   -35.1190    80.3053     6.6109   102.2958
  650.5000     7.6482   149.2388     7.5171   -35.1190    77.5914     6.6128   102.3629
  651.0000     7.7309   148.5472     7.5193   -34.5238    76.0855     6.6146   102.2784
  651.5000     7.7714   146.2239     7.5216   -34.5238    76.0974     6.6167   102.1206
  652.0000     7.8627   143.8605     7.5238   -34.5238    76.5639     6.6185   101.9628
  652.5000     7.9243   141.7138     7.5260   -34.5238    78.0910     6.6203   101.6544
  653.0000     8.0475   138.7142     7.6771   -34.8214    80.2241     6.6065   101.3461
  653.5000     8.2673   137.2072     7.6798   -35.1190    78.6712     6.5783   100.8873
  654.0000     8.5051   134.2076     7.8307   -35.4167    77.1919     6.5801   100.5037
  654.5000     8.6242   134.1931     7.9817   -35.4003    77.5356     6.5819   100.4116
  655.0000     8.6247   134.1786     7.9839   -35.1190    78.9112     6.5837   100.4138
  655.5000     8.6251   134.1641     8.1348   -35.0660    80.1352     6.5854   100.5569
  656.0000     8.6255   134.2288     8.2858   -34.8214    83.7805     6.5872   100.6248
  656.5000     8.6260   135.6277     8.2880   -35.1190    78.7955     6.5891   100.6909
  657.0000     8.5967   135.6119     8.2902   -35.4167    78.0468     6.5909   101.0598
  657.5000     8.6269   135.2490     8.2924   -35.7143    78.2133     6.5774   101.5039
  658.0000     8.6957   134.0896     8.3175   -35.8591    78.3767     6.5948   101.6489
  658.5000     8.8546   131.0895     8.4777   -36.0119    78.0856     6.5814   101.3387
  659.0000     9.0386   128.9651     8.6379   -35.7143    76.5824     6.5832   100.7294
  659.5000     9.2225   127.3681     8.7981   -35.7143    72.9580     6.5850   100.7220
  660.0000     9.3650   126.5672     9.1072   -35.4167    70.5457     6.6020   100.4890
  660.5000     9.4878   125.0568     9.2674   -35.1190    70.5576     6.6342   100.1008
  661.0000     9.6106   123.5497     9.4276   -35.1190    69.9454     6.7119    99.4768
  661.5000     9.7334   122.0427     9.6496   -35.1190    64.2575     6.7301    98.8097
  662.0000     9.8772   119.0431     9.8010   -35.1190    62.3838     6.6699    98.8024
  662.5000     9.9964   117.5361    10.1008   -35.1190    62.1205     6.6730    98.7950
  663.0000     9.7000   114.5365    10.2517   -34.7906    64.5596     6.6558    98.4115
  663.5000    10.0216   110.0444    10.4027   -34.5238    66.0867     6.4781    97.2002
  664.0000    10.3280   107.0249    10.5537   -34.2262    66.2502     6.3731    95.3870
  664.5000    10.5915   104.0448    10.7047   -33.9286    69.2924     6.4665    94.0252
  665.0000    10.7923   102.3384    10.7068   -34.2262    73.2437     6.5899    93.3407
  665.5000    10.8892    99.5373    10.5602   -34.2262    77.3466     6.6373    92.8066
  666.0000    10.8896    99.5224    10.4135   -34.2262    79.0222     6.4871    92.4088
  666.5000    10.8107   101.0023    10.3859   -34.2262    74.7947     6.4124    93.6178
  667.0000    10.4455   103.0347    10.2302   -34.2262    73.4430     6.4755    94.7391
  667.5000    10.1492   104.6021    10.0744   -34.5238    72.8485     6.5684    95.0327
  668.0000    10.0012   107.6617     9.9758   -35.1190    71.8002     6.6158    95.2511
  668.5000    10.0017   110.7215     9.8296   -35.1190    70.1391     6.6024    95.6200
  669.0000     9.8537   112.8629     9.6830   -35.1190    67.8737     6.5738    96.0641
  669.5000     9.8542   112.8484     9.5365   -35.1190    67.5732     6.5604    96.4330
  670.0000     9.8546   114.3264     9.3899   -34.8214    73.9721     6.5474    96.9523
  670.5000     9.8557   114.3119     9.2433   -34.8214    75.9537     6.5492    97.5470
  671.0000     9.9020   112.8049     9.2458   -34.8214    74.1475     6.5814    98.3853
  671.5000     9.9450   112.7904     9.2480   -34.8214    73.0988     6.6136    99.5989
  672.0000     9.9454   114.2685     9.2501   -35.1190    72.6562     6.6301    98.5013
  672.5000     9.9755   114.2537     9.2523   -35.0372    74.6378     6.5411    98.0424
  673.0000     9.9760   114.2388     9.2545   -34.8214    77.8316     6.4517    97.9599
  673.5000     9.9764   114.2239     9.2567   -34.8214    81.1768     6.4991    97.7268
  674.0000     9.9769   114.2090     9.2589   -34.5238    87.0978     6.5769    97.4185
  674.5000     9.9321   115.6885     9.2612   -34.8214    91.8067     6.6408    97.1854
  675.0000     9.8541   115.6716     9.2634   -34.8214    90.3035     6.6565    97.0275
  675.5000     9.7409   117.1521     9.2656   -34.8214    86.6791     6.5067    96.6440
  676.0000     9.6226   118.6269     9.2679   -34.5238    85.1759     6.4777    96.7911
  676.5000     9.5637   118.6119     9.2701   -34.2262    84.5783     6.5711    97.4001
