~VERSION INFORMATION
 VERS.                2.0:   CWLS LOG ASCII STANDARD - VERSION 2.0
 WRAP.                 NO:   ONE LINE PER DEPTH STEP
~WELL INFORMATION
#MNEM.UNIT      DATA TYPE    INFORMATION
#----------   ------------   ------------------------------
 STRT.F           30.0000:   START DEPTH
 STOP.F         1178.5000:   STOP DEPTH
 STEP.F            0.5000:   STEP LENGTH
 NULL.          -999.2500:   NO VALUE
 COMP. FENIX & SCISSON INC:   COMPANY
 WELL.     64-S-14 #14-14:   WELL
 FLD .        TEAPOT DOME:   FIELD
 LOC .      S14 T38N R78W:   LOCATION
 CNTY.            NATRONA:   COUNTY
 STAT.            WYOMING:   STATE
 CTRY. UNITED STATES OF AMERICA:   COUNTRY
 SRVC.            Unknown:   SERVICE COMPANY
 DATE.        19-APR-1978:   LOGDATE
 API .       490251061400:   API NUMBER
~CURVE INFORMATION
#MNEM.UNIT       API CODE    CURVE DESCRIPTION
#----------   ------------   ------------------------------
 DEPT.F                  :   
 SPR .MV     05 010 01 00:   SPONTANEOUS POTENTIAL
 SN  .OHMM   05 040 16 00:   SHORT NORMAL 16'
 ILD .OHMM   05 120 46 00:   INDUCTION LOG DEEP
 CALD.IN     45 280 60 00:   CALIPER
 GRD .GAPI   45 310 01 00:   GAMMA RAY FROM DENSITY LOG
 RHOB.G/C3   45 350 01 00:   BULK DENSITY
 DPHI.DEC    45 890 12 00:   DENSITY POROSITY SANDSTONE
 CORR.G/C3   45 356 01 00:   DENSITY CORRECTION
~PARAMETER INFORMATION
#MNEM.UNIT          VALUE    DESCRIPTION
#----------   ------------   ------------------------------
 PD  .                 GL:   PERMANENT DATUM
 EPD .F              5235:   ELEVATION PERMANENT DATUM
 LMF .                 KB:   LOG MEASURED FROM
 DMF .                 KB:   DRILLING MEASURED FROM
 EKB .F              5299:   KELLING BUSHING
 EGL .F              5295:   GROUND LEVEL
 DATE.          4-19-1978:   RUN DATE
 RUN .                  1:   RUN NUMBER
 DD  .F              1180:   DEPTH DRILLER
 DL  .F              1182:   DEPTH LOGGER
 BLI .F              1176:   BOTTOM LOG INTERVAL
 TLI .F                50:   TOP LOG INTERVAL
 CS  .IN            8.625:   CASING SIZE
 CBD .F                40:   CASING BOTTOM DRILLER
 CBL .F                50:   CASING BOTTOM LOGGER
 BS  .IN            7.875:   BIT SIZE
 BSD .F              1180:   BIT SIZE AT DEPTH
 DFT .                KCL:   DRILLING FLUID TYPE
 DFD .                8.7:   DRILLING FLUID DENSITY
 DFV .                 33:   DRILLING FLUID VISCOSITY
 DFPH.               10.5:   DRILLING FLUID PH
 DFL .               12.3:   DRILLING FLUID LOSS
 MSS .            MUD PIT:   MUD SAMPLE SOURCE
 RMS .OHMM            .54:   RESISTIVITY MUD SAMPLE
 MST .F                62:   MUD SAMPLE TEMPERATURE
 RMF .OHMM            .65:   RESISTIVITY MUD FILTRATE SAMPLE
 MFST.F                60:   MUD FILTRATE SAMPLE TEMPERATURE
 RMC .OHMM            .35:   RESISTIVITY MUD CAKE
 MCST.F                60:   MUD CAKE SAMPLE TEMPERATURE
 MFSS.           MEASURED:   MUD FILTRATE SAMPLE SOURCE
 RMB .OHMM            .42:   RESISTIVITY MUD AT BHT
 BHT .F                80:   BOTTOM HOLE TEMPERATURE
 TCS .HRS               2:   TIME CURCULATED STOPPED
 MRT .F                80:   MAXIMUM RECORDED TEMPERATURE
 LUN .               2955:   LOGGING UNIT NUMBER
 LUL .               CASP:   LOGGING UNIT LOCATION
 ENGI.             MILLER:   RECORDING ENGINEER
 WITN.           MCGINLEY:   WITNESSED BY
 CLNT.            A2DTECH:   CLIENT CODE
 ORIG.      2" & 5" PRINT:   ORIGIN OF DATA
 UWI .       490251061400:   UNIQUE WELL ID
 DICO. A2D Technologies, Inc.:   DIGITIZING COMPANY
~OTHER INFORMATION
~A   DEPT      SPR         SN        ILD       CALD         GRD      RHOB       DPHI       CORR   
# ...
  475.5000   -43.7433     2.2262     2.1086     7.2887    92.8185     2.2363     0.2427     0.0273
  476.0000   -43.6025     2.1191     2.0145     7.3186    89.2539     2.2384     0.2395     0.0359
  476.5000   -43.4566     2.0172     1.9247     7.3495    83.6195     2.2678     0.2266     0.0399
  477.0000   -43.4335     1.9863     1.8973     7.3945    79.8431     2.3029     0.2012     0.0237
  477.5000   -43.4540     2.0046     1.9148     7.4413    79.4727     2.3381     0.1757     0.0086
  478.0000   -43.4762     2.0605     1.9682     7.4883    78.8280     2.3678     0.1705     0.0067
  478.5000   -43.4983     2.1572     2.0600     7.5352    77.3615     2.3771     0.1685     0.0052
  479.0000   -43.5202     2.2497     2.1492     7.5821    78.0867     2.3781     0.1691     0.0036
  479.5000   -43.5421     2.3647     2.2650     7.6290    80.4731     2.3767     0.1707     0.0024
  480.0000   -43.5640     2.5392     2.4550     7.6758    82.7036     2.3748     0.1723     0.0022
  480.5000   -43.5858     2.7267     2.6609     7.7160    83.6523     2.3698     0.1738     0.0020
  481.0000   -43.6077     3.0288     2.8841     7.7387    84.5425     2.3645     0.1776     0.0018
  481.5000   -43.6296     3.0277     2.9457     7.7614    85.4364     2.3554     0.1831     0.0016
  482.0000   -43.6515     3.0281     2.9457     7.7847    86.3302     2.3460     0.1886     0.0014
  482.5000   -43.6734     2.9901     2.9086     7.7902    87.2111     2.3370     0.1942     0.0012
  483.0000   -43.6953     2.9544     2.8645     7.7455    87.8632     2.3291     0.2003     0.0010
  483.5000   -43.7172     2.9191     2.8212     7.6639    88.5484     2.3114     0.2084     0.0008
  484.0000   -43.7391     2.8922     2.7786     7.6305    89.8057     2.2946     0.2165     0.0004
  484.5000   -43.7610     2.7207     2.6552     7.6296    93.3022     2.2795     0.2246     0.0030
  485.0000   -43.7828     2.5636     2.4924     7.6273    96.7488     2.2643     0.2328     0.0080
  485.5000   -43.8052     2.4156     2.3395     7.7266   100.1841     2.2489     0.2389     0.0158
  486.0000   -43.7914     2.2761     2.1960     7.8442   102.1047     2.2329     0.2445     0.0266
  486.5000   -43.7564     2.1447     2.0612     7.9620   101.7126     2.2504     0.2275     0.0371
  487.0000   -43.7213     2.0209     1.9348     8.0745    97.3337     2.2874     0.2036     0.0386
  487.5000   -43.6860     1.9502     1.8629     8.1052    91.8770     2.3506     0.1796     0.0243
  488.0000   -43.6506     1.9511     1.8616     8.1098    86.3307     2.4152     0.1558     0.0406
  488.5000   -43.6163     2.0066     1.9167     8.1019    82.9456     2.4294     0.1352     0.0561
  489.0000   -43.6132     2.1057     2.0115     8.0944    81.3692     2.4422     0.1332     0.0579
  489.5000   -43.6103     2.2101     2.1112     8.0870    79.8519     2.4466     0.1320     0.0561
  490.0000   -43.6073     2.3877     2.2590     8.0796    78.6492     2.4454     0.1337     0.0498
  490.5000   -43.6041     2.9347     2.6352     8.0722    79.8692     2.4419     0.1365     0.0433
  491.0000   -43.6010     3.5233     3.0740     8.0648    81.5172     2.4384     0.1392     0.0496
  491.5000   -43.5978     3.7860     3.6037     8.0574    83.1652     2.4364     0.1374     0.0580
  492.0000   -43.5947     4.0646     3.7727     8.0501    84.1151     2.4433     0.1324     0.0626
  492.5000   -43.5916     4.1348     3.9496     8.0430    83.8314     2.4512     0.1295     0.0626
  493.0000   -43.5884     4.1729     4.0226     8.0351    83.5151     2.4536     0.1276     0.0642
  493.5000   -43.5853     4.2113     4.0935     8.0108    83.1909     2.4560     0.1257     0.0699
  494.0000   -43.5821     4.3040     4.1729     7.8624    83.1313     2.4584     0.1254     0.0720
  494.5000   -43.5790     4.4624     4.2827     7.7005    83.4111     2.4595     0.1265     0.0711
  495.0000   -43.5759     4.6266     4.4342     7.6812    83.6934     2.4594     0.1299     0.0669
  495.5000   -43.5727     4.7968     4.5911     7.5766    83.9814     2.4528     0.1339     0.0561
  496.0000   -43.5696     4.9733     4.7536     7.4079    83.6460     2.4454     0.1380     0.0454
  496.5000   -43.5664     5.1520     4.9212     7.2613    82.8534     2.4379     0.1420     0.0347
  497.0000   -43.5633     5.1994     4.9665     7.2335    82.0548     2.4288     0.1461     0.0278
  497.5000   -43.5602     5.2473     5.0123     7.2033    81.2557     2.4174     0.1498     0.0233
  498.0000   -43.5570     5.2548     5.0194     7.1729    80.4590     2.4111     0.1524     0.0187
  498.5000   -43.5539     5.2652     5.0294     7.1495    79.6561     2.4057     0.1545     0.0146
  499.0000   -43.5508     5.2757     5.0394     7.1498    79.3404     2.4004     0.1564     0.0145
  499.5000   -43.5476     5.2863     5.0494     7.1495    79.3045     2.3956     0.1584     0.0165
  500.0000   -43.5445     5.2945     5.0573     7.1543    80.3183     2.3972     0.1605     0.0205
  500.5000   -43.5413     5.2840     5.0472     7.1991    83.6421     2.3987     0.1553     0.0246
  501.0000   -43.5382     5.2734     5.0371     7.2415    86.8501     2.4065     0.1496     0.0265
  501.5000   -43.5351     5.2628     5.0271     7.2833    88.6210     2.4197     0.1439     0.0266
  502.0000   -43.5319     5.2522     5.0170     7.3285    87.6908     2.4330     0.1388     0.0245
  502.5000   -43.5288     5.2417     5.0069     7.3795    86.6153     2.4362     0.1387     0.0209
  503.0000   -43.5256     5.2312     4.9969     7.4305    85.5376     2.4372     0.1392     0.0174
  503.5000   -43.5225     5.2207     4.9869     7.4815    84.4636     2.4373     0.1396     0.0138
  504.0000   -43.5194     5.2103     4.9769     7.4946    84.3547     2.4370     0.1397     0.0105
  504.5000   -43.5162     5.1998     4.9669     7.5087    85.7583     2.4367     0.1389     0.0105
  505.0000   -43.5131     5.1894     4.9570     7.5546    87.1771     2.4357     0.1382     0.0126
  505.5000   -43.5099     5.1790     4.9471     7.6597    87.7840     2.4381     0.1376     0.0150
  506.0000   -43.5068     5.1686     4.9372     7.7616    86.8025     2.4350     0.1393     0.0190
  506.5000   -43.5037     5.1531     4.9225     7.8634    85.5356     2.4303     0.1408     0.0262
  507.0000   -43.5005     5.1665     4.9306     7.9656    84.2571     2.4316     0.1402     0.0334
  507.5000   -43.4974     5.2036     4.9541     8.0717    82.9749     2.4367     0.1397     0.0406
  508.0000   -43.4943     5.2411     4.9779     8.1264    81.7543     2.4384     0.1390     0.0517
  508.5000   -43.4911     5.2789     5.0017     8.1252    82.7265     2.4399     0.1357     0.0680
  509.0000   -43.4880     5.3170     5.0257     8.1112    85.3963     2.4485     0.1309     0.0830
  509.5000   -43.4848     5.3552     5.0498     8.0966    87.8652     2.4569     0.1260     0.0846
  510.0000   -43.4817     5.3938     5.0741     8.0386    87.5877     2.4634     0.1235     0.0831
  510.5000   -43.4785     5.4327     5.1050     7.9236    84.8986     2.4633     0.1254     0.0814
  511.0000   -43.4754     5.4495     5.0992     7.8093    82.2115     2.4600     0.1273     0.0798
  511.5000   -43.4723     5.4580     5.0881     7.6947    79.5258     2.4555     0.1293     0.0781
  512.0000   -43.4691     5.4666     5.0771     7.5774    76.7674     2.4510     0.1311     0.0765
  512.5000   -43.4660     5.4751     5.0662     7.4819    76.7598     2.4482     0.1329     0.0752
  513.0000   -43.4629     5.4837     5.0552     7.3888    77.2787     2.4479     0.1345     0.0591
  513.5000   -43.4597     5.4923     5.0443     7.3505    78.3368     2.4393     0.1421     0.0409
  514.0000   -43.4566     5.4933     5.0334     7.3369    79.5731     2.4126     0.1527     0.0229
  514.5000   -43.4534     5.4603     5.0225     7.2738    76.7490     2.3856     0.1695     0.0094
  515.0000   -43.4503     5.3909     5.0116     7.3321    73.7520     2.3692     0.1791     0.0069
  515.5000   -43.4472     5.3225     5.0008     7.3873    73.0955     2.3522     0.1863     0.0041
