~VERSION INFORMATION
 VERS.                2.0:   CWLS LOG ASCII STANDARD - VERSION 2.0
 WRAP.                 NO:   ONE LINE PER DEPTH STEP
~WELL INFORMATION
#MNEM.UNIT      DATA TYPE    INFORMATION
#----------   ------------   ------------------------------
 STRT.F           36.0000:   START DEPTH
 STOP.F          557.0000:   STOP DEPTH
 STEP.F            0.5000:   STEP LENGTH
 NULL.          -999.2500:   NO VALUE
 COMP. FENIX & SCISSON U.S. NAVY:   COMPANY
 WELL.        NPR #62-S-3:   WELL
 FLD .             TEAPOT:   FIELD
 LOC .       S3 T38N R78W:   LOCATION
 CNTY.            NATRONA:   COUNTY
 STAT.            WYOMING:   STATE
 CTRY. UNITED STATES OF AMERICA:   COUNTRY
 SRVC.              Welex:   SERVICE COMPANY
 DATE.        07-MAY-1977:   LOGDATE
 API .       490251035000:   API NUMBER
~CURVE INFORMATION
#MNEM.UNIT       API CODE    CURVE DESCRIPTION
#----------   ------------   ------------------------------
 DEPT.F                  :   
 SPR .MV     07 010 01 00:   SPONTANEOUS POTENTIAL
 ILD .OHMM   07 120 46 00:   INDUCTION LOG DEEP
 ILM .OHMM   07 120 44 00:   INDUCTION LOG MEDIUM
 SGRD.OHMM   07 221 05 00:   SHALLOW SHORT GUARD RESISTIVITY
 GRD .GAPI   45 310 01 00:   GAMMA RAY FROM DENSITY LOG
 CALD.IN     45 280 60 00:   CALIPER FROM DENSITY LOG
 CORR.G/C3   45 356 01 00:   DENSITY CORRECTION
 RHOB.G/C3   45 350 01 00:   BULK DENSITY
 DPHI.DEC    45 890 12 00:   DENSITY POROSITY SANDSTONE
 NEUT.NAPI   35 330 01 00:   NEUTRON
~PARAMETER INFORMATION
#MNEM.UNIT          VALUE    DESCRIPTION
#----------   ------------   ------------------------------
 PD  .                 GL:   PERMANENT DATUM
 EPD .F              5136:   ELEVATION PERMANENT DATUM
 LMF .                 GL:   LOG MEASURED FROM
 DMF .                 GL:   DRILLING MEASURED FROM
 EGL .F              5136:   GROUND LEVEL
 DATE.        07-MAY-1977:   RUN DATE
 RUN .                  1:   RUN NUMBER
 DD  .F               560:   DEPTH DRILLER
 DL  .F               560:   DEPTH LOGGER
 BLI .F               558:   BOTTOM LOG INTERVAL
 TLI .F                35:   TOP LOG INTERVAL
 CS  .IN            8.625:   CASING SIZE
 CBD .F                40:   CASING BOTTOM DRILLER
 CBL .F                42:   CASING BOTTOM LOGGER
 BS  .IN            7.875:   BIT SIZE
 BSD .F               560:   BIT SIZE AT DEPTH
 DFT .             KCLMUD:   DRILLING FLUID TYPE
 DFD .                8.8:   DRILLING FLUID DENSITY
 MSS .           FLOWLINE:   MUD SAMPLE SOURCE
 RMS .OHMM           0.24:   RESISTIVITY MUD SAMPLE
 MST .F                60:   MUD SAMPLE TEMPERATURE
 RMF .OHMM           0.20:   RESISTIVITY MUD FILTRATE SAMPLE
 MFST.F                60:   MUD FILTRATE SAMPLE TEMPERATURE
 RMC .OHMM           0.29:   RESISTIVITY MUD CAKE
 MCST.F                60:   MUD CAKE SAMPLE TEMPERATURE
 MFSS.               MEAS:   MUD FILTRATE SAMPLE SOURCE
 MCSS.               MEAS:   MUD CAKE SAMPLE SOURCE
 RMB .OHMM             17:   RESISTIVITY MUD AT BHT
 BHT .F                71:   BOTTOM HOLE TEMPERATURE
 TCS .HRS            0230:   TIME CURCULATED STOPPED
 MRT .F                71:   MAXIMUM RECORDED TEMPERATURE
 LUN .               8611:   LOGGING UNIT NUMBER
 LUL .           GILLETTE:   LOGGING UNIT LOCATION
 ENGI.            C. DOCK:   RECORDING ENGINEER
 WITN.           ROB LYON:   WITNESSED BY
 CLNT.            A2DTECH:   CLIENT CODE
 ORIG.           5" PRINT:   ORIGIN OF DATA
 UWI .       490251035000:   UNIQUE WELL ID
 DICO. A2D Technologies, Inc.:   DIGITIZING COMPANY
~OTHER INFORMATION
~A   DEPT      SPR        ILD        ILM       SGRD        GRD       CALD       CORR       RHOB       DPHI       NEUT   
# ...
  237.0000   -45.0520     7.7960    10.8189    11.9679   107.7824     7.8309    -0.0014     2.4713     0.1237  1271.6141
  237.5000   -45.0446     7.7998    10.6662    11.8885   106.9033     7.8323    -0.0021     2.4622     0.1282  1271.6791
  238.0000   -45.0371     7.8037    10.6126    11.9747   106.1735     7.8336    -0.0020     2.4576     0.1249  1263.6583
  238.5000   -45.0297     7.6992    13.8274    11.8951   108.2795     7.8349    -0.0019     2.4753     0.1186  1255.6212
  239.0000   -45.0223     7.6493    13.9188    11.8161   110.3855     7.8363    -0.0011     2.4803     0.1152  1242.1827
  239.5000   -45.1639     7.5468    12.4976    11.3378   111.4468     7.8376    -0.0003     2.4811     0.1152  1230.0947
  240.0000   -45.1565     7.3424     9.9758    10.5078   109.3737     7.8539     0.0020     2.4818     0.1149  1218.0067
  240.5000   -45.4496     7.1936     7.5915    10.8818   109.0697     7.8552     0.0029     2.4849     0.1127  1209.9696
  241.0000   -45.7378     6.9988     7.6166    11.1136   110.3021     7.8566     0.0029     2.4879     0.1112  1210.0508
  241.5000   -46.1848     6.7618     8.2106    10.9636   111.8111     7.8579     0.0030     2.4873     0.1109  1196.6124
  242.0000   -46.7661     6.4873     7.9747    10.5928   113.4694     7.8593     0.0023     2.4813     0.1187  1175.0720
  242.5000   -46.9200     6.1376     7.5468    10.2339   114.2321     7.8606     0.0016     2.4717     0.1210  1136.1785
  243.0000   -46.9002     5.8885     6.9478     9.6180   113.6515     7.8467     0.0002     2.4665     0.1225  1098.2426
  243.5000   -46.7263     5.8496     6.4119     8.7912   113.0710     7.8483     0.0003     2.4666     0.1240  1078.0537
  244.0000   -46.2891     5.9772     6.3763     6.4362   112.7848     7.8344    -0.0006     2.4636     0.1270  1087.5723
  244.5000   -45.8346     6.1069     7.3465     7.0454   113.4024     7.8361    -0.0026     2.4555     0.1305  1128.1486
  245.0000   -45.6533     6.3271     8.2556     9.1724   114.4636     7.8222    -0.0033     2.4585     0.1281  1163.3235
  245.5000   -45.2235     6.5097     8.4857    10.1809   116.1219     7.8089    -0.0033     2.4728     0.1218  1194.4475
  246.0000   -45.0656     6.6975     8.1887    10.5430   117.6309     7.8103    -0.0039     2.4811     0.1166  1198.5481
  246.5000   -44.9091     6.9877     7.0468    10.7677   116.9011     7.7964    -0.0039     2.4827     0.1139  1189.1786
  247.0000   -44.7527     7.3416     7.3302    11.1507   115.5743     7.7829    -0.0038     2.4880     0.1105  1178.4420
  247.5000   -44.5962     7.6598     8.8151    11.7902   114.2474     7.7845    -0.0030     2.4918     0.1096  1167.7056
  248.0000   -44.4398     7.8808     9.1912    11.8747   113.2191     7.7858    -0.0029     2.4911     0.1099  1159.6697
  248.5000   -44.4324     8.1082     9.0706    11.1600   113.2356     7.8021    -0.0021     2.4897     0.1077  1159.7374
  249.0000   -44.2759     8.2840     8.8924    10.9325   113.6998     7.8034    -0.0013     2.4950     0.1083  1161.3888
  249.5000   -44.2685     8.4047    10.0101    11.9682   114.7610     7.8197    -0.0004     2.4921     0.1098  1170.6875
  250.0000   -44.1139     8.4715    10.3692    12.3534   116.0292     7.8226     0.0004     2.4884     0.1101  1182.9067
  250.5000   -44.2566     8.5279     9.3489    12.7449   117.2923     7.8340     0.0005     2.5012     0.1055  1193.7756
  251.0000   -44.3960     8.5928     8.7255    12.6554   118.5554     7.8455     0.0013     2.4996     0.1061  1195.1755
  251.5000   -44.3886     8.6560     8.6772    12.5745   119.8185     7.8698     0.0013     2.4983     0.1067  1185.8060
  252.0000   -44.2322     8.6590     8.9331    12.4902   120.9620     7.8711     0.0022     2.4976     0.1063  1180.4708
  252.5000   -44.2249     8.6620     9.2544    12.4929   121.5715     7.8725     0.0030     2.4984     0.1039  1176.4695
  253.0000   -44.2175     8.7258     9.5872    12.4955   119.9505     7.8738     0.0038     2.5030     0.1008  1173.8350
  253.5000   -44.0611     8.7900    10.0568    12.7608   118.3253     7.8752     0.0039     2.5105     0.0975  1172.5674
  254.0000   -44.0536     8.7931    10.3445    13.0318   116.8494     7.8766     0.0039     2.5128     0.0957  1173.9839
  254.5000   -44.0462     8.7961    10.4220    12.8555   117.7616     7.8928     0.0040     2.5129     0.0940  1174.0510
  255.0000   -44.0387     8.7992    10.4277    13.2199   119.4200     7.8942     0.0041     2.5137     0.0916  1169.8878
  255.5000   -44.1807     8.8022    10.6521    13.3147   120.6306     7.8956     0.0034     2.5220     0.0880  1163.3798
  256.0000   -44.3224     8.8053    11.0329    13.5034   118.5577     7.8969     0.0027     2.5348     0.0841  1160.7452
  256.5000   -44.3132     8.8083    11.6668    13.5062   115.2908     7.8983     0.0020     2.5416     0.0835  1159.4612
  257.0000   -44.3058     8.8114    12.3371    13.5090   115.9044     7.8844     0.0013     2.5259     0.0868  1158.1935
  257.5000   -44.2985     8.7529    13.0460    13.6058   118.1598     7.8858     0.0006     2.5193     0.0906  1150.1578
  258.0000   -44.4420     8.6950    13.7005    13.9915   120.0835     7.8872     0.0007     2.5148     0.0933  1142.1219
  258.5000   -44.5837     8.6981    13.8989    14.0910   121.1746     7.8736     0.0008     2.5141     0.0927  1131.3854
  259.0000   -44.7253     8.5804    12.5364    13.3339   120.1165     7.8749     0.0008     2.5181     0.0914  1121.9991
  259.5000   -44.8670     8.5236    11.4634    12.7931   118.6404     7.8613     0.0009     2.5241     0.0899  1116.6641
  260.0000   -45.1559     8.4671    12.0402    12.4450   116.2985     7.8627     0.0017     2.5240     0.0922  1115.3789
  260.5000   -45.4484     8.4092    12.1287    12.1913   114.3748     7.8641     0.0010     2.5084     0.1002  1114.0958
  261.0000   -45.5882     8.2972    11.9704    12.1095   112.8989     7.8654     0.0011     2.4920     0.1082  1119.8164
  261.5000   -45.8789     8.2423    11.7294    12.1127   111.4230     7.8668    -0.0003     2.4830     0.1162  1133.8372
  262.0000   -46.1697     8.1233    11.4173    12.0314   111.3792     7.8682    -0.0025     2.4778     0.1189  1157.5217
  262.5000   -46.4605     7.9557    11.0354    11.8675   113.2473     7.8695    -0.0040     2.4787     0.1189  1161.6223
  263.0000   -46.7511     7.6947    10.5197    11.5452   113.8610     7.8709    -0.0031     2.4795     0.1197  1138.7494
  263.5000   -47.3398     7.3813    10.0977    11.1546   112.5343     7.8722    -0.0016     2.4735     0.1236  1115.8599
  264.0000   -47.7894     7.0313     9.4283    10.7022   110.7599     7.8885     0.0000     2.4639     0.1275  1095.6710
  264.5000   -48.3855     6.5590     8.3873    10.1971   111.6720     7.8899     0.0008     2.4527     0.1322  1079.5331
  265.0000   -49.1307     5.9498     7.1086     9.7835   113.9275     7.9062     0.0017     2.4445     0.1367  1071.4973
  265.5000   -49.8421     5.4350     6.1512     9.1299   115.8844     7.8923     0.0025     2.4401     0.1424  1060.7607
  266.0000   -50.2818     4.8617     5.5100     8.5199   112.6174     7.8787     0.0018     2.4247     0.1544  1048.6740
  266.5000   -51.0196     4.4722     5.2525     8.0060   110.9923     7.8804     0.0019     2.4046     0.1640  1035.2368
  267.0000   -51.4612     4.0852     4.7025     7.5231   110.5570     7.8665     0.0019     2.3921     0.1693  1017.5344
  267.5000   -51.9009     3.6289     4.2074     6.9237   110.5777     7.8679     0.0028     2.3804     0.1762   996.6637
  268.0000   -52.3388     3.2918     3.5586     5.7029   110.5910     7.8693     0.0036     2.3707     0.1858   958.4826
  268.5000   -52.4823     3.0707     3.1675     4.8294   110.4576     7.8706     0.0052     2.3543     0.2011   924.7904
  269.0000   -52.3241     2.8644     3.0290     4.2340   110.3250     7.8719     0.0030     2.3356     0.2083   891.0981
  269.5000   -51.8696     2.7478     3.0521     3.4874   110.0358     7.8733     0.0008     2.3162     0.2155   853.3549
  270.0000   -51.2662     2.7487     3.1178     3.5369   109.3134     7.8747    -0.0014     2.3013     0.2180   781.8531
