~VERSION INFORMATION
 VERS.                2.0:   CWLS LOG ASCII STANDARD - VERSION 2.0
 WRAP.                 NO:   ONE LINE PER DEPTH STEP
~WELL INFORMATION
#MNEM.UNIT      DATA TYPE    INFORMATION
#----------   ------------   ------------------------------
 STRT.F           75.0000:   START DEPTH
 STOP.F          859.0000:   STOP DEPTH
 STEP.F            0.5000:   STEP LENGTH
 NULL.          -999.2500:   NO VALUE
 COMP. U S NAVY/INTEX OIL CO:   COMPANY
 WELL.     NPR ##3 14S-35:   WELL
 FLD .             TEAPOT:   FIELD
 LOC .      S35 T39N R78W:   LOCATION
 CNTY.            NATRONA:   COUNTY
 STAT.            WYOMING:   STATE
 CTRY. UNITED STATES OF AMERICA:   COUNTRY
 SRVC. Schlumberger Well Surveying Corp:   SERVICE COMPANY
 DATE.        27-FEB-1961:   LOGDATE
 API .       490251023000:   API NUMBER
~CURVE INFORMATION
#MNEM.UNIT       API CODE    CURVE DESCRIPTION
#----------   ------------   ------------------------------
 DEPT.F                  :   
 GRN .CPS    35 310 30 00:   GAMMA RAY
 SPR .MV     05 010 01 00:   SPONTANEOUS POTENTIAL FROM RES.
 ILD .OHMM   05 120 46 00:   INDUCTION LOG DEEP
 ASN .OHMM   05 041 16 00:   AMPLIFIED SHORT NORMAL 16"
 CILD.MMHO   05 110 46 00:   CONDUCTIVITY INDUCTION LOG DEEP
~PARAMETER INFORMATION
#MNEM.UNIT          VALUE    DESCRIPTION
#----------   ------------   ------------------------------
 PD  .                 GL:   PERMANENT DATUM
 EPD .F              5110:   ELEVATION PERMANENT DATUM
 LMF .                 KB:   LOG MEASURED FROM
 DAPD.F                 4:   FEET ABOVE PERMANENT DATUM
 DMF .                 KB:   DRILLING MEASURED FROM
 EKB .F              5114:   KELLING BUSHING
 EGL .F              5110:   GROUND LEVEL
 DATE.            2-27-61:   RUN DATE
 RUN .                  1:   RUN NUMBER
 DD  .F               862:   DEPTH DRILLER
 DL  .F               860:   DEPTH LOGGER
 BLI .F               859:   BOTTOM LOG INTERVAL
 TLI .F                84:   TOP LOG INTERVAL
 CBD .F                12:   CASING BOTTOM DRILLER
 BS  .IN            7.875:   BIT SIZE
 BSD .F               862:   BIT SIZE AT DEPTH
 DFT .       GEL-OIL EMUL:   DRILLING FLUID TYPE
 DFD .                9.4:   DRILLING FLUID DENSITY
 DFV .                 33:   DRILLING FLUID VISCOSITY
 DFPH.                  8:   DRILLING FLUID PH
 DFL .               19.4:   DRILLING FLUID LOSS
 MSS .          FLOW LINE:   MUD SAMPLE SOURCE
 RMS .OHMM            .76:   RESISTIVITY MUD SAMPLE
 MST .F                73:   MUD SAMPLE TEMPERATURE
 RMF .OHMM            .52:   RESISTIVITY MUD FILTRATE SAMPLE
 MFST.F                73:   MUD FILTRATE SAMPLE TEMPERATURE
 RMC .OHMM            1.7:   RESISTIVITY MUD CAKE
 MCST.F                73:   MUD CAKE SAMPLE TEMPERATURE
 MFSS.                  M:   MUD FILTRATE SAMPLE SOURCE
 MCSS.                  M:   MUD CAKE SAMPLE SOURCE
 RMB .OHMM            .73:   RESISTIVITY MUD AT BHT
 BHT .F                77:   BOTTOM HOLE TEMPERATURE
 TCS .HRS               1:   TIME CURCULATED STOPPED
 MRT .F                77:   MAXIMUM RECORDED TEMPERATURE
 LUN .               2523:   LOGGING UNIT NUMBER
 LUL .               CSPR:   LOGGING UNIT LOCATION
 ENGI.             KNOBEL:   RECORDING ENGINEER
 WITN.          JORGENSEN:   WITNESSED BY
 CLNT.            A2DTECH:   CLIENT CODE
 ORIG.       2", 5" PRINT:   ORIGIN OF DATA
 UWI .       490251023000:   UNIQUE WELL ID
 DICO. A2D Technologies, Inc.:   DIGITIZING COMPANY
~OTHER INFORMATION
~A   DEPT      GRN        SPR        ILD        ASN       CILD   
# ...
  136.0000  -999.2500   -34.9815     8.0662     9.2809   131.2234
  136.5000  -999.2500   -34.9423     8.1258     9.3854   130.9108
  137.0000  -999.2500   -34.9054     8.1552     9.4840   130.5982
  137.5000  -999.2500   -34.9357     8.0633     9.4745   130.2856
  138.0000  -999.2500   -34.9790     7.9788     9.3984   129.9729
  138.5000  -999.2500   -35.0205     7.8914     9.3415   129.7595
  139.0000  -999.2500   -35.0624     7.8062     9.2753   131.5030
  139.5000  -999.2500   -35.1047     7.7196     9.2158   133.5872
  140.0000  -999.2500   -35.1457     7.6340     9.1426   135.6713
  140.5000  -999.2500   -35.1893     7.5467     9.0165   137.7555
  141.0000  -999.2500   -35.2280     7.4708     8.8649   139.8397
  141.5000  -999.2500   -35.2776     7.4721     8.8013   141.9238
  142.0000  -999.2500   -35.2842     7.4810     8.8069   142.7856
  142.5000  -999.2500   -35.2182     7.4893     8.8446   142.7856
  143.0000  -999.2500   -35.1591     7.4974     8.9633   141.7485
  143.5000  -999.2500   -35.0956     7.5058     9.0893   140.1854
  144.0000  -999.2500   -35.0346     7.5140     9.2101   138.6222
  144.5000  -999.2500   -34.9723     7.5223     9.3316   136.7735
  145.0000  -999.2500   -34.9103     7.5306     9.4567   137.4549
  145.5000  -999.2500   -34.8485     7.5387     9.4659   138.2886
  146.0000  -999.2500   -34.7859     7.5469     9.3589   138.5314
  146.5000  -999.2500   -34.7252     7.5551     9.2325   137.9359
  147.0000  -999.2500   -34.6609     7.5632     9.1062   137.3404
  147.5000  -999.2500   -34.6036     7.5714     8.9819   136.7735
  148.0000  -999.2500   -34.5307     7.5796     8.8720   137.0856
  148.5000  -999.2500   -34.5259     7.5878     8.9202   137.4085
  149.0000  -999.2500   -34.6208     7.5959     9.0318   137.7055
  149.5000  -999.2500   -34.7047     7.6041     9.1281   137.1604
  150.0000  -999.2500   -34.7952     7.6121     9.2321   136.2230
  150.5000  -999.2500   -34.8823     7.6204     9.3313   135.2841
  151.0000  -999.2500   -34.9704     7.6281     9.4270   134.3480
  151.5000  -999.2500   -35.0596     7.6369     9.3841   133.8420
  152.0000  -999.2500   -35.1451     7.6437     9.2922   134.1074
  152.5000  -999.2500   -35.2395     7.6542     9.2172   134.3813
  153.0000  -999.2500   -35.2772     7.6573     9.1053   134.6418
  153.5000  -999.2500   -35.1920     7.7037     9.1502   134.7695
  154.0000  -999.2500   -35.1069     7.7923     9.3066   134.7695
  154.5000  -999.2500   -35.0184     7.8733     9.4458   134.7695
  155.0000  -999.2500   -34.9322     7.9580     9.5700   133.5972
  155.5000  -999.2500   -34.8443     8.0408     9.6527   131.7214
  156.0000  -999.2500   -34.7577     8.1247     9.7153   129.8457
  156.5000  -999.2500   -34.6697     8.2079     9.8021   127.9699
  157.0000  -999.2500   -34.5839     8.2919     9.8446   125.7515
  157.5000  -999.2500   -34.4945     8.3747    10.1358   125.0501
  158.0000  -999.2500   -34.4114     8.4596    10.2985   124.1919
  158.5000  -999.2500   -34.3191     8.5408    10.2887   123.3337
  159.0000  -999.2500   -34.3361     8.6292    10.3208   122.4755
  159.5000  -999.2500   -34.4106     8.6730    10.3336   121.6173
  160.0000  -999.2500   -34.4688     8.6650    10.3552   120.7403
  160.5000  -999.2500   -34.5340     8.6727    10.3720   119.8725
  161.0000  -999.2500   -34.5957     8.6324    10.3565   119.0046
  161.5000  -999.2500   -34.6590     8.5609    10.3225   118.6920
  162.0000  -999.2500   -34.7220     8.4973    10.2968   119.6073
  162.5000  -999.2500   -34.7839     8.4300    10.2544   120.9545
  163.0000  -999.2500   -34.8498     8.3650    10.1165   122.3049
  163.5000  -999.2500   -34.8897     8.2984     9.9870   123.6549
  164.0000  -999.2500   -34.8092     8.2335     9.8489   125.0115
  164.5000  -999.2500   -34.7296     8.1662     9.7021   126.3513
  165.0000  -999.2500   -34.6483     8.1029     9.5427   127.7555
  165.5000  -999.2500   -34.5687     8.0106     9.3995   129.6228
  166.0000  -999.2500   -34.4879     7.8862     9.3523   131.5844
  166.5000  -999.2500   -34.4075     7.7663     9.3265   133.5459
  167.0000  -999.2500   -34.3272     7.6429     9.2573   135.5075
  167.5000  -999.2500   -34.2461     7.5229     9.1568   137.4691
  168.0000  -999.2500   -34.1671     7.4015     9.0628   139.4306
  168.5000  -999.2500   -34.0843     7.3526     8.9706   141.3922
  169.0000  -999.2500   -34.0083     7.3435     8.8658   143.7876
  169.5000  -999.2500   -33.9209     7.3290     8.7943   143.5847
  170.0000  -999.2500   -33.9370     7.3175     8.7797   143.3241
  170.5000  -999.2500   -34.0184     7.3040     8.7521   143.0636
  171.0000  -999.2500   -34.0832     7.2914     8.7323   142.7856
  171.5000  -999.2500   -34.1554     7.2806     8.7055   144.0815
  172.0000  -999.2500   -34.2238     7.2470     8.6876   145.4709
  172.5000  -999.2500   -34.2944     7.0039     8.6558   146.7936
  173.0000  -999.2500   -34.3637     6.7428     8.6500   149.8517
  173.5000  -999.2500   -34.4343     6.4780     8.5015   152.7695
  174.0000  -999.2500   -34.5028     6.2542     8.2447   158.0275
  174.5000  -999.2500   -34.5746     6.0791     8.0168   164.5777
  175.0000  -999.2500   -34.6410     5.9245     7.7778   171.1280
  175.5000  -999.2500   -34.7060     5.7647     7.5424   176.6819
  176.0000  -999.2500   -34.6292     5.6137     7.3069   179.6593
  176.5000  -999.2500   -34.4932     5.4435     7.0670   182.6367
  177.0000  -999.2500   -34.3766     5.3487     7.0373   185.8717
  177.5000  -999.2500   -34.2522     5.3841     7.0527   185.8717
  178.0000  -999.2500   -34.1315     5.4330     7.1765   183.3209
  178.5000  -999.2500   -34.0087     5.4874     7.3253   180.6413
  179.0000  -999.2500   -33.8868     5.5389     7.4648   177.9616
  179.5000  -999.2500   -33.7649     5.5917     7.6150   175.2820
  180.0000  -999.2500   -33.6422     5.6441     7.6590   172.6024
  180.5000  -999.2500   -33.5225     5.6965     7.6302   169.9227
  181.0000  -999.2500   -33.3943     5.7478     7.6119   167.8357
  181.5000  -999.2500   -33.3187     5.7624     7.6182   166.8337
  182.0000  -999.2500   -33.4628     5.7121     7.6437   166.8337
  182.5000  -999.2500   -33.5992     5.6448     7.6627   166.8337
  183.0000  -999.2500   -33.7428     5.5792     7.6850   167.7254
  183.5000  -999.2500   -33.8769     5.5131     7.6791   168.8377
  184.0000  -999.2500   -34.0273     5.4469     7.5805   171.9965
  184.5000  -999.2500   -34.1121     5.3813     7.4625   175.3833
  185.0000  -999.2500   -34.0592     5.3144     7.3503   178.7700
  185.5000  -999.2500   -33.9666     5.2500     7.2312   181.8637
  186.0000  -999.2500   -33.8731     5.1823     7.1239   184.1283
  186.5000  -999.2500   -33.7805     5.1579     6.9916   186.2124
  187.0000  -999.2500   -33.6865     5.1599     7.0424   187.8757
  187.5000  -999.2500   -33.5948     5.1683     7.2148   187.8933
  188.0000  -999.2500   -33.4993     5.1854     7.3393   187.3122
  188.5000  -999.2500   -33.4099     5.1988     7.5115   185.2350
  189.0000  -999.2500   -33.3054     5.2138     7.5457   183.1616
  189.5000  -999.2500   -33.3370     5.2280     7.4042   181.0892
  190.0000  -999.2500   -33.4608     5.2425     7.2714   178.9147
  190.5000  -999.2500   -33.5777     5.2569     7.1800   180.9087
  191.0000  -999.2500   -33.6986     5.2712     7.1428   182.9259
  191.5000  -999.2500   -33.8177     5.2855     7.1380   185.0100
  192.0000  -999.2500   -33.9373     5.2997     7.1810   184.7851
  192.5000  -999.2500   -34.0562     5.3142     7.2126   182.9325
  193.0000  -999.2500   -34.1109     5.3281     7.2500   181.0799
  193.5000  -999.2500   -34.0475     5.3431     7.2847   179.2273
  194.0000  -999.2500   -33.9504     5.3607     7.3206   177.5852
  194.5000  -999.2500   -33.8633     5.4265     7.3560   176.5431
  195.0000  -999.2500   -33.7725     5.5164     7.3914   175.5010
  195.5000  -999.2500   -33.6836     5.6023     7.4278   174.2418
  196.0000  -999.2500   -33.5936     5.6898     7.4632   172.6208
  196.5000  -999.2500   -33.5041     5.7786     7.4983   170.9998
