~VERSION INFORMATION
 VERS.                2.0:   CWLS LOG ASCII STANDARD - VERSION 2.0
 WRAP.                 NO:   ONE LINE PER DEPTH STEP
~WELL INFORMATION
#MNEM.UNIT      DATA TYPE    INFORMATION
#----------   ------------   ------------------------------
 STRT.F            0.0000:   START DEPTH
 STOP.F         4112.0000:   STOP DEPTH
 STEP.F            0.5000:   STEP LENGTH
 NULL.          -999.2500:   NO VALUE
 COMP. LAWRENCE-ALLISON &AS:   COMPANY
 WELL. N P R 3-76-1-SX #3-3:   WELL
 FLD .          N.P.R. #3:   FIELD
 LOC .       S3 T38N R78W:   LOCATION
 CNTY.            NATRONA:   COUNTY
 STAT.            WYOMING:   STATE
 CTRY. UNITED STATES OF AMERICA:   COUNTRY
 SRVC.      Dresser Atlas:   SERVICE COMPANY
 DATE.        04-SEP-1983:   LOGDATE
 API .       490251093100:   API NUMBER
~CURVE INFORMATION
#MNEM.UNIT       API CODE    CURVE DESCRIPTION
#----------   ------------   ------------------------------
 DEPT.F                  :   
 DEN .G/C3   45 350 01 00:   COMPENSATED BULK DENSTIY
 CORR.G/C3   45 356 01 00:   DENSITY CORRECTION
 PORD.DEC    45 890 12 00:   POROSITY DENSITY SANDSTONE
 CNC .DEC    42 890 03 00:   NEUTRON POROSITY SANDSTONE
 SPR .MV     07 010 01 00:   SPONTANEOUS POTENTIAL
 GRR .GAPI   07 310 01 00:   GAMMA RAY FROM RES. LOG.
 RFOC.OHMM   07 220 04 00:   RESISTIVITY FOCUSED LOG
 CALD.IN     45 280 60 00:   CALIPER
 AC  .US/F   60 520 00 00:   ACOUSTIC SONIC
 RILD.OHMM   07 120 46 00:   INDUCTION LOG DEEP RESISTIVITY
 RILM.OHMM   07 120 44 00:   INDUCTION LOG MEDIUM RESISTIVITY
~PARAMETER INFORMATION
#MNEM.UNIT          VALUE    DESCRIPTION
#----------   ------------   ------------------------------
 PD  .                 GL:   PERMANENT DATUM
 EPD .F              5147:   ELEVATION PERMANENT DATUM
 LMF .                 KB:   LOG MEASURED FROM
 DAPD.F                10:   FEET ABOVE PERMANENT DATUM
 DMF .                 KB:   DRILLING MEASURED FROM
 EKB .F              5157:   KELLING BUSHING
 EGL .F              5147:   GROUND LEVEL
 DATE.             9-4-83:   RUN DATE
 RUN .                  1:   RUN NUMBER
 DD  .F              4119:   DEPTH DRILLER
 DL  .F              4115:   DEPTH LOGGER
 BLI .F              4112:   BOTTOM LOG INTERVAL
 CS  .IN            9.625:   CASING SIZE
 CBD .F               491:   CASING BOTTOM DRILLER
 CBL .F               494:   CASING BOTTOM LOGGER
 BS  .IN             8.75:   BIT SIZE
 BSD .F              4119:   BIT SIZE AT DEPTH
 DFT .            KCL GEL:   DRILLING FLUID TYPE
 DFD .                8.9:   DRILLING FLUID DENSITY
 DFV .                 46:   DRILLING FLUID VISCOSITY
 DFPH.                  9:   DRILLING FLUID PH
 DFL .               13.6:   DRILLING FLUID LOSS
 MSS .            MUDTANK:   MUD SAMPLE SOURCE
 RMS .OHMM           .315:   RESISTIVITY MUD SAMPLE
 MST .F                92:   MUD SAMPLE TEMPERATURE
 RMF .OHMM            .25:   RESISTIVITY MUD FILTRATE SAMPLE
 MFST.F                84:   MUD FILTRATE SAMPLE TEMPERATURE
 RMC .OHMM             .4:   RESISTIVITY MUD CAKE
 MCST.F                92:   MUD CAKE SAMPLE TEMPERATURE
 MFSS.                  M:   MUD FILTRATE SAMPLE SOURCE
 MCSS.                  C:   MUD CAKE SAMPLE SOURCE
 RMB .OHMM            .22:   RESISTIVITY MUD AT BHT
 BHT .F               132:   BOTTOM HOLE TEMPERATURE
 TCS .HRS               4:   TIME CURCULATED STOPPED
 MRT .F               132:   MAXIMUM RECORDED TEMPERATURE
 LUN .               6274:   LOGGING UNIT NUMBER
 LUL .               GLTE:   LOGGING UNIT LOCATION
 ENGI.             RAUTIO:   RECORDING ENGINEER
 WITN.             STRONG:   WITNESSED BY
 CLNT.            A2DTECH:   CLIENT CODE
 ORIG. 1", 2", 2.5", 5" PRINT:   ORIGIN OF DATA
 UWI .       490251093100:   UNIQUE WELL ID
 DICO. A2D Technologies, Inc.:   DIGITIZING COMPANY
~OTHER INFORMATION
~A    DEPT     DEN       CORR       PORD        CNC        SPR          GRR     RFOC       CALD         AC       RILD       RILM   
# ...
 3843.0000     2.5584    -0.0095     0.0488     0.2782   -35.5257   137.4318     3.7725    10.1087    92.6826     3.1532     3.7790
 3843.5000     2.6174     0.0751     0.0288     0.2655   -35.3273   124.2518     4.7011    10.1079    90.3852     3.6298     4.5101
 3844.0000     2.6407     0.0992     0.0089     0.2530   -35.1235   110.0928     6.2660    10.1071    85.9269     4.2863     5.4434
 3844.5000     2.6527     0.0873     0.0000     0.2357   -34.8290   101.6732     8.3517    10.1063    81.4686     5.2198     6.5697
 3845.0000     2.6393     0.0626     0.0044     0.2145   -34.5171    92.6350    11.1316    10.1056    77.0103     6.3565     7.9291
 3845.5000     2.6268     0.0833     0.0112     0.1943   -33.7370    82.8113    14.3843    10.1048    72.1856     7.7489     9.5697
 3846.0000     2.6207     0.0833     0.0158     0.1775   -32.5988    80.6267    18.3162    10.1040    70.9286     9.4416    11.5499
 3846.5000     2.6119     0.0608     0.0185     0.1745   -31.5007    81.2764    22.7809    10.1032    69.8333    11.5040    13.9397
 3847.0000     2.6022     0.0201     0.0247     0.1655   -30.4222    84.1091    25.3752    10.1024    69.4910    14.0141    16.8241
 3847.5000     2.5923     0.0140     0.0338     0.1647   -29.3263    86.8229    24.9399    10.1016    69.6424    15.9560    17.9273
 3848.0000     2.5858     0.0243     0.0392     0.1679   -28.2351    89.4874    23.8585    10.1008    69.7355    16.3881    18.3743
 3848.5000     2.5853     0.0395     0.0388     0.1734   -27.1453    91.6288    22.8239    10.1001    70.1896    15.9832    18.5875
 3849.0000     2.5834     0.0523     0.0400     0.1790   -26.0535    91.3165    21.5198    10.0993    71.0399    15.2365    17.3579
 3849.5000     2.5772     0.0411     0.0432     0.1847   -24.9649    91.2283    21.7578    10.0985    71.5040    14.5500    16.3633
 3850.0000     2.5722     0.0425     0.0458     0.1875   -23.8707    91.2070    22.3225    10.0977    71.5113    13.8943    15.4256
 3850.5000     2.5822     0.0429     0.0413     0.1888   -22.7781    96.0360    21.3069    10.0969    71.3606    13.2683    14.5417
 3851.0000     2.5946     0.0443     0.0359     0.1874   -21.8333   100.1011    19.1288    10.0961    71.4621    12.6704    13.7085
 3851.5000     2.6002     0.0459     0.0321     0.1872   -21.2366   104.1676    17.1733    10.0953    72.2196    12.0994    12.9230
 3852.0000     2.5928     0.0579     0.0338     0.1979   -20.6769   108.2844    15.4178    10.0946    74.0339    11.6800    12.1988
 3852.5000     2.5867     0.0680     0.0378     0.2080   -20.0199   107.1687    13.8417    10.0938    75.6786    11.5468    12.6406
 3853.0000     2.5799     0.0791     0.0418     0.1969   -19.7232    99.0691    13.1258    10.0930    75.6188    11.6573    13.3586
 3853.5000     2.5766     0.0537     0.0442     0.1847   -19.4562    86.2519    15.1743    10.0922    74.2340    11.7832    14.1174
 3854.0000     2.5802     0.0473     0.0416     0.1711   -19.2193    77.4992    18.4114    10.0914    72.4701    11.9104    14.9193
 3854.5000     2.5870     0.0373     0.0377     0.1751   -18.9652    83.2616    23.1552    10.0906    70.6886    12.1445    15.7667
 3855.0000     2.5896     0.0549     0.0369     0.1815   -18.7167    88.9399    22.7767    10.0898    70.5639    12.6538    16.4415
 3855.5000     2.5812     0.0696     0.0415     0.1780   -18.4649    95.0927    21.7019    10.0890    70.6886    12.5604    16.6536
 3856.0000     2.5728     0.0595     0.0490     0.1668   -18.2004    92.4089    20.7341    10.0883    70.0269    12.1131    16.4334
 3856.5000     2.5639     0.0512     0.0536     0.1630   -18.0439    88.0304    21.4271    10.0875    69.3912    11.0660    14.6729
 3857.0000     2.5607     0.0433     0.0530     0.1714   -18.1216    84.8671    22.4720    10.0867    69.2914     9.8658    12.5450
 3857.5000     2.5614     0.0393     0.0548     0.1799   -18.1859    90.4152    17.6218    10.0859    70.6013     8.7957    10.7195
 3858.0000     2.5585     0.0370     0.0569     0.2020   -18.2493   102.6564    12.8246    10.0851    73.3871     7.8417     9.1607
 3858.5000     2.5556     0.0342     0.0573     0.2294   -18.3171   114.2487     9.3365    10.0843    76.4382     6.9911     7.8295
 3859.0000     2.5549     0.0370     0.0565     0.2568   -18.3824   124.6961     7.5206    10.0835    79.5007     6.2329     6.6924
 3859.5000     2.5583     0.0508     0.0549     0.2654   -18.4473   128.0546     7.1122    10.0828    81.9545     5.8644     6.1878
 3860.0000     2.5615     0.0634     0.0531     0.2659   -18.5112   126.9694     6.6664    10.0820    82.8823     5.9701     6.2010
 3860.5000     2.5645     0.0762     0.0514     0.2443   -18.5798   124.4653     6.8114    10.0812    82.9641     6.1956     7.1964
 3861.0000     2.5687     0.0671     0.0492     0.2177   -18.6430   120.3903     7.3056    10.0804    81.8663     6.8418     8.2180
 3861.5000     2.5743     0.0584     0.0456     0.2027   -18.6991   113.0449     9.6665    10.0796    79.6989     7.5728     9.3930
 3862.0000     2.5793     0.0518     0.0410     0.1995   -18.7879   105.6818    13.4864    10.0788    76.7001     8.3819    10.7361
 3862.5000     2.5837     0.0451     0.0402     0.1959   -18.8792    98.1622    18.8158    10.0781    73.7013     9.2775    12.2713
 3863.0000     2.5786     0.0382     0.0440     0.1899   -20.0048    94.5720    23.1552    10.0772    70.7026    10.2688    14.0260
 3863.5000     2.5739     0.0315     0.0476     0.1839   -21.2651   100.1780    22.4496    10.0763    69.8366    11.3660    15.3008
 3864.0000     2.5688     0.0252     0.0503     0.1917   -22.5522   107.5474    20.2172    10.0698    70.5173    12.5804    15.7634
 3864.5000     2.5638     0.0261     0.0530     0.1984   -23.8260   110.6620    18.2502    10.0616    71.3523    13.3933    15.0280
 3865.0000     2.5589     0.0278     0.0552     0.1978   -25.0989   109.7971    18.0261    10.0534    71.7803    12.9423    14.1354
 3865.5000     2.5538     0.0296     0.0570     0.1988   -26.3765   109.1361    17.3206    10.0453    72.2057    12.2710    13.2958
 3866.0000     2.5526     0.0312     0.0566     0.2036   -27.6509   109.4031    16.1992    10.0372    72.6315    11.6337    12.5061
 3866.5000     2.5553     0.0329     0.0568     0.2085   -28.9265   109.5996    15.1504    10.0291    73.0594    11.0305    11.7633
 3867.0000     2.5539     0.0346     0.0585     0.2098   -30.2041   110.0178    14.1695    10.0209    73.4999    10.7273    11.1316
 3867.5000     2.5502     0.0363     0.0594     0.2071   -31.4723   112.7829    13.2522    10.0127    73.9873    10.5849    11.1316
 3868.0000     2.5522     0.0381     0.0567     0.2043   -32.7503   114.6814    12.6538    10.0048    74.4810    10.5323    11.9823
 3868.5000     2.5639     0.0395     0.0517     0.2056   -34.0524   111.4326    12.6538     9.9964    74.2655    10.9970    12.9354
 3869.0000     2.5687     0.0406     0.0492     0.2133   -35.1899   108.4924    14.2668     9.9961    73.4591    11.5816    13.9682
 3869.5000     2.5718     0.0339     0.0466     0.2193   -36.1363   108.3381    16.9787     9.9958    72.6051    12.1972    15.0757
 3870.0000     2.5799     0.0275     0.0450     0.2159   -37.1077   108.2006    18.1088     9.9960    71.6332    12.8456    16.2709
 3870.5000     2.5900     0.0291     0.0381     0.2124   -38.0881   102.5736    19.1924     9.9960    70.6612    13.5285    17.5610
 3871.0000     2.5995     0.0387     0.0323     0.2102   -39.0586    95.6073    21.5156     9.9959    69.7745    14.2476    18.9537
 3871.5000     2.6095     0.0478     0.0265     0.2088   -40.0332    88.4686    24.1199     9.9960    69.0065    15.0050    20.4576
 3872.0000     2.6164     0.0568     0.0210     0.1923   -41.0090    88.1003    27.0394     9.9960    68.2735    15.8026    22.3009
 3872.5000     2.6181     0.0657     0.0194     0.1782   -41.9792    89.8730    29.9213     9.9960    67.6708    16.6427    22.6784
 3873.0000     2.6093     0.0730     0.0194     0.1663   -42.9588    88.3952    29.1059     9.9960    67.2954    17.5274    23.1217
