~VERSION INFORMATION
 VERS.                2.0:   CWLS LOG ASCII STANDARD - VERSION 2.0
 WRAP.                 NO:   ONE LINE PER DEPTH STEP
~WELL INFORMATION
#MNEM.UNIT      DATA TYPE    INFORMATION
#----------   ------------   ------------------------------
 STRT.F            2.5000:   START DEPTH
 STOP.F         1003.0000:   STOP DEPTH
 STEP.F            0.5000:   STEP LENGTH
 NULL.          -999.2500:   NO VALUE
 COMP. U S NAVY-INTEX OIL:   COMPANY
 WELL.   NPR #3 #87-SX-27:   WELL
 FLD .             TEAPOT:   FIELD
 LOC .      S27 T39N R78W:   LOCATION
 CNTY.            NATRONA:   COUNTY
 STAT.            WYOMING:   STATE
 CTRY. UNITED STATES OF AMERICA:   COUNTRY
 SRVC. Schlumberger Well Surveying Corp:   SERVICE COMPANY
 DATE.        13-AUG-1961:   LOGDATE
 API .       490250659000:   API NUMBER
~CURVE INFORMATION
#MNEM.UNIT       API CODE    CURVE DESCRIPTION
#----------   ------------   ------------------------------
 DEPT.F                  :   
 ASN .OHMM   05 041 16 00:   AMPLIFIER SHORT NORMAL
 SPR .MV     05 010 01 00:   SPONTANEOUS POTENSIAL
 CILD.MMHO   05 110 46 00:   CONDUCTIVITY INDUCTION LOG DEEP
 ILD .OHMM   05 120 46 00:   INDUCTION LOG DEEP
 GRN .MG/TON 35 310 30 00:   GAMMA RAY
 NEUT.NAPI   35 330 01 00:   NEUTRON
~PARAMETER INFORMATION
#MNEM.UNIT          VALUE    DESCRIPTION
#----------   ------------   ------------------------------
 PD  .                 GL:   PERMANENT DATUM
 EPD .F              5082:   ELEVATION PERMANENT DATUM
 LMF .                 KB:   LOG MEASURED FROM
 DAPD.F                 5:   FEET ABOVE PERMANENT DATUM
 DMF .                 KB:   DRILLING MEASURED FROM
 EKB .F              5087:   KELLING BUSHING
 EGL .F              5082:   GROUND LEVEL
 DATE.        13-AUG-1961:   RUN DATE
 RUN .                  1:   RUN NUMBER
 DD  .F              1000:   DEPTH DRILLER
 DL  .F              1003:   DEPTH LOGGER
 BLI .F              1002:   BOTTOM LOG INTERVAL
 TLI .F                90:   TOP LOG INTERVAL
 BS  .IN             6.75:   BIT SIZE
 BSD .F              1000:   BIT SIZE AT DEPTH
 DFT . OIL EMUL (12% OIL):   DRILLING FLUID TYPE
 DFD .                9.3:   DRILLING FLUID DENSITY
 DFV .                 60:   DRILLING FLUID VISCOSITY
 DFL .                  4:   DRILLING FLUID LOSS
 MSS .           FLOWLINE:   MUD SAMPLE SOURCE
 RMS .OHMM           1.29:   RESISTIVITY MUD SAMPLE
 MST .F                80:   MUD SAMPLE TEMPERATURE
 TCS .HRS               1:   TIME CURCULATED STOPPED
 LUN .               2523:   LOGGING UNIT NUMBER
 LUL .               CSPR:   LOGGING UNIT LOCATION
 ENGI.              SCOTT:   RECORDING ENGINEER
 WITN.          JORGENSEN:   WITNESSED BY
 CLNT.            A2DTECH:   CLIENT CODE
 ORIG.       2", 5" PRINT:   ORIGIN OF DATA
 UWI .       490250659000:   UNIQUE WELL ID
 DICO. A2D Technologies, Inc.:   DIGITIZING COMPANY
~OTHER INFORMATION
~A    DEPT     ASN        SPR       CILD        ILD          GRN     NEUT   
# ...
  366.5000     3.5986   -12.8628   356.8530     2.0584     5.3593   241.4879
  367.0000     3.6322   -12.8634   343.3487     2.1332     5.2663   253.7365
  367.5000     3.7948   -12.8641   333.9714     2.2082     5.1525   272.4910
  368.0000     3.7986   -13.1031   324.1441     2.2108     5.1933   274.2637
  368.5000     3.7941   -13.3496   311.8401     2.3580     5.3943   275.4858
  369.0000     3.8842   -13.7673   297.0574     2.6800     5.4424   275.4631
  369.5000     4.8560   -13.9927   278.6345     3.5621     5.4192   275.4403
  370.0000     5.2357   -14.2392   245.7969     4.3148     5.4040   274.6570
  370.5000     5.2508   -14.5204   216.2987     4.7270     5.7959   273.0642
  371.0000     5.2810   -14.6712   190.0670     4.9164     6.2345   271.3181
  371.5000     5.3302   -14.8221   181.7606     4.9913     6.3385   267.7551
  372.0000     5.3862   -14.9731   177.8079     5.0663     6.1273   257.1680
  372.5000     5.3863   -14.9737   176.7643     5.0658     6.0720   237.7823
  373.0000     5.4020   -14.8243   176.7718     5.0655     6.0350   213.0270
  373.5000     5.4165   -14.8251   177.7367     4.9778     6.0970   192.8496
  374.0000     5.3168   -14.6756   182.7935     4.6129     6.1542   170.4731
  374.5000     5.0112   -14.5263   191.6968     4.3264     6.1736   146.3970
  375.0000     4.8061   -14.3018   211.1489     3.7086     6.1721   133.4197
  375.5000     4.5516   -13.8861   235.3690     2.4944     6.0087   129.4097
  376.0000     4.2457   -13.4776   296.3352     2.0843     5.9006   128.2346
  376.5000     3.9709   -13.1779   350.3974     1.9002     5.9156   130.5422
  377.0000     3.5066   -12.8714   379.5360     1.8577     6.0708   156.6693
  377.5000     3.3978   -12.5790   381.5128     1.8242     6.0964   198.1178
  378.0000     3.6035   -12.2312   382.5528     1.8238     5.9304   218.0867
  378.5000     3.5236   -11.9797   380.7960     1.8596     5.9228   235.5506
  379.0000     3.4454   -11.9805   373.3710     2.0098     5.9303   222.9454
  379.5000     3.5054   -12.5698   361.5547     2.5756     5.9302   202.1065
  380.0000     4.1862   -13.3334   341.2906     2.9970     5.8673   207.0945
  380.5000     4.3856   -13.5598   317.6699     3.4153     5.7190   225.0104
  381.0000     4.4988   -13.7853   283.4995     3.8546     5.6991   253.6587
  381.5000     4.6219   -13.7861   232.8867     3.9537     5.8833   259.3427
  382.0000     4.7254   -13.7868   209.6398     4.0045     6.0052   261.2083
  382.5000     4.8602   -13.7875   202.4414     4.0041     6.0529   261.1804
  383.0000     5.0275   -13.7884   202.4474     4.0038     6.0973   249.4475
  383.5000     5.0689   -13.7648   202.4551     4.0034     6.1030   226.5324
  384.0000     5.1027   -13.6397   203.9640     4.0783     6.0371   207.9707
  384.5000     5.0930   -13.5205   205.4730     4.0779     5.9739   199.2072
  385.0000     5.0643   -13.4909   206.9826     4.0775     5.9143   182.1181
  385.5000     5.0128   -13.3417   209.2604     4.0441     5.9065   169.3765
  386.0000     4.9030   -13.2663   211.9520     3.9955     6.0076   165.7972
  386.5000     4.7558   -13.1929   219.0175     3.7752     5.9895   162.3106
  387.0000     4.5776   -13.0436   226.0813     3.3592     5.9494   157.3935
  387.5000     4.3531   -13.0443   241.6471     2.5697     5.9284   149.6465
  388.0000     4.1217   -12.8949   291.1125     2.4187     5.9063   143.2623
  388.5000     4.0073   -12.8958   301.1599     2.4183     5.8901   145.6608
  389.0000     3.9050   -12.8473   312.1472     2.4179     5.8449   151.8663
  389.5000     3.7972   -12.7470   311.8167     2.4175     5.7855   163.9410
  390.0000     3.6406   -12.7477   307.6565     2.4172     5.6874   171.1870
  390.5000     3.5150   -12.7485   310.6687     2.4168     5.5441   173.5167
  391.0000     3.4671   -12.7493   315.2552     2.3411     5.4189   173.4948
  391.5000     3.5434   -12.7500   319.9362     2.3407     5.2813   171.3313
  392.0000     3.6050   -12.7508   322.7036     2.2650     5.4309   140.8038
  392.5000     3.5875   -12.7516   324.8686     2.2346     5.4163   106.5268
  393.0000     3.5225   -12.8153   325.7207     2.1107     5.3315    97.4057
  393.5000     3.4177   -12.9032   328.7326     1.9627     5.3158    95.9447
  394.0000     3.2724   -12.9040   342.5530     1.8630     5.4486    97.2616
  394.5000     3.1915   -12.9047   370.7883     1.7361     5.5758   102.7692
  395.0000     3.0623   -12.9054   405.3300     1.4947     5.6565   106.4699
  395.5000     2.8980   -12.9062   464.0265     1.3588     5.7308   108.0074
  396.0000     2.7469   -12.9069   510.4509     1.2831     5.8554   108.7387
  396.5000     2.6722   -12.9077   528.8141     1.2828     5.8631   116.8089
  397.0000     2.6572   -12.6812   523.1157     1.2071     5.8241   139.8496
  397.5000     2.7466   -12.5863   499.9633     1.2067     5.7152   152.6994
  398.0000     2.8676   -12.4595   481.8772     1.2816     5.4676   154.5465
  398.5000     2.9041   -12.3101   450.6149     1.4499     5.4681   149.8399
  399.0000     2.9316   -12.3198   420.4067     1.8832     5.7494   122.2640
  399.5000     3.0780   -12.6120   394.7751     2.3196     5.8820   115.3408
  400.0000     3.5635   -13.0130   355.8558     2.9367     5.9799   113.1124
  400.5000     4.2343   -13.3641   309.4100     3.5539     5.9875   112.6076
  401.0000     4.2585   -13.7563   248.6628     3.8607     5.9750   113.0707
  401.5000     4.2831   -13.8526   219.2421     3.9898     5.9646   113.8020
  402.0000     4.3096   -14.1172   215.4205     3.9895     5.9721   116.5286
  402.5000     4.3173   -14.1179   218.5999     3.9891     6.0166   122.9052
  403.0000     4.3248   -13.9684   226.7726     3.9887     6.1194   131.1927
  403.5000     4.3249   -13.8192   231.1714     3.9923     6.2356   147.4700
  404.0000     4.3187   -13.5135   232.7928     3.9167     6.2537   146.4225
  404.5000     4.3085   -13.1194   232.8015     3.7944     6.1908   128.7666
  405.0000     4.2500   -12.8754   234.4971     3.4149     6.0244   122.6903
  405.5000     4.1709   -12.6126   246.9441     2.7150     5.9421   122.4942
  406.0000     3.9063   -12.3874   312.3123     2.3268     5.9016   130.9117
  406.5000     3.4968   -12.2935   349.9698     2.0127     5.8658   132.7025
  407.0000     3.0180   -12.1622   394.8344     1.6619     5.7880   129.6521
  407.5000     2.9324   -12.1622   426.4264     1.5550     5.7747   128.3840
  408.0000     2.8829   -12.0120   435.6157     1.5120     5.7681   133.4271
  408.5000     2.9788   -12.0120   439.9399     1.5878     5.6497   141.6068
  409.0000     3.0363   -12.1622   434.7548     1.6867     5.5482   157.4227
  409.5000     3.0931   -12.1622   424.6248     1.8897     5.5018   219.9349
  410.0000     3.2953   -12.2372   405.4054     2.0934     5.4877   237.0299
  410.5000     3.7057   -12.4812   388.2280     2.4616     5.5705   240.4111
  411.0000     4.2042   -12.7628   362.1613     2.7945     5.6434   226.7326
  411.5000     4.5054   -12.8191   306.3063     3.0814     5.7286   226.7222
  412.0000     4.8498   -13.0631   250.9917     3.5723     5.6522   226.4883
  412.5000     4.9775   -13.2132   210.2102     4.1510     5.6077   220.6249
  413.0000     5.0994   -13.4009   202.3223     4.4026     5.8187   222.0806
  413.5000     5.1802   -13.5135   196.3163     4.5282     5.8501   241.1478
  414.0000     5.2306   -13.5135   192.1922     4.6486     5.8561   258.5475
  414.5000     5.3222   -13.5135   187.6677     4.9389     5.8485   265.1754
  415.0000     5.5556   -13.5135   182.5826     5.2071     5.8484   266.1181
  415.5000     5.7445   -13.5135   177.1772     5.5414     5.8679   262.5789
  416.0000     5.9910   -13.6637   173.0130     5.8183     5.9084   258.5644
  416.5000     6.2438   -13.6637   166.6067     5.9613     5.9954   255.4555
  417.0000     6.5121   -13.6261   159.2793     5.9616     6.1205   253.4732
  417.5000     6.8318   -13.5135   154.2542     5.8867     6.1493   252.3965
  418.0000     6.9051   -13.0631   153.1532     5.8404     6.2187   252.3843
