~VERSION INFORMATION
 VERS.                2.0:   CWLS LOG ASCII STANDARD - VERSION 2.0
 WRAP.                 NO:   ONE LINE PER DEPTH STEP
~WELL INFORMATION
#MNEM.UNIT      DATA TYPE    INFORMATION
#----------   ------------   ------------------------------
 STRT.F            0.0000:   START DEPTH
 STOP.F          618.0000:   STOP DEPTH
 STEP.F            0.5000:   STEP LENGTH
 NULL.          -999.2500:   NO VALUE
 COMP.   FLUOR DANIEL INC:   COMPANY
 WELL. NAVAL PETROLEUM RESERVE 3 SX-3 #2-33:   WELL
 FLD .             TEAPOT:   FIELD
 LOC .      S33 T39N R78W:   LOCATION
 CNTY.            NATRONA:   COUNTY
 STAT.            WYOMING:   STATE
 CTRY. UNITED STATES OF AMERICA:   COUNTRY
 SRVC.      Western Atlas:   SERVICE COMPANY
 DATE.        07-JAN-1995:   LOGDATE
 API .       490252267200:   API NUMBER
~CURVE INFORMATION
#MNEM.UNIT       API CODE    CURVE DESCRIPTION
#----------   ------------   ------------------------------
 DEPT.F                  :   
 GRR .GAPI   07 310 01 00:   GAMMA RAY FROM RES. LOG.
 RILD.OHMM   07 120 46 00:   INDUCTION LOG DEEP RESISTIVITY
 RILM.OHMM   07 120 44 00:   INDUCTION LOG MEDIUM RESISTIVITY
~PARAMETER INFORMATION
#MNEM.UNIT          VALUE    DESCRIPTION
#----------   ------------   ------------------------------
 PD  .                 GL:   PERMANENT DATUM
 EPD .F              5158:   ELEVATION PERMANENT DATUM
 LMF .                 KB:   LOG MEASURED FROM
 DAPD.F                10:   FEET ABOVE PERMANENT DATUM
 DMF .                 KB:   DRILLING MEASURED FROM
 EKB .F              5168:   KELLING BUSHING
 EDF .F              5167:   DRILLING FLOOR
 EGL .F              5158:   GROUND LEVEL
 DATE.         7-JAN-1995:   RUN DATE
 RUN .                  1:   RUN NUMBER
 DD  .F               625:   DEPTH DRILLER
 DL  .F               626:   DEPTH LOGGER
 BLI .F               618:   BOTTOM LOG INTERVAL
 CS  .IN            9.625:   CASING SIZE
 CBD .F                53:   CASING BOTTOM DRILLER
 CBL .F                54:   CASING BOTTOM LOGGER
 BS  .IN             8.75:   BIT SIZE
 BSD .F               625:   BIT SIZE AT DEPTH
 DFT .                AIR:   DRILLING FLUID TYPE
 MRT .F                89:   MAXIMUM RECORDED TEMPERATURE
 LUN .            HL 6530:   LOGGING UNIT NUMBER
 LUL .             CASPER:   LOGGING UNIT LOCATION
 ENGI.        VERN RAUTIO:   RECORDING ENGINEER
 WITN.        GARY STRONG:   WITNESSED BY
 CLNT.            A2DTECH:   CLIENT CODE
 ORIG.           5" PRINT:   ORIGIN OF DATA
 UWI .       490252267200:   UNIQUE WELL ID
 DICO. A2D Technologies, Inc.:   DIGITIZING COMPANY
~OTHER INFORMATION
~A    DEPT      GRR      RILD       RILM   
# ...
  364.0000   137.8593     7.5750     7.6455
  364.5000   140.1434     7.5946     7.6653
  365.0000   141.3857     7.3750     7.4437
  365.5000   140.8443     7.1555     7.2221
  366.0000   140.3239     6.9425     7.0071
  366.5000   139.9392     6.7358     6.7985
  367.0000   140.9675     6.5353     6.5961
  367.5000   146.5392     6.3657     6.4279
  368.0000   153.8142     6.3455     6.4279
  368.5000   159.7578     6.3253     6.4279
  369.0000   159.0733     6.2610     6.4279
  369.5000   148.3319     6.0553     6.4279
  370.0000   145.2493     5.8625     6.2633
  370.5000   144.1144     5.6902     5.9147
  371.0000   142.9780     5.5230     5.5855
  371.5000   142.8300     5.3903     5.2747
  372.0000   144.9692     5.3903     5.0951
  372.5000   147.2819     5.4607     5.3203
  373.0000   146.7296     5.5300     5.5501
  373.5000   141.9891     5.6164     5.7889
  374.0000   136.8341     5.8290     6.0374
  374.5000   138.0053     6.0508     6.2966
  375.0000   140.2972     6.2808     6.5670
  375.5000   141.4834     6.5195     6.8489
  376.0000   140.1674     6.7675     7.1430
  376.5000   139.7724     7.0520     7.1854
  377.0000   142.5184     7.0187     7.1859
  377.5000   145.1094     6.9241     7.1868
  378.0000   146.4635     6.5081     6.7912
  378.5000   145.4768     6.1164     6.3054
  379.0000   144.5006     5.7473     5.8543
  379.5000   145.6419     5.4326     5.4831
  380.0000   147.5380     5.1942     5.2425
  380.5000   149.2288     5.0988     5.1463
  381.0000   147.7921     5.0886     5.1798
  381.5000   143.6120     5.0700     5.2419
  382.0000   140.0397     5.0518     5.3533
  382.5000   138.8104     5.1946     5.6535
  383.0000   137.5247     5.5584     5.9701
  383.5000   137.2490     5.9518     6.3049
  384.0000   137.3826     6.3741     6.6583
  384.5000   137.5620     6.8257     7.0315
  385.0000   135.9432     7.2062     7.4256
  385.5000   133.8716     7.4391     7.7367
  386.0000   131.8956     7.6796     7.8087
  386.5000   131.2520     7.8241     7.8230
  387.0000   133.9134     7.8567     7.8741
  387.5000   136.5350     7.8893     7.9255
  388.0000   139.0997     7.9222     7.9773
  388.5000   136.3869     7.9548     8.0288
  389.0000   131.7521     7.9680     8.0422
  389.5000   127.9713     7.9811     8.0554
  390.0000   128.9617     7.9943     8.0687
  390.5000   130.1822     8.0074     8.0820
  391.0000   131.4158     8.0205     8.0952
  391.5000   131.9209     8.0288     8.1035
  392.0000   131.7585     8.0288     8.1035
  392.5000   130.8517     8.0288     8.1036
  393.0000   129.9909     8.0288     8.1035
  393.5000   130.7389     8.0289     8.1033
  394.0000   133.1530     8.0282     8.1035
  394.5000   134.0226     8.0891     8.1983
  395.0000   131.0488     8.1538     8.3006
  395.5000   126.6309     8.2189     8.4039
  396.0000   124.7493     8.2551     8.5085
  396.5000   125.7072     8.0520     8.6358
  397.0000   125.8813     7.4648     8.0134
  397.5000   125.0811     6.8860     7.1873
  398.0000   124.3941     6.3473     6.4463
  398.5000   127.5389     5.8556     5.7818
  399.0000   134.6056     5.8601     5.1857
  399.5000   142.3888     5.9020     5.0988
  400.0000   149.8688     5.9531     5.8529
  400.5000   143.0186     6.0047     6.4343
  401.0000   134.2646     6.0567     7.0735
  401.5000   125.2548     6.4962     7.7765
  402.0000   124.8035     7.3281     8.5499
  402.5000   125.4922     8.2666     9.3969
  403.0000   124.1067     9.3253     9.9274
  403.5000   123.8192    10.0284    10.2203
  404.0000   126.4572    10.4071    10.5039
  404.5000   130.3462    10.7004    10.8000
  405.0000   131.6058    10.9512    11.0531
  405.5000   129.1326    11.4069    11.5285
  406.0000   122.5911    12.2448    12.5169
  406.5000   112.5176    13.1443    13.5901
  407.0000   102.4421    14.1098    14.7553
  407.5000    92.3567    15.1463    16.0204
  408.0000    82.2960    16.2589    17.3940
  408.5000    75.1679    17.4048    17.8126
  409.0000    69.2716    18.1458    17.9181
  409.5000    68.3715    18.3147    18.1482
  410.0000    69.8727    18.3147    17.9582
  410.5000    73.9453    18.3147    17.8308
  411.0000    77.5087    18.3147    17.6483
  411.5000    76.5408    18.4852    17.9563
  412.0000    74.4147    18.8371    18.5310
  412.5000    72.2817    19.3073    19.1241
  413.0000    70.1489    19.7892    19.7361
  413.5000    67.9932    20.2832    20.3685
  414.0000    67.5243    20.7008    20.8801
  414.5000    69.0398    20.8645    20.9827
  415.0000    71.9803    21.0320    21.0875
  415.5000    75.0264    21.1882    21.1919
  416.0000    75.2992    21.4478    21.2416
  416.5000    73.6733    21.4434    21.2416
  417.0000    70.0022    21.4391    21.2418
  417.5000    70.7345    21.4384    21.2418
  418.0000    72.4735    21.4346    21.2452
  418.5000    74.0139    21.4336    21.3940
  419.0000    72.9233    22.2605    22.0539
  419.5000    72.9191    22.9382    22.7341
  420.0000    70.9676    23.7885    23.5617
  420.5000    68.1983    24.7825    24.5564
  421.0000    67.1827    25.8310    25.5931
  421.5000    66.2602    26.9218    26.6735
  422.0000    65.6550    28.0583    27.7996
  422.5000    65.6639    29.2429    28.9732
  423.0000    65.6617    30.4880    30.4880
  423.5000    65.6546    30.7718    29.9368
  424.0000    65.5076    30.6265    29.2810
  424.5000    65.5702    30.0632    28.6395
  425.0000    67.1555    29.5102    28.0121
  425.5000    70.0294    28.9674    27.3984
  426.0000    72.9221    28.4346    26.5318
  426.5000    75.8145    27.9116    26.5680
  427.0000    78.7667    27.6563    26.6342
  427.5000    79.7184    27.4826    26.7001
  428.0000    76.9700    27.3100    26.7765
  428.5000    73.7068    26.6962    26.2615
  429.0000    72.9753    26.0053    25.6507
  429.5000    75.5506    25.3274    25.0470
  430.0000    80.1531    24.7237    24.4598
  430.5000    84.5924    24.2304    23.8437
  431.0000    89.1578    23.7508    23.2521
  431.5000    90.6006    23.2806    22.7981
  432.0000    88.3740    22.8198    22.5788
  432.5000    85.4458    22.4182    22.3616
  433.0000    84.9749    22.2264    22.1465
  433.5000    86.1392    22.0362    21.9334
  434.0000    87.3809    21.8477    21.7225
  434.5000    88.1012    21.6608    21.5136
  435.0000    86.5296    21.4755    21.3072
  435.5000    84.6544    21.2917    21.1016
  436.0000    82.7855    21.0439    20.7962
  436.5000    80.9072    20.7744    20.4572
  437.0000    80.2241    20.5084    20.1237
  437.5000    81.1840    20.2458    19.7956
  438.0000    82.3292    20.0929    19.5420
  438.5000    83.4675    20.2799    19.5420
  439.0000    84.6085    20.6586    20.5323
  439.5000    85.7423    21.1168    21.2537
  440.0000    86.5854    21.5853    22.0005
  440.5000    85.3848    22.0641    22.7735
  441.0000    83.6914    22.5535    23.7398
  441.5000    83.3571    22.8760    23.2349
  442.0000    84.5515    22.7302    22.3427
  442.5000    85.8442    22.3522    21.4848
  443.0000    87.1442    21.5738    20.6598
  443.5000    87.1993    20.8226    19.8665
  444.0000    86.9214    20.0975    19.1036
  444.5000    89.0743    19.3977    18.3701
  445.0000    91.5021    18.7222    18.0201
  445.5000    90.8594    18.1339    17.8386
  446.0000    89.8154    18.0334    17.6589
  446.5000    90.5845    17.9333    17.4807
  447.0000    92.7855    17.8339    17.3050
  447.5000    94.9150    17.7349    17.1583
  448.0000    94.9966    17.6366    17.1333
  448.5000    94.9719    17.5387    17.1070
  449.0000    95.9596    17.4414    17.0810
  449.5000    97.4084    17.3445    17.0550
  450.0000    97.0897    17.2489    17.0289
  450.5000    94.8179    17.1618    16.9993
  451.0000    93.5986    17.1489    16.9486
  451.5000    92.1903    17.1346    16.8973
  452.0000    88.8865    17.1206    16.8462
  452.5000    85.8222    17.1066    16.7952
  453.0000    85.9563    17.0926    16.7445
  453.5000    86.0343    17.0786    16.6938
  454.0000    85.5463    17.0646    16.6434
  454.5000    85.4082    17.0506    16.5931
