~VERSION INFORMATION
 VERS.                2.0:   CWLS LOG ASCII STANDARD - VERSION 2.0
 WRAP.                 NO:   ONE LINE PER DEPTH STEP
~WELL INFORMATION
#MNEM.UNIT      DATA TYPE    INFORMATION
#----------   ------------   ------------------------------
 STRT.F            8.0000:   START DEPTH
 STOP.F          551.0000:   STOP DEPTH
 STEP.F            0.5000:   STEP LENGTH
 NULL.          -999.2500:   NO VALUE
 COMP.   FLUOR DANIEL INC:   COMPANY
 WELL. NAVAL PETROLEUM RESERVE 3 S-10 #31-10:   WELL
 FLD .        TEAPOT DOME:   FIELD
 LOC .      S10 T38N R78W:   LOCATION
 CNTY.            NATRONA:   COUNTY
 STAT.            WYOMING:   STATE
 CTRY. UNITED STATES OF AMERICA:   COUNTRY
 SRVC.       Schlumberger:   SERVICE COMPANY
 DATE.        21-JUN-1970:   LOGDATE
 API .       490251039400:   API NUMBER
~CURVE INFORMATION
#MNEM.UNIT       API CODE    CURVE DESCRIPTION
#----------   ------------   ------------------------------
 DEPT.F                  :   
 SPR .MV     05 010 01 00:   SPONTANEOUS POTENTIAL FROM RES.
 ASN .OHMM   05 041 16 00:   AMPLIFIED SHORT NORMAL 16"
 ILD .OHMM   05 120 46 00:   INDUCTION LOG DEEP
 CILD.MMHO   05 110 46 00:   CONDUCTIVITY INDUCTION LOG DEEP
 CALD.IN     45 280 60 00:   CALIPER FROM DENSITY LOG
 CORR.G/C3   45 356 01 00:   DENSITY CORRECTION
 RHOB.G/C3   45 350 01 00:   BULK DENSITY
 DPHI.DEC    45 890 12 00:   DENSITY POROSITY SANDSTONE
~PARAMETER INFORMATION
#MNEM.UNIT          VALUE    DESCRIPTION
#----------   ------------   ------------------------------
 PD  .                 GL:   PERMANENT DATUM
 EPD .F              5256:   ELEVATION PERMANENT DATUM
 LMF .                 KB:   LOG MEASURED FROM
 DAPD.F                10:   FEET ABOVE PERMANENT DATUM
 DMF .                 KB:   DRILLING MEASURED FROM
 EKB .F              5266:   KELLING BUSHING
 EGL .F              5256:   GROUND LEVEL
 DATE.        27-JUN-1970:   RUN DATE
 RUN .                  1:   RUN NUMBER
 DD  .F               553:   DEPTH DRILLER
 DL  .F               552:   DEPTH LOGGER
 BLI .F               551:   BOTTOM LOG INTERVAL
 TLI .F                44:   TOP LOG INTERVAL
 CS  .IN             9.75:   CASING SIZE
 BS  .IN                9:   BIT SIZE
 BSD .F               553:   BIT SIZE AT DEPTH
 DFT .        FRESHGELMUD:   DRILLING FLUID TYPE
 DFD .                9.2:   DRILLING FLUID DENSITY
 BHT .F               100:   BOTTOM HOLE TEMPERATURE
 TCS .HRS               1:   TIME CURCULATED STOPPED
 MRT .F               100:   MAXIMUM RECORDED TEMPERATURE
 ENGI.             TUSNES:   RECORDING ENGINEER
 WITN.                HAZ:   WITNESSED BY
 CLNT.            A2DTECH:   CLIENT CODE
 ORIG.           5" PRINT:   ORIGIN OF DATA
 UWI .       490251039400:   UNIQUE WELL ID
 DICO. A2D Technologies, Inc.:   DIGITIZING COMPANY
~OTHER INFORMATION
~A    DEPT     SPR        ASN        ILD       CILD         CALD     CORR       RHOB       DPHI   
# ...
  372.5000   -27.6398     7.4768     6.5935   152.0805     8.6509     0.0447     2.5166     0.0925
  373.0000   -27.9503     7.8019     6.9029   143.6006     8.6520     0.0125     2.5039     0.0951
  373.5000   -28.4161     8.0805     7.2123   136.6975     8.6530     0.0148     2.4829     0.0921
  374.0000   -28.7267     8.2817     7.4445   132.7276     8.6541     0.0329     2.5175     0.0864
  374.5000   -29.0373     8.4056     7.5996   128.9421     8.6701     0.0427     2.5288     0.0836
  375.0000   -29.1925     8.4985     7.7547   126.6051     8.6712     0.0360     2.5311     0.0818
  375.5000   -29.1925     8.6068     7.8327   124.2682     8.6747     0.0277     2.4974     0.0825
  376.0000   -29.1925     8.6842     7.9106   122.0940     8.6882     0.0218     2.4675     0.0908
  376.5000   -29.1925     8.7461     7.9885   122.0864     8.7043     0.0188     2.4961     0.0858
  377.0000   -29.1925     8.8080     8.0664   122.0787     8.7077     0.0190     2.5246     0.0816
  377.5000   -29.1925     8.8545     8.0672   122.0710     8.7214     0.0228     2.5382     0.0784
  378.0000   -29.1925     8.9009     8.0680   122.0634     8.7225     0.0379     2.5473     0.0774
  378.5000   -29.1635     8.9319     8.0687   121.2853     8.7235     0.0417     2.5421     0.0973
  379.0000   -28.8820     8.9639     8.0695   121.2776     8.7246     0.0200     2.4874     0.1044
  379.5000   -28.8820     9.0264     8.0703   120.4996     8.7106     0.0118     2.4979     0.0990
  380.0000   -28.5714     9.0867     8.0711   118.1807     8.6967     0.0044     2.4890     0.1122
  380.5000   -28.4161     9.1201     8.0718   117.4026     8.6977    -0.0016     2.4493     0.1155
  381.0000   -28.2609     9.1641     8.0726   117.3949     8.6838    -0.0030     2.4831     0.1064
  381.5000   -28.2609     9.1486     8.1505   118.9300     8.6698     0.0098     2.5037     0.0983
  382.0000   -28.2609     9.1176     8.2284   119.6928     8.6540     0.0234     2.5395     0.0841
  382.5000   -28.2609     9.0867     8.3064   118.9128     8.6419     0.0294     2.4953     0.1012
  383.0000   -28.4161     9.0712     8.3843   117.3643     8.6429     0.0122     2.4773     0.1078
  383.5000   -28.4161     9.1331     8.4622   115.0454     8.6440     0.0070     2.4954     0.1096
  384.0000   -28.5714     9.2415     8.5402   113.4969     8.6450     0.0236     2.5180     0.0955
  384.5000   -28.7267     9.3653     8.4638   111.9484     8.6461     0.0267     2.5030     0.0924
  385.0000   -28.8820     9.4892     8.2331   112.7112     8.6471     0.0252     2.4828     0.1050
  385.5000   -29.0373     9.5201     7.6165   118.0964     8.6332     0.0208     2.4994     0.1023
  386.0000   -29.3478     9.3498     6.8457   132.7267     8.6342     0.0156     2.5145     0.0935
  386.5000   -29.5031     9.1022     5.9977   151.2090     8.6353     0.0126     2.5123     0.0944
  387.0000   -29.6584     8.3746     5.6127   166.6096     8.6363     0.0165     2.5018     0.0959
  387.5000   -29.6584     7.5232     5.5363   168.1447     8.6073     0.0240     2.4906     0.1004
  388.0000   -29.6584     7.1827     5.5370   164.2831     8.5922     0.0377     2.4404     0.1133
  388.5000   -29.0373     7.2136     5.5378   163.5050     8.5644     0.0494     2.4052     0.1235
  389.0000   -28.7267     7.3220     5.6157   164.2681     8.5354     0.0629     2.3774     0.1513
  389.5000   -28.4161     7.7090     5.6165   165.0305     8.5064     0.0765     2.3551     0.1773
  390.0000   -29.0373     9.1641     5.6944   161.9412     8.4925     0.0836     2.3454     0.1679
  390.5000   -29.5031     9.3411     7.1678   141.9027     8.4945     0.0559     2.4250     0.1393
  391.0000   -29.5031     9.0557     8.5613   124.9459     8.5706     0.0327     2.4970     0.0882
  391.5000   -29.8137     9.8297     9.5625   107.9891     8.6167     0.0243     2.5158     0.1014
  392.0000   -29.8137    10.2167    10.0237    97.1956     8.6476     0.0133     2.4792     0.1079
  392.5000   -29.9689    10.3715    10.0964    91.7950     8.6637     0.0058     2.5205     0.0905
  393.0000   -29.9689    10.4489    10.0972    94.0986     8.6790     0.0172     2.4823     0.1064
  393.5000   -29.9689    10.5263    10.0980    96.4250     8.6800     0.0187     2.5184     0.0967
  394.0000   -29.8137    10.6811    10.0987    98.7058     8.6811     0.0113     2.5319     0.0856
  394.5000   -29.8137    10.8361    10.2538    97.8687     8.6821     0.0031     2.4997     0.1036
  395.0000   -29.8137    11.2306    10.5889    93.9909     8.6832     0.0069     2.4803     0.1063
  395.5000   -29.8137    11.9390    11.3009    90.0169     8.6842     0.0115     2.5058     0.0975
  396.0000   -29.9875    13.1094    12.5711    83.9242     8.6703     0.0123     2.5022     0.0993
  396.5000   -30.4575    14.2796    13.8836    77.6043     8.6713     0.0153     2.4865     0.1044
  397.0000   -31.2650    15.6048    15.1961    71.5463     8.6571     0.0162     2.4753     0.1094
  397.5000   -32.4534    17.1903    16.5858    63.9815     8.6432     0.0016     2.4626     0.1173
  398.0000   -33.6957    18.9628    18.3613    57.8106     8.6294     0.0052     2.4529     0.1245
  398.5000   -34.9379    20.2012    21.8342    50.8692     8.6155     0.0329     2.4394     0.1296
  399.0000   -36.3354    21.4396    24.8443    44.6982     8.6165     0.0479     2.4215     0.1352
  399.5000   -37.1118    22.5232    26.0796    40.8384     8.6176     0.0510     2.4463     0.1557
  400.0000   -37.7550    23.2972    26.4660    38.5195     8.6186     0.0470     2.3974     0.1851
  400.5000   -38.0418    23.7657    26.6229    40.0616     8.6501     0.0038     2.2776     0.2230
  401.0000   -38.3512    24.3847    27.0935    39.2912     8.6817     0.0226     2.2897     0.2163
  401.5000   -38.5050    24.7017    27.7237    38.5208     8.7119     0.0279     2.3002     0.2127
  402.0000   -38.3478    25.1626    28.1636    37.7504     8.7732     0.0077     2.3017     0.2181
  402.5000   -37.8804    25.6290    28.1636    36.9800     8.8042     0.0017     2.2883     0.2199
  403.0000   -38.3447    25.9405    28.0093    36.9800     8.8353     0.0010     2.2921     0.2159
  403.5000   -38.8090    26.2395    27.8549    36.9800     8.8363     0.0033     2.2996     0.2156
  404.0000   -39.4285    26.2396    27.7006    36.9800     8.8221     0.0116     2.2937     0.2229
  404.5000   -40.0481    25.6980    27.3148    36.9800     8.7633     0.0162     2.2839     0.2292
  405.0000   -40.3571    25.0016    26.7747    38.5208     8.7040     0.0191     2.2756     0.2323
  405.5000   -40.8214    23.9955    25.9259    40.0616     8.6453     0.0192     2.2690     0.2341
  406.0000   -39.5569    23.1443    24.9228    42.3729     8.6163    -0.0018     2.3074     0.1607
  406.5000   -38.4736    22.4479    23.6883    44.6841     8.6021     0.0343     2.3531     0.1465
  407.0000   -37.6905    21.9062    22.0679    46.9954     8.5883     0.0456     2.3967     0.1396
  407.5000   -36.8814    21.3646    20.6019    48.5362     8.5894     0.0434     2.4080     0.1353
  408.0000   -35.8444    20.9777    19.5988    50.8475     8.5904     0.0246     2.4163     0.1323
  408.5000   -35.2218    20.7457    19.2130    52.3883     8.6065     0.0179     2.4216     0.1311
  409.0000   -35.0649    20.6684    19.0586    53.1587     8.6225     0.0157     2.4178     0.1404
  409.5000   -34.9081    20.6686    19.2901    53.1587     8.6235     0.0150     2.3971     0.1530
  410.0000   -35.0622    20.7462    19.8302    52.3883     8.6248     0.0075     2.4210     0.1481
  410.5000   -35.0603    20.9785    20.3704    51.6179     8.6259     0.0241     2.4278     0.1370
  411.0000   -35.0588    21.2109    20.8333    50.0770     8.6269     0.0355     2.4226     0.1270
  411.5000   -35.0572    21.4432    21.2191    49.3066     8.6279     0.0315     2.4339     0.1297
  412.0000   -35.2110    21.4434    21.6049    49.3066     8.6440     0.0039     2.4925     0.0942
  412.5000   -35.3651    21.4435    21.9907    47.7658     8.6300     0.0002     2.5105     0.0992
