~VERSION INFORMATION
 VERS.                2.0:   CWLS LOG ASCII STANDARD - VERSION 2.0
 WRAP.                 NO:   ONE LINE PER DEPTH STEP
~WELL INFORMATION
#MNEM.UNIT      DATA TYPE    INFORMATION
#----------   ------------   ------------------------------
 STRT.F          190.0000:   START DEPTH
 STOP.F         3246.0000:   STOP DEPTH
 STEP.F            0.5000:   STEP LENGTH
 NULL.          -999.2500:   NO VALUE
 COMP. BROWN JOHN E&C INC:   COMPANY
 WELL.      STX-15 #84-15:   WELL
 FLD .             TEAPOT:   FIELD
 LOC .      S15 T38N R78W:   LOCATION
 CNTY.            NATRONA:   COUNTY
 STAT.            WYOMING:   STATE
 CTRY. UNITED STATES OF AMERICA:   COUNTRY
 SRVC.           BIRDWELL:   SERVICE COMPANY
 DATE.        17-MAR-1978:   LOGDATE
 API .       490251111600:   API NUMBER
~CURVE INFORMATION
#MNEM.UNIT       API CODE    CURVE DESCRIPTION
#----------   ------------   ------------------------------
 DEPT.F                  :   
 ILD .OHMM   05 120 46 00:   INDUCTION LOG DEEP
 SN  .OHMM   05 040 16 00:   SHORT NORMAL 16"
 SPR .MV     05 010 01 00:   SPONTANEOUS POTENTIAL FROM RES.
 GRD .GAPI   45 310 01 00:   GAMMA RAY FROM DENSITY LOG
 CALD.IN     45 280 60 00:   CALIPER
 RHOB.G/C3   45 350 01 00:   BULK DENSITY
 CORR.G/C3   45 356 01 00:   DENSITY CORRECTION
 DPHI.DEC    45 890 12 00:   DENSITY POROSITY SANDSTONE
~PARAMETER INFORMATION
#MNEM.UNIT          VALUE    DESCRIPTION
#----------   ------------   ------------------------------
 PD  .                 GL:   PERMANENT DATUM
 EPD .F              5241:   ELEVATION PERMANENT DATUM
 LMF .                 KB:   LOG MEASURED FROM
 DAPD.F                10:   FEET ABOVE PERMANENT DATUM
 DMF .                 KB:   DRILLING MEASURED FROM
 EKB .F              5251:   KELLING BUSHING
 EGL .F              5241:   GROUND LEVEL
 DATE.            3-17-78:   RUN DATE
 RUN .                  1:   RUN NUMBER
 DD  .F              3250:   DEPTH DRILLER
 DL  .F              3250:   DEPTH LOGGER
 BLI .F              3244:   BOTTOM LOG INTERVAL
 TLI .F               224:   TOP LOG INTERVAL
 CS  .IN            8.625:   CASING SIZE
 CBL .F               224:   CASING BOTTOM LOGGER
 BS  .IN            7.875:   BIT SIZE
 BSD .F              3250:   BIT SIZE AT DEPTH
 DFD .                8.9:   DRILLING FLUID DENSITY
 DFV .                 31:   DRILLING FLUID VISCOSITY
 DFPH.               10.5:   DRILLING FLUID PH
 DFL .                  8:   DRILLING FLUID LOSS
 MSS .           FLOWLINE:   MUD SAMPLE SOURCE
 RMS .OHMM            1.3:   RESISTIVITY MUD SAMPLE
 MST .F                70:   MUD SAMPLE TEMPERATURE
 RMF .OHMM            1.1:   RESISTIVITY MUD FILTRATE SAMPLE
 MFST.F                70:   MUD FILTRATE SAMPLE TEMPERATURE
 RMC .OHMM            1.4:   RESISTIVITY MUD CAKE
 MCST.F                70:   MUD CAKE SAMPLE TEMPERATURE
 MFSS.               MEAS:   MUD FILTRATE SAMPLE SOURCE
 MCSS.               MEAS:   MUD CAKE SAMPLE SOURCE
 RMB .OHMM            .77:   RESISTIVITY MUD AT BHT
 BHT .F               118:   BOTTOM HOLE TEMPERATURE
 TCS .HRS               6:   TIME CURCULATED STOPPED
 MRT .F               118:   MAXIMUM RECORDED TEMPERATURE
 LUN .               2958:   LOGGING UNIT NUMBER
 LUL .               CASP:   LOGGING UNIT LOCATION
 ENGI.             MILLER:   RECORDING ENGINEER
 WITN.           MCGINLEY:   WITNESSED BY
 CLNT.            A2DTECH:   CLIENT CODE
 ORIG.     1", 2.5" PRINT:   ORIGIN OF DATA
 UWI .       490251111600:   UNIQUE WELL ID
 DICO. A2D Technologies, Inc.:   DIGITIZING COMPANY
~OTHER INFORMATION
~A   DEPT      ILD         SN        SPR         GRD      CALD       RHOB       CORR       DPHI   
# ...
 2012.5000     4.9338     5.4110   -31.4595    94.3133     9.9449     2.4395     0.0318     0.1500
 2013.0000     4.9320     5.7671   -31.6226   100.7373     9.9415     2.4689     0.0178     0.1303
 2013.5000     4.9318     6.1113   -31.7854   107.1813     9.9381     2.4669     0.0179     0.1179
 2014.0000     5.1736     6.5090   -31.9471   111.5652     9.9347     2.4605     0.0341     0.1183
 2014.5000     5.5320     6.5090   -32.1132   113.8850     9.9313     2.4522     0.0548     0.1187
 2015.0000     5.9152     6.5090   -32.2699   112.6497     9.9278     2.5084     0.0935     0.1199
 2015.5000     6.2729     6.6024   -32.4467   110.9580     9.9243     2.4918     0.0774     0.1219
 2016.0000     6.2729     6.7849   -32.4543   109.5400     9.9210     2.4770     0.0343     0.1186
 2016.5000     6.2191     6.9713   -32.3907   111.9698     9.9173     2.4581     0.0712     0.1130
 2017.0000     6.1581     7.1649   -32.3213   115.1448     9.9137     2.5271     0.0734     0.1074
 2017.5000     6.4333     7.3636   -32.2523   118.4314     9.9115     2.5175     0.0593     0.0996
 2018.0000     6.7387     7.5677   -32.1886   120.6728     9.9051     2.5105     0.0465     0.1072
 2018.5000     7.0581     7.8053   -32.1149   119.8704     9.9063     2.4939     0.0325     0.1198
 2019.0000     7.4087     7.7534   -32.0423   118.5647     9.9137     2.4648     0.0331     0.1324
 2019.5000     7.4074     7.6505   -31.8132   116.7340    10.0270     2.4419     0.0440     0.1450
 2020.0000     7.1729     7.5483   -31.5976   117.5822    10.1228     2.4209     0.0546     0.1672
 2020.5000     6.8745     7.4504   -31.3787   119.5270    10.2193     2.3814     0.0651     0.1894
 2021.0000     6.5883     7.3524   -31.1681   121.6017    10.3345     2.3166     0.1028     0.2083
 2021.5000     6.3226     7.2721   -30.9163   123.5686    10.2789     2.3088     0.1379     0.2235
 2022.0000     6.1581     6.9502   -31.0566   131.3919    10.3549     2.2983     0.1656     0.2411
 2022.5000     6.0453     6.6868   -31.5339   142.9058    10.5381     2.2314     0.1150     0.2586
 2023.0000     6.0453     6.5090   -31.9726   157.0576    10.5847     2.1681     0.1488     0.2727
 2023.5000     6.0453     6.7643   -32.4107   171.2944    10.5793     2.1615     0.2130     0.2286
 2024.0000     6.1581     7.2236   -32.8558   183.0535    10.5685     2.1602     0.2940     0.1919
 2024.5000     6.3899     7.7141   -33.3007   189.0081    10.3640     2.3453     0.2666     0.1553
 2025.0000     6.9438     8.2380   -33.7387   186.7473     9.9389     2.4268     0.1102     0.1379
 2025.5000     7.6005     8.9109   -34.1785   176.9275     9.9355     2.4734     0.0454     0.1339
 2026.0000     8.6252     9.6668   -34.6545   174.1309     9.9586     2.4545     0.0413     0.1299
 2026.5000     9.7880    10.6961   -34.8455   174.1647    10.0011     2.4406     0.0497     0.1353
 2027.0000    11.1076    11.8349   -34.6679   173.8197    10.0226     2.4305     0.0620     0.1420
 2027.5000    12.8942    13.0950   -34.5290   169.6006    10.0232     2.4181     0.0745     0.1514
 2028.0000    12.6582    13.9862   -34.3863   165.4243    10.0245     2.4076     0.0892     0.1496
 2028.5000    13.0348    14.1894   -34.2369   164.7006    10.0238     2.3992     0.1041     0.1466
 2029.0000    13.3062    14.3940   -34.0935   164.2298    10.0243     2.4470     0.1144     0.1442
 2029.5000    13.6291    14.6014   -33.9475   164.0471    10.0243     2.4181     0.0882     0.1450
 2030.0000    13.8833    14.8131   -33.8019   163.6153    10.0243     2.4198     0.0652     0.1411
 2030.5000    13.8091    15.0293   -33.6567   162.5740    10.0242     2.4318     0.0516     0.1345
 2031.0000    13.7381    15.5016   -33.5114   158.0071    10.0242     2.4492     0.0548     0.1279
 2031.5000    13.6291    15.4108   -33.3662   145.6486    10.0242     2.4650     0.0563     0.1213
 2032.0000    13.8833    14.9701   -33.2205   136.4332    10.0242     2.4844     0.0547     0.1147
 2032.5000    13.7144    14.5412   -33.0757   112.6362    10.0242     2.4800     0.0449     0.1081
 2033.0000    13.5563    14.1502   -32.9303   114.1310    10.0237     2.4757     0.0265     0.1023
 2033.5000    13.3796    14.3494   -32.7833   113.1272    10.0245     2.4819     0.0088     0.1019
 2034.0000    13.1658    14.6276   -32.6428   113.7484    10.0238     2.4888     0.0099     0.1027
 2034.5000    12.8942    14.6031   -32.4967   114.0467    10.0238     2.4826     0.0128     0.1034
 2035.0000    12.8503    14.3329   -32.5724   114.1968    10.0266     2.4746     0.0163     0.1052
 2035.5000    12.7590    14.0684   -32.7335   114.5400    10.0187     2.4663     0.0192     0.1069
 2036.0000    12.6683    13.8096   -32.8906   114.9370    10.0291     2.4618     0.0225     0.1083
 2036.5000    12.5782    13.5924   -33.0455   115.0161    10.0601     2.4638     0.0256     0.1084
 2037.0000    12.4888    13.4669   -33.2061   115.0740    10.5657     2.4711     0.0277     0.1108
 2037.5000    12.3578    13.3426   -33.2652   110.4215    10.2705     2.4778     0.0239     0.1179
 2038.0000    12.1307    13.2194   -33.1811   105.7061     9.9636     2.4694     0.0209     0.1299
 2038.5000    11.9077    13.0974   -33.1163   104.8719    10.1289     2.4544     0.0172     0.1327
 2039.0000    11.6889    12.9765   -33.0464   107.2042    10.4333     2.4404     0.0141     0.1398
 2039.5000    11.3300    12.6704   -32.9770   111.6109    10.4109     2.4263     0.0127     0.1470
 2040.0000    10.9455    11.9846   -32.9085   116.6656    10.2676     2.4117     0.0302     0.1506
 2040.5000    10.5407    11.3358   -32.8392   121.8167    10.9306     2.3926     0.0465     0.1655
 2041.0000    10.1510    10.7223   -32.7703   127.3843    12.1368     2.3711     0.0670     0.1802
 2041.5000     9.7756    10.1411   -32.7013   130.5222    11.7062     2.3556     0.0734     0.2200
 2042.0000     9.4141    10.1411   -32.6325   128.5806    12.1601     2.2896     0.0489     0.2598
 2042.5000     9.0660    10.1411   -32.5636   126.6694    11.7475     2.1918     0.0129     0.2734
 2043.0000     8.9109    10.1411   -32.4947   124.4455     9.9237     2.1182     0.0062     0.2848
 2043.5000     8.8638    10.1411   -32.4258   124.3215    10.0234     2.0944     0.0142     0.2962
 2044.0000     8.8227    10.1411   -32.3569   124.5188    10.1871     2.0701     0.0232     0.3099
 2044.5000     8.7819    10.1411   -32.2880   122.0147    10.4694     2.0407     0.0335     0.3179
 2045.0000     8.7402     9.9837   -32.2191   118.3838    10.6446     2.0199     0.1405     0.3279
 2045.5000     8.7002     9.8216   -32.1500   116.6873    10.5674     1.9418     0.1613     0.3379
 2046.0000     8.6602     9.6622   -32.0811   117.7044    10.4945     1.8899     0.1705     0.3458
 2046.5000     8.6202     9.5053   -32.0114   118.3961    10.4648     1.9377     0.1517     0.3347
 2047.0000     8.5871     9.3510   -31.9430   119.1175    10.6753     1.9939     0.2094     0.3179
 2047.5000     8.5507     9.1992   -31.8744   119.9245    10.9218     2.0613     0.3270     0.2804
 2048.0000     8.5195     9.0770   -31.8027   120.2248    11.6929     2.1289     0.3120     0.2335
 2048.5000     8.4909     9.0770   -31.7400   120.1675    13.0264     2.1966     0.2882     0.1865
 2049.0000     8.4607     9.0770   -31.6743   120.5302    13.9546     2.3012     0.3198     0.1490
 2049.5000     8.4304     9.0770   -31.9473   121.2095    13.9635     2.4056     0.3030     0.1502
 2050.0000     8.1955     9.0770   -32.3268   121.7986    13.6421     2.4700     0.1655     0.1514
 2050.5000     8.0625     8.9863   -32.7265   122.3973    13.4253     2.4045     0.0794     0.1546
 2051.0000     7.9316     8.7647   -32.8354   123.1491     9.5031     2.4609     0.0694     0.1586
 2051.5000     7.8028     8.5485   -32.7480   122.4123     9.7151     2.4535     0.0607     0.1626
 2052.0000     7.6762     8.3377   -32.6785   119.4916     9.6116     2.3764     0.0667     0.1641
 2052.5000     7.5515     8.1321   -32.6107   116.7886     9.6570     2.3722     0.1162     0.1645
