~VERSION INFORMATION
 VERS.                2.0:   CWLS LOG ASCII STANDARD - VERSION 2.0
 WRAP.                 NO:   ONE LINE PER DEPTH STEP
~WELL INFORMATION
#MNEM.UNIT      DATA TYPE    INFORMATION
#----------   ------------   ------------------------------
 STRT.F           66.0000:   START DEPTH
 STOP.F         1030.5000:   STOP DEPTH
 STEP.F            0.5000:   STEP LENGTH
 NULL.          -999.2500:   NO VALUE
 COMP. U S NAVY/INTEX OIL CO:   COMPANY
 WELL.      NRP-3 #68S-11:   WELL
 FLD .             TEAPOT:   FIELD
 LOC .      S11 T38N R78W:   LOCATION
 CNTY.            NATRONA:   COUNTY
 STAT.            WYOMING:   STATE
 CTRY. UNITED STATES OF AMERICA:   COUNTRY
 SRVC.       Schlumberger:   SERVICE COMPANY
 DATE.        07-JUL-1962:   LOGDATE
 API .       490250632700:   API NUMBER
~CURVE INFORMATION
#MNEM.UNIT       API CODE    CURVE DESCRIPTION
#----------   ------------   ------------------------------
 DEPT.F                  :   
 SPR .MV     05 010 01 00:   SPONTANEOUS POTENTIAL FROM RES.
 ASN .OHMM   05 041 16 00:   AMPLIFIED SHORT NORMAL 16"
 ILD .OHMM   05 120 46 00:   INDUCTION LOG DEEP
 CILD.MMHO   05 110 46 00:   CONDUCTIVITY INDUCTION LOG DEEP
 GRN .GAPI   35 310 30 00:   GAMMA RAY
 GR  .GAPI   81 310 01 00:   GAMMA RAY
~PARAMETER INFORMATION
#MNEM.UNIT          VALUE    DESCRIPTION
#----------   ------------   ------------------------------
 LMF .                 KB:   LOG MEASURED FROM
 DMF .                 KB:   DRILLING MEASURED FROM
 EKB .F              5226:   KELLING BUSHING
 EGL .F              5221:   GROUND LEVEL
 DATE.           7-7-1962:   RUN DATE
 RUN .                  1:   RUN NUMBER
 DD  .F              1030:   DEPTH DRILLER
 DL  .F              1031:   DEPTH LOGGER
 BLI .F              1030:   BOTTOM LOG INTERVAL
 TLI .F                90:   TOP LOG INTERVAL
 CBD .F                10:   CASING BOTTOM DRILLER
 BS  .IN             6.75:   BIT SIZE
 BSD .F              1030:   BIT SIZE AT DEPTH
 DFT .            GEL-OIL:   DRILLING FLUID TYPE
 DFD .               10.2:   DRILLING FLUID DENSITY
 DFV .                 50:   DRILLING FLUID VISCOSITY
 DFL .                3.6:   DRILLING FLUID LOSS
 RMS .OHMM           5.06:   RESISTIVITY MUD SAMPLE
 MST .F                71:   MUD SAMPLE TEMPERATURE
 RMF .OHMM           4.89:   RESISTIVITY MUD FILTRATE SAMPLE
 MFST.F                71:   MUD FILTRATE SAMPLE TEMPERATURE
 RMC .OHMM           4.85:   RESISTIVITY MUD CAKE
 MCST.F                71:   MUD CAKE SAMPLE TEMPERATURE
 MFSS.                  M:   MUD FILTRATE SAMPLE SOURCE
 MCSS.                  M:   MUD CAKE SAMPLE SOURCE
 RMB .OHMM           4.54:   RESISTIVITY MUD AT BHT
 BHT .F                82:   BOTTOM HOLE TEMPERATURE
 TCS .HRS               1:   TIME CURCULATED STOPPED
 MRT .F                82:   MAXIMUM RECORDED TEMPERATURE
 LUN .               2503:   LOGGING UNIT NUMBER
 LUL .              CSPR.:   LOGGING UNIT LOCATION
 ENGI.             KNOBEL:   RECORDING ENGINEER
 WITN.          JORGENSEN:   WITNESSED BY
 CLNT.            A2DTECH:   CLIENT CODE
 ORIG.      2" & 5" PRINT:   ORIGIN OF DATA
 UWI .       490250632700:   UNIQUE WELL ID
 DICO. A2D Technologies, Inc.:   DIGITIZING COMPANY
~OTHER INFORMATION
~A   DEPT      SPR        ASN        ILD       CILD        GRN          GR  
# ...
  586.0000   -32.8815     7.0257     6.9519   156.5889  -999.2500   120.3205
  586.5000   -32.9471     7.0269     7.0015   156.3733  -999.2500   120.9134
  587.0000   -33.0143     7.0313     7.0512   156.1577  -999.2500   118.0339
  587.5000   -32.9945     7.0359     7.1007   155.8726  -999.2500   114.9021
  588.0000   -32.9339     7.0406     7.1440   155.4837  -999.2500   113.9090
  588.5000   -32.8722     7.0596     7.1575   155.0949  -999.2500   118.7760
  589.0000   -32.8105     7.1024     7.1716   154.7060  -999.2500   119.9725
  589.5000   -32.7485     7.1450     7.1858   154.3172  -999.2500   119.0784
  590.0000   -32.6873     7.1874     7.1999   153.9283  -999.2500   118.2174
  590.5000   -32.6576     7.2216     7.2141   153.5394  -999.2500   117.9460
  591.0000   -32.7648     7.2102     7.2283   153.1506  -999.2500   115.0733
  591.5000   -32.8691     7.1996     7.2442   152.7617  -999.2500   112.2731
  592.0000   -32.9720     7.1894     7.2690   152.3728  -999.2500   109.4785
  592.5000   -33.0243     7.1882     7.2938   151.9258  -999.2500   112.3762
  593.0000   -32.9519     7.2049     7.3186   151.1746  -999.2500   116.2223
  593.5000   -32.8814     7.2224     7.3434   150.4234  -999.2500   120.0235
  594.0000   -32.8109     7.2651     7.3682   149.6722  -999.2500   119.2125
  594.5000   -32.7405     7.3107     7.3929   148.9210  -999.2500   118.1047
  595.0000   -32.6701     7.3732     7.4177   148.1698  -999.2500   117.0156
  595.5000   -32.5996     7.4421     7.4500   147.4185  -999.2500   117.0023
  596.0000   -32.5291     7.5113     7.5270   146.1056  -999.2500   118.1526
  596.5000   -32.4563     7.5802     7.6046   144.3027  -999.2500   118.2585
  597.0000   -32.4406     7.6444     7.6821   142.4998  -999.2500   117.7754
  597.5000   -32.4403     7.6605     7.7596   140.6969  -999.2500   118.3891
  598.0000   -32.4404     7.6805     7.8370   138.8940  -999.2500   119.1637
  598.5000   -32.4405     7.8011     7.9163   137.0911  -999.2500   118.1238
  599.0000   -32.4403     7.9335     8.0154   135.1217  -999.2500   116.2533
  599.5000   -32.5220     8.0646     8.1258   134.0491  -999.2500   114.3037
  600.0000   -32.6822     8.1888     8.2361   132.8673  -999.2500   117.0183
  600.5000   -32.8423     8.2775     8.3346   131.6855  -999.2500   121.0655
  601.0000   -33.0025     8.2914     8.3357   130.5038  -999.2500   125.1290
  601.5000   -33.1627     8.2836     8.3353   130.2820  -999.2500   128.1725
  602.0000   -33.3237     8.2552     8.3352   130.4807  -999.2500   127.7970
  602.5000   -33.4864     8.2253     8.3352   130.6794  -999.2500   125.1508
  603.0000   -33.6115     8.2789     8.3350   130.8781  -999.2500   122.5323
  603.5000   -33.2464     8.3646     8.3343   131.0769  -999.2500   119.8941
  604.0000   -32.8820     8.4528     8.3412   129.9312  -999.2500   118.0406
  604.5000   -32.9098     8.5638     8.4634   128.1684  -999.2500   116.3565
  605.0000   -32.9945     8.7033     8.5836   126.4056  -999.2500   116.5667
  605.5000   -33.0801     8.8420     8.7029   124.6428  -999.2500   120.5869
  606.0000   -33.1648     8.9821     8.8216   122.8800  -999.2500   125.4408
  606.5000   -33.2496     9.1082     8.9376   121.1171  -999.2500   130.2157
  607.0000   -33.3345     9.2099     9.0756   119.4260  -999.2500   128.0166
  607.5000   -33.4198     9.3015     9.2099   117.8148  -999.2500   124.6480
  608.0000   -33.4327     9.4186     9.3438   116.2036  -999.2500   124.5702
  608.5000   -33.4327     9.5598     9.4777   114.5924  -999.2500   125.9140
  609.0000   -33.4326     9.6939     9.6103   112.9810  -999.2500   126.3072
  609.5000   -33.4325     9.7964     9.6832   111.3683  -999.2500   120.5974
  610.0000   -33.4324     9.8958     9.7452   109.7546  -999.2500   115.6847
  610.5000   -33.4321    10.0473     9.8082   108.2411  -999.2500   111.9702
  611.0000   -33.4347    10.1246     9.8132   108.2411  -999.2500   113.5441
  611.5000   -33.4988    10.1124     9.7912   108.2411  -999.2500   118.2878
  612.0000   -33.5650    10.1013     9.7687   108.2411  -999.2500   117.5873
  612.5000   -33.6310    10.0863     9.7459   108.2411  -999.2500   115.9039
  613.0000   -33.6970    10.0023     9.7152   109.1792  -999.2500   115.4702
  613.5000   -33.7635     9.9181     9.6515   110.2832  -999.2500   116.6341
  614.0000   -33.8257     9.8344     9.5893   111.3872  -999.2500   117.7656
  614.5000   -33.7727     9.7579     9.5273   112.4911  -999.2500   118.7504
  615.0000   -33.7140     9.7024     9.4651   113.5951  -999.2500   118.5214
  615.5000   -33.6557     9.6604     9.4030   114.3357  -999.2500   117.6314
  616.0000   -33.5976     9.6357     9.3407   114.6117  -999.2500   116.7528
  616.5000   -33.5392     9.6109     9.2789   114.8877  -999.2500   116.6835
  617.0000   -33.4809     9.5860     9.2364   115.1637  -999.2500   118.2395
  617.5000   -33.4324     9.5610     9.2693   115.2102  -999.2500   120.7403
  618.0000   -33.4914     9.5353     9.3005   115.2102  -999.2500   123.4344
  618.5000   -33.5539     9.5595     9.3316   115.2102  -999.2500   120.3066
  619.0000   -33.6206     9.5926     9.3626   115.2102  -999.2500   116.3077
  619.5000   -33.4822     9.6257     9.3938   115.2102  -999.2500   115.7377
  620.0000   -33.2744     9.6471     9.4258   115.2102  -999.2500   121.6773
  620.5000   -33.5098     9.6227     9.4057   115.2102  -999.2500   125.3223
  621.0000   -33.8374     9.4875     9.3757   115.2102  -999.2500   121.9078
  621.5000   -33.7261     9.2865     9.3454   115.5625  -999.2500   118.5599
  622.0000   -33.5257     9.3501     9.3153   115.9945  -999.2500   116.9848
  622.5000   -33.6735     9.4575     9.2852   116.4265  -999.2500   115.4483
  623.0000   -34.1324     9.3610     9.2551   116.8585  -999.2500   114.3814
  623.5000   -34.5964     9.2689     9.2250   117.3645  -999.2500   116.4679
  624.0000   -34.3000     9.2101     9.1949   118.1548  -999.2500   118.5239
  624.5000   -33.9216     9.2036     9.1648   118.9452  -999.2500   120.5589
  625.0000   -33.8305     9.1968     9.1347   119.7355  -999.2500   122.7250
  625.5000   -33.8283     9.1640     9.1046   120.5259  -999.2500   127.7782
  626.0000   -33.8292     9.1121     9.0743   121.3162  -999.2500   130.5712
  626.5000   -33.8294     8.9972     9.0451   122.1066  -999.2500   131.5970
  627.0000   -33.8295     8.8774     8.9455   122.8969  -999.2500   127.5799
  627.5000   -33.8299     8.8404     8.8013   123.6873  -999.2500   123.0177
  628.0000   -33.8289     8.8217     8.6564   125.4396  -999.2500   121.3751
  628.5000   -33.7830     8.8024     8.5116   128.7042  -999.2500   119.8481
  629.0000   -33.5778     8.7500     8.3668   131.9688  -999.2500   118.3103
  629.5000   -33.3791     8.5773     8.1794   135.2335  -999.2500   116.7832
  630.0000   -33.1833     8.3160     7.9808   138.4981  -999.2500   115.2596
  630.5000   -33.0824     8.0556     7.7821   141.7627  -999.2500   116.3597
  631.0000   -33.3173     7.7955     7.5833   145.0383  -999.2500   121.7294
  631.5000   -33.5426     7.5474     7.3843   148.0824  -999.2500   126.8558
  632.0000   -33.7682     7.3754     7.1797   150.7890  -999.2500   125.7779
  632.5000   -33.9961     7.2872     7.2234   152.6471  -999.2500   124.3482
  633.0000   -33.9514     7.3150     7.3659   150.3288  -999.2500   125.6401
  633.5000   -33.8602     7.3617     7.5101   148.0104  -999.2500   128.1400
  634.0000   -33.7681     7.5669     7.6540   145.6020  -999.2500   125.4409
  634.5000   -33.6765     7.8920     7.7978   142.7359  -999.2500   119.7327
  635.0000   -33.5850     8.0665     7.9418   139.8698  -999.2500   118.3255
  635.5000   -33.4935     8.1845     8.0866   137.0037  -999.2500   117.6067
  636.0000   -33.4020     8.1949     8.2302   134.1376  -999.2500   115.9227
  636.5000   -33.3106     8.2258     8.2168   131.1394  -999.2500   113.9037
  637.0000   -33.2187     8.2755     8.1900   132.4031  -999.2500   111.1505
  637.5000   -33.1259     8.3277     8.1638   133.7279  -999.2500   106.8842
