~VERSION INFORMATION
 VERS.                2.0:   CWLS LOG ASCII STANDARD - VERSION 2.0
 WRAP.                 NO:   ONE LINE PER DEPTH STEP
~WELL INFORMATION
#MNEM.UNIT      DATA TYPE    INFORMATION
#----------   ------------   ------------------------------
 STRT.F           38.0000:   START DEPTH
 STOP.F         1202.0000:   STOP DEPTH
 STEP.F            0.5000:   STEP LENGTH
 NULL.          -999.2500:   NO VALUE
 COMP.       INTEX OIL CO:   COMPANY
 WELL.     72 S 14 #72-14:   WELL
 FLD .            WILDCAT:   FIELD
 LOC .      S14 T38N R78W:   LOCATION
 CNTY.            NATRONA:   COUNTY
 STAT.            WYOMING:   STATE
 CTRY. UNITED STATES OF AMERICA:   COUNTRY
 SRVC.       Schlumberger:   SERVICE COMPANY
 DATE.        26-AUG-1966:   LOGDATE
 API .       490250970800:   API NUMBER
~CURVE INFORMATION
#MNEM.UNIT       API CODE    CURVE DESCRIPTION
#----------   ------------   ------------------------------
 DEPT.F                  :   
 SPR .MV     05 010 01 00:   SPONTANEOUS POTENTIAL FROM RES.
 ASN .OHMM   05 041 16 00:   AMPLIFIED SHORT NORMAL 16"
 ILD .OHMM   05 120 46 00:   INDUCTION LOG DEEP
 CILD.MMHO   05 110 46 00:   CONDUCTIVITY INDUCTION LOG DEEP
 CORR.G/C3   45 356 01 00:   DENSITY CORRECTION
 GRD .GAPI   45 310 01 00:   GAMMA RAY FROM DENSITY LOG
 CALD.IN     45 280 60 00:   CALIPER FROM DENSITY LOG
 DPHI.DEC    45 890 12 00:   DENSITY POROSITY SANDSTONE
 RHOB.G/C3   45 350 01 00:   BULK DENSITY
~PARAMETER INFORMATION
#MNEM.UNIT          VALUE    DESCRIPTION
#----------   ------------   ------------------------------
 PD  .                 GL:   PERMANENT DATUM
 EPD .F              5265:   ELEVATION PERMANENT DATUM
 LMF .                 KB:   LOG MEASURED FROM
 DAPD.F                 5:   FEET ABOVE PERMANENT DATUM
 DMF .                 KB:   DRILLING MEASURED FROM
 EKB .F              5270:   KELLING BUSHING
 DATE.        26-AUG-1966:   RUN DATE
 RUN .                  1:   RUN NUMBER
 DD  .F              1201:   DEPTH DRILLER
 DL  .F              1203:   DEPTH LOGGER
 BLI .F              1202:   BOTTOM LOG INTERVAL
 TLI .F                46:   TOP LOG INTERVAL
 CS  .IN            8.625:   CASING SIZE
 BS  .IN             6.75:   BIT SIZE
 BSD .F              1201:   BIT SIZE AT DEPTH
 DFT .     CHEM- GEL- OIL:   DRILLING FLUID TYPE
 DFD .                9.4:   DRILLING FLUID DENSITY
 MRT .F                94:   MAXIMUM RECORDED TEMPERATURE
 LUN .               3527:   LOGGING UNIT NUMBER
 LUL .             CASPER:   LOGGING UNIT LOCATION
 ENGI.             KNOBEL:   RECORDING ENGINEER
 WITN.                MAY:   WITNESSED BY
 CLNT.            A2DTECH:   CLIENT CODE
 ORIG.       2", 5" PRINT:   ORIGIN OF DATA
 UWI .       490250970800:   UNIQUE WELL ID
 DICO. A2D Technologies, Inc.:   DIGITIZING COMPANY
~OTHER INFORMATION
~A   DEPT      SPR        ASN        ILD       CILD       CORR        GRD       CALD       DPHI       RHOB   
# ...
  184.0000   -25.4037     7.4823     6.8524   165.9416     0.0324    97.2698     7.1739     0.1272     2.4478
  184.5000   -25.5557     6.7760     6.8495   166.7193     0.0375    92.6177     7.1600     0.1197     2.4658
  185.0000   -25.7078     6.8814     6.9225   165.9901     0.0511    93.6438     7.1459     0.1152     2.4636
  185.5000   -25.7096     7.3166     6.9940   164.5155     0.0533    97.7057     7.0876     0.1184     2.4516
  186.0000   -25.7110     7.5418     7.0662   165.2878     0.0483    97.0462     7.1482     0.1352     2.4389
  186.5000   -25.7124     7.3764     7.1384   168.3123     0.0517    96.7171     7.1492     0.1328     2.4457
  187.0000   -25.7139     7.3012     7.2106   170.5861     0.0511   100.3077     7.1056     0.1286     2.4390
  187.5000   -25.7157     7.2860     7.2828   172.1096     0.0359   101.2102     7.0768     0.1325     2.4271
  188.0000   -25.7171     7.2408     7.2042   173.6376     0.0331   100.5534     7.0927     0.1480     2.4241
  188.5000   -25.7185     7.0905     7.1261   173.6591     0.0316   100.1174     7.1385     0.1393     2.4384
  189.0000   -25.7200     6.9402     6.8974   172.9245     0.0375    99.4579     7.1544     0.1315     2.4504
  189.5000   -25.8720     6.8350     6.7444   173.7022     0.0489    98.5748     7.1554     0.1300     2.4451
  190.0000   -25.8738     6.8198     6.6665   175.2252     0.0477    97.4654     7.1565     0.1437     2.4265
  190.5000   -25.8752     6.8797     6.5885   176.7536     0.0376    98.5970     7.1426     0.1419     2.4213
  191.0000   -25.7257     6.9546     6.5856   174.5229     0.0282   101.5142     7.1437     0.1351     2.4280
  191.5000   -25.5765     6.9995     6.5821   172.2922     0.0264   103.7607     7.1447     0.1294     2.4400
  192.0000   -25.4277     7.0294     6.6543   170.8069     0.0369   104.8896     7.1308     0.1195     2.4558
  192.5000   -25.4295     6.9963     6.7265   169.3319     0.0433   104.6743     7.1319     0.1135     2.4670
  193.0000   -25.4309     6.8639     6.7988   167.8523     0.0512   104.0148     7.1331     0.1159     2.4624
  193.5000   -25.2814     7.0740     6.8791   167.1231     0.0557   105.1464     7.1190     0.1209     2.4450
  194.0000   -25.1326     7.2841     7.0182   167.9008     0.0528   104.7104     7.1203     0.1386     2.4364
  194.5000   -25.2846     7.3478     7.1655   169.4238     0.0467   104.0481     7.1062     0.1314     2.4454
  195.0000   -25.5876     7.1607     7.2377   170.9468     0.0359   105.1797     7.1075     0.1386     2.4275
  195.5000   -25.8902     6.9533     7.1591   171.7318     0.0325   106.3085     7.1085     0.1418     2.4291
  196.0000   -25.8917     6.8180     6.9990   173.9983     0.0381   104.9783     7.0946     0.1293     2.4493
  196.5000   -25.7425     6.6977     6.7773   175.5213     0.0450   104.5395     7.0957     0.1242     2.4538
  197.0000   -25.7439     6.5925     6.6243   177.0444     0.0490   104.1063     7.0967     0.1262     2.4471
  197.5000   -25.5948     6.5168     6.4712   178.5674     0.0480   102.3290     7.0977     0.1337     2.4322
  198.0000   -25.5966     6.6672     6.3182   180.0905     0.0371    99.8808     7.0988     0.1409     2.4247
  198.5000   -25.5980     6.8172     6.2402   180.9507     0.0290   100.5628     7.0998     0.1433     2.4210
  199.0000   -25.5994     6.7420     6.3125   181.6404     0.0219    99.0091     7.1008     0.1400     2.4457
  199.5000   -25.6009     6.5617     6.3840   182.4127     0.0244    97.0083     7.1019     0.1136     2.4839
  200.0000   -25.6026     6.4489     6.4569   183.1850     0.0436    96.3487     7.0867     0.0999     2.4999
  200.5000   -25.6009     6.3964     6.4151   184.7097     0.0746    97.1954     7.0803     0.1013     2.5019
  201.0000   -25.4388     6.4114     6.3783   187.7342     0.0743   103.0785     7.0901     0.1052     2.4967
  201.5000   -25.2964     6.4715     6.3769   190.7587     0.0628   107.1136     7.1061     0.1136     2.4825
  202.0000   -25.2950     6.4865     6.3000   193.9640     0.0494   107.7926     7.0624     0.1387     2.4466
  202.5000   -25.2936     6.4234     6.2235   199.8160     0.0355   103.3357     7.0038     0.1449     2.4220
  203.0000   -25.2921     6.2913     6.0720   202.8404     0.0349   101.3322     6.9453     0.1351     2.4385
  203.5000   -25.2907     6.1862     5.9204   206.6157     0.0413   103.1346     6.9910     0.1171     2.4572
  204.0000   -25.2889     6.0661     5.8439   209.6401     0.0522   100.6868     7.0368     0.1204     2.4527
  204.5000   -25.2875     5.9459     5.6920   211.9920     0.0477   101.1451     7.0527     0.1323     2.4401
  205.0000   -25.2860     5.7508     5.6905   214.9437     0.0339   101.6034     7.0687     0.1269     2.4528
  205.5000   -25.2846     5.6907     5.6891   216.4667     0.0354   102.2853     7.0697     0.1326     2.4282
  206.0000   -25.2832     5.6456     5.6877   217.2389     0.0469    98.0491     7.0708     0.1311     2.4521
  206.5000   -25.2814     5.6757     5.6859   218.0111     0.0480   100.0722     7.0718     0.1299     2.4432
  207.0000   -25.4309     5.7381     5.7599   214.9651     0.0417   103.2131     7.0729     0.1311     2.4312
  207.5000   -25.4291     5.8408     5.8336   209.0504     0.0335   104.7863     7.0739     0.1385     2.4417
  208.0000   -25.4277     5.9309     5.9069   203.8166     0.0285    97.1997     7.0601     0.1439     2.4320
  208.5000   -25.4262     6.0511     5.9902   197.8321     0.0238    96.3140     7.0611     0.1537     2.4096
  209.0000   -25.4244     6.1712     6.1293   193.3490     0.0317    98.1164     7.0622     0.1468     2.4029
  209.5000   -25.4230     6.4114     6.2780   188.8140     0.0388   101.0337     7.0632     0.1552     2.4164
  210.0000   -25.4216     6.6366     6.4267   183.6376     0.0133   101.7127     7.0643     0.1537     2.4277
  210.5000   -25.4201     6.8018     6.5769   180.6560     0.0149    99.7148     7.0653     0.1384     2.4307
  211.0000   -25.5693     6.9520     6.7985   178.4252     0.0239    97.0435     7.0664     0.1375     2.4315
  211.5000   -25.5675     7.0270     6.9473   176.9452     0.0354    93.7015     7.0523     0.1228     2.4405
  212.0000   -25.7170     6.6967     6.8708   176.2159     0.0522    91.0302     7.0357     0.1085     2.4846
  212.5000   -25.8662     6.6667     6.8693   176.2428     0.0659    90.1444     7.0096     0.1043     2.4936
  213.0000   -25.8644     6.8168     6.7928   175.5135     0.0799    97.0883     6.9936     0.0962     2.5034
  213.5000   -25.7124     6.9369     6.7911   174.7788     0.0891   104.0295     6.9670     0.0911     2.5064
  214.0000   -25.7106     6.7267     6.8647   174.0549     0.0837   105.8291     6.9681     0.1000     2.4974
  214.5000   -25.5585     6.8018     6.8633   173.3256     0.0636   106.0639     6.9841     0.1057     2.4853
  215.0000   -25.5571     6.9219     6.9369   172.5963     0.0414   107.4164     6.9702     0.1168     2.4679
  215.5000   -25.4051     7.0571     7.0106   171.1217     0.0390   108.7689     6.9861     0.1212     2.4557
  216.0000   -25.4036     7.1477     7.0088   168.8909     0.0600   105.6504     6.9872     0.1042     2.4746
  216.5000   -25.4018     7.2372     7.0828   166.6601     0.0644   101.8613     6.9733     0.0988     2.4886
  217.0000   -25.2498     7.2973     7.1561   164.4143     0.0622   100.0842     6.9744     0.1053     2.4853
  217.5000   -25.2484     7.3574     7.2410   162.1985     0.0557    98.9307     6.9754     0.1167     2.4676
  218.0000   -25.2469     7.4324     7.3782   162.9761     0.0456   101.2906     6.9765     0.1191     2.4648
  218.5000   -25.2455     7.5075     7.4518   166.7513     0.0392   103.6918     6.9924     0.1134     2.4701
  219.0000   -25.2437     7.2673     7.3002   170.5266     0.0366   102.1028     7.0084     0.1115     2.4667
  219.5000   -25.3932     6.9670     7.0704   175.0575     0.0353   103.6222     7.0243     0.1148     2.4534
  220.0000   -25.5420     6.7267     6.6964   181.0854     0.0331   105.5142     7.0403     0.1307     2.4350
