~VERSION INFORMATION
 VERS.                2.0:   CWLS LOG ASCII STANDARD - VERSION 2.0
 WRAP.                 NO:   ONE LINE PER DEPTH STEP
~WELL INFORMATION
#MNEM.UNIT      DATA TYPE    INFORMATION
#----------   ------------   ------------------------------
 STRT.F            8.5000:   START DEPTH
 STOP.F          642.0000:   STOP DEPTH
 STEP.F            0.5000:   STEP LENGTH
 NULL.          -999.2500:   NO VALUE
 COMP. FENIX & SCISSON INC:   COMPANY
 WELL. 26-36 S11 W1 #26-36 SX11:   WELL
 FLD .             TEAPOT:   FIELD
 LOC .      S11 T38N R78W:   LOCATION
 CNTY.            NATRONA:   COUNTY
 STAT.            WYOMING:   STATE
 CTRY. UNITED STATES OF AMERICA:   COUNTRY
 SRVC.      Dresser Atlas:   SERVICE COMPANY
 DATE.        16-JUL-1980:   LOGDATE
 API .       490251083500:   API NUMBER
~CURVE INFORMATION
#MNEM.UNIT       API CODE    CURVE DESCRIPTION
#----------   ------------   ------------------------------
 DEPT.F                  :   
 NPHI.DEC    42 890 03 00:   NEUTRON POROSITY SANDSTONE
 RHOB.G/C3   45 350 01 00:   BULK DENSITY
 CORR.G/C3   45 356 01 00:   DENSITY CORRECTION
 GRD .GAPI   45 310 01 00:   GAMMA RAY FROM DENSITY LOG
 CALD.IN     45 280 60 00:   CALIPER
 SPR .MV     07 010 01 00:   SPONTANEOUS POTENTIAL
 SFL .OHMM   07 220 01 00:   SHALLOW FOCUSED LOG RESISTIVITY
 ILD .OHMM   07 120 46 00:   INDUCTION LOG DEEP
 ILM .OHMM   07 120 44 00:   INDUCTION LOG MEDIUM
 DPHI.DEC    45 890 12 00:   DENSITY POROSITY SANDSTONE
~PARAMETER INFORMATION
#MNEM.UNIT          VALUE    DESCRIPTION
#----------   ------------   ------------------------------
 PD  .                 GL:   PERMANENT DATUM
 EPD .F              5184:   ELEVATION PERMANENT DATUM
 LMF .                 KB:   LOG MEASURED FROM
 DAPD.F                 5:   FEET ABOVE PERMANENT DATUM
 DMF .                 KB:   DRILLING MEASURED FROM
 EKB .F              5189:   KELLING BUSHING
 EGL .F              5184:   GROUND LEVEL
 DATE.            7-16-80:   RUN DATE
 RUN .                  1:   RUN NUMBER
 DD  .F               630:   DEPTH DRILLER
 DL  .F               637:   DEPTH LOGGER
 BLI .F               635:   BOTTOM LOG INTERVAL
 TLI .F                 8:   TOP LOG INTERVAL
 BS  .IN            7.875:   BIT SIZE
 BSD .F               630:   BIT SIZE AT DEPTH
 DFT .           CHEM GEL:   DRILLING FLUID TYPE
 DFD .                9.2:   DRILLING FLUID DENSITY
 DFV .                 65:   DRILLING FLUID VISCOSITY
 DFPH.                 10:   DRILLING FLUID PH
 DFL .                  8:   DRILLING FLUID LOSS
 MSS .           FLOWLINE:   MUD SAMPLE SOURCE
 RMS .OHMM            .61:   RESISTIVITY MUD SAMPLE
 MST .F                60:   MUD SAMPLE TEMPERATURE
 RMC .OHMM            .62:   RESISTIVITY MUD CAKE
 MCST.F                58:   MUD CAKE SAMPLE TEMPERATURE
 MFSS.               MEAS:   MUD FILTRATE SAMPLE SOURCE
 MCSS.               MEAS:   MUD CAKE SAMPLE SOURCE
 RMB .OHMM            .41:   RESISTIVITY MUD AT BHT
 BHT .F                90:   BOTTOM HOLE TEMPERATURE
 TCS .HRS               5:   TIME CURCULATED STOPPED
 MRT .F                90:   MAXIMUM RECORDED TEMPERATURE
 LUN .               6109:   LOGGING UNIT NUMBER
 LUL .              GLTTE:   LOGGING UNIT LOCATION
 ENGI.            GARONER:   RECORDING ENGINEER
 WITN.              AMEND:   WITNESSED BY
 CLNT.            A2DTECH:   CLIENT CODE
 ORIG.           5" PRINT:   ORIGIN OF DATA
 UWI .       490251083500:   UNIQUE WELL ID
 DICO. A2D Technologies, Inc.:   DIGITIZING COMPANY
~OTHER INFORMATION
~A    DEPT    NPHI       RHOB       CORR        GRD       CALD        SPR        SFL          ILD      ILM       DPHI   
# ...
  276.5000     0.2962     2.5084     0.0077    84.9754     7.8626   -38.3470    12.1506     8.2463     8.7173     0.1275
  277.0000     0.2990     2.4881     0.0005    84.8762     7.8543   -38.1641    11.6948     8.3065     8.7065     0.1089
  277.5000     0.2944     2.4660    -0.0077    83.9065     7.8460   -37.9555    11.3007     8.4827     8.8137     0.1064
  278.0000     0.2854     2.4883    -0.0091    82.9752     7.8377   -37.7484    11.0794     8.6627     8.9905     0.0996
  278.5000     0.2901     2.5003     0.0010    82.2696     7.8302   -37.5581    11.9394     8.8465     9.1710     0.0987
  279.0000     0.2975     2.5114     0.0059    82.8565     7.8282   -37.5523    12.3769     9.0342     9.3552     0.0948
  279.5000     0.2986     2.5174     0.0060    83.4983     7.8263   -37.5474    12.3769     9.2259     9.5430     0.0884
  280.0000     0.3026     2.5210     0.0104    84.0949     7.8243   -37.5501    12.3834     9.4216     9.7343     0.0886
  280.5000     0.2982     2.5283     0.0154    83.8368     7.8223   -37.5499    12.3712     9.6215     9.9294     0.0821
  281.0000     0.2998     2.5302     0.0204    83.4404     7.8203   -37.5496    12.8086     9.8257    10.1283     0.0868
  281.5000     0.3006     2.5391     0.0219    83.0375     7.8183   -37.5499    13.3278    10.0342    10.3310     0.0844
  282.0000     0.2957     2.5380     0.0219    82.9046     7.8163   -37.5514    13.1461    10.2471    10.5378     0.0970
  282.5000     0.2916     2.5362     0.0220    82.8986     7.8143   -37.5496    12.3802    10.4645    10.7488     0.1035
  283.0000     0.2893     2.5212     0.0155    82.6863     7.8123   -37.5456    12.6263    10.6865    10.9640     0.0886
  283.5000     0.2870     2.5093     0.0065    81.6289     7.8102   -37.4769    13.2529    10.9132    11.1835     0.0770
  284.0000     0.2853     2.5267     0.0053    80.5977     7.8129   -37.4187    13.9032    11.1448    11.4074     0.0681
  284.5000     0.2801     2.5459     0.0176    79.5682     7.8164   -37.3559    14.0840    11.3813    11.6357     0.0840
  285.0000     0.2729     2.5616     0.0302    78.5366     7.8199   -37.2952    14.0840    11.6227    11.8687     0.0767
  285.5000     0.2657     2.5483     0.0297    77.5080     7.8234   -37.2347    14.0840    11.8694    12.1063     0.0646
  286.0000     0.2585     2.5435     0.0237    76.6800     7.8269   -37.1724    18.2369    12.1506    12.3769     0.0601
  286.5000     0.2513     2.5706     0.0288    76.8738     7.8304   -37.1469    17.5394    12.1506    12.3209     0.0865
  287.0000     0.2460     2.5752     0.0323    77.8416     7.8339   -37.1470    16.2236    11.8450    12.2095     0.0944
  287.5000     0.2517     2.5472     0.0267    78.7934     7.8374   -37.1537    15.0065    11.7247    12.0992     0.0984
  288.0000     0.2612     2.5274     0.0217    79.7427     7.8409   -37.1435    14.3463    11.6152    11.9898     0.0928
  288.5000     0.2655     2.5190     0.0199    80.4920     7.8444   -37.1260    14.3463    11.5064    11.8814     0.0909
  289.0000     0.2649     2.5245     0.0214    79.5184     7.8478   -36.7439    14.3463    11.3980    11.7741     0.0927
  289.5000     0.2639     2.5294     0.0269    78.5192     7.8493   -36.3581    14.2627    11.2898    11.6677     0.0948
  290.0000     0.2735     2.5265     0.0318    77.6747     7.8449   -36.4300    14.1491    11.1821    11.5622     0.1044
  290.5000     0.2791     2.5224     0.0319    77.4347     7.8405   -36.5700    14.0840    11.0752    11.4577     0.1130
  291.0000     0.2799     2.5175     0.0310    76.7202     7.8362   -36.7155    14.0840    10.9694    11.3541     0.1211
  291.5000     0.2809     2.5008     0.0236    76.0060     7.8319   -36.8534    14.0840    10.8646    11.2515     0.1168
  292.0000     0.2751     2.4835     0.0161    75.7017     7.8275   -36.9868    14.0840    10.7608    11.1498     0.1103
  292.5000     0.2692     2.4814     0.0087    76.1135     7.8232   -37.1390    13.8690    10.6581    11.0491     0.1130
  293.0000     0.2655     2.4910     0.0080    76.8387     7.8189   -37.1469    13.6489    10.5564    10.9492     0.1177
  293.5000     0.2711     2.4970     0.0117    77.5748     7.8145   -37.1516    13.4323    10.4827    10.8768     0.1225
  294.0000     0.2660     2.4894     0.0130    77.6849     7.8102   -37.1500    13.3253    10.4828    10.8768     0.1255
  294.5000     0.2639     2.4801     0.0099    77.3177     7.8100   -37.1326    14.0840    10.5231    10.8768     0.1169
  295.0000     0.2668     2.4743     0.0068    77.3041     7.8100   -37.0863    13.6994    10.5593    11.0284     0.1086
  295.5000     0.2732     2.4818     0.0040    77.2834     7.8100   -37.0412    12.7479    10.5956    11.2962     0.0885
  296.0000     0.2830     2.4890     0.0047    76.1956     7.8100   -36.9963    13.0120    10.6322    11.5706     0.0672
  296.5000     0.2768     2.5129     0.0114    75.0063     7.8120   -36.9502    14.6316    10.6690    11.8664     0.0511
  297.0000     0.2683     2.5431     0.0183    73.8166     7.8279   -36.9067    16.4527    10.6791    11.7331     0.0422
  297.5000     0.2598     2.5733     0.0250    72.5873     7.8439   -36.8572    18.9226    10.6792    11.4711     0.0734
  298.0000     0.2634     2.6028     0.0299    72.6948     7.8599   -36.8141    15.2896    10.6136    11.2150     0.1036
  298.5000     0.2694     2.5733     0.0299    74.2041     7.8759   -36.7796    12.6075    10.4598    10.9645     0.1000
  299.0000     0.2753     2.5359     0.0269    75.7360     7.8904   -36.5975    13.0695    10.3074    10.7197     0.1037
  299.5000     0.2803     2.5071     0.0228    77.1496     7.8875   -36.3137    13.3253    10.1582    10.4803     0.1088
  300.0000     0.2795     2.5009     0.0198    76.6280     7.8847   -35.9608    13.0255    10.0113    10.2909     0.1114
  300.5000     0.2690     2.4995     0.0199    75.9332     7.8819   -36.1118    12.7208     9.8664    10.2909     0.1207
  301.0000     0.2616     2.4947     0.0184    75.8999     7.8791   -36.3937    12.6075     9.7237    10.2909     0.1231
  301.5000     0.2601     2.4855     0.0137    76.4508     7.8763   -36.7884    12.7122     9.5830    10.2909     0.1224
  302.0000     0.2669     2.4760     0.0089    77.0850     7.8735   -36.7340    12.9528     9.4443    10.2909     0.1155
  302.5000     0.2719     2.4758     0.0042    78.0501     7.8706   -36.7446    13.0816     9.3077    10.2218     0.1148
  303.0000     0.2719     2.4848     0.0039    79.0761     7.8700   -36.7513    13.0816     9.2117    10.0769     0.1132
  303.5000     0.2672     2.4866     0.0057    78.2122     7.8700   -36.7376    13.0816     9.2118     9.9342     0.1134
  304.0000     0.2651     2.4865     0.0086    77.0265     7.8700   -36.8336    13.0816     9.2119     9.7934     0.1142
  304.5000     0.2683     2.4897     0.0116    76.2922     7.8700   -37.0780    12.6611     9.2121     9.6547     0.1200
  305.0000     0.2727     2.4933     0.0141    76.4347     7.8701   -37.3117    12.2237     9.1406     9.5179     0.1223
  305.5000     0.2778     2.4854     0.0107    76.2601     7.8748   -37.5502    11.8013     9.0459     9.3831     0.1215
  306.0000     0.2830     2.4769     0.0067    75.8638     7.8875   -37.7929    11.7102     8.9521     9.2501     0.1232
  306.5000     0.2862     2.4765     0.0026    75.4605     7.9001   -37.9548    12.6075     8.8592     9.1191     0.1350
  307.0000     0.2838     2.4793     0.0018    75.5041     7.9127   -37.9530    12.5092     8.7675     9.0436     0.1407
  307.5000     0.2796     2.4672    -0.0017    75.9471     7.9253   -37.9518    12.2768     8.6766     9.0436     0.1296
  308.0000     0.2797     2.4486    -0.0053    76.4883     7.9250   -37.9506    12.0487     8.5863     9.0436     0.1231
  308.5000     0.2817     2.4454    -0.0081    77.0370     7.9132   -37.7676    11.8249     8.5555     9.0433     0.1303
  309.0000     0.2837     2.4668    -0.0047    77.5855     7.9015   -37.5273    11.7102     8.5582     9.0418     0.1259
  309.5000     0.2857     2.4732    -0.0001    78.0905     7.8853   -37.2885    11.8341     8.5568     9.0460     0.1255
