~VERSION INFORMATION
 VERS.                2.0:   CWLS LOG ASCII STANDARD - VERSION 2.0
 WRAP.                 NO:   ONE LINE PER DEPTH STEP
~WELL INFORMATION
#MNEM.UNIT      DATA TYPE    INFORMATION
#----------   ------------   ------------------------------
 STRT.F           32.0000:   START DEPTH
 STOP.F          648.0000:   STOP DEPTH
 STEP.F            0.5000:   STEP LENGTH
 NULL.          -999.2500:   NO VALUE
 COMP. LAWRENCE/ALLISON INC:   COMPANY
 WELL.    17-16 SX #17-11:   WELL
 FLD .             TEAPOT:   FIELD
 LOC .      S11 T38N R78W:   LOCATION
 CNTY.            NATRONA:   COUNTY
 STAT.            WYOMING:   STATE
 CTRY. UNITED STATES OF AMERICA:   COUNTRY
 SRVC.           Gearhart:   SERVICE COMPANY
 DATE.        12-JUL-1987:   LOGDATE
 API .       490251115200:   API NUMBER
~CURVE INFORMATION
#MNEM.UNIT       API CODE    CURVE DESCRIPTION
#----------   ------------   ------------------------------
 DEPT.F                  :   
 GRR .GAPI   07 310 01 00:   GAMMA RAY
 ILD .OHMM   07 120 46 00:   INDUCTION LOG DEEP
 ILM .OHMM   07 120 44 00:   INDUCTION LOG MEDIUM
~PARAMETER INFORMATION
#MNEM.UNIT          VALUE    DESCRIPTION
#----------   ------------   ------------------------------
 PD  .                 GL:   PERMANENT DATUM
 EPD .F              5231:   ELEVATION PERMANENT DATUM
 LMF .                 KB:   LOG MEASURED FROM
 DAPD.F                 8:   FEET ABOVE PERMANENT DATUM
 DMF .                 KB:   DRILLING MEASURED FROM
 EKB .F              5239:   KELLING BUSHING
 EDF .F              5237:   DRILLING FLOOR
 EGL .F              5231:   GROUND LEVEL
 DATE.        12-JUL-1987:   RUN DATE
 RUN .                  1:   RUN NUMBER
 DD  .F               650:   DEPTH DRILLER
 DL  .F               656:   DEPTH LOGGER
 BLI .F               654:   BOTTOM LOG INTERVAL
 TLI .F                30:   TOP LOG INTERVAL
 CS  .IN            8.625:   CASING SIZE
 CBD .F                48:   CASING BOTTOM DRILLER
 CBL .F                48:   CASING BOTTOM LOGGER
 BS  .IN            7.875:   BIT SIZE
 BSD .F               650:   BIT SIZE AT DEPTH
 DFT .                AIR:   DRILLING FLUID TYPE
 TLAB.HRS            1051:   TIME LOGGER AT BOTTOM
 MRT .F                80:   MAXIMUM RECORDED TEMPERATURE
 LUN .               7597:   LOGGING UNIT NUMBER
 LUL .           GILLETTE:   LOGGING UNIT LOCATION
 ENGI.         WEATHERMON:   RECORDING ENGINEER
 WITN.         MR. STRONG:   WITNESSED BY
 CLNT.            A2DTECH:   CLIENT CODE
 ORIG.           5" PRINT:   ORIGIN OF DATA
 UWI .       490251115200:   UNIQUE WELL ID
 DICO. A2D Technologies, Inc.:   DIGITIZING COMPANY
~OTHER INFORMATION
~A   DEPT       GRR       ILD        ILM   
# ...
  396.0000   127.6279     6.6035     6.8899
  396.5000   129.1591     6.9332     7.2281
  397.0000   130.0861     7.3300     7.4843
  397.5000   127.9919     7.5899     7.6961
  398.0000   125.5956     7.8046     7.8047
  398.5000   123.1923     7.9701     7.9148
  399.0000   122.2376     8.0824     7.9710
  399.5000   120.2245     8.1400     7.9721
  400.0000   121.4501     8.1992     7.9732
  400.5000   119.9396     8.2188     7.9922
  401.0000   121.8610     8.2385     8.0111
  401.5000   123.8671     8.2582     8.0301
  402.0000   124.7734     8.2593     8.0490
  402.5000   125.6798     8.2607     8.0680
  403.0000   126.2840     8.2618     8.0869
  403.5000   126.5861     8.2629     8.1490
  404.0000   124.1692     8.2641     8.2069
  404.5000   123.2628     8.2652     8.2652
  405.0000   122.0544     8.3239     8.3818
  405.5000   122.3565     8.4414     8.5002
  406.0000   121.0998     8.5013     8.5605
  406.5000   119.8369     8.6213     8.6245
  407.0000   119.0332     8.6826     8.7431
  407.5000   122.6586     8.6239     8.8667
  408.0000   123.8671     8.5059     8.9919
  408.5000   121.4501     8.0478     9.1188
  409.0000   118.4290     7.0057     8.8703
  409.5000   117.2205     6.4021     8.3923
  410.0000   120.5438     6.3145     6.8157
  410.5000   124.1692     6.3156     5.6127
  411.0000   136.2538     6.2727     5.1644
  411.5000   140.2235     6.3613     5.0943
  412.0000   135.1057     6.4962     5.6151
  412.5000   122.0544     6.7734     6.1462
  413.0000   115.1057     7.1116     6.7743
  413.5000   110.8761     7.6237     7.7303
  414.0000   108.4592     8.5203     8.6996
  414.5000   107.5529     9.2616     9.5223
  415.0000   111.1782     9.5899     9.9286
  415.5000   113.8973     9.7253     9.9991
  416.0000   116.3142     9.8681    10.0005
  416.5000   116.6344    10.0718    10.0718
  417.0000   115.3898    10.2851    10.0732
  417.5000   114.5015    10.5029    10.1447
  418.0000   112.3867    10.8753    10.2167
  418.5000   112.0846    11.2608    10.3609
  419.0000   111.7825    11.9054    10.5072
  419.5000   109.3656    12.4998    10.9555
  420.0000   100.9063    13.4933    12.9429
  420.5000    93.3535    14.5822    15.1016
  421.0000    77.6435    16.1040    17.1600
  421.5000    71.2991    17.9431    19.3667
  422.0000    68.5801    19.9146    21.0516
  422.5000    65.8309    22.4116    23.0425
  423.0000    64.0060    24.1930    25.2217
  423.5000    63.7462    25.4008    27.0381
  424.0000    66.4653    25.9388    27.9967
  424.5000    65.8610    26.3049    28.7888
  425.0000    63.7462    26.3085    29.3985
  425.5000    61.9335    26.4954    29.4025
  426.0000    61.0272    26.4998    29.4074
  426.5000    61.6314    26.5033    29.2080
  427.0000    63.7462    26.3227    29.0089
  427.5000    66.4653    26.1451    29.0138
  428.0000    69.5226    25.9677    28.6177
  428.5000    72.2447    25.9712    27.8379
  429.0000    72.8097    25.6165    26.8920
  429.5000    72.8097    25.2669    26.3414
  430.0000    71.6012    24.9106    26.1627
  430.5000    68.5801    24.3826    26.3485
  431.0000    66.7674    23.7473    25.8099
  431.5000    66.4653    23.7505    25.2815
  432.0000    67.9758    23.5887    24.9355
  432.5000    69.4864    23.5926    24.5951
  433.0000    73.1118    23.4318    24.4282
  433.5000    77.9909    23.5990    24.6025
  434.0000    80.7009    23.9321    24.6059
  434.5000    78.2477    24.6184    25.1317
  435.0000    73.4139    25.6831    25.8620
  435.5000    71.6012    26.7548    26.7548
  436.0000    71.6012    27.8963    27.7033
  436.5000    71.6012    28.6855    28.6855
  437.0000    70.6949    29.4970    30.3274
  437.5000    69.1843    29.9134    32.5115
  438.0000    67.0695    30.1258    33.8986
  438.5000    68.2779    30.1549    33.4358
  439.0000    70.4108    29.9255    32.9793
  439.5000    73.4804    29.2939    32.0395
  440.0000    75.5287    28.1219    30.3530
  440.5000    73.4139    26.7919    29.7316
  441.0000    71.2991    26.0618    28.3254
  441.5000    70.0906    25.3508    27.1737
  442.0000    72.8097    24.8326    26.0689
  442.5000    76.4350    23.9888    25.0089
  443.0000    78.8520    23.3351    23.9921
  443.5000    78.8520    22.6992    23.0166
  444.0000    78.5499    21.9199    22.0726
  444.5000    78.8550    21.3070    21.4554
  445.0000    80.4230    20.7499    20.6064
  445.5000    83.9879    20.1845    20.3244
  446.0000    85.1964    19.6345    20.0469
  446.5000    83.9879    19.3658    19.6371
  447.0000    82.4773    19.2344    19.2351
  447.5000    84.2900    19.2377    18.9718
  448.0000    90.4219    19.3743    18.7134
  448.5000    91.0388    19.5119    18.7177
  449.0000    88.0249    19.5309    18.9961
  449.5000    84.7084    19.7906    19.2487
  450.0000    83.2073    19.7930    19.5319
  450.5000    84.8382    19.7971    19.6806
  451.0000    88.3774    19.8011    19.7984
  451.5000    89.2969    19.8056    19.8011
  452.0000    88.4010    19.8096    19.8039
  452.5000    88.7153    19.8136    19.8071
  453.0000    89.6348    19.6805    19.8098
  453.5000    89.9491    19.5484    19.8125
  454.0000    88.4480    19.4171    19.8152
  454.5000    88.4750    19.2867    19.8179
  455.0000    89.4301    19.2916    19.5467
  455.5000    90.6042    19.0286    19.4141
  456.0000    92.4314    18.7701    19.0172
  456.5000    91.2329    18.5151    18.7576
  457.0000    88.0606    18.2644    18.5015
  457.5000    85.2059    18.0163    18.2489
  458.0000    82.4946    17.7667    17.9998
  458.5000    85.8346    17.5125    17.5099
  459.0000    89.7798    17.2920    17.1514
  459.5000    91.9096    17.2963    16.7997
  460.0000    91.9213    17.2999    16.5703
  460.5000    90.6878    17.3034    16.8048
  461.0000    88.3169    17.4274    16.9241
  461.5000    87.1155    17.5524    17.1682
  462.0000    88.6430    17.5559    17.4232
  462.5000    88.6548    17.5595    17.6516
  463.0000    88.6665    17.5502    17.6540
  463.5000    88.3728    17.4451    17.6563
  464.0000    86.8746    17.4495    17.5360
  464.5000    86.2812    17.4531    17.4171
  465.0000    86.9490    17.3350    17.2989
  465.5000    88.4257    17.1003    17.3019
  466.0000    89.6478    17.1038    17.0656
  466.5000    90.2647    16.9888    16.8327
  467.0000    90.5790    16.8748    16.6029
  467.5000    90.5908    16.5229    16.4903
  468.0000    90.2999    16.2865    16.3784
  468.5000    90.3117    16.0844    16.1548
  469.0000    89.6581    15.7569    15.9348
  469.5000    86.7073    15.6511    15.7173
  470.0000    85.2062    15.5452    15.5022
  470.5000    86.1257    15.3340    15.2910
  471.0000    88.5580    15.2311    15.1874
  471.5000    90.3852    15.1295    15.0843
  472.0000    92.5150    14.9240    14.8789
  472.5000    92.5267    14.8238    14.8809
  473.0000    91.6005    14.7242    14.7795
  473.5000    88.5265    14.7280    14.7820
  474.0000    85.9084    14.5272    14.7840
  474.5000    84.4073    14.5308    14.7860
  475.0000    85.0242    14.4333    14.6856
  475.5000    86.2462    14.3363    14.5861
  476.0000    88.9811    14.3392    14.4832
  476.5000    91.7160    14.1444    14.2894
  477.0000    92.3329    14.1474    14.1930
  477.5000    92.0172    14.0530    14.0962
  478.0000    91.1491    13.9579    13.9043
  478.5000    90.2531    13.6738    13.7144
  479.0000    89.3542    13.5813    13.6428
  479.5000    88.1587    13.3968    13.4634
  480.0000    86.6576    13.2154    13.2840
  480.5000    85.1565    13.2181    12.9810
  481.0000    85.1682    13.0385    12.8925
  481.5000    86.4004    13.0412    12.8051
  482.0000    88.3793    13.0585    12.8073
  482.5000    92.7707    13.2295    12.6320
  483.0000    96.1108    13.3243    12.6341
  483.5000    96.4222    13.4199    12.7238
  484.0000    95.2236    13.4226    12.7279
  484.5000    96.7512    13.4253    12.8160
  485.0000    97.3681    13.5216    12.9973
  485.5000    94.9593    13.6185    13.1807
  486.0000    92.8531    13.6213    13.2743
  486.5000    93.7755    13.6241    13.3686
