~VERSION INFORMATION
 VERS.                2.0:   CWLS LOG ASCII STANDARD - VERSION 2.0
 WRAP.                 NO:   ONE LINE PER DEPTH STEP
~WELL INFORMATION
#MNEM.UNIT      DATA TYPE    INFORMATION
#----------   ------------   ------------------------------
 STRT.F            0.0000:   START DEPTH
 STOP.F         1283.5000:   STOP DEPTH
 STEP.F            0.5000:   STEP LENGTH
 NULL.          -999.2500:   NO VALUE
 COMP.      U.S. NAVY NPR:   COMPANY
 WELL. NAVAL PETROLEUM RESERVE 3 ST-11 #88-11:   WELL
 FLD .             TEAPOT:   FIELD
 LOC .      S11 T38N R78W:   LOCATION
 CNTY.            NATRONA:   COUNTY
 STAT.            WYOMING:   STATE
 CTRY. UNITED STATES OF AMERICA:   COUNTRY
 SRVC.       Schlumberger:   SERVICE COMPANY
 DATE.        01-NOV-1958:   LOGDATE
 API .       490250632600:   API NUMBER
~CURVE INFORMATION
#MNEM.UNIT       API CODE    CURVE DESCRIPTION
#----------   ------------   ------------------------------
 DEPT.F                  :   
 GRN .GAPI   35 310 01 00:   GAMMA RAY
 NEUT.NAPI   35 330 01 00:   NEUTRON
 ASN .OHMM   01 041 16 00:   AMPLIFIED SHORT NORMAL
 LAT .OHMM   01 070 18 00:   LATERAL 18"
 LN  .OHMM   01 060 64 00:   LONG NORMAL 64"
 SPR .MV     01 010 01 00:   SPONTANEOUS POTENTIAL
 CALM.IN     15 280 01 00:   CALIPER FROM MICRO LOG
~PARAMETER INFORMATION
#MNEM.UNIT          VALUE    DESCRIPTION
#----------   ------------   ------------------------------
 LMF .                 KB:   LOG MEASURED FROM
 DMF .                 KB:   DRILLING MEASURED FROM
 EKB .F              5289:   KELLING BUSHING
 EGL .F              5279:   GROUND LEVEL
 DATE.        01-NOV-1958:   RUN DATE
 RUN .                  1:   RUN NUMBER
 DD  .F              1280:   DEPTH DRILLER
 DL  .F              1283:   DEPTH LOGGER
 BLI .F              1282:   BOTTOM LOG INTERVAL
 TLI .F               150:   TOP LOG INTERVAL
 CBD .F                45:   CASING BOTTOM DRILLER
 BS  .IN            7.875:   BIT SIZE
 BSD .F              1280:   BIT SIZE AT DEPTH
 DFT .                GEL:   DRILLING FLUID TYPE
 DFD .                9.1:   DRILLING FLUID DENSITY
 DFV .                 63:   DRILLING FLUID VISCOSITY
 DFL .                2.1:   DRILLING FLUID LOSS
 RMS .OHMM            2.4:   RESISTIVITY MUD SAMPLE
 MST .F                56:   MUD SAMPLE TEMPERATURE
 RMF .OHMM           1.45:   RESISTIVITY MUD FILTRATE SAMPLE
 MFST.F                79:   MUD FILTRATE SAMPLE TEMPERATURE
 RMC .OHMM            1.7:   RESISTIVITY MUD CAKE
 MCST.F                79:   MUD CAKE SAMPLE TEMPERATURE
 MFSS.               MEAS:   MUD FILTRATE SAMPLE SOURCE
 MCSS.               MEAS:   MUD CAKE SAMPLE SOURCE
 RMB .OHMM            1.6:   RESISTIVITY MUD AT BHT
 BHT .F                79:   BOTTOM HOLE TEMPERATURE
 TCS .HRS               1:   TIME CURCULATED STOPPED
 MRT .F                79:   MAXIMUM RECORDED TEMPERATURE
 LUN .               2544:   LOGGING UNIT NUMBER
 LUL .                 NC:   LOGGING UNIT LOCATION
 ENGI.            EARNEST:   RECORDING ENGINEER
 WITN.             MARTIN:   WITNESSED BY
 CLNT.            A2DTECH:   CLIENT CODE
 ORIG.         2.5" PRINT:   ORIGIN OF DATA
 UWI .       490250632600:   UNIQUE WELL ID
 DICO. A2D Technologies, Inc.:   DIGITIZING COMPANY
~OTHER INFORMATION
~A    DEPT       GRN     NEUT        ASN        LAT         LN        SPR       CALM   
# ...
 1092.0000     5.6745   274.1830     7.2760     4.1796     4.7474   -12.9221     8.4074
 1092.5000     5.4736   273.3969     7.0931     4.1816     4.7481   -13.1916     8.4079
 1093.0000     5.6128   289.7767     6.9938     4.1836     4.7488   -13.4617     8.3811
 1093.5000     5.4250   296.4541     6.9388     4.1856     4.7495   -13.4571     8.3815
 1094.0000     5.4241   304.6241     6.8837     4.1876     4.7502   -13.4531     8.3819
 1094.5000     5.5697   310.5551     6.8139     4.1896     4.7508   -13.1755     8.3550
 1095.0000     5.6489   303.7983     6.7622     4.1916     4.7515   -13.1715     8.3555
 1095.5000     5.6880   297.0415     6.7084     4.3295     4.6161   -13.1675     8.3559
 1096.0000     5.6671   295.2549     6.6544     4.3315     4.6169   -12.8899     8.3563
 1096.5000     5.6262   279.4947     6.5733     4.1976     4.6176   -12.8859     8.3839
 1097.0000     5.7654   276.0248     6.4922     4.2138     4.5562   -12.6082     8.4114
 1097.5000     5.9845   284.9349     6.2480     4.3376     4.4830   -12.6041     8.4119
 1098.0000     6.0876   288.4756     5.8680     4.3397     4.3477   -12.5562     8.4161
 1098.5000     6.1228   290.0768     5.4064     4.3417     4.3484   -12.3223     8.4399
 1099.0000     6.2418   288.4934     5.1894     4.3438     4.4852   -12.3182     8.4675
 1099.5000     6.3662   286.1140     4.8637     4.3458     4.6218   -12.3141     8.4679
 1100.0000     6.4800   289.9537     4.7010     4.3478     4.7584   -12.3100     8.4683
 1100.5000     6.3911   283.1902     4.9182     4.3499     4.8950   -12.5802     8.4687
 1101.0000     6.3782   283.1505     5.0809     4.3519     4.8957   -12.5754     8.4691
 1101.5000     6.3360   283.8598     5.4068     4.3539     4.7604   -12.5713     8.4695
 1102.0000     6.1562   280.0857     5.8956     4.3560     4.6251   -12.5672     8.4971
 1102.5000     5.9554   268.8508     6.2486     4.3580     4.4899   -12.5631     8.4975
 1103.0000     5.6745   265.7250     6.5472     4.3601     4.4905   -12.5581     8.4708
 1103.5000     5.7536   262.0517     6.7372     4.3625     4.4912   -12.5541     8.4712
 1104.0000     5.8327   263.0560     6.9000     4.3645     4.6278   -13.0972     8.4716
 1104.5000     5.9919   267.4417     7.0084     4.3665     4.7644   -13.0932     8.4720
 1105.0000     5.9110   283.3273     7.1712     4.3685     4.9011   -13.0892     8.4724
 1105.5000     5.7474   300.2495     7.2796     4.3705     5.0377   -13.0852     8.4728
 1106.0000     5.6893   299.5617     7.3608     4.3725     5.0384   -13.0812     8.4732
 1106.5000     6.0707   297.9781     7.4964     4.5104     5.1750   -13.0771     8.5008
 1107.0000     6.0296   287.8784     7.5777     4.5713     5.1970   -13.0809     8.5012
 1107.5000     5.9392   287.0923     7.6046     4.7118     5.3123   -13.0849     8.5016
 1108.0000     6.1248   287.8042     7.6043     4.8524     5.3130   -13.0869     8.5020
 1108.5000     6.3080   280.2957     7.6312     4.9260     5.3492   -13.0837     8.5024
 1109.0000     6.0473   278.0170     7.6310     4.9312     5.4503   -13.0810     8.5028
 1109.5000     5.8666   279.4700     7.6307     5.0659     5.4510   -13.0783     8.5032
 1110.0000     5.7460   282.4156     7.5761     5.2038     5.4517   -13.3495     8.5036
 1110.5000     5.6253   296.1573     7.5215     5.2058     5.4523   -13.3465     8.5040
 1111.0000     5.8062   311.1571     7.4668     5.3438     5.4530   -13.6174     8.5044
 1111.5000     5.9478   299.6892     7.4122     5.3458     5.4537   -13.6147     8.4927
 1112.0000     5.7694   295.5960     7.4119     5.4330     5.4544   -13.6120     8.4781
 1112.5000     5.5426   298.4743     7.4388     5.4857     5.4551   -13.8829     8.4785
 1113.0000     5.6549   298.0513     7.4658     5.6236     5.4557   -13.8802     8.4789
 1113.5000     5.8379   293.2140     7.4927     5.6757     5.4565   -13.8775     8.4794
 1114.0000     5.8164   301.3805     7.5196     5.7636     5.4572   -14.1484     8.4797
 1114.5000     5.7531   303.7721     7.4921     5.8261     5.4579   -14.1456     8.4802
 1115.0000     5.8189   300.4150     7.4375     5.9035     5.4586   -14.1702     8.4806
 1115.5000     5.8182   303.4899     7.4101     5.9764     5.4592   -14.4139     8.4809
 1116.0000     5.7375   306.4320     7.3554     6.0435     5.3239   -14.4583     8.4814
 1116.5000     5.5742   316.1856     7.2465     5.9100     5.1887   -14.6820     8.4818
 1117.0000     5.8562   321.2724     7.0826     5.7762     5.1893   -14.1319     8.4821
 1117.5000     5.7555   321.9755     6.8084     5.6420     5.0540   -13.7006     8.4554
 1118.0000     5.8548   314.1234     6.5920     5.6443     5.0547   -13.2182     8.4558
 1118.5000     5.7342   305.4695     6.4825     5.5102     4.9194   -13.0295     8.4562
 1119.0000     5.8682   308.4117     6.3743     5.3766     4.6482   -13.0267     8.4520
 1119.5000     5.9856   308.1304     6.3209     5.3786     4.5129   -12.7505     8.4298
 1120.0000     6.0321   328.3637     6.4076     5.2446     4.3685   -12.8753     8.4302
 1120.5000     6.0704   338.8603     6.5378     5.1108     4.1064   -13.0185     8.4306
 1121.0000     6.0374   329.8610     6.4737     5.1128     4.1257   -13.2894     8.4409
 1121.5000     5.9498   337.2812     6.1901     5.0999     4.4031   -13.2866     8.4586
 1122.0000     5.8891   344.2277     5.7229     5.0709     4.6523   -13.2834     8.4590
 1122.5000     5.7684   334.9557     5.2740     5.0419     4.7889   -13.2807     8.4594
 1123.0000     5.8678   322.9710     5.2049     5.0129     4.7896   -13.2780     8.4598
 1123.5000     5.9471   326.7369     5.2973     4.9869     4.7478   -13.5492     8.4603
 1124.0000     6.0264   315.2595     5.4808     4.9891     4.6549   -13.8201     8.4335
 1124.5000     5.8567   316.1242     5.8359     5.0310     4.6557   -14.3642     8.4339
 1125.0000     5.7051   311.0381     6.1912     5.1291     4.6563   -14.6353     8.4071
 1125.5000     5.9444   308.5744     6.5175     5.1311     4.5211   -15.1795     8.4075
 1126.0000     5.7637   326.4434     6.6536     5.1893     4.5218   -15.1768     8.3808
 1126.5000     5.9143   322.8479     6.7301     5.3326     4.4515   -15.1741     8.3812
 1127.0000     6.0527   330.8233     6.7517     5.4760     4.3872   -15.1714     8.3816
 1127.5000     5.9215   322.5603     6.7514     5.5469     4.2519   -15.1687     8.4091
 1128.0000     6.0207   335.2049     6.7239     5.4130     4.3240   -15.1660     8.4085
 1128.5000     6.2000   342.6251     6.6836     5.2792     4.5639   -15.1632     8.3827
 1129.0000     5.9793   347.8062     6.5335     5.1454     4.7256   -15.1605     8.3832
 1129.5000     5.7987   350.0020     6.1371     5.0119     4.9745   -15.1578     8.3836
 1130.0000     5.5780   346.2271     5.6196     4.8777     5.1118   -15.1550     8.3840
 1130.5000     5.6785   333.8973     5.2447     4.6082     5.1553   -15.1523     8.3844
 1131.0000     5.9018   321.0994     5.1034     4.4744     5.2505   -15.2243     8.3575
 1131.5000     5.9560   319.2291     5.0644     4.4764     5.2518   -15.8634     8.3477
 1132.0000     5.8408   331.1422     5.0891     4.4784     5.2532   -16.7017     8.3196
 1132.5000     5.7282   346.7133     5.3945     4.7521     5.1186   -16.5730     8.2915
 1133.0000     5.5939   353.2681     6.1484     4.8900     5.1199   -15.4559     8.2505
 1133.5000     5.9895   352.3762     6.6308     5.0297     5.1213   -14.4638     8.1926
 1134.0000     6.0815   347.0191     6.9308     5.1658     5.1229   -14.5860     8.1154
 1134.5000     5.8716   347.8973     7.1668     5.3037     5.0773   -15.0018     8.1158
 1135.0000     6.0309   339.0561     7.3678     5.3057     5.1256   -15.5562     8.1706
 1135.5000     5.8702   333.0421     7.5658     5.3077     5.2629   -15.9456     8.1710
 1136.0000     5.6896   328.5208     7.6917     5.3098     5.5361   -15.9424     8.1714
 1136.5000     5.7889   323.2532     7.8386     5.4477     5.6734   -15.3926     8.1446
 1137.0000     5.6673   343.3612     7.9911     5.4497     5.8107   -15.1163     8.0906
