~VERSION INFORMATION
 VERS.                2.0:   CWLS LOG ASCII STANDARD - VERSION 2.0
 WRAP.                 NO:   ONE LINE PER DEPTH STEP
~WELL INFORMATION
#MNEM.UNIT      DATA TYPE    INFORMATION
#----------   ------------   ------------------------------
 STRT.F           82.0000:   START DEPTH
 STOP.F         1194.0000:   STOP DEPTH
 STEP.F            0.5000:   STEP LENGTH
 NULL.          -999.2500:   NO VALUE
 COMP.       INTEX OIL CO:   COMPANY
 WELL.   76S-11 NPR #3-11:   WELL
 FLD .             TEAPOT:   FIELD
 LOC .      S11 T38N R78W:   LOCATION
 CNTY.            NATRONA:   COUNTY
 STAT.            WYOMING:   STATE
 CTRY. UNITED STATES OF AMERICA:   COUNTRY
 SRVC.       Schlumberger:   SERVICE COMPANY
 DATE.        30-AUG-1966:   LOGDATE
 API .       490250972800:   API NUMBER
~CURVE INFORMATION
#MNEM.UNIT       API CODE    CURVE DESCRIPTION
#----------   ------------   ------------------------------
 DEPT.F                  :   
 SPR .MV     05 010 01 00:   SPONTANEOUS POTENTIAL FROM RES.
 CILD.MMHO   05 110 46 00:   CONDUCTIVITY INDUCTION LOG DEEP
 ILD .OHMM   05 120 46 00:   INDUCTION LOG DEEP
 ASN .OHMM   05 041 16 00:   AMPLIFIED SHORT NORMAL 16"
 CALD.IN     45 280 60 00:   CALIPER FROM DENSITY LOG
 CORR.G/C3   45 356 01 00:   DENSITY CORRECTION
 RHOB.G/C3   45 350 01 00:   BULK DENSITY
 DPHI.DEC    45 890 12 00:   DENSITY POROSITY SANDSTONE
 GRD .GAPI   45 310 01 00:   GAMMA RAY FROM DENSITY LOG
~PARAMETER INFORMATION
#MNEM.UNIT          VALUE    DESCRIPTION
#----------   ------------   ------------------------------
 PD  .                 GL:   PERMANENT DATUM
 EPD .F              5261:   ELEVATION PERMANENT DATUM
 LMF .                 KB:   LOG MEASURED FROM
 DAPD.F                 5:   FEET ABOVE PERMANENT DATUM
 DMF .                 KB:   DRILLING MEASURED FROM
 EKB .F              5266:   KELLING BUSHING
 EGL .F              5261:   GROUND LEVEL
 DATE.            8-30-66:   RUN DATE
 RUN .                  1:   RUN NUMBER
 DD  .F              1191:   DEPTH DRILLER
 DL  .F              1191:   DEPTH LOGGER
 BLI .F              1190:   BOTTOM LOG INTERVAL
 TLI .F                87:   TOP LOG INTERVAL
 CS  .IN            8.625:   CASING SIZE
 CBD .F                10:   CASING BOTTOM DRILLER
 BS  .IN             6.75:   BIT SIZE
 BSD .F              1191:   BIT SIZE AT DEPTH
 DFT .           CHEM-GEL:   DRILLING FLUID TYPE
 DFD .                9.8:   DRILLING FLUID DENSITY
 DFV .                 60:   DRILLING FLUID VISCOSITY
 MSS .         CIRCULATED:   MUD SAMPLE SOURCE
 RMS .OHMM            .76:   RESISTIVITY MUD SAMPLE
 MST .F                85:   MUD SAMPLE TEMPERATURE
 RMF .OHMM            .46:   RESISTIVITY MUD FILTRATE SAMPLE
 MFST.F                88:   MUD FILTRATE SAMPLE TEMPERATURE
 MFSS.                  M:   MUD FILTRATE SAMPLE SOURCE
 RMB .OHMM           .695:   RESISTIVITY MUD AT BHT
 BHT .F                93:   BOTTOM HOLE TEMPERATURE
 TCS .HRS               1:   TIME CURCULATED STOPPED
 MRT .F                93:   MAXIMUM RECORDED TEMPERATURE
 LUN .               3527:   LOGGING UNIT NUMBER
 LUL .               CSPR:   LOGGING UNIT LOCATION
 ENGI.               HAUG:   RECORDING ENGINEER
 WITN.                MAY:   WITNESSED BY
 CLNT.            A2DTECH:   CLIENT CODE
 ORIG. 2", 2.5", 5" PRINT:   ORIGIN OF DATA
 UWI .       490250972800:   UNIQUE WELL ID
 DICO. A2D Technologies, Inc.:   DIGITIZING COMPANY
~OTHER INFORMATION
~A   DEPT      SPR        CILD       ILD          ASN     CALD       CORR       RHOB       DPHI        GRD   
# ...
  702.5000   -48.1156   157.1732     5.9355     8.1468     7.2481     0.0590     2.4831     0.1008   112.7906
  703.0000   -48.2197   157.1856     5.8945     8.2199     7.2475     0.0561     2.4954     0.0973   114.4288
  703.5000   -48.4043   158.3689     5.8572     8.3015     7.2564     0.0549     2.4953     0.0953   114.6933
  704.0000   -48.7582   160.5651     5.8176     8.3239     7.2638     0.0514     2.4769     0.1028   113.5265
  704.5000   -48.9003   162.7614     5.7793     8.2080     7.2701     0.0444     2.4715     0.1103   115.7237
  705.0000   -48.7685   164.9576     5.7376     8.0143     7.2777     0.0371     2.4692     0.1111   116.9698
  705.5000   -48.7147   167.1538     5.6785     7.9504     7.2847     0.0447     2.4884     0.1019   115.7294
  706.0000   -48.8672   169.3501     5.6149     7.8983     7.2917     0.0550     2.4962     0.0928   113.0168
  706.5000   -49.1791   171.1577     5.5525     7.8561     7.2987     0.0508     2.5014     0.0872   110.2764
  707.0000   -49.2435   174.5831     5.4888     7.8280     7.3060     0.0639     2.5224     0.0800   108.4083
  707.5000   -48.6995   178.0989     5.4269     7.7961     7.3127     0.0766     2.5345     0.0729   108.4807
  708.0000   -48.1524   178.0952     5.3622     7.7748     7.3208     0.0818     2.5358     0.0713   108.6504
  708.5000   -48.2128   175.1183     5.3401     7.7713     7.3214     0.0857     2.5309     0.0733   109.7258
  709.0000   -48.5708   172.6489     5.4523     7.7538     7.3216     0.0869     2.5258     0.0747   111.8623
  709.5000   -48.6410   170.1754     5.6017     7.7339     7.3214     0.0645     2.5003     0.0885   113.8343
  710.0000   -48.4693   166.7491     5.7454     7.7698     7.3215     0.0418     2.4891     0.0976   113.8339
  710.5000   -48.3149   162.7210     5.8928     7.9920     7.3215     0.0328     2.4829     0.1000   112.5692
  711.0000   -48.2841   158.6547     6.0362     8.1806     7.3214     0.0310     2.4917     0.0979   111.1964
  711.5000   -48.3087   154.6387     6.1856     8.3812     7.3217     0.0386     2.5056     0.0945   109.5633
  712.0000   -48.4136   150.6228     6.3252     8.5822     7.3212     0.0465     2.5207     0.0851   108.6688
  712.5000   -48.5120   146.6068     6.5139     8.7816     7.3205     0.0545     2.5230     0.0795   108.4999
  713.0000   -48.6102   144.3912     6.5128     8.9039     7.3031     0.0632     2.5130     0.0840   109.3911
  713.5000   -48.7060   143.2136     6.4414     8.9930     7.2857     0.0682     2.5023     0.0885   110.1636
  714.0000   -48.8089   145.5822     6.3939     9.0423     7.2673     0.0634     2.4988     0.0921   110.7017
  714.5000   -48.8772   148.3775     6.3278     8.9999     7.2491     0.0566     2.4920     0.0985   110.0081
  715.0000   -48.7413   152.6803     6.1989     8.7842     7.2418     0.0503     2.4825     0.1039   109.6152
  715.5000   -48.5954   156.9832     6.0659     8.5356     7.2404     0.0402     2.4717     0.1071   110.4350
  716.0000   -48.3407   161.2860     5.9352     8.2938     7.2450     0.0389     2.4723     0.1071   111.1058
  716.5000   -48.3960   165.5888     5.8034     8.0681     7.2504     0.0552     2.4807     0.1042   111.8907
  717.0000   -48.5341   169.8916     5.6725     7.9125     7.2663     0.0670     2.4885     0.1005   112.6182
  717.5000   -48.6592   173.1822     5.5408     7.7422     7.0432     0.0853     2.4962     0.0968   113.1433
  718.0000   -48.6483   175.4364     5.4104     7.6511     7.1032     0.1032     2.5046     0.0922   111.8933
  718.5000   -48.5448   176.3491     5.2770     7.6971     7.1913     0.1100     2.5122     0.0876   109.6140
  719.0000   -48.4695   177.1457     5.1576     7.7547     7.2341     0.0966     2.4989     0.0866   109.5492
  719.5000   -48.3799   175.8882     5.2336     7.8121     7.3002     0.0719     2.4670     0.1037   109.5731
  720.0000   -48.3106   174.2287     5.3461     7.8893     7.3237     0.0547     2.4732     0.1103   109.8756
  720.5000   -48.4422   171.5036     5.4508     7.9856     7.3237     0.0668     2.4857     0.1055   109.9758
  721.0000   -48.5981   168.7784     5.5591     8.0686     7.3258     0.0571     2.4873     0.1032   111.1091
  721.5000   -48.7752   166.0533     5.6657     8.1558     7.3276     0.0386     2.4734     0.1063   112.9689
  722.0000   -48.8445   163.3282     5.7726     8.2431     7.3291     0.0243     2.4613     0.1103   114.6830
  722.5000   -48.5139   160.6031     5.8807     8.3133     7.3308     0.0261     2.4541     0.1142   116.5034
  723.0000   -48.2260   157.8780     5.9857     8.3453     7.3324     0.0331     2.4587     0.1135   116.9497
  723.5000   -48.0964   155.7111     6.0958     8.3701     7.3340     0.0475     2.4623     0.1123   116.3735
  724.0000   -48.3051   154.4561     6.1489     8.4032     7.3356     0.0426     2.4605     0.1118   115.9021
  724.5000   -48.5264   153.2011     6.1604     8.4967     7.3373     0.0167     2.4592     0.1134   115.4397
  725.0000   -48.6813   151.9461     6.1805     8.5834     7.3390     0.0268     2.4718     0.1094   115.4027
  725.5000   -48.5562   150.6911     6.1959     8.6714     7.3406     0.0360     2.4846     0.1027   115.7719
  726.0000   -48.3532   149.2016     6.2148     8.7571     7.3423     0.0491     2.4989     0.0957   113.7835
  726.5000   -48.3669   149.6003     6.2298     8.8472     7.3439     0.0615     2.5068     0.0899   111.8014
  727.0000   -48.5618   150.0682     6.2548     8.9173     7.3456     0.0778     2.5095     0.0858   110.3001
  727.5000   -48.6514   150.5334     6.2859     8.9937     7.3472     0.0717     2.5088     0.0885   111.7541
  728.0000   -48.4544   151.0038     6.3159     9.0055     7.3489     0.0568     2.4989     0.0951   112.6118
  728.5000   -48.1550   151.7770     6.3354     8.9569     7.3505     0.0416     2.4822     0.1018   112.3743
  729.0000   -48.3033   152.7250     6.3001     8.8527     7.3522     0.0348     2.4770     0.1071   112.1009
  729.5000   -48.6741   153.6780     6.2528     8.6975     7.3538     0.0332     2.4672     0.1068   112.0522
  730.0000   -48.4233   154.6331     6.2084     8.5630     7.3556     0.0415     2.4546     0.1065   112.0563
  730.5000   -48.1175   155.5850     6.1609     8.4177     7.3572     0.0565     2.4773     0.1032   112.0782
  731.0000   -47.7810   156.5324     6.1181     8.2836     7.3587     0.0868     2.4954     0.0937   112.0403
  731.5000   -47.8472   157.1829     6.0653     8.2045     7.3611     0.1116     2.5153     0.0871   112.0862
  732.0000   -48.2286   157.0660     6.0403     8.2050     7.3545     0.1315     2.5234     0.0771   112.1857
  732.5000   -48.1250   156.9468     6.0628     8.2147     7.3411     0.1446     2.5283     0.0771   114.0675
  733.0000   -47.7938   156.8286     6.0793     8.1761     7.3287     0.1303     2.5246     0.0775   115.4842
  733.5000   -47.5322   156.7129     6.0991     8.1411     7.3168     0.1031     2.5085     0.0865   116.9402
  734.0000   -47.5976   156.5970     6.1171     8.1705     7.3036     0.0630     2.4885     0.0972   114.5535
  734.5000   -47.7564   156.4855     6.1361     8.2473     7.2918     0.0503     2.4671     0.1079   112.1980
  735.0000   -47.8536   156.3739     6.1546     8.3005     7.2840     0.0616     2.4757     0.1079   111.6165
  735.5000   -47.6549   156.2624     6.1733     8.2470     7.3128     0.0728     2.4940     0.0969   113.3090
  736.0000   -47.3433   156.0568     6.1919     8.1667     7.3354     0.0800     2.5125     0.0878   113.6811
  736.5000   -47.4700   155.6605     6.2105     8.1176     7.3596     0.0808     2.5215     0.0787   110.5075
  737.0000   -47.8747   155.2642     6.2291     8.1347     7.3535     0.0698     2.5078     0.0886   109.3450
  737.5000   -48.1999   154.8679     6.2477     8.2083     7.3468     0.0568     2.4959     0.0945   108.8813
  738.0000   -47.7696   154.4716     6.2662     8.3603     7.3390     0.0701     2.5152     0.0831   110.1550
  738.5000   -47.8729   154.0753     6.2849     8.5454     7.3318     0.0865     2.5260     0.0763   112.6961
