~VERSION INFORMATION
 VERS.                2.0:   CWLS LOG ASCII STANDARD - VERSION 2.0
 WRAP.                 NO:   ONE LINE PER DEPTH STEP
~WELL INFORMATION
#MNEM.UNIT      DATA TYPE    INFORMATION
#----------   ------------   ------------------------------
 STRT.F          660.0000:   START DEPTH
 STOP.F         2899.5000:   STOP DEPTH
 STEP.F            0.5000:   STEP LENGTH
 NULL.          -999.2500:   NO VALUE
 COMP. LAWRENCE/ALLISON INC:   COMPANY
 WELL. NPR #3 22 X 10 #22-10:   WELL
 FLD .             TEAPOT:   FIELD
 LOC .      S10 T38N R78W:   LOCATION
 CNTY.            NATRONA:   COUNTY
 STAT.            WYOMING:   STATE
 CTRY. UNITED STATES OF AMERICA:   COUNTRY
 SRVC.            Unknown:   SERVICE COMPANY
 DATE.        11-SEP-1986:   LOGDATE
 API .       490251106200:   API NUMBER
~CURVE INFORMATION
#MNEM.UNIT       API CODE    CURVE DESCRIPTION
#----------   ------------   ------------------------------
 DEPT.F                  :   
 ROP .MIN/FT 91 810 01 00:   RATE OF DRILLING PENETRATION
 TGAS.UNITS  91 830 01 00:   TOTAL GAS FROM HOTWIRE
~PARAMETER INFORMATION
#MNEM.UNIT          VALUE    DESCRIPTION
#----------   ------------   ------------------------------
 DATE.          9-11-1986:   RUN DATE
 DD  .F              2900:   DEPTH DRILLER
 TLI .F              1380:   TOP LOG INTERVAL
 WITN. R. HUSK/K. FREDERICK:   WITNESSED BY
 CLNT.            A2DTECH:   CLIENT CODE
 ORIG.           5" PRINT:   ORIGIN OF DATA
 UWI .       490251106200:   UNIQUE WELL ID
 DICO. A2D Technologies, Inc.:   DIGITIZING COMPANY
~OTHER INFORMATION
~A   DEPT      ROP         TGAS 
# ...
 1510.5000     0.7858   113.3192
 1511.0000     0.7833   113.3973
 1511.5000     0.7808   113.4753
 1512.0000     0.7783   113.5534
 1512.5000     0.7758   113.6314
 1513.0000     0.7733   113.7094
 1513.5000     0.7708   113.7875
 1514.0000     0.7683   113.8655
 1514.5000     0.7657   113.9436
 1515.0000     0.7632   114.0216
 1515.5000     0.7607   114.0997
 1516.0000     0.7582   114.1777
 1516.5000     0.7557   114.2557
 1517.0000     0.7532   114.3338
 1517.5000     0.7507   114.4118
 1518.0000     0.7482   114.4899
 1518.5000     0.7457   114.5679
 1519.0000     0.7432   114.6459
 1519.5000     0.7407   114.7240
 1520.0000     0.7380   114.8147
 1520.5000     0.7392   114.9005
 1521.0000     0.7405   115.0029
 1521.5000     0.7418   115.1053
 1522.0000     0.7431   115.2077
 1522.5000     0.7444   115.3101
 1523.0000     0.7457   115.4125
 1523.5000     0.7470   115.5149
 1524.0000     0.7483   115.6173
 1524.5000     0.7496   115.7197
 1525.0000     0.7510   115.8221
 1525.5000     0.7523   115.9245
 1526.0000     0.7536   116.0269
 1526.5000     0.7549   116.1293
 1527.0000     0.7562   116.2317
 1527.5000     0.7575   116.3341
 1528.0000     0.7588   116.4365
 1528.5000     0.7601   116.5389
 1529.0000     0.7614   116.6413
 1529.5000     0.7627   116.7437
 1530.0000     0.7640   116.8461
 1530.5000     0.7654   116.9486
 1531.0000     0.7667   117.0510
 1531.5000     0.7680   117.1534
 1532.0000     0.7693   117.2558
 1532.5000     0.7706   117.3582
 1533.0000     0.7719   117.4606
 1533.5000     0.7732   117.5630
 1534.0000     0.7745   117.6654
 1534.5000     0.7758   117.7678
 1535.0000     0.7771   117.8702
 1535.5000     0.7784   117.9726
 1536.0000     0.7798   118.0750
 1536.5000     0.7811   118.1774
 1537.0000     0.7824   118.2798
 1537.5000     0.7837   118.3822
 1538.0000     0.7850   118.4846
 1538.5000     0.7863   118.5870
 1539.0000     0.7876   118.6894
 1539.5000     0.7889   118.7918
 1540.0000     0.7900   118.9025
 1540.5000     0.7891   118.8563
 1541.0000     0.7883   118.8061
 1541.5000     0.7876   118.7559
 1542.0000     0.7868   118.7057
 1542.5000     0.7860   118.6554
 1543.0000     0.7852   118.6052
 1543.5000     0.7845   118.5550
 1544.0000     0.7837   118.5048
 1544.5000     0.7829   118.4546
 1545.0000     0.7821   118.4044
 1545.5000     0.7814   118.3541
 1546.0000     0.7806   118.3039
 1546.5000     0.7798   118.2537
 1547.0000     0.7790   118.2035
 1547.5000     0.7782   118.1533
 1548.0000     0.7775   118.1031
 1548.5000     0.7767   118.0529
 1549.0000     0.7759   118.0026
 1549.5000     0.7751   117.9524
 1550.0000     0.7744   117.9022
 1550.5000     0.7736   117.8520
 1551.0000     0.7728   117.8018
 1551.5000     0.7720   117.7516
 1552.0000     0.7713   117.7013
 1552.5000     0.7705   117.6511
 1553.0000     0.7697   117.6009
 1553.5000     0.7689   117.5507
 1554.0000     0.7682   117.5005
 1554.5000     0.7674   117.4503
 1555.0000     0.7666   117.4001
 1555.5000     0.7658   117.3498
 1556.0000     0.7650   117.2996
 1556.5000     0.7643   117.2494
 1557.0000     0.7635   117.1992
 1557.5000     0.7627   117.1490
 1558.0000     0.7619   117.0988
 1558.5000     0.7612   117.0485
 1559.0000     0.7604   116.9983
 1559.5000     0.7596   116.9481
 1560.0000     0.7588   123.0442
 1560.5000     0.7599   123.0429
 1561.0000     0.7609   123.0417
 1561.5000     0.7620   123.0405
 1562.0000     0.7630   123.0392
 1562.5000     0.7640   123.0380
 1563.0000     0.7651   123.0367
 1563.5000     0.7661   123.0355
 1564.0000     0.7672   123.0342
 1564.5000     0.7682   123.0330
 1565.0000     0.7693   123.0317
 1565.5000     0.7703   123.0305
 1566.0000     0.7713   123.0293
 1566.5000     0.7724   123.0280
 1567.0000     0.7734   123.0268
 1567.5000     0.7745   123.0255
 1568.0000     0.7755   123.0243
 1568.5000     0.7766   123.0230
 1569.0000     0.7776   123.0218
 1569.5000     0.7786   123.0205
 1570.0000     0.7797   123.0193
 1570.5000     0.7807   123.0180
 1571.0000     0.7818   123.0168
 1571.5000     0.7828   123.0156
 1572.0000     0.7838   123.0143
 1572.5000     0.7849   123.0131
 1573.0000     0.7859   123.0118
 1573.5000     0.7870   123.0106
 1574.0000     0.7880   123.0093
 1574.5000     0.7891   123.0081
 1575.0000     0.7901   123.0068
 1575.5000     0.7911   123.0056
 1576.0000     0.7922   123.0043
 1576.5000     0.7932   123.0031
 1577.0000     0.7943   123.0019
 1577.5000     0.7953   123.0006
 1578.0000     0.7964   122.9994
 1578.5000     0.7974   122.9981
 1579.0000     0.7984   122.9969
 1579.5000     0.7995   122.9956
 1580.0000     0.8004   122.9943
 1580.5000     0.7994   122.9950
 1581.0000     0.7985   122.9957
 1581.5000     0.7976   122.9964
 1582.0000     0.7967   122.9972
 1582.5000     0.7958   122.9979
 1583.0000     0.7949   122.9986
 1583.5000     0.7939   122.9994
 1584.0000     0.7930   123.0001
 1584.5000     0.7921   123.0008
 1585.0000     0.7912   123.0016
 1585.5000     0.7903   123.0023
 1586.0000     0.8216   123.0031
 1586.5000     0.8732   123.0038
 1587.0000     0.9252   123.0045
 1587.5000     0.9771   123.0053
 1588.0000     1.0395   123.0060
 1588.5000     1.1123   123.0067
 1589.0000     1.1954   123.0075
 1589.5000     1.2890   123.0082
 1590.0000     1.2556   123.0089
 1590.5000     1.2010   123.0097
 1591.0000     1.1364   123.0104
 1591.5000     1.0703   123.0111
 1592.0000     0.9950   123.0119
 1592.5000     0.9196   123.0126
 1593.0000     0.8496   123.0134
 1593.5000     0.8078   123.0141
 1594.0000     0.7970   123.0148
 1594.5000     0.7863   123.0156
 1595.0000     0.7801   123.0163
 1595.5000     0.7821   123.0170
 1596.0000     0.7842   123.0178
 1596.5000     0.7863   123.0185
 1597.0000     0.7883   123.0192
 1597.5000     0.7904   123.0200
 1598.0000     0.7925   123.0207
 1598.5000     0.7945   123.0214
 1599.0000     0.7966   123.0222
 1599.5000     0.7987   123.0229
 1600.0000     0.8004   123.0152
 1600.5000     0.8004   122.9637
 1601.0000     0.8004   122.9122
 1601.5000     0.8004   122.8608
 1602.0000     0.8004   122.8093
 1602.5000     0.8004   122.7578
 1603.0000     0.8004   122.7064
 1603.5000     0.8004   122.6549
 1604.0000     0.8004   122.6035
 1604.5000     0.8004   122.5520
 1605.0000     0.8004   122.5005
 1605.5000     0.8004   122.4491
 1606.0000     0.8004   122.3976
 1606.5000     0.8004   122.3462
 1607.0000     0.8004   122.2947
 1607.5000     0.8004   122.2432
 1608.0000     0.8004   122.1918
 1608.5000     0.8004   122.1403
 1609.0000     0.8004   122.0889
 1609.5000     0.8004   122.0374
 1610.0000     0.8004   121.9859
 1610.5000     0.8004   121.9345
 1611.0000     0.8004   121.8830
 1611.5000     0.8004   121.8315
 1612.0000     0.8004   121.7801
 1612.5000     0.8004   121.7286
 1613.0000     0.8004   121.6772
 1613.5000     0.8004   121.6257
 1614.0000     0.8004   121.5742
 1614.5000     0.8004   121.5228
 1615.0000     0.8004   121.4713
 1615.5000     0.8004   121.4199
 1616.0000     0.8004   121.3684
 1616.5000     0.8004   121.3169
 1617.0000     0.8004   121.2655
 1617.5000     0.8004   121.2140
 1618.0000     0.8004   121.1626
 1618.5000     0.8004   121.1111
 1619.0000     0.8004   121.0596
 1619.5000     0.8004   121.0082
 1620.0000     0.8004   120.9608
 1620.5000     0.8430   120.9607
 1621.0000     0.8855   120.9606
 1621.5000     0.9280   120.9605
 1622.0000     0.9715   120.9604
 1622.5000     1.0259   120.9603
 1623.0000     1.0939   120.9602
 1623.5000     1.1863   120.9601
 1624.0000     1.2531   120.9600
 1624.5000     1.2679   120.9599
 1625.0000     1.2099   120.9598
 1625.5000     1.1302   120.9597
 1626.0000     1.0288   120.9596
 1626.5000     0.9057   120.9595
 1627.0000     0.7674   120.9594
 1627.5000     0.6435   120.9593
 1628.0000     0.5554   120.9592
 1628.5000     0.5053   120.9591
 1629.0000     0.4990   120.9590
 1629.5000     0.4990   120.9588
 1630.0000     0.4990   120.9587
 1630.5000     0.4940   120.9586
 1631.0000     0.4886   120.9585
 1631.5000     0.4940   120.9584
