~VERSION INFORMATION
 VERS.                2.0:   CWLS LOG ASCII STANDARD - VERSION 2.0
 WRAP.                 NO:   ONE LINE PER DEPTH STEP
~WELL INFORMATION
#MNEM.UNIT      DATA TYPE    INFORMATION
#----------   ------------   ------------------------------
 STRT.F           70.0000:   START DEPTH
 STOP.F         1088.0000:   STOP DEPTH
 STEP.F            0.5000:   STEP LENGTH
 NULL.          -999.2500:   NO VALUE
 COMP. U S NAVY/INTEX OIL CO:   COMPANY
 WELL. RES 3 TEAPOT DOME #66S-11:   WELL
 FLD .             TEAPOT:   FIELD
 LOC .      S11 T38N R78W:   LOCATION
 CNTY.            NATRONA:   COUNTY
 STAT.            WYOMING:   STATE
 CTRY. UNITED STATES OF AMERICA:   COUNTRY
 SRVC.         Lane Wells:   SERVICE COMPANY
 DATE.        06-MAR-1960:   LOGDATE
 API .       490250633400:   API NUMBER
~CURVE INFORMATION
#MNEM.UNIT       API CODE    CURVE DESCRIPTION
#----------   ------------   ------------------------------
 DEPT.F                  :   
 SPR .MV     05 010 01 00:   SPONTANEOUS POTENTIAL FROM RES.
 ILD .OHMM   05 120 46 00:   INDUCTION LOG DEEP
 CILD.MMHO   05 110 00 00:   CONDUCTIVITY INDUCTION LOG
 ASN .OHMM   05 041 16 00:   AMPLIFIED SHORT NORMAL 16"
~PARAMETER INFORMATION
#MNEM.UNIT          VALUE    DESCRIPTION
#----------   ------------   ------------------------------
 PD  .                 GL:   PERMANENT DATUM
 EPD .F              5238:   ELEVATION PERMANENT DATUM
 LMF .                 KB:   LOG MEASURED FROM
 DAPD.F                 5:   FEET ABOVE PERMANENT DATUM
 DMF .                 KB:   DRILLING MEASURED FROM
 EKB .F              5243:   KELLING BUSHING
 EGL .F              5238:   GROUND LEVEL
 DATE.             3-6-60:   RUN DATE
 RUN .                  1:   RUN NUMBER
 DD  .F              1085:   DEPTH DRILLER
 DL  .F              1087:   DEPTH LOGGER
 BLI .F              1085:   BOTTOM LOG INTERVAL
 TLI .F                70:   TOP LOG INTERVAL
 CS  .IN            8.625:   CASING SIZE
 CBD .F                12:   CASING BOTTOM DRILLER
 BS  .IN            7.875:   BIT SIZE
 BSD .F              1085:   BIT SIZE AT DEPTH
 DFT .   GEL/OIL EMULSION:   DRILLING FLUID TYPE
 DFD .               10.3:   DRILLING FLUID DENSITY
 DFV .                 37:   DRILLING FLUID VISCOSITY
 DFPH.                8.5:   DRILLING FLUID PH
 DFL .                7.2:   DRILLING FLUID LOSS
 MSS .          FLOW LINE:   MUD SAMPLE SOURCE
 RMS .OHMM           1.65:   RESISTIVITY MUD SAMPLE
 MST .F                70:   MUD SAMPLE TEMPERATURE
 RMF .OHMM            1.2:   RESISTIVITY MUD FILTRATE SAMPLE
 MFST.F                68:   MUD FILTRATE SAMPLE TEMPERATURE
 RMC .OHMM            1.8:   RESISTIVITY MUD CAKE
 MCST.F                68:   MUD CAKE SAMPLE TEMPERATURE
 MFSS.              PRESS:   MUD FILTRATE SAMPLE SOURCE
 MCSS.              PRESS:   MUD CAKE SAMPLE SOURCE
 RMB .OHMM            1.5:   RESISTIVITY MUD AT BHT
 BHT .F                74:   BOTTOM HOLE TEMPERATURE
 MRT .F                74:   MAXIMUM RECORDED TEMPERATURE
 LUN .               4474:   LOGGING UNIT NUMBER
 LUL .             CASPER:   LOGGING UNIT LOCATION
 ENGI.      NELSON/GRIGGS:   RECORDING ENGINEER
 WITN.   JORGENSEN/HUDSON:   WITNESSED BY
 CLNT.            A2DTECH:   CLIENT CODE
 ORIG.       2", 5" PRINT:   ORIGIN OF DATA
 UWI .       490250633400:   UNIQUE WELL ID
 DICO. A2D Technologies, Inc.:   DIGITIZING COMPANY
~OTHER INFORMATION
~A   DEPT      SPR          ILD      CILD         ASN 
# ...
  873.0000   -39.1146     6.3403   183.2604     7.0956
  873.5000   -39.0562     6.3658   181.5462     7.2529
  874.0000   -39.0435     6.3916   179.7853     7.4457
  874.5000   -39.2859     6.4041   179.7853     7.6410
  875.0000   -39.5256     6.2859   179.7853     7.7006
  875.5000   -39.7665     6.1654   185.4466     7.6417
  876.0000   -40.0140     5.8830   194.8773     7.4190
  876.5000   -40.2890     5.5719   204.3081     6.9704
  877.0000   -40.0353     5.2604   213.7388     6.4541
  877.5000   -39.7525     4.9497   223.1696     5.9357
  878.0000   -39.4721     4.8170   233.4526     5.5144
  878.5000   -39.1960     4.8983   233.4526     5.4614
  879.0000   -39.0258     4.9774   233.5425     5.6720
  879.5000   -39.1764     5.0667   221.2871     6.0256
  880.0000   -39.3232     5.4153   209.0828     6.6119
  880.5000   -39.4718     5.7842   196.8040     7.3028
  881.0000   -39.6170     6.1524   184.5466     7.8925
  881.5000   -39.6346     6.5205   172.2891     8.4079
  882.0000   -39.1334     6.8895   163.7919     8.6796
  882.5000   -38.6458     7.2565   162.7706     8.8905
  883.0000   -38.1668     7.3229   161.0188     8.9827
  883.5000   -37.9539     7.3442   159.2021     9.0004
  884.0000   -37.7822     7.3652   157.3810     8.9775
  884.5000   -37.6020     7.3857   155.5635     8.9547
  885.0000   -37.7103     7.4822   152.6881     8.9366
  885.5000   -37.9003     7.6017   149.8126     8.9473
  886.0000   -38.0918     7.7214   146.9372     8.9960
  886.5000   -38.2810     7.8441   145.4258     9.1510
  887.0000   -38.4819     8.1234   144.5152     9.3587
  887.5000   -38.9652     8.4338   141.8398     9.7534
  888.0000   -39.4515     8.7449   136.9368    10.6521
  888.5000   -39.9358     9.0562   132.0338    11.5819
  889.0000   -40.4198     9.3891   127.1309    12.2285
  889.5000   -40.9037     9.7787   122.2279    12.8178
  890.0000   -41.3877    10.1672   118.4095    13.3491
  890.5000   -41.9182    10.5558   116.7539    13.8009
  891.0000   -41.9149    10.9443   114.5369    14.2674
  891.5000   -41.6373    11.3328   109.6340    14.7632
  892.0000   -41.9232    11.7214   104.7310    15.2276
  892.5000   -42.5588    12.1099   101.6603    15.0829
  893.0000   -43.2004    12.4986    98.8148    15.8273
  893.5000   -43.8549    12.8873    95.9694    16.6211
  894.0000   -43.8100    13.2807    93.6868    17.4194
  894.5000   -43.4642    13.3975    92.8590    17.8404
  895.0000   -43.1639    13.2757    92.1288    17.9371
  895.5000   -43.3376    13.1047    94.2263    17.6965
  896.0000   -43.5065    12.9341    96.5027    17.2689
  896.5000   -43.6754    12.6417    98.7791    16.6413
  897.0000   -43.8611    12.2578   101.0555    16.0157
  897.5000   -43.1935    11.8733   103.6019    15.4011
  898.0000   -42.3359    11.4895   107.2579    14.8315
  898.5000   -41.4679    11.2439   110.9014    14.2681
  899.0000   -41.5432    11.0267   114.5403    13.8238
  899.5000   -41.7728    10.8096   117.1735    13.4058
  900.0000   -42.0147    10.5833   116.6351    13.1027
  900.5000   -42.0195    10.5093   116.0260    12.9201
  901.0000   -41.9180    10.4806   115.4169    12.8206
  901.5000   -41.8134    10.4535   114.8079    12.7888
  902.0000   -41.7198    10.4258   114.1988    12.7569
  902.5000   -41.9016    10.3980   113.5957    12.6861
  903.0000   -42.0983    10.3701   115.3265    12.5307
  903.5000   -42.2904    10.3473   117.0405    12.4925
  904.0000   -42.3550    10.4069   118.7545    12.5130
  904.5000   -41.9745    10.4743   118.1592    12.5349
  905.0000   -42.1253    10.5418   117.2451    12.5567
  905.5000   -42.4545    10.6091   116.3309    12.6017
  906.0000   -42.7753    10.6761   115.4168    12.6671
  906.5000   -42.5528    10.7466   114.5027    12.7341
  907.0000   -42.2879    10.8669   113.5957    12.7137
  907.5000   -42.5632    10.8870   111.5484    12.6603
  908.0000   -42.9437    10.7596   110.2494    12.6066
  908.5000   -43.0743    10.4689   111.2842    12.5662
  909.0000   -42.8999    10.2339   112.2978    12.5671
  909.5000   -42.7297    10.1724   113.3154    12.5670
  910.0000   -42.5880    10.1695   114.3311    12.5674
  910.5000   -42.5185    10.1701   115.3468    12.5250
  911.0000   -42.4470    10.1702   116.3625    12.4489
  911.5000   -42.3739    10.1701   117.1777    12.3723
  912.0000   -42.3057    10.1702   116.0276    12.3013
  912.5000   -42.4312    10.1835   114.8825    12.3242
  913.0000   -43.3056    10.2479   113.7388    12.3500
  913.5000   -44.1474    10.3104   114.3573    12.3756
  914.0000   -44.1374    10.3732   115.2279    12.4052
  914.5000   -44.0234    10.4353   116.1022    12.4395
  915.0000   -43.9092    10.4430   116.9746    12.4965
  915.5000   -43.7967    10.6168   115.8809    12.6928
  916.0000   -43.6845    10.8035   113.5868    12.9390
  916.5000   -43.5722    10.9898   111.3014    13.6100
  917.0000   -43.4611    11.1760   109.0161    14.2981
  917.5000   -43.3593    11.3621   106.7308    14.9839
  918.0000   -42.9329    11.5507   104.4454    15.6645
  918.5000   -42.4718    11.6068   102.8623    16.3790
  919.0000   -42.0064    11.4494   104.9569    16.5162
  919.5000   -41.5402    11.2353   107.8655    16.1202
  920.0000   -41.9002    11.0202   110.7741    15.2371
  920.5000   -42.3894    10.8055   113.6827    14.3669
  921.0000   -42.8782    10.5902   115.9311    13.4959
  921.5000   -43.2548    10.3737   118.4241    12.7364
  922.0000   -43.4839    10.1621   120.7489    12.3247
  922.5000   -43.7141    10.1063   119.8350    11.9914
  923.0000   -43.9444     9.9764   118.9524    11.8575
  923.5000   -44.1766     9.8458   118.0816    11.7228
  924.0000   -44.4079     9.7161   117.1735    11.5864
  924.5000   -44.4073     9.6284   119.2318    11.4734
  925.0000   -44.0360     9.6104   121.3827    11.3596
  925.5000   -43.6443     9.5911   123.5336    11.2456
  926.0000   -43.2538     9.5721   125.6845    11.1332
  926.5000   -42.8626     9.5527   127.8354    11.0087
  927.0000   -42.4760     9.5240   129.9863    10.8864
  927.5000   -42.4843     9.4841   131.3495    10.7748
  928.0000   -42.6715     9.4444   130.9036    10.7777
  928.5000   -42.8564     9.4043   130.4599    10.7781
  929.0000   -43.0409     9.3653   130.0118    10.7781
  929.5000   -43.2250     9.3500   129.5659    10.7785
  930.0000   -43.4085     9.3275   129.1200    10.7987
  930.5000   -43.5138     9.3046   128.6741    10.8499
  931.0000   -43.5735     9.2815   128.2260    10.9011
  931.5000   -43.6712     9.2743   127.7933    10.9535
  932.0000   -43.4341     9.2741   127.3870    10.8870
  932.5000   -43.0713     9.2740   126.9807    10.8073
  933.0000   -42.7020     9.2741   126.5744    10.7272
  933.5000   -42.3331     9.2841   126.1682    10.6475
  934.0000   -41.9553     9.3479   125.7619    10.6028
  934.5000   -42.1086     9.4112   125.3556    10.7501
  935.0000   -42.4621     9.4746   124.9493    10.9032
  935.5000   -42.7788     9.5377   124.5430    11.0556
  936.0000   -42.5698     9.5998   124.5673    11.2021
  936.5000   -42.3481     9.5804   125.4243    11.4384
  937.0000   -42.0943     9.4743   126.2813    11.4073
  937.5000   -42.3729     9.3661   127.1383    11.3238
  938.0000   -42.6490     9.2393   127.9953    11.1102
  938.5000   -42.9316     9.1086   128.8523    10.8417
  939.0000   -42.6876     8.9776   129.6959    10.5696
  939.5000   -42.3295     8.8468   130.7672    10.2932
  940.0000   -41.9717     8.7161   131.8219     9.8664
  940.5000   -41.7360     8.6403   132.8767     9.7110
  941.0000   -41.8724     8.6271   133.9315     9.5611
  941.5000   -41.9992     8.6136   135.0626     9.4613
  942.0000   -42.1257     8.6002   135.4762     9.3874
  942.5000   -42.2521     8.5867   135.9228     9.3521
  943.0000   -42.3784     8.5733   136.3680     9.3288
  943.5000   -42.5048     8.5598   136.8140     9.3354
  944.0000   -42.6313     8.5475   137.2598     9.3454
  944.5000   -42.7585     8.5354   137.7060     9.3556
  945.0000   -42.8852     8.5234   138.1543     9.3657
  945.5000   -42.9370     8.5113   138.6367     9.3755
