~VERSION INFORMATION
 VERS.                2.0:   CWLS LOG ASCII STANDARD - VERSION 2.0
 WRAP.                 NO:   ONE LINE PER DEPTH STEP
~WELL INFORMATION
#MNEM.UNIT      DATA TYPE    INFORMATION
#----------   ------------   ------------------------------
 STRT.F           32.0000:   START DEPTH
 STOP.F          551.0000:   STOP DEPTH
 STEP.F            0.5000:   STEP LENGTH
 NULL.          -999.2500:   NO VALUE
 COMP.    FENIX & SCISSON:   COMPANY
 WELL.   NPR ##3 84-SX-10:   WELL
 FLD .              NPR 3:   FIELD
 LOC .      S10 T38N R78W:   LOCATION
 CNTY.            NATRONA:   COUNTY
 STAT.            WYOMING:   STATE
 CTRY. UNITED STATES OF AMERICA:   COUNTRY
 SRVC.              Welex:   SERVICE COMPANY
 DATE.        25-JAN-1978:   LOGDATE
 API .       490251033700:   API NUMBER
~CURVE INFORMATION
#MNEM.UNIT       API CODE    CURVE DESCRIPTION
#----------   ------------   ------------------------------
 DEPT.F                  :   
 SPR .MV     07 010 01 00:   SPONTANEOUS POTENTIAL FROM RES.
 ILD .OHMM   07 120 46 00:   INDUCTION LOG DEEP
 ILM .OHMM   07 120 44 00:   INDUCTION LOG MEDIUM
 SGRD.OHMM   07 220 05 00:   SHALLOW GUARD RESISTIVITY
 CALD.IN     45 280 60 00:   CALIPER FROM DENSITY LOG
 GRD .GAPI   45 310 01 00:   GAMMA RAY FROM DENSITY LOG
 CORR.G/C3   45 356 01 00:   DENSITY CORRECTION
 RHOB.G/C3   45 350 01 00:   BULK DENSITY
 DPHI.DEC    45 890 12 00:   DENSITY POROSITY SANDSTONE
~PARAMETER INFORMATION
#MNEM.UNIT          VALUE    DESCRIPTION
#----------   ------------   ------------------------------
 CLNT.            A2DTECH:   CLIENT CODE
 ORIG.           5" PRINT:   ORIGIN OF DATA
 UWI .       490251033700:   UNIQUE WELL ID
 DICO. A2D Technologies, Inc.:   DIGITIZING COMPANY
~OTHER INFORMATION
~A   DEPT      SPR        ILD        ILM       SGRD         CALD      GRD       CORR       RHOB       DPHI   
# ...
  251.0000   -44.9040     7.4782     7.6341    11.9677     8.3258   120.8546     0.0269     2.5022     0.0951
  251.5000   -45.0586     7.4253     7.5273    11.8013     8.3251   121.5982     0.0313     2.4961     0.1011
  252.0000   -45.0631     7.3728     7.4219    11.7998     8.3243   122.6420     0.0313     2.4878     0.1053
  252.5000   -45.0683     7.2701     7.3181    11.7982     8.3385   124.2864     0.0252     2.4803     0.1078
  253.0000   -45.2228     7.1652     7.1632    11.7967     8.3378   125.9309     0.0207     2.4735     0.1114
  253.5000   -45.2272     6.9715     7.0084    11.7136     8.3521   124.7042     0.0191     2.4658     0.1138
  254.0000   -45.3817     6.8270     6.8231    11.6311     8.3514   124.4131     0.0213     2.4478     0.1192
  254.5000   -45.3861     6.6393     6.6351    10.9852     8.3507   124.4059     0.0250     2.4297     0.1271
  255.0000   -45.3905     6.4568     6.3635    10.1217     8.3498   125.2996     0.0264     2.4101     0.1331
  255.5000   -45.2447     6.1929     6.0609     9.7079     8.3340   126.1933     0.0294     2.3868     0.1368
  256.0000   -45.4003     5.7377     5.7329     9.3110     8.3333   121.9818     0.0308     2.3620     0.1422
  256.5000   -45.2534     5.3901     5.2745     8.7464     8.3326   123.3379     0.0338     2.3446     0.1461
  257.0000   -45.2589     4.9513     4.7512     8.1593     8.3319   123.6190     0.0382     2.3188     0.1527
  257.5000   -45.2632     4.2283     4.2048     7.8802     8.3311   121.2076     0.0449     2.2904     0.1627
  258.0000   -45.4178     3.7580     3.6512     7.1998     8.3304   119.5488     0.0426     2.2663     0.1669
  258.5000   -45.4221     3.4818     3.4298     6.3372     8.3296   120.2923     0.0305     2.2482     0.1735
  259.0000   -45.4265     3.2482     3.1995     5.3047     8.3288   121.0358     0.0244     2.2234     0.1788
  259.5000   -45.5811     2.9681     3.0055     4.6816     8.3281   121.1787     0.0214     2.2106     0.1811
  260.0000   -45.7366     2.8076     2.7844     4.0747     8.3273   119.5181     0.0213     2.2030     0.1769
  260.5000   -45.8911     2.7116     2.6337     3.6210     8.3266   119.0622     0.0198     2.2686     0.1631
  261.0000   -45.8955     2.7498     2.6883     4.2467     8.3259   121.9060     0.0197     2.3375     0.1474
  261.5000   -45.8999     2.8554     2.9263     5.2646     8.3251   126.8538     0.0241     2.3863     0.1369
  262.0000   -45.9042     3.0276     3.3073     6.2315     8.3243   131.2009     0.0271     2.4201     0.1237
  262.5000   -46.0587     3.3122     3.6684     4.9448     8.3235   133.5961     0.0360     2.4682     0.1090
  263.0000   -46.0631     3.6742     4.0690     8.2027     8.3228   133.7390     0.0450     2.4975     0.0981
  263.5000   -46.2177     4.1901     4.5133     9.7544     8.3221   134.1805     0.0479     2.5133     0.0879
  264.0000   -46.2231     4.6480     5.0409     9.8897     8.3214   135.2243     0.0479     2.5123     0.0873
  264.5000   -46.3776     4.9804     5.3268     9.6844     8.3206   137.1690     0.0486     2.5087     0.0913
  265.0000   -46.5321     5.2293     5.4751     9.5498     8.3198   139.4140     0.0492     2.5064     0.0922
  265.5000   -46.6866     5.4159     5.5907     9.3519     8.3190   139.5750     0.0492     2.5041     0.0919
  266.0000   -46.8411     5.5227     5.7442     9.1582     8.3183   138.9492     0.0491     2.5026     0.0916
  266.5000   -46.8455     5.5987     5.8630     9.1569     8.3176   140.4416     0.0476     2.4995     0.0922
  267.0000   -47.0000     5.6366     5.8616     9.2833     8.3319   140.8867     0.0445     2.4972     0.0937
  267.5000   -47.1547     5.6354     5.7397     9.4773     8.3161   140.5773     0.0399     2.4948     0.0977
  268.0000   -47.3102     5.5956     5.5048     9.7426     8.3154   139.0686     0.0369     2.4874     0.1016
  268.5000   -47.3145     5.4042     5.2795     9.9461     8.3146   138.4608     0.0368     2.4776     0.1069
  269.0000   -47.3183     5.2186     5.0986     9.8761     8.3138   139.0661     0.0338     2.4647     0.1146
  269.5000   -47.3233     5.0358     4.9239     8.1885     8.3130   140.0962     0.0307     2.4549     0.1224
  270.0000   -47.3276     4.9021     4.8214     5.7882     8.3273   139.7887     0.0261     2.4459     0.1299
  270.5000   -47.4821     4.8338     4.7867     7.5477     8.3266   137.9797     0.0246     2.4421     0.1267
  271.0000   -47.4865     4.7996     4.8523     8.5328     8.3259   136.1707     0.0200     2.4474     0.1212
  271.5000   -47.6411     4.7656     4.9188     8.3560     8.3251   134.0613     0.0169     2.4488     0.1176
  272.0000   -47.6465     4.7981     4.9521     6.7857     8.3243   133.6037     0.0184     2.4532     0.1180
  272.5000   -47.8010     4.8640     5.1250     8.6486     8.3385   135.5466     0.0258     2.4788     0.1105
  273.0000   -47.8603     4.9312     5.3412     9.6623     8.3378   136.1418     0.0333     2.4945     0.1023
  273.5000   -47.9599     5.1130     5.4899     9.0137     8.3521   135.3820     0.0392     2.5020     0.0948
  274.0000   -48.2645     5.4686     5.6463     8.7611     8.3514   134.7742     0.0437     2.5140     0.0894
  274.5000   -48.4191     5.7791     5.9212     9.7406     8.3507   134.0162     0.0466     2.5215     0.0831
  275.0000   -48.2733     6.1072     6.2138    10.6543     8.3498   132.9579     0.0473     2.5267     0.0779
  275.5000   -48.4279     6.3652     6.4758    11.1696     8.3490   132.5000     0.0465     2.5259     0.0783
  276.0000   -48.5834     6.6341     6.7958    11.4823     8.3483   136.5453     0.0464     2.5161     0.0850
  276.5000   -48.5871     6.8193     6.9850    11.7225     8.3476   134.1357     0.0449     2.5018     0.0928
  277.0000   -48.5921     6.9612     7.1795    11.8026     8.3469   132.9273     0.0403     2.5092     0.0883
  277.5000   -48.4453     7.0571     7.2779    11.8007     8.3461   134.7219     0.0372     2.5152     0.0853
  278.0000   -48.4507     7.0555     7.2734    11.7991     8.3304   133.6636     0.0357     2.5084     0.0869
  278.5000   -48.4551     7.1036     7.2241    11.7976     8.3296   132.8874     0.0394     2.5061     0.0893
  279.0000   -48.4595     7.1021     7.1226    11.7144     8.3288   132.1458     0.0461     2.5106     0.0878
  279.5000   -48.4640     7.0032     7.0230    11.3921     8.3130   131.8383     0.0430     2.5143     0.0857
  280.0000   -48.4693     6.8580     6.8769    10.9264     8.3123   132.2816     0.0399     2.5120     0.0866
  280.5000   -48.4736     6.7158     6.6874    10.6260     8.3116   134.0779     0.0414     2.5000     0.0944
  281.0000   -48.4780     6.5312     6.5483    10.4059     8.3109   133.1561     0.0488     2.4954     0.0978
  281.5000   -48.4824     6.3867     6.4121    10.2612     8.3101   135.2868     0.0503     2.4976     0.0945
  282.0000   -48.4867     6.1768     6.1918    10.0486     8.3394   135.1037     0.0502     2.4983     0.0939
  282.5000   -48.4911     6.0070     5.9747     9.8392     8.3385   135.8473     0.0486     2.4968     0.0951
  283.0000   -48.4955     5.8419     5.7351     9.6271     8.3378   137.0430     0.0456     2.4938     0.0978
  283.5000   -48.3497     5.6421     5.5004     9.3713     8.3521   135.8328     0.0380     2.4900     0.1027
  284.0000   -48.3551     5.4491     5.3488     9.1137     8.3514   135.2250     0.0320     2.4802     0.1081
  284.5000   -48.3595     5.2993     5.2376     8.8632     8.3507   135.3679     0.0244     2.4679     0.1134
  285.0000   -48.3639     5.1894     5.1643     8.1543     8.3498   135.2088     0.0213     2.4583     0.1178
  285.5000   -48.3682     5.1108     5.1989     6.9031     8.3490   134.0003     0.0221     2.4545     0.1181
  286.0000   -48.3726     5.0109     5.2338     9.6956     8.3483   131.8910     0.0242     2.4604     0.1142
  286.5000   -48.2267     5.0100     5.1964    10.9834     8.3626   133.2352     0.0241     2.4792     0.1085
  287.0000   -48.2312     5.0790     5.3407     9.2096     8.3619   137.2820     0.0211     2.4927     0.1028
