~VERSION INFORMATION
 VERS.                2.0:   CWLS LOG ASCII STANDARD - VERSION 2.0
 WRAP.                 NO:   ONE LINE PER DEPTH STEP
~WELL INFORMATION
#MNEM.UNIT      DATA TYPE    INFORMATION
#----------   ------------   ------------------------------
 STRT.F          190.0000:   START DEPTH
 STOP.F         3246.0000:   STOP DEPTH
 STEP.F            0.5000:   STEP LENGTH
 NULL.          -999.2500:   NO VALUE
 COMP. BROWN JOHN E&C INC:   COMPANY
 WELL.      STX-15 #84-15:   WELL
 FLD .             TEAPOT:   FIELD
 LOC .      S15 T38N R78W:   LOCATION
 CNTY.            NATRONA:   COUNTY
 STAT.            WYOMING:   STATE
 CTRY. UNITED STATES OF AMERICA:   COUNTRY
 SRVC.           BIRDWELL:   SERVICE COMPANY
 DATE.        17-MAR-1978:   LOGDATE
 API .       490251111600:   API NUMBER
~CURVE INFORMATION
#MNEM.UNIT       API CODE    CURVE DESCRIPTION
#----------   ------------   ------------------------------
 DEPT.F                  :   
 ILD .OHMM   05 120 46 00:   INDUCTION LOG DEEP
 SN  .OHMM   05 040 16 00:   SHORT NORMAL 16"
 SPR .MV     05 010 01 00:   SPONTANEOUS POTENTIAL FROM RES.
 GRD .GAPI   45 310 01 00:   GAMMA RAY FROM DENSITY LOG
 CALD.IN     45 280 60 00:   CALIPER
 RHOB.G/C3   45 350 01 00:   BULK DENSITY
 CORR.G/C3   45 356 01 00:   DENSITY CORRECTION
 DPHI.DEC    45 890 12 00:   DENSITY POROSITY SANDSTONE
~PARAMETER INFORMATION
#MNEM.UNIT          VALUE    DESCRIPTION
#----------   ------------   ------------------------------
 PD  .                 GL:   PERMANENT DATUM
 EPD .F              5241:   ELEVATION PERMANENT DATUM
 LMF .                 KB:   LOG MEASURED FROM
 DAPD.F                10:   FEET ABOVE PERMANENT DATUM
 DMF .                 KB:   DRILLING MEASURED FROM
 EKB .F              5251:   KELLING BUSHING
 EGL .F              5241:   GROUND LEVEL
 DATE.            3-17-78:   RUN DATE
 RUN .                  1:   RUN NUMBER
 DD  .F              3250:   DEPTH DRILLER
 DL  .F              3250:   DEPTH LOGGER
 BLI .F              3244:   BOTTOM LOG INTERVAL
 TLI .F               224:   TOP LOG INTERVAL
 CS  .IN            8.625:   CASING SIZE
 CBL .F               224:   CASING BOTTOM LOGGER
 BS  .IN            7.875:   BIT SIZE
 BSD .F              3250:   BIT SIZE AT DEPTH
 DFD .                8.9:   DRILLING FLUID DENSITY
 DFV .                 31:   DRILLING FLUID VISCOSITY
 DFPH.               10.5:   DRILLING FLUID PH
 DFL .                  8:   DRILLING FLUID LOSS
 MSS .           FLOWLINE:   MUD SAMPLE SOURCE
 RMS .OHMM            1.3:   RESISTIVITY MUD SAMPLE
 MST .F                70:   MUD SAMPLE TEMPERATURE
 RMF .OHMM            1.1:   RESISTIVITY MUD FILTRATE SAMPLE
 MFST.F                70:   MUD FILTRATE SAMPLE TEMPERATURE
 RMC .OHMM            1.4:   RESISTIVITY MUD CAKE
 MCST.F                70:   MUD CAKE SAMPLE TEMPERATURE
 MFSS.               MEAS:   MUD FILTRATE SAMPLE SOURCE
 MCSS.               MEAS:   MUD CAKE SAMPLE SOURCE
 RMB .OHMM            .77:   RESISTIVITY MUD AT BHT
 BHT .F               118:   BOTTOM HOLE TEMPERATURE
 TCS .HRS               6:   TIME CURCULATED STOPPED
 MRT .F               118:   MAXIMUM RECORDED TEMPERATURE
 LUN .               2958:   LOGGING UNIT NUMBER
 LUL .               CASP:   LOGGING UNIT LOCATION
 ENGI.             MILLER:   RECORDING ENGINEER
 WITN.           MCGINLEY:   WITNESSED BY
 CLNT.            A2DTECH:   CLIENT CODE
 ORIG.     1", 2.5" PRINT:   ORIGIN OF DATA
 UWI .       490251111600:   UNIQUE WELL ID
 DICO. A2D Technologies, Inc.:   DIGITIZING COMPANY
~OTHER INFORMATION
~A   DEPT      ILD         SN        SPR         GRD      CALD       RHOB       CORR       DPHI   
# ...
 1202.5000     8.7805     7.9193   -33.5228    74.6715    12.8428     2.5342     0.0257     0.0792
 1203.0000     8.7211     7.8711   -33.4704    78.8212    12.8436     2.5269     0.0183     0.0830
 1203.5000     8.6621     7.8231   -33.4179    82.8625    12.8443     2.5195     0.0114     0.0869
 1204.0000     8.6032     7.7755   -33.3646    82.8463    12.8451     2.5116     0.0046     0.0907
 1204.5000     8.5773     7.7281   -33.3122    79.9949    12.8459     2.5039    -0.0026     0.0944
 1205.0000     8.5633     7.6810   -33.2675    78.1927    12.8466     2.4960    -0.0088     0.0982
 1205.5000     8.5493     7.6342   -33.2665    77.8649    12.8474     2.4886    -0.0115     0.1020
 1206.0000     8.5353     7.5876   -33.2653    78.4570    12.8481     2.4796    -0.0086     0.1020
 1206.5000     8.5213     7.5416   -33.2656    80.9110    12.8489     2.4815    -0.0064     0.0986
 1207.0000     8.5074     7.4960   -33.2663    82.4906    12.8497     2.4877    -0.0041     0.0944
 1207.5000     8.4935     7.4506   -33.2644    81.5987    12.8504     2.4941    -0.0016     0.0902
 1208.0000     8.4795     7.4103   -33.2656    80.0794    12.8512     2.5000     0.0007     0.0869
 1208.5000     8.4657     7.4144   -33.2689    78.6294    12.8519     2.5070     0.0031     0.0883
 1209.0000     8.4520     7.4195   -33.2535    77.4561    12.8527     2.5055     0.0054     0.0920
 1209.5000     8.4373     7.4246   -33.3916    79.6246    12.8534     2.4973     0.0078     0.0956
 1210.0000     8.4297     7.4299   -33.6218    82.7035    12.8542     2.4973     0.0102     0.0964
 1210.5000     8.4305     7.4354   -33.8366    83.7608    12.8549     2.5026     0.0125     0.0923
 1211.0000     8.4304     7.4408   -34.0507    81.9430    12.8557     2.5071     0.0149     0.0890
 1211.5000     8.4303     7.4462   -34.2594    80.4662    12.8565     2.5117     0.0172     0.0856
 1212.0000     8.4304     7.4517   -34.4797    78.9463    12.8572     2.5164     0.0199     0.0829
 1212.5000     8.4304     7.4571   -34.3313    77.4546    12.8580     2.5213     0.0201     0.0853
 1213.0000     8.4304     7.4626   -34.0551    76.6996    12.8587     2.5204     0.0203     0.0877
 1213.5000     8.4304     7.4681   -33.7885    77.7934    12.8595     2.5154     0.0185     0.0853
 1214.0000     8.4304     7.4735   -33.5291    78.9174    12.8602     2.5219     0.0142     0.0829
 1214.5000     8.4304     7.4790   -33.2651    77.9708    12.8610     2.5220     0.0100     0.0869
 1215.0000     8.4304     7.4845   -32.9961    78.7287    12.8617     2.5133     0.0059     0.0908
 1215.5000     8.4304     7.4900   -32.7422    80.8523    12.8625     2.5047     0.0014     0.0900
 1216.0000     8.4304     7.4955   -32.4779    82.4410    12.8633     2.5065     0.0018     0.0879
 1216.5000     8.4304     7.5010   -32.5228    84.0173    12.8640     2.5130     0.0057     0.0858
 1217.0000     8.4304     7.5065   -32.5800    82.2997    12.8648     2.5203     0.0092     0.0837
 1217.5000     8.4304     7.5120   -32.6507    80.5165    12.8655     2.5194     0.0127     0.0816
 1218.0000     8.4304     7.5175   -32.7130    79.0325    12.8663     2.5173     0.0164     0.0794
 1218.5000     8.4304     7.5230   -32.7778    79.3702    12.8671     2.5221     0.0197     0.0773
 1219.0000     8.4304     7.5285   -32.8431    79.6547    12.8678     2.5293     0.0238     0.0765
 1219.5000     8.4304     7.5340   -32.9075    79.6050    12.8686     2.5324     0.0235     0.0776
 1220.0000     8.4304     7.5396   -32.9723    79.4863    12.8693     2.5296     0.0220     0.0786
 1220.5000     8.4304     7.5451   -33.0374    79.7197    12.8701     2.5274     0.0203     0.0795
 1221.0000     8.4304     7.5506   -33.1010    79.9194    12.8708     2.5252     0.0188     0.0805
 1221.5000     8.4304     7.5562   -33.1664    80.1231    12.8716     2.5230     0.0175     0.0815
 1222.0000     8.4304     7.5617   -33.2332    80.1003    12.8723     2.5230     0.0140     0.0824
 1222.5000     8.4304     7.5673   -33.2656    79.8752    12.8731     2.5227     0.0130     0.0834
 1223.0000     8.4304     7.5728   -33.1954    79.6577    12.8739     2.5204     0.0161     0.0843
 1223.5000     8.4304     7.5784   -33.1313    79.5312    12.8746     2.5150     0.0189     0.0853
 1224.0000     8.4304     7.5839   -33.0637    79.0735    12.8754     2.5103     0.0219     0.0829
 1224.5000     8.4304     7.5895   -32.9969    80.3899    12.8761     2.5158     0.0245     0.0789
 1225.0000     8.4304     7.5950   -32.9303    82.8903    12.8769     2.5250     0.0278     0.0749
 1225.5000     8.4304     7.6006   -32.8635    85.4606    12.8776     2.5338     0.0235     0.0709
 1226.0000     8.4305     7.6062   -32.7964    87.3729    12.8784     2.5403     0.0180     0.0743
 1226.5000     8.4305     7.6118   -32.7297    86.8252    12.8800     2.5352     0.0124     0.0777
 1227.0000     8.4304     7.6174   -32.6638    83.2032    12.8829     2.5309     0.0149     0.0804
 1227.5000     8.4307     7.6229   -32.5942    79.5714    12.8858     2.5265     0.0174     0.0784
 1228.0000     8.4302     7.6285   -32.5319    78.6304    12.8888     2.5214     0.0202     0.0767
 1228.5000     8.4295     7.6341   -32.4680    78.5698    12.8917     2.5230     0.0234     0.0760
 1229.0000     8.4069     7.6397   -32.5653    78.8208    12.8946     2.5260     0.0209     0.0768
 1229.5000     8.3824     7.6453   -32.6732    79.9279    12.8975     2.5287     0.0144     0.0784
 1230.0000     8.3573     7.6509   -32.7872    81.0240    12.9004     2.5295     0.0084     0.0813
 1230.5000     8.3328     7.6566   -32.8973    82.1670    12.9034     2.5159     0.0023     0.0842
 1231.0000     8.3081     7.6621   -33.0085    81.9870    12.9063     2.5023     0.0000     0.0871
 1231.5000     8.2836     7.6680   -33.1200    81.6883    12.9092     2.5029     0.0023     0.0900
 1232.0000     8.2591     7.6735   -33.2310    81.4808    12.9124     2.5076     0.0040     0.0912
 1232.5000     8.2348     7.6787   -33.3425    82.4074    12.9147     2.5137     0.0059     0.0924
 1233.0000     8.2105     7.6845   -33.4538    83.4020    12.9180     2.5103     0.0078     0.0904
 1233.5000     8.1864     7.6716   -33.5644    83.6201    12.8971     2.5016     0.0096     0.0884
 1234.0000     8.1620     7.6467   -33.6772    82.9935    12.8701     2.4960     0.0115     0.0861
 1234.5000     8.1373     7.6220   -33.7868    82.4288    12.8429     2.5109     0.0133     0.0865
 1235.0000     8.1193     7.5978   -33.8969    81.8442    12.8147     2.5138     0.0152     0.0871
 1235.5000     8.1081     7.5740   -34.0196    81.3131    12.7928     2.5118     0.0170     0.0877
 1236.0000     8.0970     7.5501   -34.0326    80.6749    12.7799     2.5115     0.0189     0.0834
 1236.5000     8.0859     7.5262   -33.9062    81.4660    12.7657     2.5203     0.0207     0.0792
 1237.0000     8.0747     7.5024   -33.7931    82.6138    12.7510     2.5271     0.0225     0.0741
 1237.5000     8.0634     7.4787   -33.6784    83.7178    12.7376     2.5345     0.0245     0.0752
 1238.0000     8.0522     7.4551   -33.5616    84.4277    12.7214     2.5333     0.0262     0.0766
 1238.5000     8.0410     7.4316   -33.4465    82.6107    12.7139     2.5321     0.0279     0.0781
 1239.0000     8.0299     7.4082   -33.3308    81.4666    12.7052     2.5317     0.0260     0.0677
 1239.5000     8.0188     7.3848   -33.2159    81.9846    12.6972     2.5408     0.0239     0.0696
 1240.0000     8.0075     7.3615   -33.0982    82.6488    12.6889     2.5457     0.0218     0.0744
 1240.5000     7.9969     7.3382   -32.9864    83.3350    12.6806     2.5378     0.0196     0.0769
 1241.0000     7.9851     7.3151   -32.8696    82.6692    12.6724     2.5298     0.0176     0.0759
 1241.5000     7.9742     7.2920   -32.8638    81.9485    12.6641     2.5301     0.0154     0.0749
 1242.0000     7.9468     7.2690   -32.8604    81.4617    12.6558     2.5315     0.0131     0.0739
 1242.5000     7.9218     7.2460   -32.8624    81.9402    12.6476     2.5331     0.0128     0.0725
