~VERSION INFORMATION
 VERS.                2.0:   CWLS LOG ASCII STANDARD - VERSION 2.0
 WRAP.                 NO:   ONE LINE PER DEPTH STEP
~WELL INFORMATION
#MNEM.UNIT      DATA TYPE    INFORMATION
#----------   ------------   ------------------------------
 STRT.F           20.0000:   START DEPTH
 STOP.F          678.0000:   STOP DEPTH
 STEP.F            0.5000:   STEP LENGTH
 NULL.          -999.2500:   NO VALUE
 COMP. FENIX & SCISSON INC:   COMPANY
 WELL. 27-42 SX 11 WO #27-11:   WELL
 FLD .        TEAPOT DOME:   FIELD
 LOC .      S11 T38N R78W:   LOCATION
 CNTY.            NATRONA:   COUNTY
 STAT.            WYOMING:   STATE
 CTRY. UNITED STATES OF AMERICA:   COUNTRY
 SRVC.      Dresser Atlas:   SERVICE COMPANY
 DATE.        13-AUG-1985:   LOGDATE
 API .       490251083800:   API NUMBER
~CURVE INFORMATION
#MNEM.UNIT       API CODE    CURVE DESCRIPTION
#----------   ------------   ------------------------------
 DEPT.F                  :   
 RHOB.G/C3   45 350 01 00:   BULK DENSITY
 CORR.G/C3   45 356 01 00:   DENSITY CORRECTION
 CALD.IN     45 280 60 00:   CALIPER
 GRD .GAPI   45 310 01 00:   GAMMA RAY FROM DENSITY LOG
 DPOR.DEC    45 890 12 00:   DENSITY POROSITY SANDSTONE
 NPOR.DEC    42 890 03 00:   NEUTRON POROSITY SANDSTONE
 SPR .MV     07 010 01 00:   SPONTANEOUS POTENTIAL
 SFL .OHMM   07 220 01 00:   SHALLOW FOCUSED LOG RESISTIVITY
 ILD .OHMM   07 120 46 00:   INDUCTION LOG DEEP
 ILM .OHMM   07 120 44 00:   INDUCTION LOG MEDIUM
~PARAMETER INFORMATION
#MNEM.UNIT          VALUE    DESCRIPTION
#----------   ------------   ------------------------------
 PD  .                 GL:   PERMANENT DATUM
 EPD .F              5188:   ELEVATION PERMANENT DATUM
 LMF .                 KB:   LOG MEASURED FROM
 DAPD.F                 5:   FEET ABOVE PERMANENT DATUM
 DMF .                 KB:   DRILLING MEASURED FROM
 EKB .F              5193:   KELLING BUSHING
 EGL .F              5188:   GROUND LEVEL
 DATE.          8-13-1985:   RUN DATE
 RUN .                  8:   RUN NUMBER
 DD  .F               632:   DEPTH DRILLER
 BLI .F               598:   BOTTOM LOG INTERVAL
 TLI .F               303:   TOP LOG INTERVAL
 CBL .F               303:   CASING BOTTOM LOGGER
 BS  .IN              .75:   BIT SIZE
 BSD .F               632:   BIT SIZE AT DEPTH
 DFT .          KCL WATER:   DRILLING FLUID TYPE
 LUN .            HL-6274:   LOGGING UNIT NUMBER
 LUL .           GILLETTE:   LOGGING UNIT LOCATION
 ENGI.             RAUTIO:   RECORDING ENGINEER
 WITN.            SCHULTE:   WITNESSED BY
 CLNT.            A2DTECH:   CLIENT CODE
 ORIG.           2" PRINT:   ORIGIN OF DATA
 UWI .       490251083800:   UNIQUE WELL ID
 DICO. A2D Technologies, Inc.:   DIGITIZING COMPANY
~OTHER INFORMATION
~A   DEPT     RHOB       CORR       CALD        GRD       DPOR       NPOR        SPR        SFL        ILD          ILM 
# ...
  254.5000     2.5123     0.0381     9.0080   125.0445     0.0957     0.3295    -9.7250     8.2691     7.2238     6.8375
  255.0000     2.5176     0.0353     9.0080   123.7049     0.0888     0.3350    -9.7644     8.3216     7.2239     6.8375
  255.5000     2.5281     0.0329     9.0080   123.0801     0.0914     0.3322    -9.7608     8.3743     7.2241     6.8375
  256.0000     2.5290     0.0319     9.0080   125.0037     0.0976     0.3267    -9.7611     8.4273     7.2095     6.8375
  256.5000     2.5210     0.0365     9.0082   125.7572     0.0917     0.3212    -9.7616     8.4807     7.1834     6.8375
  257.0000     2.5234     0.0417     9.0079   123.7167     0.0832     0.3218    -9.7611     8.5214     7.1574     6.8243
  257.5000     2.5381     0.0468     9.0078   122.9831     0.0914     0.3247    -9.7611     8.4643     7.1313     6.8114
  258.0000     2.5280     0.0503     9.0091   124.2718     0.1010     0.3275    -9.7612     8.3978     7.1053     6.7986
  258.5000     2.5087     0.0378     8.9968   122.8978     0.1056     0.3299    -9.7611     8.3318     7.0794     6.7856
  259.0000     2.5078     0.0317     8.9769   120.4518     0.1016     0.3281    -9.7611     8.2663     7.0536     6.7728
  259.5000     2.5143     0.0391     8.9579   118.6357     0.0952     0.3229    -9.7614     8.2144     7.0278     6.7602
  260.0000     2.5224     0.0499     8.9381   121.0893     0.0944     0.3180    -9.7610     8.2481     7.0024     6.7477
  260.5000     2.5225     0.0489     8.9291   120.8507     0.0992     0.3235    -9.7613     8.3273     6.9769     6.7344
  261.0000     2.5164     0.0408     8.9348   119.8463     0.1061     0.3283    -9.7626     8.3681     6.9639     6.7213
  261.5000     2.4990     0.0323     8.9392   120.0223     0.1144     0.3306    -9.7409     8.3679     6.9640     6.7132
  262.0000     2.4883     0.0275     8.9435   118.8333     0.1110     0.3315    -9.6754     8.3673     6.9643     6.7132
  262.5000     2.5041     0.0283     8.9482   116.4057     0.1048     0.3301    -9.6117     8.3665     6.9646     6.7132
  263.0000     2.5060     0.0322     8.9527   116.8076     0.1040     0.3259    -9.5476     8.3662     6.9901     6.7783
  263.5000     2.5098     0.0353     8.9572   117.8129     0.1028     0.3282    -9.4824     8.3665     7.1035     6.8861
  264.0000     2.5129     0.0391     8.9617   117.1395     0.1000     0.3299    -9.4186     8.4174     7.2179     6.9956
  264.5000     2.5157     0.0375     8.9661   118.2786     0.1027     0.3253    -9.3641     8.6003     7.3350     7.1069
  265.0000     2.5086     0.0301     8.9705   118.6621     0.1096     0.3215    -9.3630     8.7872     7.4540     7.2199
  265.5000     2.4949     0.0231     8.9749   118.3338     0.1152     0.3201    -9.3623     8.9783     7.5750     7.3346
  266.0000     2.4904     0.0159     8.9793   118.5794     0.1194     0.3188    -9.3621     9.1691     7.6979     7.4514
  266.5000     2.4780     0.0082     8.9836   119.9732     0.1297     0.3131    -9.3625     9.2002     7.8228     7.5699
  267.0000     2.4633     0.0034     8.9879   120.1605     0.1351     0.3076    -9.3630     9.3261     7.9497     7.6903
  267.5000     2.4572     0.0056     8.9923   118.4197     0.1303     0.2820    -9.3600     9.4540     8.0787     7.8126
  268.0000     2.4755     0.0147     8.9965   116.8931     0.1146     0.2860    -9.3601     9.5131     8.2098     7.9369
  268.5000     2.5034     0.0317     9.0008   115.1677     0.1048     0.2934    -9.1984     9.5131     8.3430     8.0631
  269.0000     2.4970     0.0268     9.0055   113.2605     0.1117     0.3049    -9.0967     9.4248     8.4783     8.1913
  269.5000     2.4836     0.0163     9.0073   111.3760     0.1184     0.3121    -9.0399     9.3401     8.6159     8.3216
  270.0000     2.4918     0.0125     9.0041   110.6318     0.0944     0.3101    -9.4069     9.5604     8.7557     8.4538
  270.5000     2.5092     0.0262     9.0012   110.7341     0.0887     0.2962    -9.3538     9.7758     8.8977     8.5880
  271.0000     2.5261     0.0371     8.9984   111.8004     0.0821     0.2857    -9.2806     9.9960     9.0421     8.7241
  271.5000     2.5419     0.0486     8.9955   112.2425     0.0792     0.2894    -9.0218    10.2236     9.1873     8.8624
  272.0000     2.5479     0.0516     8.9926   111.5177     0.0913     0.2903    -8.7598    10.4541     9.3359     9.0028
  272.5000     2.5279     0.0418     8.9897   110.8742     0.1016     0.2870    -8.5085    10.6899     9.5162     9.1735
  273.0000     2.5076     0.0315     8.9868   110.2213     0.1120     0.2844    -8.2464    10.8201     9.5108     9.1703
  273.5000     2.4842     0.0211     8.9839   109.5369     0.1223     0.2820    -8.1609    10.8147     9.5160     9.1703
  274.0000     2.4771     0.0123     8.9810   109.5661     0.1273     0.2820    -8.1635    10.8151     9.5156     9.1703
  274.5000     2.4689     0.0123     8.9781   111.0238     0.1251     0.2793    -8.1972    10.7843     9.4420     9.0692
  275.0000     2.4729     0.0169     8.9753   111.0459     0.1189     0.2756    -8.2872    10.6884     9.3809     8.9809
  275.5000     2.4819     0.0220     8.9724   110.1052     0.1127     0.2740    -8.3774    10.5929     9.3202     8.8933
  276.0000     2.4930     0.0273     8.9689   109.4273     0.1073     0.2762    -8.4670    10.4993     9.2597     8.8067
  276.5000     2.5027     0.0328     8.9739   110.1762     0.1095     0.2822    -8.5567    10.4065     9.1996     8.7208
  277.0000     2.4992     0.0362     8.9876   111.8376     0.1112     0.2932    -8.6483    10.3146     9.1398     8.6358
  277.5000     2.4942     0.0360     9.0007   111.3785     0.1120     0.3046    -8.7353    10.2234     9.0804     8.5517
  278.0000     2.4871     0.0338     9.0133   110.4228     0.1195     0.3080    -8.8238    10.1331     9.0214     8.4683
  278.5000     2.4779     0.0285     9.0264   109.4976     0.1279     0.3101    -8.9270    10.0435     8.9628     8.3858
  279.0000     2.4690     0.0233     9.0404   108.7260     0.1317     0.3083    -8.8753     9.9548     8.9046     8.3041
  279.5000     2.4596     0.0181     9.0471   109.6279     0.1343     0.3095    -8.6294     9.8668     8.8404     8.2144
  280.0000     2.4501     0.0130     9.0418   110.6348     0.1399     0.3162    -8.4083     9.7796     8.7938     8.2144
  280.5000     2.4452     0.0080     9.0375   110.1555     0.1407     0.3188    -8.1841     9.6892     8.7419     8.2144
  281.0000     2.4531     0.0096     9.0332   109.5139     0.1341     0.3158    -8.1731     9.6892     8.6902     8.2144
  281.5000     2.4602     0.0163     9.0287   108.8343     0.1248     0.3127    -8.3652     9.6892     8.6794     8.2144
  282.0000     2.4701     0.0195     9.0243   108.8813     0.1265     0.3096    -8.6275     9.6892     8.6794     8.2144
  282.5000     2.4656     0.0167     9.0199   109.0254     0.1339     0.3065    -8.8850     9.6892     8.6794     8.2144
  283.0000     2.4531     0.0147     9.0154   108.1532     0.1399     0.3049    -8.9599     9.6892     8.6795     8.2144
  283.5000     2.4480     0.0123     9.0110   108.8460     0.1400     0.3064    -8.7564     9.6887     8.6802     8.2144
  284.0000     2.4575     0.0201     9.0066   110.0727     0.1299     0.3020    -8.5296     9.6878     8.6601     8.2144
  284.5000     2.4761     0.0285     9.0022   109.4210     0.1192     0.3042    -8.2864     9.6868     8.6052     8.2042
  285.0000     2.4827     0.0349     8.9978   111.0033     0.1281     0.3079    -8.1565     9.6913     8.5507     8.1536
  285.5000     2.4705     0.0254     8.9934   110.6361     0.1322     0.3076    -8.1693     9.5608     8.4970     8.1036
  286.0000     2.4600     0.0167     8.9890   109.5945     0.1327     0.3104    -8.1675     9.4418     8.4435     8.0538
  286.5000     2.4592     0.0160     8.9845   109.1401     0.1335     0.3137    -8.1649     9.3243     8.3903     8.0042
  287.0000     2.4604     0.0166     8.9802   110.6475     0.1315     0.3164    -8.1668     9.2076     8.3375     7.9549
  287.5000     2.4650     0.0195     8.9757   112.1983     0.1279     0.3146    -8.1665     9.0921     8.2850     7.9059
