~VERSION INFORMATION
 VERS.                2.0:   CWLS LOG ASCII STANDARD - VERSION 2.0
 WRAP.                 NO:   ONE LINE PER DEPTH STEP
~WELL INFORMATION
#MNEM.UNIT      DATA TYPE    INFORMATION
#----------   ------------   ------------------------------
 STRT.F           15.0000:   START DEPTH
 STOP.F          692.0000:   STOP DEPTH
 STEP.F            0.5000:   STEP LENGTH
 NULL.          -999.2500:   NO VALUE
 COMP.    FENIX & SCISSON:   COMPANY
 WELL. S 15 NPR #3 #73-15:   WELL
 FLD .             TEAPOT:   FIELD
 LOC .      S15 T38N R78W:   LOCATION
 CNTY.            NATRONA:   COUNTY
 STAT.            WYOMING:   STATE
 CTRY. UNITED STATES OF AMERICA:   COUNTRY
 SRVC.              Welex:   SERVICE COMPANY
 DATE.        23-FEB-1977:   LOGDATE
 API .       490251057900:   API NUMBER
~CURVE INFORMATION
#MNEM.UNIT       API CODE    CURVE DESCRIPTION
#----------   ------------   ------------------------------
 DEPT.F                  :   
 SPR .MV     07 010 01 00:   SPONTANEOUS POTENTIAL
 SGRD.OHMM   07 220 05 00:   SHALLOW GUARD RESISTIVITY
 ILD .OHMM   07 120 46 00:   INDUCTION LOG DEEP
 ILM .OHMM   07 120 44 00:   INDUCTION LOG MEDIUM
 CALD.IN     45 280 60 00:   CALIPER
 GRD .GAPI   45 310 01 00:   GAMMA RAY FROM DENSITY LOG
 CORR.G/C3   45 356 01 00:   DENSITY CORRECTION
 DPHI.DEC    45 890 10 00:   DENSITY POROSITY SANDSTONE
 RHOB.G/C3   45 350 01 00:   BULK DENSITY
~PARAMETER INFORMATION
#MNEM.UNIT          VALUE    DESCRIPTION
#----------   ------------   ------------------------------
 PD  .                 GL:   PERMANENT DATUM
 EPD .F              5251:   ELEVATION PERMANENT DATUM
 LMF .                 GL:   LOG MEASURED FROM
 DMF .                 GL:   DRILLING MEASURED FROM
 EGL .F              5251:   GROUND LEVEL
 DATE.            2-23-77:   RUN DATE
 RUN .                  1:   RUN NUMBER
 DD  .F               686:   DEPTH DRILLER
 DL  .F               695:   DEPTH LOGGER
 BLI .F               693:   BOTTOM LOG INTERVAL
 TLI .F                42:   TOP LOG INTERVAL
 CS  .IN            8.625:   CASING SIZE
 CBD .F                42:   CASING BOTTOM DRILLER
 CBL .F                42:   CASING BOTTOM LOGGER
 BS  .IN            7.875:   BIT SIZE
 BSD .F               686:   BIT SIZE AT DEPTH
 DFT .           CHEM GEL:   DRILLING FLUID TYPE
 DFD .                8.8:   DRILLING FLUID DENSITY
 DFV .                 33:   DRILLING FLUID VISCOSITY
 DFPH.                  7:   DRILLING FLUID PH
 DFL .               11.2:   DRILLING FLUID LOSS
 MSS .          FLOW LINE:   MUD SAMPLE SOURCE
 RMS .OHMM            .32:   RESISTIVITY MUD SAMPLE
 MST .F                68:   MUD SAMPLE TEMPERATURE
 RMF .OHMM            .28:   RESISTIVITY MUD FILTRATE SAMPLE
 MFST.F                68:   MUD FILTRATE SAMPLE TEMPERATURE
 RMC .OHMM            .61:   RESISTIVITY MUD CAKE
 MCST.F                68:   MUD CAKE SAMPLE TEMPERATURE
 MFSS.           MEASURED:   MUD FILTRATE SAMPLE SOURCE
 MCSS.           MEASURED:   MUD CAKE SAMPLE SOURCE
 RMB .OHMM           .410:   RESISTIVITY MUD AT BHT
 BHT .F                53:   BOTTOM HOLE TEMPERATURE
 TCS .HRS               2:   TIME CURCULATED STOPPED
 MRT .F                53:   MAXIMUM RECORDED TEMPERATURE
 LUN .               8611:   LOGGING UNIT NUMBER
 LUL .           GILLETTE:   LOGGING UNIT LOCATION
 ENGI.            C. DOAK:   RECORDING ENGINEER
 WITN.         STUEBINGER:   WITNESSED BY
 CLNT.            A2DTECH:   CLIENT CODE
 ORIG. 1", 2.5", 5" PRINT:   ORIGIN OF DATA
 UWI .       490251057900:   UNIQUE WELL ID
 DICO. A2D Technologies, Inc.:   DIGITIZING COMPANY
~OTHER INFORMATION
~A   DEPT      SPR       SGRD        ILD        ILM       CALD         GRD      CORR       DPHI       RHOB   
# ...
  124.5000   -26.3889     9.4974     6.0761     8.5346     8.3565   128.1703     0.0813     0.1147     2.4590
  125.0000   -26.3888     9.4333     6.0825     8.4955     8.3599   121.5780     0.0796     0.1151     2.4593
  125.5000   -26.3888     9.3696     6.0890     8.4566     8.3633   121.5352     0.0781     0.1159     2.4641
  126.0000   -26.3888     9.3063     6.0954     8.4179     8.3665   123.9274     0.0767     0.1072     2.4664
  126.5000   -26.3885     9.2435     6.1019     8.3793     8.3703   126.2456     0.0793     0.1088     2.4639
  127.0000   -26.3888     9.1810     6.1082     8.3409     8.3705   128.4559     0.0819     0.1114     2.4603
  127.5000   -26.3887     9.1190     6.1147     8.3027     8.3706   126.9867     0.0847     0.1143     2.4561
  128.0000   -26.3873     9.0572     6.1211     8.2647     8.3705   124.3133     0.0874     0.1122     2.4595
  128.5000   -26.4068     9.0820     6.1274     8.2269     8.3705   125.2573     0.0900     0.1076     2.4675
  129.0000   -26.4641     9.1318     6.1337     8.1892     8.3705   127.0062     0.0924     0.1030     2.4755
  129.5000   -26.5197     9.1820     6.1471     8.1517     8.3705   124.4909     0.0911     0.0985     2.4831
  130.0000   -26.5760     9.2324     6.1697     8.0955     8.3705   125.7365     0.0891     0.0952     2.4895
  130.5000   -26.6324     9.2830     6.1924     8.1590     8.3705   129.5005     0.0870     0.0969     2.4850
  131.0000   -26.6886     9.3347     6.2151     8.2867     8.3705   131.5091     0.0850     0.1002     2.4810
  131.5000   -26.7449     9.3867     6.2379     8.4190     8.3705   130.0779     0.0830     0.1036     2.4765
  132.0000   -26.8011     9.4391     6.2727     8.5582     8.3706   128.4308     0.0810     0.1069     2.4722
  132.5000   -26.8574     9.4917     6.3272     8.5550     8.3705   128.0020     0.0790     0.1103     2.4676
  133.0000   -26.9136     9.5548     6.3821     8.5554     8.3706   129.2384     0.0770     0.1103     2.4678
  133.5000   -26.9698     9.3847     6.4375     8.5557     8.3706   123.1430     0.0771     0.1074     2.4718
  134.0000   -27.0260     9.0404     6.4877     8.5559     8.3690   117.1725     0.0778     0.1050     2.4729
  134.5000   -27.0822     9.1015     6.5634     8.5559     8.3623   116.7285     0.0786     0.1026     2.4768
  135.0000   -27.1385     9.2735     6.6324     8.5559     8.3557   116.8706     0.0793     0.1001     2.4806
  135.5000   -27.1945     9.4511     6.7027     8.5882     8.3490   118.1111     0.0800     0.0977     2.4846
  136.0000   -27.2508     9.6321     6.7737     8.6745     8.3422   121.2346     0.0807     0.0953     2.4884
  136.5000   -27.3063     9.7365     6.8455     8.7617     8.3355   120.9059     0.0814     0.0928     2.4920
  137.0000   -27.3626     9.7969     6.9180     8.8498     8.3287   119.9473     0.0822     0.0921     2.4913
  137.5000   -27.4203     9.8552     6.9842     8.9388     8.3220   118.8670     0.0828     0.0929     2.4902
  138.0000   -27.4713     9.9138     6.9239     9.0287     8.3152   117.8684     0.0836     0.0940     2.4890
  138.5000   -27.5346     9.9728     6.8693     9.1195     8.3086   117.1371     0.0850     0.0949     2.4879
  139.0000   -27.5963    10.0321     6.8152     9.2123     8.3019   117.5335     0.0885     0.0960     2.4868
  139.5000   -27.8657    10.1027     6.7616     9.1632     8.2945   119.9057     0.0873     0.0970     2.4856
  140.0000   -28.0984     9.9730     6.7083     9.0807     8.2919   120.5736     0.0868     0.0976     2.4845
  140.5000   -28.3465     9.8165     6.6555     8.9989     8.2969   120.3525     0.0862     0.0970     2.4841
  141.0000   -28.5887     9.6625     6.6031     8.9176     8.3011   119.9435     0.0855     0.0959     2.4859
  141.5000   -28.8305     9.5110     6.5511     8.8370     8.3055   121.4527     0.0848     0.0948     2.4870
  142.0000   -29.0757     9.3618     6.4995     8.7570     8.3099   122.9817     0.0844     0.0936     2.4897
  142.5000   -29.3164     9.2149     6.4483     8.6791     8.3143   125.3380     0.0822     0.0949     2.4888
  143.0000   -29.5594     9.0436     6.3975     8.5564     8.3187   124.4991     0.0800     0.0961     2.4878
  143.5000   -29.8141     9.0785     6.3636     8.5775     8.3231   122.1056     0.0777     0.0973     2.4869
  144.0000   -30.0487     9.1217     6.3520     8.6273     8.3277   119.7057     0.0755     0.0984     2.4816
  144.5000   -30.2568     9.1651     6.3404     8.6775     8.3291   119.7310     0.0732     0.1022     2.4739
  145.0000   -30.4774     9.2121     6.3288     8.7279     8.3231   122.7219     0.0711     0.1040     2.4756
  145.5000   -30.6992     9.1862     6.3173     8.7786     8.3173   125.6026     0.0688     0.1018     2.4791
  146.0000   -30.9173     9.1379     6.3058     8.8296     8.3111   128.1685     0.0700     0.0998     2.4822
  146.5000   -31.1397     9.0899     6.2945     8.8809     8.3054   128.5739     0.0715     0.0984     2.4857
  147.0000   -31.3571     9.0436     6.2828     8.9326     8.2997   127.1578     0.0731     0.1017     2.4806
  147.5000   -31.5772     9.2153     6.2711     8.9845     8.2922   125.4360     0.0746     0.1056     2.4751
  148.0000   -31.8120     9.3850     6.2531     9.0367     8.3020   123.3307     0.0762     0.1048     2.4705
  148.5000   -31.9875     9.5578     6.2736     9.0892     8.3272   121.2265     0.0766     0.1015     2.4762
  149.0000   -32.0652     9.7338     6.3453     9.1421     8.3500   119.1383     0.0765     0.0992     2.4780
  149.5000   -32.1583     9.9179     6.4178     9.1953     8.3731   118.5173     0.0765     0.0995     2.4771
  150.0000   -32.2518     9.9505     6.4908     9.2488     8.3985   119.6081     0.0765     0.0999     2.4761
  150.5000   -32.3416     9.9840     6.5646     9.3024     8.4073   118.0991     0.0770     0.1000     2.4808
  151.0000   -32.4339    10.0177     6.6394     9.3565     8.3943   121.3464     0.0782     0.0965     2.4868
  151.5000   -32.5254    10.0515     6.7150     9.4108     8.3834   123.2318     0.0792     0.0931     2.4928
  152.0000   -32.6169    10.1027     6.7915     9.4655     8.3723   122.0522     0.0804     0.0896     2.4991
  152.5000   -32.7086    10.0768     6.8688     9.5585     8.3608   123.7342     0.0800     0.0865     2.5024
  153.0000   -32.8003    10.0243     6.9471     9.5209     8.3496   125.9322     0.0794     0.0869     2.5011
  153.5000   -32.8918     9.9720     6.9842     9.4022     8.3383   126.9304     0.0787     0.0881     2.4997
  154.0000   -32.9835     9.9179     6.8671     9.2849     8.3270   124.1040     0.0781     0.0894     2.4984
  154.5000   -33.0743     9.7694     6.7658     9.1691     8.3156   121.7208     0.0775     0.0905     2.4968
  155.0000   -33.1665     9.6174     6.6660     9.0547     8.3046   120.9846     0.0767     0.0891     2.4972
  155.5000   -33.2592     9.4680     6.5676     8.9418     8.2934   122.2333     0.0778     0.0872     2.5013
  156.0000   -33.3473     9.3210     6.4708     8.8302     8.2939   121.0814     0.0805     0.0853     2.5049
  156.5000   -33.4455     9.1762     6.3753     8.7201     8.2982   119.0813     0.0833     0.0835     2.5078
  157.0000   -33.5463     9.0446     6.2812     8.6114     8.3025   120.5688     0.0834     0.0857     2.4994
  157.5000   -33.9305     9.0299     6.2428     8.5040     8.3067   125.5858     0.0802     0.0935     2.4886
  158.0000   -34.2839     9.0085     6.2295     8.3979     8.3109   126.1518     0.0773     0.1013     2.4777
  158.5000   -34.6952     8.9871     6.2162     8.2463     8.3151   127.9940     0.0743     0.1039     2.4701
  159.0000   -34.7247     8.9658     6.2029     8.2748     8.3194   130.3266     0.0714     0.1040     2.4747
  159.5000   -34.6660     8.9446     6.1897     8.3269     8.3236   130.6776     0.0684     0.1075     2.4736
  160.0000   -34.5494     8.9236     6.1764     8.3793     8.3275   128.9659     0.0653     0.1127     2.4644
  160.5000   -34.4518     8.9027     6.1632     8.4320     8.3381   128.4590     0.0667     0.1098     2.4686
