~VERSION INFORMATION
 VERS.                2.0:   CWLS LOG ASCII STANDARD - VERSION 2.0
 WRAP.                 NO:   ONE LINE PER DEPTH STEP
~WELL INFORMATION
#MNEM.UNIT      DATA TYPE    INFORMATION
#----------   ------------   ------------------------------
 STRT.F           32.0000:   START DEPTH
 STOP.F          648.0000:   STOP DEPTH
 STEP.F            0.5000:   STEP LENGTH
 NULL.          -999.2500:   NO VALUE
 COMP. LAWRENCE/ALLISON INC:   COMPANY
 WELL.    17-16 SX #17-11:   WELL
 FLD .             TEAPOT:   FIELD
 LOC .      S11 T38N R78W:   LOCATION
 CNTY.            NATRONA:   COUNTY
 STAT.            WYOMING:   STATE
 CTRY. UNITED STATES OF AMERICA:   COUNTRY
 SRVC.           Gearhart:   SERVICE COMPANY
 DATE.        12-JUL-1987:   LOGDATE
 API .       490251115200:   API NUMBER
~CURVE INFORMATION
#MNEM.UNIT       API CODE    CURVE DESCRIPTION
#----------   ------------   ------------------------------
 DEPT.F                  :   
 GRR .GAPI   07 310 01 00:   GAMMA RAY
 ILD .OHMM   07 120 46 00:   INDUCTION LOG DEEP
 ILM .OHMM   07 120 44 00:   INDUCTION LOG MEDIUM
~PARAMETER INFORMATION
#MNEM.UNIT          VALUE    DESCRIPTION
#----------   ------------   ------------------------------
 PD  .                 GL:   PERMANENT DATUM
 EPD .F              5231:   ELEVATION PERMANENT DATUM
 LMF .                 KB:   LOG MEASURED FROM
 DAPD.F                 8:   FEET ABOVE PERMANENT DATUM
 DMF .                 KB:   DRILLING MEASURED FROM
 EKB .F              5239:   KELLING BUSHING
 EDF .F              5237:   DRILLING FLOOR
 EGL .F              5231:   GROUND LEVEL
 DATE.        12-JUL-1987:   RUN DATE
 RUN .                  1:   RUN NUMBER
 DD  .F               650:   DEPTH DRILLER
 DL  .F               656:   DEPTH LOGGER
 BLI .F               654:   BOTTOM LOG INTERVAL
 TLI .F                30:   TOP LOG INTERVAL
 CS  .IN            8.625:   CASING SIZE
 CBD .F                48:   CASING BOTTOM DRILLER
 CBL .F                48:   CASING BOTTOM LOGGER
 BS  .IN            7.875:   BIT SIZE
 BSD .F               650:   BIT SIZE AT DEPTH
 DFT .                AIR:   DRILLING FLUID TYPE
 TLAB.HRS            1051:   TIME LOGGER AT BOTTOM
 MRT .F                80:   MAXIMUM RECORDED TEMPERATURE
 LUN .               7597:   LOGGING UNIT NUMBER
 LUL .           GILLETTE:   LOGGING UNIT LOCATION
 ENGI.         WEATHERMON:   RECORDING ENGINEER
 WITN.         MR. STRONG:   WITNESSED BY
 CLNT.            A2DTECH:   CLIENT CODE
 ORIG.           5" PRINT:   ORIGIN OF DATA
 UWI .       490251115200:   UNIQUE WELL ID
 DICO. A2D Technologies, Inc.:   DIGITIZING COMPANY
~OTHER INFORMATION
~A   DEPT       GRR       ILD        ILM   
# ...
  214.0000   118.4654     8.6657     8.6058
  214.5000   116.9517     8.6657     8.6058
  215.0000   116.6762     8.6657     8.6058
  215.5000   117.8994     8.6657     8.6058
  216.0000   120.9323     8.6657     8.5463
  216.5000   123.9652     8.6657     8.5463
  217.0000   126.3938     8.6657     8.5463
  217.5000   126.1035     8.6657     8.5463
  218.0000   124.3025     8.6657     8.5463
  218.5000   120.9910     8.6657     8.5463
  219.0000   122.5136     8.6657     8.4871
  219.5000   123.4343     8.6657     8.4284
  220.0000   123.7482     8.6657     8.3123
  220.5000   124.3642     8.7261     8.1977
  221.0000   125.5844     8.7261     8.1977
  221.5000   127.4088     8.7261     8.4284
  222.0000   128.6290     8.7869     8.5463
  222.5000   129.2450     8.8481     8.6657
  223.0000   128.0282     8.9097     8.7261
  223.5000   125.9003     8.9717     8.7869
  224.0000   123.8451     8.9717     8.9097
  224.5000   122.0441     8.9717     8.9717
  225.0000   120.8474     9.0342     9.0342
  225.5000   119.9528     9.0342     9.0342
  226.0000   119.3574     9.0342     9.0342
  226.5000   119.3720     9.0342     9.0342
  227.0000   120.8944     9.0342     9.0342
  227.5000   122.4421     8.9717     8.9717
  228.0000   123.9419     8.9097     9.0342
  228.5000   124.8600     8.7869     9.0342
  229.0000   125.7752     8.7869     8.9717
  229.5000   123.9771     8.7261     8.9097
  230.0000   123.0826     8.7261     8.9097
  230.5000   121.5837     8.6657     8.8454
  231.0000   120.3870     8.6657     8.7869
  231.5000   119.7895     8.6058     8.7261
  232.0000   118.5978     8.4871     8.6058
  232.5000   121.3315     8.3123     8.4871
  233.0000   124.0623     8.1977     8.3123
  233.5000   124.3732     8.0847     8.1977
  234.0000   121.9710     8.0287     8.1410
  234.5000   119.5658     7.9732     8.0847
  235.0000   121.6923     7.9732     8.0847
  235.5000   123.8189     7.9732     8.0847
  236.0000   124.1327     7.9732     8.0847
  236.5000   121.1263     8.0287     8.0847
  237.0000   119.6245     8.0847     8.1977
  237.5000   119.0320     8.1977     8.4284
  238.0000   122.3699     8.3123     8.5463
  238.5000   127.5176     8.4871     8.6657
  239.0000   130.5505     8.6657     8.7261
  239.5000   129.3538     8.7318     8.8495
  240.0000   125.1359     8.9097     8.9097
  240.5000   123.0329     8.9097     8.9097
  241.0000   125.7666     8.9717     8.9717
  241.5000   126.9868     8.9717     8.9717
  242.0000   123.6753     8.9097     9.0342
  242.5000   122.7777     8.9097     9.0342
  243.0000   121.8861     8.9097     9.0342
  243.5000   120.6894     8.9097     9.0342
  244.0000   119.4924     8.9097     8.9717
  244.5000   119.8066     8.9097     8.9717
  245.0000   120.4733     8.9097     8.9717
  245.5000   121.3435     8.9097     9.0342
  246.0000   121.9595     8.8481     9.0342
  246.5000   122.5754     8.7869     9.0342
  247.0000   121.9800     8.7869     9.0342
  247.5000   120.4841     8.7869     9.0342
  248.0000   123.5170     8.8481     9.0342
  248.5000   123.2266     8.9097     9.0344
  249.0000   121.3958     8.9717     9.1677
  249.5000   120.2290     9.0342     9.2885
  250.0000   121.7542     9.1808     9.4211
  250.5000   122.6723     9.4308     9.4540
  251.0000   122.3790     9.6890     9.4880
  251.5000   120.8831     9.9645     9.6896
  252.0000   118.1758    10.1816     9.9066
  252.5000   116.0728    10.4060    10.2475
  253.0000   114.8660    10.7645    10.5381
  253.5000   112.3807    11.0705    10.9125
  254.0000   110.6729    11.4646    11.3788
  254.5000   109.4761    11.8726    11.8651
  255.0000   109.4879    12.2952    12.2866
  255.5000   109.8017    12.6448    12.6350
  256.0000   110.1126    13.0043    12.9035
  256.5000   108.6168    13.2815    13.0865
  257.0000   104.3989    13.4771    13.1909
  257.5000   101.5911    13.5684    13.2755
  258.0000   102.9056    13.3849    13.2782
  258.5000   105.6544    13.3894    13.1891
  259.0000   105.3820    13.3930    13.0998
  259.5000   103.9012    13.3040    13.1032
  260.0000   101.8162    13.3076    13.1058
  260.5000   101.2343    13.3112    13.1085
  261.0000   103.0842    13.3148    13.2025
  261.5000   104.9266    13.2263    13.2052
  262.0000   106.1648    13.2299    13.1165
  262.5000   105.8912    12.9460    12.7606
  263.0000   104.7130    12.6101    12.4137
  263.5000   104.4411    12.3536    12.2444
  264.0000   105.6877    12.0186    11.9951
  264.5000   108.4512    11.6927    11.7503
  265.0000   107.8147    11.5339    11.5907
  265.5000   106.0785    11.5378    11.5128
  266.0000   104.8998    11.5409    11.4355
  266.5000   105.2317    11.5440    11.4379
  267.0000   106.4699    11.5472    11.4408
  267.5000   106.7944    11.5504    11.4431
  268.0000   105.0189    11.5542    11.4454
  268.5000   104.1423    11.5573    11.4478
  269.0000   102.0573    11.5605    11.4501
  269.5000   100.2669    11.5636    11.4524
  270.0000   101.5126    11.5667    11.4547
  270.5000   103.4633    11.5698    11.4571
  271.0000   104.3873    11.4134    11.3801
  271.5000   105.9156    11.2592    11.2952
  272.0000   106.5378    11.0251    10.9209
  272.5000   106.5559    10.7934    10.6975
  273.0000   106.5773    10.5127    10.2638
  273.5000   106.5949    10.1576    10.0543
  274.0000   107.2169     9.8821     9.8486
  274.5000   111.7663     9.6811     9.6481
  275.0000   113.2945     9.6168     9.5170
  275.5000   112.7036     9.5522     9.4531
  276.0000   111.2151     9.4236     9.5209
  276.5000   110.9305     9.5580     9.5892
  277.0000   110.9486     9.6943     9.6584
  277.5000   111.3192     9.8325     9.7276
  278.0000   112.8008     9.9043     9.8656
  278.5000   114.3291     9.9069     9.8676
  279.0000   115.5552     9.9786     9.8696
  279.5000   116.4748     9.9813     9.9399
  280.0000   115.2885     9.9840     9.8736
  280.5000   115.3062     9.9868     9.9444
  281.0000   116.2302     9.9204     9.9414
  281.5000   117.1542     9.8544     9.8796
  282.0000   118.0783     9.7889     9.7454
  282.5000   117.4917     9.7127     9.6130
  283.0000   116.0032     9.5924     9.4824
  283.5000   115.1146     9.5956     9.4848
  284.0000   115.1323     9.5312     9.4207
  284.5000   115.4521     9.4678     9.3574
  285.0000   114.8655     9.4710     9.3598
  285.5000   113.9724     9.4736     9.2967
  286.0000   112.1819     9.4762     9.2345
  286.5000   110.6888     9.4132     9.2368
  287.0000   110.7069     9.2817     9.1744
  287.5000   110.3726     9.1604     9.1127
  288.0000   109.5336     8.9747     9.1151
  288.5000   110.4620     8.8533     8.9908
  289.0000   111.3860     8.7331     8.8686
  289.5000   111.4037     8.5560     8.6881
  290.0000   111.1149     8.4403     8.5108
  290.5000   111.7412     8.2681     8.3909
  291.0000   111.4562     8.0444     8.1027
  291.5000   110.5681     7.8263     7.7278
  292.0000   109.6795     7.7134     7.3119
  292.5000   109.6979     7.4507     7.0151
  293.0000   110.0214     7.2067     6.8244
  293.5000   110.0391     7.0606     6.6388
  294.0000   110.6610     6.9647     6.6402
  294.5000   112.1892     6.9670     6.7344
  295.0000   113.1133     7.0174     6.9736
  295.5000   112.8288     7.1670     7.2752
  296.0000   111.6381     7.4738     7.5391
  296.5000   110.1452     7.7399     7.7439
  297.0000   110.7875     7.8538     7.8537
  297.5000   112.6485     7.9621     7.9100
  298.0000   113.8280     8.0202     7.9116
  298.5000   112.6372     8.0224     7.9683
  299.0000   112.6549     8.0246     7.9700
  299.5000   113.8811     8.0267     7.8617
  300.0000   115.1072     8.0289     7.9181
  300.5000   115.1249     7.9573     7.7901
  301.0000   114.8405     7.8645     7.6621
  301.5000   114.8582     7.8106     7.5441
  302.0000   114.8761     7.6502     7.3892
  302.5000   113.9376     7.4930     7.2375
  303.0000   112.4987     7.2884     7.1381
  303.5000   111.6056     7.1385     6.9916
  304.0000   110.7170     6.9920     6.8479
  304.5000   111.6454     6.8010     6.6609
