~VERSION INFORMATION
 VERS.                2.0:   CWLS LOG ASCII STANDARD - VERSION 2.0
 WRAP.                 NO:   ONE LINE PER DEPTH STEP
~WELL INFORMATION
#MNEM.UNIT      DATA TYPE    INFORMATION
#----------   ------------   ------------------------------
 STRT.F            0.0000:   START DEPTH
 STOP.F          825.0000:   STOP DEPTH
 STEP.F            0.5000:   STEP LENGTH
 NULL.          -999.2500:   NO VALUE
 COMP. BROWN JOHN E&C INC:   COMPANY
 WELL. NAVAL PETROLEUM RESERVE 3 SHX- #21-1-2:   WELL
 FLD .             TEAPOT:   FIELD
 LOC .       S2 T38N R78W:   LOCATION
 CNTY.            NATRONA:   COUNTY
 STAT.            WYOMING:   STATE
 CTRY. UNITED STATES OF AMERICA:   COUNTRY
 SRVC.     Atlas Wireline:   SERVICE COMPANY
 DATE.        11-NOV-1991:   LOGDATE
 API .       490252247600:   API NUMBER
~CURVE INFORMATION
#MNEM.UNIT       API CODE    CURVE DESCRIPTION
#----------   ------------   ------------------------------
 DEPT.F                  :   
 GRR .GAPI   07 310 01 00:   GAMMA RAY
 RFOC.OHMM   07 220 04 00:   RESISTIVITY FOCUSED LOG
 RILD.OHMM   07 120 46 00:   INDUCTION LOG DEEP RESISTIVITY
 RILM.OHMM   07 120 44 00:   INDUCTION LOG MEDIUM RESISTIVITY
 SPR .MV     07 010 01 00:   SPONTANEOUS POTENTIAL
~PARAMETER INFORMATION
#MNEM.UNIT          VALUE    DESCRIPTION
#----------   ------------   ------------------------------
 PD  .                 GL:   PERMANENT DATUM
 EPD .F              5110:   ELEVATION PERMANENT DATUM
 LMF .                 KB:   LOG MEASURED FROM
 DAPD.F                10:   FEET ABOVE PERMANENT DATUM
 DMF .                 KB:   DRILLING MEASURED FROM
 EKB .F              5120:   KELLING BUSHING
 EGL .F              5110:   GROUND LEVEL
 DATE.        11-NOV-1991:   RUN DATE
 RUN .                  1:   RUN NUMBER
 DD  .F               830:   DEPTH DRILLER
 DL  .F               527:   DEPTH LOGGER
 BLI .F               525:   BOTTOM LOG INTERVAL
 CS  .IN            9.625:   CASING SIZE
 CBD .F                58:   CASING BOTTOM DRILLER
 CBL .F                58:   CASING BOTTOM LOGGER
 BS  .IN             8.75:   BIT SIZE
 BSD .F               830:   BIT SIZE AT DEPTH
 DFT .          KCL WATER:   DRILLING FLUID TYPE
 RMS .OHMM          0.248:   RESISTIVITY MUD SAMPLE
 MST .F                93:   MUD SAMPLE TEMPERATURE
 BHT .F               104:   BOTTOM HOLE TEMPERATURE
 TCS .HRS               2:   TIME CURCULATED STOPPED
 MRT .F               104:   MAXIMUM RECORDED TEMPERATURE
 LUN .            HL 6274:   LOGGING UNIT NUMBER
 LUL .             CASPER:   LOGGING UNIT LOCATION
 ENGI.       P. RASMUSSEN:   RECORDING ENGINEER
 WITN.        GARY STRONG:   WITNESSED BY
 CLNT.            A2DTECH:   CLIENT CODE
 ORIG.           5" PRINT:   ORIGIN OF DATA
 UWI .       490252247600:   UNIQUE WELL ID
 DICO. A2D Technologies, Inc.:   DIGITIZING COMPANY
~OTHER INFORMATION
~A    DEPT       GRR     RFOC       RILD       RILM        SPR   
# ...
  183.0000   101.0060     5.5160     5.8054     5.9282   -60.6182
  183.5000   100.3513     5.7086     5.9238     6.0085   -60.4705
  184.0000    94.6924     5.7467     6.1296     6.1749   -60.6241
  184.5000    93.4832     5.7055     6.5660     6.3501   -61.0768
  185.0000    93.1721     5.7476     7.0824     6.4319   -61.8293
  185.5000    94.3580     5.9032     7.5867     6.3843   -61.9822
  186.0000    98.2386     6.0250     7.7961     6.2504   -59.8862
  186.5000    99.7268     6.0234     7.9011     6.2913   -60.4888
  187.0000    99.4129     6.0217     7.8973     6.3332   -61.4113
  187.5000    99.4012     5.9374     7.8935     6.2429   -62.1439
  188.0000    99.3892     5.8542     7.8889     6.1097   -62.2967
  188.5000    96.9797     5.6928     7.7231     5.7794   -62.3003
  189.0000    91.2795     5.5359     7.4053     5.4655   -62.1526
  189.5000    90.0731     5.2727     6.8115     5.1686   -61.7065
  190.0000    93.9507     5.1630     5.4551     4.5291   -61.2589
  190.5000    93.6397     5.3926     4.4914     3.5277   -61.7123
  191.0000    92.1310     5.5299     3.6725     2.9031   -63.8142
  191.5000    91.5205     4.8136     3.1303     2.6620   -66.3658
  192.0000    93.0059     3.1771     2.6478     2.3158   -67.4383
  192.5000   103.2935     2.3917     1.9737     2.0149   -67.8961
  193.0000   117.1417     2.0252     1.6992     1.5387   -68.0245
  193.5000   118.7194     2.0671     1.6520     1.5067   -68.0274
  194.0000   112.4174     2.1542     1.6512     1.4960   -68.0304
  194.5000   112.7051     2.1239     1.6968     1.5701   -67.4336
  195.0000   112.0946     2.1530     1.8558     1.8410   -66.2371
  195.5000   109.3884     2.3076     2.0723     2.2660   -64.7408
  196.0000   100.9935     3.1701     2.6031     2.8875   -63.0946
  196.5000    90.8022     4.2381     4.1094     3.9161   -62.1979
  197.0000    87.1816     5.2507     6.4065     5.3979   -61.2814
  197.5000    86.2874     6.2840     7.3918     6.4436   -59.5552
  198.0000    86.2732     7.1156    10.0946     7.6122   -56.6602
  198.5000    85.6628     7.5708    11.5087     8.6218   -58.6122
  199.0000    85.0523     7.8352    12.4138     9.7653   -59.6646
  199.5000    83.8430     7.9974    12.4079    10.3917   -59.8167
  200.0000    82.9332     8.0508    11.9800    10.7565   -59.3698
  200.5000    86.2149     8.1045    11.3290    10.2445   -58.7731
  201.0000    90.3593     8.1018    10.4931     9.4251   -58.1770
  201.5000    88.8862     8.0996     8.8821     8.2606   -57.7302
  202.0000    84.5988     7.7145     7.2275     6.5876   -57.8831
  202.5000    81.6743     6.9520     5.8967     4.7428   -58.5108
  203.0000    84.9561     6.0101     5.2032     4.1857   -59.6887
  203.5000    89.4354     4.9845     4.9547     4.0146   -60.4412
  204.0000    99.6271     3.5257     4.9181     4.5154   -60.5934
  204.5000   100.2193     3.5987     4.9506     5.0091   -58.5119
  205.0000    96.6156     4.2184     5.0866     5.1135   -56.5672
  205.5000    92.4153     5.0485     5.6018     5.2925   -55.2223
  206.0000    90.6101     6.3878     6.2856     5.6711   -54.1772
  206.5000    90.0026     7.0968     7.4537     6.7691   -53.7318
  207.0000    89.9938     7.2723     8.3827     7.5838   -52.8366
  207.5000    89.9850     7.0220     9.0438     7.9591   -52.0315
  208.0000    92.5030     7.2668     9.7570     8.4112   -50.1477
  208.5000    92.9616     7.5723    10.3100     8.8275   -48.9527
  209.0000    90.5555     7.8369    10.6704     9.2004   -47.0080
  209.5000    90.2474     8.0535    10.8916     9.5229   -44.6136
  210.0000    91.7357     8.2196    11.1944     9.6538   -42.5190
  210.5000    93.8249     8.3892    11.2782     9.7190   -41.3240
  211.0000    93.8140     8.5033    11.4232     9.7846   -40.5787
  211.5000    93.5059     8.5594    11.3406     9.8502   -40.2833
  212.0000    91.3693     8.5558    11.2593     9.9172   -40.1377
  212.5000    89.5459     8.6131    11.1786     9.9147   -40.4430
  213.0000    88.0882     8.6094    11.0984    10.0510   -41.0471
  213.5000    86.2831     8.4883    11.0955    10.1898   -41.5012
  214.0000    82.6816     8.5444    11.0925    10.4735   -41.9554
  214.5000    83.2716     8.6008    11.1704    10.7658   -42.2596
  215.0000    86.2569     8.7177    11.3322    10.9897   -42.7137
  215.5000    87.7452     8.8968    11.5537    11.1403   -43.0260
  216.0000    86.8382     9.0185    11.7923    11.2155   -43.3223
  216.5000    87.1507     9.2038    11.8719    11.2918   -43.6275
  217.0000    90.1120     9.3290    11.9511    11.3680   -43.6318
  217.5000    92.7979     9.5222    12.1137    11.4447   -43.6362
  218.0000    93.0907     9.7187    12.1946    11.4767   -43.0409
  218.5000    90.3852     9.7919    12.1914    11.5992   -41.6959
  219.0000    89.7777     9.5118    12.1880    11.6775   -40.6508
  219.5000    90.3677     9.3779    12.1840    11.7634   -39.7536
  220.0000    90.3590     9.3740    12.2659    11.8357   -39.2903
  220.5000    90.0508     9.4367    12.2620    11.8327   -39.0147
  221.0000    89.4152     9.5642    12.3448    11.8303   -38.8692
  221.5000    87.9354     9.7615    12.4272    11.8279   -38.8746
  222.0000    86.4318     9.9629    12.5093    11.8255   -38.7291
  222.5000    91.2113    10.0984    12.5060    11.8231   -38.7334
  223.0000    91.8036    10.2358    12.5475    11.9030   -38.5877
  223.5000    91.1939    10.3748    12.6736    11.9833   -38.2924
  224.0000    90.2869    10.5159    12.8469    12.0642   -37.6832
  224.5000    95.9668    10.5115    13.1121    12.1457   -37.4016
  225.0000    96.5569    10.4355    13.4768    12.4839   -37.4070
  225.5000    93.4521    10.3600    13.9479    13.0113   -37.5613
  226.0000    88.4534    10.4284    14.6367    13.4674   -38.0155
  226.5000    89.9417    11.1719    14.8368    13.1876   -38.9194
  227.0000    93.8252    12.2193    15.1442    12.9136   -38.7738
  227.5000    94.7168    13.5513    15.6825    12.7333   -38.0286
  228.0000    93.8077    13.2648    16.2203    12.9096   -37.2754
  228.5000    90.2061    12.0078    16.3297    13.0974   -36.9878
  229.0000    87.5028     9.7108    16.2116    13.1743   -36.9933
  229.5000    82.9729     9.5080    15.9843    12.9896   -37.1476
  230.0000    81.1979    11.2220    15.4362    12.6319   -37.4518
  230.5000    85.9774    12.4453    14.7018    12.2841   -37.7560
  231.0000    87.7651    12.1855    14.1976    11.8633   -38.0602
  231.5000    88.3573    11.6860    13.5206    11.3778   -38.8142
  232.0000    88.9452    10.7512    13.1491    10.8369   -39.8741
  232.5000    90.1341     9.8162    12.8745    10.3910   -41.5417
  233.0000    90.7241     9.3552    12.6940    10.4741   -42.5765
  233.5000    90.4160     9.3514    12.6906    10.8297   -42.8807
  234.0000    91.6049     9.5443    12.6872    11.0556   -43.0350
  234.5000    91.2505     9.7412    12.6837    11.3635   -43.4892
  235.0000    90.3876     9.8737    12.7686    11.6004   -44.2432
  235.5000    91.2771    10.1474    12.8538    11.8412   -45.2970
  236.0000    92.1666    10.3568    13.0295    11.9212   -46.3509
  236.5000    93.3554    10.6438    13.2985    11.9187   -46.1774
  237.0000    95.1431    10.8674    13.8590    11.9991   -45.4611
  237.5000    96.9308    11.1003    14.6445    12.0801   -45.6154
  238.0000    97.2215    10.8552    14.8457    12.5899   -46.5193
  238.5000    87.1886    10.6286    14.5356    12.7636   -48.0230
  239.0000    81.9341    10.6997    13.9403    12.1562   -48.4771
  239.5000    83.7200    11.0718    13.1854    11.5782   -49.6809
  240.0000    86.4059    11.3012    11.3191    10.8008   -51.0346
  240.5000    91.1876    11.0643    10.6067     9.8682   -52.4043
  241.0000    94.1728    10.1792     9.5801     7.4776   -53.8461
  241.5000    98.3557     9.5422     8.5730     7.1643   -57.0457
  242.0000   102.8380     7.7122     7.8872     6.5068   -56.9002
  242.5000   109.7155     7.0463     7.4087     6.1121   -56.4548
  243.0000   110.0062     6.6646     6.9111     5.8620   -56.4591
  243.5000   110.2946     6.4358     6.5823     5.6612   -58.4125
