~VERSION INFORMATION
 VERS.                2.0:   CWLS LOG ASCII STANDARD - VERSION 2.0
 WRAP.                 NO:   ONE LINE PER DEPTH STEP
~WELL INFORMATION
#MNEM.UNIT      DATA TYPE    INFORMATION
#----------   ------------   ------------------------------
 STRT.F           17.0000:   START DEPTH
 STOP.F          592.0000:   STOP DEPTH
 STEP.F            0.5000:   STEP LENGTH
 NULL.          -999.2500:   NO VALUE
 COMP.   FLUOR DANIEL INC:   COMPANY
 WELL. NAVAL PETROLEUM RESERVE SX-1 87 #2-10:   WELL
 FLD .             TEAPOT:   FIELD
 LOC .      S10 T38N R78W:   LOCATION
 CNTY.            NATRONA:   COUNTY
 STAT.            WYOMING:   STATE
 CTRY. UNITED STATES OF AMERICA:   COUNTRY
 SRVC.      Western Atlas:   SERVICE COMPANY
 DATE.        20-JUL-1995:   LOGDATE
 API .       490252274200:   API NUMBER
~CURVE INFORMATION
#MNEM.UNIT       API CODE    CURVE DESCRIPTION
#----------   ------------   ------------------------------
 DEPT.F                  :   
 GRR .GAPI   07 310 01 00:   GAMMA RAY FROM RES. LOG.
 RILD.OHMM   07 120 46 00:   INDUCTION LOG DEEP RESISTIVITY
 RILM.OHMM   07 120 44 00:   INDUCTION LOG MEDIUM RESISTIVITY
~PARAMETER INFORMATION
#MNEM.UNIT          VALUE    DESCRIPTION
#----------   ------------   ------------------------------
 PD  .                 GL:   PERMANENT DATUM
 EPD .F              5221:   ELEVATION PERMANENT DATUM
 LMF .                 KB:   LOG MEASURED FROM
 DAPD.F                10:   FEET ABOVE PERMANENT DATUM
 DMF .                 KB:   DRILLING MEASURED FROM
 EKB .F              5231:   KELLING BUSHING
 EDF .F              5230:   DRILLING FLOOR
 EGL .F              5221:   GROUND LEVEL
 DATE.            7-20-95:   RUN DATE
 RUN .                  1:   RUN NUMBER
 DD  .F               599:   DEPTH DRILLER
 DL  .F               600:   DEPTH LOGGER
 BLI .F               592:   BOTTOM LOG INTERVAL
 TLI .F                54:   TOP LOG INTERVAL
 CS  .IN            9.625:   CASING SIZE
 CBD .F                54:   CASING BOTTOM DRILLER
 CBL .F                54:   CASING BOTTOM LOGGER
 BS  .IN             8.75:   BIT SIZE
 BSD .F               599:   BIT SIZE AT DEPTH
 DFT .                AIR:   DRILLING FLUID TYPE
 BHT .F                98:   BOTTOM HOLE TEMPERATURE
 MRT .F                98:   MAXIMUM RECORDED TEMPERATURE
 LUN .            HL 6539:   LOGGING UNIT NUMBER
 LUL .          RK. SPGS.:   LOGGING UNIT LOCATION
 ENGI.               RALL:   RECORDING ENGINEER
 WITN.             STRONG:   WITNESSED BY
 CLNT.            A2DTECH:   CLIENT CODE
 ORIG.        2" 5" PRINT:   ORIGIN OF DATA
 UWI .       490252274200:   UNIQUE WELL ID
 DICO. A2D Technologies, Inc.:   DIGITIZING COMPANY
~OTHER INFORMATION
~A   DEPT       GRR      RILD       RILM   
# ...
  472.0000    94.7951    13.3581    13.8973
  472.5000    95.7738    13.2357    13.7357
  473.0000    96.7742    13.1136    13.5758
  473.5000    95.8972    13.0367    13.5305
  474.0000    94.7657    13.0141    13.5174
  474.5000    93.6233    12.9916    13.5043
  475.0000    92.5079    12.9691    13.4912
  475.5000    91.9028    12.9467    13.4781
  476.0000    95.5684    12.9241    13.4650
  476.5000   100.3477    12.9107    13.4520
  477.0000   100.3792    12.8961    13.4390
  477.5000    98.2248    12.8817    13.4260
  478.0000    98.0325    12.8671    13.4135
  478.5000    98.3813    12.8526    13.3205
  479.0000    98.0749    12.8381    13.2341
  479.5000    97.8012    12.8236    13.1488
  480.0000    98.9798    12.8089    13.0640
  480.5000   100.2967    12.7683    12.9798
  481.0000   101.6072    12.6377    12.8962
  481.5000   101.4030    12.5101    12.8131
  482.0000    99.6245    12.3837    12.7306
  482.5000    98.4070    12.2587    12.6272
  483.0000   101.1779    12.1349    12.4888
  483.5000   104.3199    12.0122    12.3519
  484.0000   104.0284    11.8910    12.2165
  484.5000   103.1072    11.7603    12.0966
  485.0000   102.3039    11.7870    12.1399
  485.5000   102.7716    11.8163    12.1792
  486.0000   103.5163    11.8457    12.2186
  486.5000   104.2920    11.8752    12.2582
  487.0000   103.6076    11.9048    12.2979
  487.5000   100.2153    11.9344    12.3377
  488.0000    98.1715    11.9642    12.3777
  488.5000   100.7803    11.9834    12.4185
  489.0000   103.8694    11.8656    12.4422
  489.5000   104.6736    11.7789    12.3130
  490.0000   103.8390    11.6929    12.2199
  490.5000   103.0628    11.6076    12.1275
  491.0000   103.4824    11.5230    12.0360
  491.5000   103.9284    11.4389    11.9451
  492.0000   103.5322    11.3555    11.8550
  492.5000   103.8355    11.2727    11.7655
  493.0000   104.6945    11.1910    11.6766
  493.5000   105.5457    11.1146    11.5885
  494.0000   103.1455    10.9873    11.5010
  494.5000   100.7408    10.8689    11.4142
  495.0000   103.1089    10.7524    11.3264
  495.5000   107.0553    10.6371    11.1737
  496.0000   109.1052    10.5231    11.0198
  496.5000   107.1539    10.4114    10.8681
  497.0000   104.7050    10.3095    10.7186
  497.5000   102.8135    10.1154    10.5711
  498.0000   106.4638     9.9047    10.4257
  498.5000   110.5301     9.6986    10.2827
  499.0000   114.3770     9.4972    10.1394
  499.5000   114.3304     9.2994     9.9776
  500.0000   112.3887     9.1246     9.7596
  500.5000   113.2434     8.5902     9.1802
  501.0000   115.6937     7.7588     8.3280
  501.5000   117.1162     7.0076     7.5553
  502.0000   116.7830     6.3284     6.8544
  502.5000   119.4270     5.6480     6.2185
  503.0000   128.1509     5.6482     5.8116
  503.5000   136.6562     5.7474     5.9361
  504.0000   145.2168     5.8374     6.1118
  504.5000   148.1518     5.9291     6.2900
  505.0000   136.1404     6.0216     6.7379
  505.5000   124.8623     6.5797     7.2687
  506.0000   113.5914     7.2723     7.8438
  506.5000   102.6780     8.0377     8.4637
  507.0000   101.6603     8.7281     9.1326
  507.5000   106.9430     9.2210     9.8544
  508.0000   111.7653     9.7399    10.2139
  508.5000   113.1593    10.1304    10.3753
  509.0000   115.7321    10.2310    10.5283
  509.5000   117.5205    10.3337    10.6830
  510.0000   117.5037    10.4374    10.8412
  510.5000   117.5244    10.5421    11.0076
  511.0000   116.6680    10.6479    11.1764
  511.5000   115.4885    10.7548    11.3476
  512.0000   114.2877    10.8627    11.5210
  512.5000   113.3453    11.0333    11.6970
  513.0000   116.4476    11.2531    11.8758
  513.5000   119.4835    11.4772    12.0572
  514.0000   117.7362    11.7056    12.2414
  514.5000   115.4697    11.9386    12.4285
  515.0000   113.2116    12.1762    12.6184
  515.5000   113.0965    12.4188    12.8112
  516.0000   111.9043    12.6658    13.0069
  516.5000   107.4998    12.8309    13.2057
  517.0000   103.8519    12.8987    13.4089
  517.5000   104.7508    12.9674    13.5516
  518.0000   106.0495    13.0364    13.5869
  518.5000   106.3221    13.1058    13.6205
  519.0000   104.6445    13.1756    13.6544
  519.5000   103.0745    13.2458    13.6885
  520.0000   103.5944    13.3163    13.7227
  520.5000   104.5557    13.3872    13.7570
  521.0000   105.5341    13.4585    13.7973
  521.5000   107.1393    13.5407    13.7656
  522.0000   109.0265    13.4656    13.7140
  522.5000   110.9183    13.3526    13.6627
  523.0000   112.8040    13.2406    13.6116
  523.5000   113.8592    13.1295    13.5607
  524.0000   111.2848    13.0193    13.4704
  524.5000   107.7235    12.9101    13.3552
  525.0000   105.5208    12.8018    13.2409
  525.5000   107.3304    12.6944    13.1277
  526.0000   109.1779    12.5878    13.0154
  526.5000   110.1510    12.4822    12.9040
  527.0000   107.9501    12.3002    12.7983
  527.5000   108.2318    12.0748    12.5643
  528.0000   110.6424    11.8534    12.3438
  528.5000   112.8461    11.6362    12.1272
  529.0000   113.0908    11.4229    11.9144
  529.5000   114.9453    11.2135    11.7053
  530.0000   118.2740    11.0080    11.5000
  530.5000   120.9227    10.8062    11.2982
  531.0000   119.0227    10.6081    11.0999
  531.5000   117.0178    10.4077    10.9140
  532.0000   115.0019    10.2739    10.7383
  532.5000   114.4288    10.2117    10.5962
  533.0000   117.4145    10.1496    10.5572
  533.5000   120.5089    10.0880    10.5183
  534.0000   123.4303    10.0268    10.4796
  534.5000   125.5946     9.9660    10.4410
  535.0000   127.6750     9.9055    10.4026
  535.5000   129.7388     9.8454    10.3643
  536.0000   128.3610     9.7857    10.3261
  536.5000   124.0643     9.7263    10.2881
  537.0000   122.8797     9.6673    10.2502
  537.5000   128.3778     9.6087    10.2125
  538.0000   130.1156     9.5504    10.1749
  538.5000   127.2604     9.4924    10.1374
  539.0000   123.7208     9.4348    10.0437
  539.5000   121.2381     9.3617     9.8931
  540.0000   122.0803     9.1924     9.7448
  540.5000   122.1194     9.0661     9.5986
  541.0000   122.4364     8.9685     9.4543
  541.5000   124.9193     8.8720     9.3129
  542.0000   127.3843     8.7766     9.2084
  542.5000   129.5938     8.6821     9.1094
  543.0000   129.6830     8.5887     9.0114
  543.5000   128.8858     8.4963     8.9147
  544.0000   123.4920     8.3811     8.8176
  544.5000   118.1084     8.2549     8.6989
  545.0000   116.9274     8.1303     8.5696
  545.5000   122.2776     7.8837     8.4637
  546.0000   128.1887     7.5494     8.0721
  546.5000   133.6480     7.2296     7.6868
  547.0000   133.4936     6.9234     7.3202
  547.5000   125.5887     6.6302     6.8828
  548.0000   125.1840     6.4446     6.9915
  548.5000   123.8914     6.7296     7.2173
  549.0000   121.6199     6.9876     7.4630
  549.5000   124.1796     7.2555     7.7067
  550.0000   126.7527     7.5610     8.1374
  550.5000   125.0003     7.9537     8.5708
  551.0000   123.2522     8.4121     9.0254
  551.5000   124.7158     8.8969     9.5042
  552.0000   125.6026     9.3863    10.0083
  552.5000   122.8623     9.8130    10.4384
  553.0000   120.0609    10.3119    10.5654
  553.5000   117.7834    10.3108    10.6052
  554.0000   120.2039    10.3104    10.6052
  554.5000   122.8073    10.3104    10.6052
  555.0000   125.4044    10.3104    10.6052
  555.5000   127.5239    10.3104    10.6052
  556.0000   127.9762    10.3104    10.6052
  556.5000   126.5998    10.3104    10.6052
  557.0000   123.8697    10.3104    10.6052
  557.5000   121.9531    10.3104    10.6052
  558.0000   123.0459    10.3104    10.6052
  558.5000   122.0032    10.3104    10.6052
  559.0000   120.6653    10.3104    10.6048
  559.5000   123.1173    10.3105    10.6014
  560.0000   126.0917    10.3104    10.7352
  560.5000   125.7869    10.3104    10.8829
  561.0000   123.0488    10.2540    11.0109
  561.5000   120.2839     9.8984    10.7938
  562.0000   120.0249     9.5549    10.6088
  562.5000   120.8754     9.2230    10.2712
