~VERSION INFORMATION
 VERS.                2.0:   CWLS LOG ASCII STANDARD - VERSION 2.0
 WRAP.                 NO:   ONE LINE PER DEPTH STEP
~WELL INFORMATION
#MNEM.UNIT      DATA TYPE    INFORMATION
#----------   ------------   ------------------------------
 STRT.F            8.0000:   START DEPTH
 STOP.F          866.5000:   STOP DEPTH
 STEP.F            0.5000:   STEP LENGTH
 NULL.          -999.2500:   NO VALUE
 COMP. LAWRENCE/ALLISON INC:   COMPANY
 WELL.    42-11 SX #11-11:   WELL
 FLD .              NPR 3:   FIELD
 LOC .      S11 T38N R78W:   LOCATION
 CNTY.            NATRONA:   COUNTY
 STAT.            WYOMING:   STATE
 CTRY. UNITED STATES OF AMERICA:   COUNTRY
 SRVC.           Gearhart:   SERVICE COMPANY
 DATE.        17-MAY-1987:   LOGDATE
 API .       490251112700:   API NUMBER
~CURVE INFORMATION
#MNEM.UNIT       API CODE    CURVE DESCRIPTION
#----------   ------------   ------------------------------
 DEPT.F                  :   
 GRR .GAPI   07 310 01 00:   GAMMA RAY FROM RES. LOG.
 RILD.OHMM   07 120 46 00:   INDUCTION LOG DEEP RESISTIVITY
 RILM.OHMM   07 120 44 00:   INDUCTION LOG MEDIUM RESISTIVITY
~PARAMETER INFORMATION
#MNEM.UNIT          VALUE    DESCRIPTION
#----------   ------------   ------------------------------
 PD  .                 GL:   PERMANENT DATUM
 EPD .F              5166:   ELEVATION PERMANENT DATUM
 LMF .                 KB:   LOG MEASURED FROM
 DAPD.F                 8:   FEET ABOVE PERMANENT DATUM
 DMF .                 KB:   DRILLING MEASURED FROM
 EKB .F              5174:   KELLING BUSHING
 EDF .F              5174:   DRILLING FLOOR
 EGL .F              5166:   GROUND LEVEL
 DATE.            5-17-87:   RUN DATE
 RUN .                  1:   RUN NUMBER
 DD  .F               891:   DEPTH DRILLER
 DL  .F               874:   DEPTH LOGGER
 BLI .F               865:   BOTTOM LOG INTERVAL
 TLI .F                44:   TOP LOG INTERVAL
 CS  .IN            8.625:   CASING SIZE
 CBD .F                49:   CASING BOTTOM DRILLER
 CBL .F                44:   CASING BOTTOM LOGGER
 BS  .IN            7.875:   BIT SIZE
 BSD .F               891:   BIT SIZE AT DEPTH
 DFT .           AIR FOAM:   DRILLING FLUID TYPE
 TCS .HRS            0300:   TIME CURCULATED STOPPED
 TLAB.HRS            1255:   TIME LOGGER AT BOTTOM
 MRT .F                80:   MAXIMUM RECORDED TEMPERATURE
 LUN .               7597:   LOGGING UNIT NUMBER
 LUL .           GILLETTE:   LOGGING UNIT LOCATION
 ENGI.            WANGLER:   RECORDING ENGINEER
 WITN.             STRONG:   WITNESSED BY
 CLNT.            A2DTECH:   CLIENT CODE
 ORIG.       2", 5" PRINT:   ORIGIN OF DATA
 UWI .       490251112700:   UNIQUE WELL ID
 DICO. A2D Technologies, Inc.:   DIGITIZING COMPANY
~OTHER INFORMATION
~A    DEPT      GRR      RILD       RILM   
# ...
  463.0000    97.8805     8.9601     9.2664
  463.5000    95.7279     8.9784     9.2178
  464.0000    93.5905     8.9978     9.2373
  464.5000    92.6451     9.0172     9.2704
  465.0000    93.0739     9.0366     9.3032
  465.5000    94.1706     9.0561     9.3362
  466.0000    95.7668     9.0756     9.3693
  466.5000    96.8615     9.0951     9.4024
  467.0000    96.3979     9.1147     9.4358
  467.5000    96.1264     9.1310     9.4826
  468.0000    96.5727     8.7663     9.2511
  468.5000    97.6946     8.4666     8.8772
  469.0000    98.8102     8.1772     8.5185
  469.5000    99.9397     7.8976     8.1853
  470.0000   100.9722     7.6277     7.9196
  470.5000   101.3274     7.3669     7.6625
  471.0000   100.6794     7.1425     7.4508
  471.5000   100.0917     7.1425     7.3478
  472.0000    99.5539     7.1956     7.3829
  472.5000    96.8728     7.2221     7.4135
  473.0000    94.9893     7.2409     7.4441
  473.5000    95.3722     7.2595     7.4749
  474.0000    98.8166     7.2790     7.5269
  474.5000   101.8026     7.3780     7.5950
  475.0000   102.2616     7.4880     7.6709
  475.5000   101.1700     7.5360     7.7558
  476.0000   100.4341     7.5895     7.8413
  476.5000   101.0967     7.6506     7.9250
  477.0000   101.8411     7.7386     8.0356
  477.5000   102.7275     7.8288     8.1441
  478.0000   103.6059     7.9370     8.2538
  478.5000   104.2955     8.0966     8.3650
  479.0000   103.7002     8.2586     8.4776
  479.5000   102.2667     8.3628     8.5918
  480.0000   100.5829     8.4420     8.7097
  480.5000    97.2293     8.5220     8.7870
  481.0000    93.7669     8.6278     8.8664
  481.5000    91.9793     8.5544     8.8758
  482.0000    94.6869     8.4492     8.7155
  482.5000    98.7015     8.3453     8.5950
  483.0000   100.8309     8.2426     8.4762
  483.5000   102.5698     8.1413     8.3589
  484.0000   104.3273     8.0411     8.2435
  484.5000   105.6974     7.9422     8.1528
  485.0000   106.9995     7.9246     8.1512
  485.5000   106.0301     7.9593     8.2238
  486.0000   103.9737     8.0108     8.2920
  486.5000   101.9177     8.0627     8.3079
  487.0000   100.7772     8.1149     8.3079
  487.5000   100.5893     8.1524     8.3079
  488.0000   101.8162     8.1391     8.3079
  488.5000   103.4939     8.1288     8.3079
  489.0000   105.0972     8.1185     8.3079
  489.5000   103.3697     8.1082     8.3079
  490.0000   100.7814     8.0979     8.3079
  490.5000    98.2330     8.0876     8.3081
  491.0000    99.0919     8.0774     8.3101
  491.5000   100.6410     8.0012     8.2302
  492.0000   102.1903     7.9137     8.1391
  492.5000   103.7032     7.8271     8.0489
  493.0000   104.9438     7.7414     7.9598
  493.5000   106.2101     7.6568     7.8716
  494.0000   107.5026     7.5728     7.7844
  494.5000   108.0461     7.4882     7.6982
  495.0000   108.3238     7.4226     7.6188
  495.5000   108.0350     7.3562     7.5626
  496.0000   106.7758     7.2902     7.5066
  496.5000   103.9836     7.2249     7.4510
  497.0000   100.9733     7.0989     7.2746
  497.5000    98.1358     6.9122     6.9238
  498.0000    97.5842     6.7232     6.5902
  498.5000    99.9654     6.4781     6.2825
  499.0000   102.9769     6.1989     6.0706
  499.5000   104.2182     6.1967     5.8573
  500.0000    99.8386     6.2958     5.8573
  500.5000    95.9371     6.3910     6.0196
  501.0000    95.4121     6.4871     6.2324
  501.5000    95.0225     6.5845     6.4528
  502.0000    96.1682     6.6834     6.6810
  502.5000    98.5785     6.7835     6.9172
  503.0000   100.9571     6.8783     7.1425
  503.5000   103.6588     6.9614     7.2103
  504.0000   107.8631     7.0400     7.1425
  504.5000   108.1349     7.0796     7.1628
  505.0000   106.1870     7.0915     7.1807
  505.5000   104.2351     7.1034     7.1986
  506.0000   102.8223     7.1153     7.2166
  506.5000   101.5296     7.1273     7.2346
  507.0000   100.5161     7.1425     7.2527
  507.5000   103.5205     7.0555     7.2725
  508.0000   107.1992     6.9376     7.2817
  508.5000   107.2987     6.8218     7.0444
  509.0000   103.0506     6.7078     6.9061
  509.5000    98.9622     6.5982     6.7706
  510.0000    98.5675     6.4283     6.6377
  510.5000    98.8567     6.1467     6.4987
  511.0000    99.9100     5.7490     6.1236
  511.5000   101.4219     5.3770     5.6834
  512.0000   104.7468     5.0356     5.2749
  512.5000   108.5352     4.9274     4.8957
  513.0000   110.3974     4.8728     4.5438
  513.5000   107.6041     4.8489     4.1295
  514.0000   102.2440     4.8751     4.2491
  514.5000    97.2063     4.8949     4.4860
  515.0000    95.3775     4.9481     4.7376
  515.5000    95.3496     5.2310     5.0030
  516.0000    97.4633     5.5301     5.2829
  516.5000    99.8152     5.8570     5.5785
  517.0000   102.2297     6.2158     5.8906
  517.5000   105.0085     6.5449     6.2202
  518.0000   108.4305     6.7540     6.5073
  518.5000   110.5482     6.9316     6.6741
  519.0000   111.1614     7.1138     6.7986
  519.5000   110.3290     7.2072     6.9164
  520.0000   107.4682     7.2842     7.0361
  520.5000   104.6323     7.3621     7.1535
  521.0000   101.8109     7.4408     7.2410
  521.5000    98.8882     7.5204     7.3296
  522.0000    98.0963     7.6009     7.4193
  522.5000    98.6979     7.7032     7.5101
  523.0000    99.4064     7.8194     7.6020
  523.5000   100.3001     7.9246     7.7032
  524.0000   103.9189     7.8774     7.8346
  524.5000   106.7693     7.8347     7.9812
  525.0000   108.5982     7.7766     8.1304
  525.5000   109.6271     7.8179     8.3079
  526.0000   110.6297     7.8880     8.2864
  526.5000   109.5857     7.9430     8.2528
  527.0000   107.3463     7.9817     8.2302
  527.5000   105.1120     7.9998     8.3366
  528.0000   103.3605     7.9998     8.3861
  528.5000   105.8567     7.9023     8.1367
  529.0000   108.6227     7.8042     7.9764
  529.5000   111.4465     7.7070     7.8764
  530.0000   110.8223     7.6112     7.7777
  530.5000   107.4150     7.5165     7.6802
  531.0000   104.0202     7.4233     7.5839
  531.5000   100.6506     7.3472     7.4880
  532.0000   101.0424     7.3474     7.4520
  532.5000   102.8437     7.3354     7.4158
  533.0000   104.6162     7.2846     7.3799
  533.5000   104.8666     7.0612     7.3445
  534.0000   103.1268     6.7571     7.3083
  534.5000   101.5153     6.4662     7.2045
  535.0000   102.0020     6.1877     6.7559
  535.5000   102.5889     5.7681     6.3367
  536.0000   103.1682     5.2881     5.9474
  536.5000   103.7586     4.8481     5.5195
  537.0000   103.5493     4.2739     5.0356
  537.5000   101.4308     3.7501     4.4382
  538.0000   100.1662     3.2905     3.8702
  538.5000   102.3280     3.0118     3.3749
  539.0000   105.5446     2.7885     2.9430
  539.5000   104.9899     2.6490     2.5663
  540.0000   100.4734     2.6071     2.3763
  540.5000    95.8177     2.5750     2.2990
  541.0000    94.4907     2.6457     2.3562
  541.5000    98.7891     2.7510     2.4603
  542.0000   104.5190     3.0660     2.6875
  542.5000   110.3430     3.4206     3.0265
  543.0000   113.7159     3.8163     3.4148
  543.5000   111.5632     4.2578     3.8530
  544.0000   108.7351     4.7503     4.3473
  544.5000   106.7953     5.1622     4.9051
  545.0000   107.0436     5.4919     5.5345
  545.5000   108.1469     5.7478     5.6511
  546.0000   109.7032     5.8798     5.7702
  546.5000   111.2806     6.0149     5.8918
  547.0000   112.8987     6.0828     6.0159
  547.5000   113.7878     5.8573     6.1427
  548.0000   113.7741     5.6738     6.2577
  548.5000   113.2696     5.4872     5.7449
  549.0000   113.5889     5.3067     5.4948
  549.5000   114.3796     5.1322     5.3273
  550.0000   115.2289     4.9633     5.1649
  550.5000   116.8005     4.8001     5.0074
  551.0000   118.6124     4.6855     4.8489
  551.5000   118.9027     4.6252     4.7582
  552.0000   116.0749     4.5396     4.6691
  552.5000   113.2714     4.6265     4.7162
  553.0000   113.0915     4.8537     4.7739
  553.5000   114.0257     5.0844     4.8615
