~VERSION INFORMATION
 VERS.                2.0:   CWLS LOG ASCII STANDARD - VERSION 2.0
 WRAP.                 NO:   ONE LINE PER DEPTH STEP
~WELL INFORMATION
#MNEM.UNIT      DATA TYPE    INFORMATION
#----------   ------------   ------------------------------
 STRT.F          906.5000:   START DEPTH
 STOP.F         2710.5000:   STOP DEPTH
 STEP.F            0.5000:   STEP LENGTH
 NULL.          -999.2500:   NO VALUE
 COMP.   FLUOR DANIEL INC:   COMPANY
 WELL. NAVAL PETROLEUM RESERVE 3 X-4 #77-4:   WELL
 FLD .             TEAPOT:   FIELD
 LOC .       S4 T38N R78W:   LOCATION
 CNTY.            NATRONA:   COUNTY
 STAT.            WYOMING:   STATE
 CTRY. UNITED STATES OF AMERICA:   COUNTRY
 SRVC.            Unknown:   SERVICE COMPANY
 DATE.        21-JUN-1995:   LOGDATE
 API .       490252273600:   API NUMBER
~CURVE INFORMATION
#MNEM.UNIT       API CODE    CURVE DESCRIPTION
#----------   ------------   ------------------------------
 DEPT.F                  :   
 TGAS.UNITS  91 830 01 00:   TOTAL GAS FROM HOTWIRE
 ROP .MIN/FT 91 810 01 00:   RAT OF DRILLING PENETRATION
~PARAMETER INFORMATION
#MNEM.UNIT          VALUE    DESCRIPTION
#----------   ------------   ------------------------------
 EKB .F              5291:   KELLING BUSHING
 EGL .F              5281:   GROUND LEVEL
 DATE.            6-21-95:   RUN DATE
 DD  .F              2711:   DEPTH DRILLER
 CBD .F               893:   CASING BOTTOM DRILLER
 ENGI.               HUSK:   RECORDING ENGINEER
 WITN.              TOWER:   WITNESSED BY
 CLNT.            A2DTECH:   CLIENT CODE
 ORIG.           5" PRINT:   ORIGIN OF DATA
 UWI .       490252273600:   UNIQUE WELL ID
 DICO. A2D Technologies, Inc.:   DIGITIZING COMPANY
~OTHER INFORMATION
~A   DEPT      TGAS         ROP 
  906.5000    45.7108     0.4931
  907.0000    45.7111     0.4931
  907.5000    45.7114     0.4931
  908.0000    45.7117     0.4931
  908.5000    45.7120     0.4931
  909.0000    45.7122     0.4931
  909.5000    45.7125     0.4931
  910.0000    45.7128     0.4931
  910.5000    45.7131     0.4931
  911.0000    45.7134     0.4931
  911.5000    45.7136     0.4931
  912.0000    45.7139     0.4931
  912.5000    45.7142     0.4931
  913.0000    45.7145     0.4931
  913.5000    45.7148     0.4931
  914.0000    45.7150     0.4931
  914.5000    45.7153     0.4931
  915.0000    45.7156     0.4931
  915.5000    45.7159     0.4931
  916.0000    45.7162     0.4931
  916.5000    45.7164     0.4931
  917.0000    45.7167     0.4931
  917.5000    45.7170     0.4931
  918.0000    45.7173     0.4931
  918.5000    45.7176     0.4931
  919.0000    45.7178     0.4931
  919.5000    45.7181     0.4931
  920.0000    45.7184     0.4932
  920.5000    45.7187     0.4942
  921.0000    45.7190     0.4952
  921.5000    45.7192     0.4961
  922.0000    45.7195     0.4971
  922.5000    45.7198     0.4981
  923.0000    45.7201     0.4990
  923.5000    45.7204     0.5000
  924.0000    45.7206     0.5009
  924.5000    45.7209     0.5019
  925.0000    45.7212     0.5029
  925.5000    45.7215     0.5038
  926.0000    45.7218     0.5048
  926.5000    45.7221     0.5057
  927.0000    45.7223     0.5067
  927.5000    45.7226     0.5077
  928.0000    45.7229     0.5086
  928.5000    45.7232     0.5096
  929.0000    45.7235     0.5106
  929.5000    45.7237     0.5115
  930.0000    45.7240     0.5125
  930.5000    45.7243     0.5134
  931.0000    45.7246     0.5144
  931.5000    45.7249     0.5154
  932.0000    45.7251     0.5163
  932.5000    45.7254     0.5173
  933.0000    45.7257     0.5182
  933.5000    45.7260     0.5192
  934.0000    45.7263     0.5202
  934.5000    45.7265     0.5211
  935.0000    45.7268     0.5218
  935.5000    45.7271     0.4766
  936.0000    45.7274     0.4313
  936.5000    45.7277     0.4203
  937.0000    45.7279     0.4210
  937.5000    45.7282     0.4215
  938.0000    45.7285     0.4220
  938.5000    45.7288     0.4226
  939.0000    45.7291     0.4232
  939.5000    45.7293     0.4237
  940.0000    45.7296     0.4244
  940.5000    45.7299     0.4253
  941.0000    45.7302     0.4261
  941.5000    45.7305     0.4270
  942.0000    45.7307     0.4278
  942.5000    45.7310     0.4287
  943.0000    45.7313     0.4296
  943.5000    45.7316     0.4304
  944.0000    45.7319     0.4313
  944.5000    45.7321     0.4321
  945.0000    45.7324     0.4330
  945.5000    45.7327     0.4339
  946.0000    45.7330     0.4347
  946.5000    45.7333     0.4356
  947.0000    45.7336     0.4364
  947.5000    45.7338     0.4373
  948.0000    45.7341     0.4382
  948.5000    45.7344     0.4390
  949.0000    45.7347     0.4399
  949.5000    45.7350     0.4407
  950.0000    45.7352     0.4416
  950.5000    45.7355     0.4425
  951.0000    45.7358     0.4433
  951.5000    45.7361     0.4442
  952.0000    45.7364     0.4450
  952.5000    45.7366     0.4459
  953.0000    45.7369     0.4468
  953.5000    45.7372     0.4476
  954.0000    45.7375     0.4485
  954.5000    45.7378     0.4493
  955.0000    45.7380     0.4502
  955.5000    45.7383     0.4511
  956.0000    45.7386     0.4519
  956.5000    45.7389     0.4528
  957.0000    45.7392     0.4536
  957.5000    45.7394     0.4545
  958.0000    45.7397     0.4554
  958.5000    45.7400     0.4562
  959.0000    45.7403     0.4571
  959.5000    45.7406     0.4579
  960.0000    45.7408     0.4704
  960.5000    45.7411     0.4707
  961.0000    45.7414     0.4710
  961.5000    45.7417     0.4712
  962.0000    45.7420     0.4715
  962.5000    45.7422     0.4718
  963.0000    45.7425     0.4721
  963.5000    45.7428     0.4723
  964.0000    45.7431     0.4726
  964.5000    45.7434     0.4729
  965.0000    45.7436     0.4732
  965.5000    45.7439     0.4735
  966.0000    45.7442     0.4737
  966.5000    45.7445     0.4740
  967.0000    45.7448     0.4743
  967.5000    45.7450     0.4746
  968.0000    45.7453     0.4749
  968.5000    45.7456     0.4751
  969.0000    45.7459     0.4754
  969.5000    45.7462     0.4757
  970.0000    45.7464     0.4760
  970.5000    45.7467     0.4763
  971.0000    45.7470     0.4765
  971.5000    45.7473     0.4768
  972.0000    45.7476     0.4771
  972.5000    45.7479     0.4774
  973.0000    45.7481     0.4777
  973.5000    45.7484     0.4779
  974.0000    45.7487     0.4782
  974.5000    45.7490     0.4785
  975.0000    45.7493     0.4788
  975.5000    45.7495     0.4791
  976.0000    45.7498     0.4793
  976.5000    45.7501     0.4796
  977.0000    45.7504     0.4799
  977.5000    45.7507     0.4802
  978.0000    45.7509     0.4805
  978.5000    45.7512     0.4807
  979.0000    45.7515     0.4810
  979.5000    45.7518     0.4813
  980.0000    45.7521     0.4816
  980.5000    45.7523     0.4826
  981.0000    45.7526     0.4836
  981.5000    45.7529     0.4847
  982.0000    45.7532     0.4857
  982.5000    45.7535     0.4868
  983.0000    45.7537     0.4878
  983.5000    45.7540     0.4889
  984.0000    45.7543     0.4899
  984.5000    45.7546     0.4910
  985.0000    45.7549     0.4920
  985.5000    45.7551     0.4931
  986.0000    45.7554     0.4941
  986.5000    45.7557     0.4952
  987.0000    45.7560     0.4962
  987.5000    45.7563     0.4973
  988.0000    45.7565     0.4983
  988.5000    45.7568     0.4994
  989.0000    45.7571     0.5004
  989.5000    45.7574     0.5015
  990.0000    45.7577     0.5025
  990.5000    45.7579     0.5036
  991.0000    45.7582     0.5046
  991.5000    45.7585     0.5057
  992.0000    45.7588     0.5067
  992.5000    45.7591     0.5078
  993.0000    45.7593     0.5088
  993.5000    45.7596     0.5099
  994.0000    45.7599     0.5109
  994.5000    45.7602     0.5120
  995.0000    45.7605     0.5130
  995.5000    45.7607     0.5141
  996.0000    45.7610     0.5151
  996.5000    45.7613     0.5161
  997.0000    45.7616     0.5172
  997.5000    45.7619     0.5182
  998.0000    45.7622     0.5193
  998.5000    45.7624     0.5203
  999.0000    45.7627     0.5214
  999.5000    45.7630     0.5224
 1000.0000    45.7633     0.5228
 1000.5000    45.7636     0.5218
 1001.0000    45.7638     0.5209
 1001.5000    45.7641     0.5087
 1002.0000    45.7644     0.5079
 1002.5000    45.7647     0.4957
 1003.0000    45.7650     0.4948
 1003.5000    45.7652     0.4939
 1004.0000    45.7655     0.4817
 1004.5000    45.7658     0.4809
 1005.0000    45.7661     0.4800
 1005.5000    45.7664     0.4792
 1006.0000    45.7666     0.4784
 1006.5000    45.7669     0.4774
 1007.0000    45.7672     0.4766
 1007.5000    45.7675     0.4758
 1008.0000    45.7678     0.4749
 1008.5000    45.7680     0.4741
 1009.0000    45.7683     0.4848
 1009.5000    45.7686     0.4723
 1010.0000    45.7689     0.4830
 1010.5000    45.7692     0.4820
 1011.0000    45.7694     0.4926
 1011.5000    45.7697     0.4916
 1012.0000    45.7700     0.4908
 1012.5000    45.7703     0.4899
 1013.0000    45.7706     0.4891
 1013.5000    45.7708     0.4883
 1014.0000    45.7711     0.4875
 1014.5000    45.7714     0.4865
 1015.0000    45.7717     0.4857
 1015.5000    45.7720     0.4848
 1016.0000    45.7722     0.4840
 1016.5000    45.7725     0.4832
 1017.0000    45.7728     0.4939
 1017.5000    45.7731     0.4928
 1018.0000    45.7734     0.5034
 1018.5000    45.7737     0.5025
 1019.0000    45.7739     0.5132
 1019.5000    45.7742     0.5121
 1020.0000    45.7745     0.5116
 1020.5000    45.7748     0.5114
 1021.0000    45.7751     0.5114
 1021.5000    45.7753     0.5114
 1022.0000    45.7756     0.5114
 1022.5000    45.7759     0.5114
 1023.0000    45.7762     0.5114
 1023.5000    45.7765     0.5114
 1024.0000    45.7767     0.5114
 1024.5000    45.7770     0.5114
 1025.0000    45.7773     0.5114
 1025.5000    45.7776     0.5114
 1026.0000    45.7779     0.5000
 1026.5000    45.7781     0.5000
 1027.0000    45.7784     0.5000
 1027.5000    45.7787     0.5000
