~VERSION INFORMATION
 VERS.                2.0:   CWLS LOG ASCII STANDARD - VERSION 2.0
 WRAP.                 NO:   ONE LINE PER DEPTH STEP
~WELL INFORMATION
#MNEM.UNIT      DATA TYPE    INFORMATION
#----------   ------------   ------------------------------
 STRT.F            0.0000:   START DEPTH
 STOP.F         3024.5000:   STOP DEPTH
 STEP.F            0.5000:   STEP LENGTH
 NULL.          -999.2500:   NO VALUE
 COMP. LAWRENCE/ALLISON INC:   COMPANY
 WELL.   NPR 3 77X #77-28:   WELL
 FLD .           N.P.R. 3:   FIELD
 LOC .      S28 T39N R78W:   LOCATION
 CNTY.            NATRONA:   COUNTY
 STAT.            WYOMING:   STATE
 CTRY. UNITED STATES OF AMERICA:   COUNTRY
 SRVC.      Dresser Atlas:   SERVICE COMPANY
 DATE.        19-OCT-1986:   LOGDATE
 API .       490251110400:   API NUMBER
~CURVE INFORMATION
#MNEM.UNIT       API CODE    CURVE DESCRIPTION
#----------   ------------   ------------------------------
 DEPT.F                  :   
 PORD.DEC    45 890 12 00:   DENSITY POROSITY SANDSTONE
 CNC .DEC    42 890 03 00:   NEUTRON POROSITY SANDSTONE
 DEN .G/C3   45 350 01 00:   COMPENSATED BULK DENSTIY
 CORR.G/C3   45 356 01 00:   DENSITY CORRECTION
 CALD.IN     45 280 60 00:   CALIPER FROM DENSITY LOG
 GRR .GAPI   07 310 01 00:   GAMMA RAY FROM RES. LOG.
 RFOC.OHMM   07 220 04 00:   RESISTIVITY FOCUSED LOG
 RILD.OHMM   07 120 46 00:   INDUCTION LOG DEEP RESISTIVITY
 RILM.OHMM   07 120 44 00:   INDUCTION LOG MEDIUM RESISTIVITY
 SPR .MV     07 010 01 00:   SPONTANEOUS POTENTIAL
~PARAMETER INFORMATION
#MNEM.UNIT          VALUE    DESCRIPTION
#----------   ------------   ------------------------------
 PD  .                 GL:   PERMANENT DATUM
 EPD .F              5074:   ELEVATION PERMANENT DATUM
 LMF .                 KB:   LOG MEASURED FROM
 DAPD.F                12:   FEET ABOVE PERMANENT DATUM
 DMF .                 KB:   DRILLING MEASURED FROM
 EKB .F              5086:   KELLING BUSHING
 EGL .F              5074:   GROUND LEVEL
 DATE.           10-19-86:   RUN DATE
 RUN .                  1:   RUN NUMBER
 DD  .F              3021:   DEPTH DRILLER
 DL  .F              3025:   DEPTH LOGGER
 BLI .F              3023:   BOTTOM LOG INTERVAL
 CS  .IN            8.625:   CASING SIZE
 CBD .F               620:   CASING BOTTOM DRILLER
 CBL .F               615:   CASING BOTTOM LOGGER
 BS  .IN            7.875:   BIT SIZE
 BSD .F              3021:   BIT SIZE AT DEPTH
 DFT .        KCL POLYMER:   DRILLING FLUID TYPE
 DFD .                8.9:   DRILLING FLUID DENSITY
 DFV .                 38:   DRILLING FLUID VISCOSITY
 DFPH.                9.5:   DRILLING FLUID PH
 DFL .               11.2:   DRILLING FLUID LOSS
 MSS .           FLOWLINE:   MUD SAMPLE SOURCE
 RMS .OHMM            .25:   RESISTIVITY MUD SAMPLE
 MST .F                65:   MUD SAMPLE TEMPERATURE
 RMF .OHMM           .203:   RESISTIVITY MUD FILTRATE SAMPLE
 MFST.F                65:   MUD FILTRATE SAMPLE TEMPERATURE
 RMC .OHMM            .31:   RESISTIVITY MUD CAKE
 MCST.F                65:   MUD CAKE SAMPLE TEMPERATURE
 MFSS.               MEAS:   MUD FILTRATE SAMPLE SOURCE
 MCSS.               CALC:   MUD CAKE SAMPLE SOURCE
 RMB .OHMM           .136:   RESISTIVITY MUD AT BHT
 BHT .F               119:   BOTTOM HOLE TEMPERATURE
 TCS .HRS               5:   TIME CURCULATED STOPPED
 MRT .F               119:   MAXIMUM RECORDED TEMPERATURE
 LUN .               6274:   LOGGING UNIT NUMBER
 LUL .               GLTE:   LOGGING UNIT LOCATION
 ENGI.             RAUTIO:   RECORDING ENGINEER
 WITN.             STRONG:   WITNESSED BY
 CLNT.            A2DTECH:   CLIENT CODE
 ORIG.       2", 5" PRINT:   ORIGIN OF DATA
 UWI .       490251110400:   UNIQUE WELL ID
 DICO. A2D Technologies, Inc.:   DIGITIZING COMPANY
~OTHER INFORMATION
~A    DEPT    PORD        CNC        DEN       CORR       CALD        GRR       RFOC       RILD       RILM        SPR   
# ...
 1742.0000  -999.2500  -999.2500  -999.2500  -999.2500  -999.2500   139.7844     6.8785     5.0388     5.1998   -82.6833
 1742.5000  -999.2500  -999.2500  -999.2500  -999.2500  -999.2500   134.7140     6.5944     4.9789     5.1478   -82.7873
 1743.0000  -999.2500  -999.2500  -999.2500  -999.2500  -999.2500   131.8736     6.3367     4.9197     5.0889   -82.8911
 1743.5000  -999.2500  -999.2500  -999.2500  -999.2500  -999.2500   131.0317     6.0890     4.8612     4.8025   -82.9948
 1744.0000  -999.2500  -999.2500  -999.2500  -999.2500  -999.2500   129.4623     5.9917     4.6401     4.4589   -83.0986
 1744.5000  -999.2500  -999.2500  -999.2500  -999.2500  -999.2500   126.6594     5.9917     4.3882     4.1396   -83.2030
 1745.0000  -999.2500  -999.2500  -999.2500  -999.2500  -999.2500   123.8426     5.9300     4.1500     3.8434   -83.3078
 1745.5000  -999.2500  -999.2500  -999.2500  -999.2500  -999.2500   121.8562     5.6520     3.9247     3.5684   -83.3706
 1746.0000  -999.2500  -999.2500  -999.2500  -999.2500  -999.2500   126.6282     5.0016     3.7476     3.3559   -83.0939
 1746.5000  -999.2500  -999.2500  -999.2500  -999.2500  -999.2500   131.9151     4.4258     3.7476     3.7898   -82.8132
 1747.0000  -999.2500  -999.2500  -999.2500  -999.2500  -999.2500   136.8041     3.8574     3.8259     4.2038   -82.5327
 1747.5000  -999.2500  -999.2500  -999.2500  -999.2500  -999.2500   133.7524     4.2174     3.8881     4.2629   -82.2526
 1748.0000  -999.2500  -999.2500  -999.2500  -999.2500  -999.2500   128.8548     4.9941     3.8881     4.1548   -82.0041
 1748.5000  -999.2500  -999.2500  -999.2500  -999.2500  -999.2500   123.8561     5.9140     3.8881     4.0712   -82.0423
 1749.0000  -999.2500  -999.2500  -999.2500  -999.2500  -999.2500   121.5605     6.3318     3.9370     4.0712   -82.0746
 1749.5000  -999.2500  -999.2500  -999.2500  -999.2500  -999.2500   124.3348     5.6920     4.0204     4.4016   -82.1061
 1750.0000  -999.2500  -999.2500  -999.2500  -999.2500  -999.2500   125.7693     5.2636     4.1055     4.7169   -82.1376
 1750.5000  -999.2500  -999.2500  -999.2500  -999.2500  -999.2500   124.2280     5.4307     4.1851     4.3269   -82.1694
 1751.0000  -999.2500  -999.2500  -999.2500  -999.2500  -999.2500   122.7324     5.7575     4.0497     3.9993   -82.2055
 1751.5000  -999.2500  -999.2500  -999.2500  -999.2500  -999.2500   121.4350     6.1040     3.9344     3.6965   -82.0407
 1752.0000  -999.2500  -999.2500  -999.2500  -999.2500  -999.2500   120.9761     6.2164     3.8525     3.4166   -81.8327
 1752.5000  -999.2500  -999.2500  -999.2500  -999.2500  -999.2500   118.8173     4.8376     3.8525     3.3869   -81.6228
 1753.0000  -999.2500  -999.2500  -999.2500  -999.2500  -999.2500   117.0428     4.0755     3.9639     3.6082   -81.4177
 1753.5000  -999.2500  -999.2500  -999.2500  -999.2500  -999.2500   117.1067     3.6456     4.0506     3.7861   -81.4099
 1754.0000  -999.2500  -999.2500  -999.2500  -999.2500  -999.2500   118.2478     4.3408     4.1393     3.9241   -81.4546
 1754.5000  -999.2500  -999.2500  -999.2500  -999.2500  -999.2500   121.6337     5.3450     4.1851     3.9604   -81.6564
 1755.0000  -999.2500  -999.2500  -999.2500  -999.2500  -999.2500   125.9682     6.4049     4.1851     3.9607   -81.8514
 1755.5000  -999.2500  -999.2500  -999.2500  -999.2500  -999.2500   129.7760     6.0705     4.1851     3.9585   -82.0463
 1756.0000  -999.2500  -999.2500  -999.2500  -999.2500  -999.2500   131.9307     5.6792     4.2365     4.2201   -82.2419
 1756.5000  -999.2500  -999.2500  -999.2500  -999.2500  -999.2500   129.0381     5.3654     4.4566     4.4976   -82.4366
 1757.0000  -999.2500  -999.2500  -999.2500  -999.2500  -999.2500   125.7750     5.3116     4.6882     4.7922   -82.6044
 1757.5000  -999.2500  -999.2500  -999.2500  -999.2500  -999.2500   122.4476     5.1514     4.9318     5.1737   -82.6524
 1758.0000  -999.2500  -999.2500  -999.2500  -999.2500  -999.2500   121.8005     5.0307     5.0301     5.1705   -82.7989
 1758.5000  -999.2500  -999.2500  -999.2500  -999.2500  -999.2500   123.9956     5.8363     5.0315     5.1715   -82.8062
 1759.0000  -999.2500  -999.2500  -999.2500  -999.2500  -999.2500   126.5525     6.4521     5.0302     5.2826   -82.8050
 1759.5000  -999.2500  -999.2500  -999.2500  -999.2500  -999.2500   129.0943     6.8817     5.2336     5.5098   -82.7153
 1760.0000  -999.2500  -999.2500  -999.2500  -999.2500  -999.2500   130.5647     6.8780     5.4606     5.7467   -82.1401
 1760.5000  -999.2500  -999.2500  -999.2500  -999.2500  -999.2500   128.7093     6.8785     5.6975     5.8825   -81.6172
 1761.0000  -999.2500  -999.2500  -999.2500  -999.2500  -999.2500   126.9858     6.8785     5.7752     5.8825   -81.6077
 1761.5000  -999.2500  -999.2500  -999.2500  -999.2500  -999.2500   127.9081     6.8785     5.7222     5.7890   -81.6378
 1762.0000  -999.2500  -999.2500  -999.2500  -999.2500  -999.2500   129.5441     6.9212     5.5701     5.6749   -81.6689
 1762.5000  -999.2500  -999.2500  -999.2500  -999.2500  -999.2500   131.1857     7.0332     5.4220     5.5630   -81.6995
 1763.0000  -999.2500  -999.2500  -999.2500  -999.2500  -999.2500   131.3623     7.0710     5.2774     5.4533   -81.7300
 1763.5000  -999.2500  -999.2500  -999.2500  -999.2500  -999.2500   134.1989     6.2952     5.1380     5.3458   -81.7605
 1764.0000  -999.2500  -999.2500  -999.2500  -999.2500  -999.2500   138.1004     5.7500     5.0760     5.2404   -81.7919
 1764.5000  -999.2500  -999.2500  -999.2500  -999.2500  -999.2500   142.0327     5.2676     5.0772     5.2185   -81.8649
 1765.0000  -999.2500  -999.2500  -999.2500  -999.2500  -999.2500   144.6857     5.5034     5.0772     5.2225   -82.0011
 1765.5000  -999.2500  -999.2500  -999.2500  -999.2500  -999.2500   140.8744     5.8869     4.9770     5.0306   -82.1370
 1766.0000  -999.2500  -999.2500  -999.2500  -999.2500  -999.2500   136.6924     6.2972     4.7836     4.7648   -82.2728
 1766.5000  -999.2500  -999.2500  -999.2500  -999.2500  -999.2500   132.6160     6.8155     4.5978     4.5153   -82.4047
 1767.0000  -999.2500  -999.2500  -999.2500  -999.2500  -999.2500   131.8872     6.3333     4.4636     4.3822   -82.2156
 1767.5000  -999.2500  -999.2500  -999.2500  -999.2500  -999.2500   133.9824     5.7949     4.4636     4.3822   -81.9207
 1768.0000  -999.2500  -999.2500  -999.2500  -999.2500  -999.2500   137.2745     5.3023     4.3881     4.1905   -81.6229
 1768.5000  -999.2500  -999.2500  -999.2500  -999.2500  -999.2500   144.4687     4.8515     4.2495     4.0339   -81.3251
 1769.0000  -999.2500  -999.2500  -999.2500  -999.2500  -999.2500   151.7148     4.3822     4.1814     4.1808   -81.0290
 1769.5000  -999.2500  -999.2500  -999.2500  -999.2500  -999.2500   158.8715     5.0477     4.6083     4.2629   -80.8077
 1770.0000  -999.2500  -999.2500  -999.2500  -999.2500  -999.2500   167.8863     6.2467     4.8454     4.0778   -80.7987
 1770.5000  -999.2500  -999.2500  -999.2500  -999.2500  -999.2500   182.3288     7.8242     4.2206     3.9151   -80.7860
 1771.0000  -999.2500  -999.2500  -999.2500  -999.2500  -999.2500   188.5927     6.1971     4.0339     3.8503   -80.7735
 1771.5000  -999.2500  -999.2500  -999.2500  -999.2500  -999.2500   186.1691     4.6227     4.2285     4.1798   -80.7608
 1772.0000  -999.2500  -999.2500  -999.2500  -999.2500  -999.2500   185.7695     4.2238     4.4727     4.5558   -80.7482
 1772.5000  -999.2500  -999.2500  -999.2500  -999.2500  -999.2500   191.2853     5.0368     4.7310     4.9666   -80.7355
 1773.0000  -999.2500  -999.2500  -999.2500  -999.2500  -999.2500   196.9107     6.0896     4.8938     5.4138   -80.7228
 1773.5000  -999.2500  -999.2500  -999.2500  -999.2500  -999.2500   198.2273     7.3624     5.1138     5.8898   -80.7101
 1774.0000  -999.2500  -999.2500  -999.2500  -999.2500  -999.2500   195.3757     8.5059     5.5328     6.3703   -80.6974
 1774.5000  -999.2500  -999.2500  -999.2500  -999.2500  -999.2500   192.2201     9.4050     6.1649     6.8899   -80.6848
 1775.0000  -999.2500  -999.2500  -999.2500  -999.2500  -999.2500   188.5407     9.4050     7.2722     7.4520   -80.6721
