~VERSION INFORMATION
 VERS.                2.0:   CWLS LOG ASCII STANDARD - VERSION 2.0
 WRAP.                 NO:   ONE LINE PER DEPTH STEP
~WELL INFORMATION
#MNEM.UNIT      DATA TYPE    INFORMATION
#----------   ------------   ------------------------------
 STRT.F            1.0000:   START DEPTH
 STOP.F          708.0000:   STOP DEPTH
 STEP.F            0.5000:   STEP LENGTH
 NULL.          -999.2500:   NO VALUE
 COMP. LAWRENCE/ALLISON INC:   COMPANY
 WELL. NPR 3 68-61 SX #34-34:   WELL
 FLD .             TEAPOT:   FIELD
 LOC .      S34 T39N R78W:   LOCATION
 CNTY.            NATRONA:   COUNTY
 STAT.            WYOMING:   STATE
 CTRY. UNITED STATES OF AMERICA:   COUNTRY
 SRVC.           Gearhart:   SERVICE COMPANY
 DATE.        22-SEP-1988:   LOGDATE
 API .       490251125200:   API NUMBER
~CURVE INFORMATION
#MNEM.UNIT       API CODE    CURVE DESCRIPTION
#----------   ------------   ------------------------------
 DEPT.F                  :   
 GRR .GAPI   07 310 01 00:   GAMMA RAY
 RILD.OHMM   07 120 46 00:   INDUCTION LOG DEEP RESISTIVITY
 RILM.OHMM   07 120 44 00:   INDUCTION LOG MEDIUM RESISTIVITY
~PARAMETER INFORMATION
#MNEM.UNIT          VALUE    DESCRIPTION
#----------   ------------   ------------------------------
 PD  .                 GL:   PERMANENT DATUM
 EPD .F              5067:   ELEVATION PERMANENT DATUM
 LMF .                 KB:   LOG MEASURED FROM
 DAPD.F                10:   FEET ABOVE PERMANENT DATUM
 DMF .                 KB:   DRILLING MEASURED FROM
 EKB .F              5077:   KELLING BUSHING
 EGL .F              5067:   GROUND LEVEL
 DATE.        22-SEP-1988:   RUN DATE
 RUN .                  1:   RUN NUMBER
 DD  .F               705:   DEPTH DRILLER
 DL  .F               716:   DEPTH LOGGER
 BLI .F             707.5:   BOTTOM LOG INTERVAL
 TLI .F                50:   TOP LOG INTERVAL
 CS  .IN            9.625:   CASING SIZE
 CBD .F                50:   CASING BOTTOM DRILLER
 CBL .F                50:   CASING BOTTOM LOGGER
 BS  .IN             8.75:   BIT SIZE
 BSD .F               705:   BIT SIZE AT DEPTH
 DFT .                AIR:   DRILLING FLUID TYPE
 TCS .HRS            2400:   TIME CURCULATED STOPPED
 TLAB.HRS            0251:   TIME LOGGER AT BOTTOM
 MRT .F                70:   MAXIMUM RECORDED TEMPERATURE
 LUN .               7597:   LOGGING UNIT NUMBER
 LUL .           GILLETTE:   LOGGING UNIT LOCATION
 ENGI.          HUCKFRIDT:   RECORDING ENGINEER
 WITN.             STRONG:   WITNESSED BY
 CLNT.            A2DTECH:   CLIENT CODE
 ORIG.           5" PRINT:   ORIGIN OF DATA
 UWI .       490251125200:   UNIQUE WELL ID
 DICO. A2D Technologies, Inc.:   DIGITIZING COMPANY
~OTHER INFORMATION
~A    DEPT      GRR      RILD       RILM   
# ...
  365.0000   114.2673     7.0570     5.9780
  365.5000   114.2557     7.0593     6.0591
  366.0000   114.2441     7.1023     6.1845
  366.5000   114.5341     7.1991     6.3125
  367.0000   114.5196     7.2982     6.4473
  367.5000   114.2063     7.5015     6.5759
  368.0000   113.2897     7.6567     6.6662
  368.5000   113.8843     7.7079     6.7104
  369.0000   115.3781     7.7594     6.8019
  369.5000   118.3830     7.7032     6.8470
  370.0000   120.1814     7.6479     6.8441
  370.5000   114.7370     7.5406     6.7945
  371.0000   112.9154     7.4865     6.7446
  371.5000   112.9038     7.3814     6.6958
  372.0000   113.1938     7.2777     6.6935
  372.5000   113.7858     7.1255     6.5080
  373.0000   112.8687     6.9287     6.4609
  373.5000   111.6478     6.5077     6.3256
  374.0000   111.3374     6.1123     6.1480
  374.5000   112.8312     5.8211     5.8157
  375.0000   112.8195     5.7793     5.3864
  375.5000   112.8079     5.7377     4.8522
  376.0000   112.7963     5.6962     4.5253
  376.5000   113.7276     5.7028     4.3093
  377.0000   114.8818     5.7237     4.3681
  377.5000   115.1747     5.7315     4.4905
  378.0000   113.9536     5.8501     4.7769
  378.5000   114.8469     6.0970     5.0130
  379.0000   116.0419     6.3105     5.2608
  379.5000   117.5386     6.4435     5.4827
  380.0000   117.8286     6.8540     5.7537
  380.5000   116.9091     7.0454     6.0382
  381.0000   115.9925     7.2417     6.2934
  381.5000   117.4892     7.4429     6.5267
  382.0000   118.6871     7.5974     6.7870
  382.5000   119.5777     7.6482     6.8325
  383.0000   119.8676     7.7530     6.8778
  383.5000   119.8531     7.8048     6.9234
  384.0000   118.6348     7.8565     6.9688
  384.5000   117.1149     7.8544     7.0149
  385.0000   115.8967     7.9620     7.1666
  385.5000   116.1870     7.9599     7.2571
  386.0000   116.1750     8.0131     7.4073
  386.5000   115.5572     8.0667     7.4048
  387.0000   115.8502     8.2336     7.5064
  387.5000   117.0423     8.3464     7.5556
  388.0000   117.6369     8.4607     7.6056
  388.5000   116.1141     8.4584     7.6560
  389.0000   115.1975     8.4562     7.7604
  389.5000   114.8839     8.4538     7.8119
  390.0000   116.3780     8.4511     7.8086
  390.5000   118.1763     8.2748     7.7520
  391.0000   119.9746     8.2155     7.7494
  391.5000   120.5692     8.2133     7.7468
  392.0000   119.0464     8.2111     7.7441
  392.5000   117.2147     8.2089     7.5814
  393.0000   116.0037     8.2061     7.3714
  393.5000   115.6904     8.1472     7.3179
  394.0000   114.7738     8.0329     7.1647
  394.5000   113.5555     7.9752     7.1128
  395.0000   113.2423     7.8089     6.9639
  395.5000   114.7389     7.5932     6.7709
  396.0000   116.3315     7.3726     6.5372
  396.5000   118.6344     6.9344     6.3561
  397.0000   119.5306     6.1615     6.0527
  397.5000   120.1223     5.5513     5.7637
  398.0000   118.9011     5.1421     5.4128
  398.5000   117.0796     4.7302     4.9786
  399.0000   115.8532     4.1106     4.3011
  399.5000   114.0368     3.2961     3.7950
  400.0000   114.3505     3.0939     3.2342
  400.5000   114.6179     3.0732     2.9136
  401.0000   115.8170     2.8653     2.6786
  401.5000   116.7064     2.6914     2.2524
  402.0000   116.6920     2.6717     2.0863
  402.5000   114.5688     2.6706     2.0146
  403.0000   110.6357     2.6696     2.0281
  403.5000   106.0992     2.7436     2.0702
  404.0000   106.0874     2.8424     2.1009
  404.5000   113.0113     3.0628     2.2486
  405.0000   118.4296     3.3273     2.4264
  405.5000   121.4347     3.7682     2.7486
  406.0000   121.7276     4.0936     3.0920
  406.5000   121.7132     4.4780     3.5025
  407.0000   121.7013     4.9865     4.0149
  407.5000   123.1955     5.5858     4.6205
  408.0000   126.5022     5.9021     4.9513
  408.5000   130.7138     6.2364     5.3057
  409.0000   131.9118     6.4538     5.6072
  409.5000   129.7857     6.5425     5.8055
  410.0000   127.2398     6.6301     5.9654
  410.5000   124.3298     6.6729     5.9634
  411.0000   124.3183     6.6242     5.9618
  411.5000   125.2117     6.5758     5.9603
  412.0000   126.4067     6.3933     5.8765
  412.5000   127.6018     5.9936     5.7539
  413.0000   127.2857     5.5989     5.5174
  413.5000   127.8774     5.3686     5.3278
  414.0000   129.9775     5.1477     4.9007
  414.5000   133.5858     5.0049     4.3844
  415.0000   133.5743     4.9683     4.1465
  415.5000   133.2368     4.9662     4.0319
  416.0000   130.2300     4.9989     4.0307
  416.5000   127.2018     5.1015     4.0342
  417.0000   123.8720     5.2794     4.2289
  417.5000   121.4472     5.4258     4.3773
  418.0000   120.2290     5.6561     4.6257
  418.5000   123.5597     5.9323     4.9914
  419.0000   126.2362     6.2249     5.3169
  419.5000   128.6379     6.5775     5.7712
  420.0000   129.8358     6.9500     6.0569
  420.5000   129.2180     7.2928     6.2695
  421.0000   129.2065     7.5471     6.4443
  421.5000   129.4966     7.7027     6.6235
  422.0000   128.2764     7.7532     6.6728
  422.5000   127.3599     7.7494     6.8064
  423.0000   125.8400     7.7463     6.8519
  423.5000   125.8281     7.6897     6.8978
  424.0000   125.8140     7.5282     6.8955
  424.5000   125.5008     7.3187     6.8460
  425.0000   124.8859     7.2652     6.7027
  425.5000   123.6677     7.0148     6.5175
  426.0000   123.9658     6.6336     6.3373
  426.5000   126.3566     6.0976     6.1195
  427.0000   129.6633     5.6504     6.0336
  427.5000   132.0650     5.3805     5.4281
  428.0000   132.3580     5.1950     4.9649
  428.5000   132.3436     5.1214     4.4728
  429.0000   131.7124     5.0840     4.3492
  429.5000   129.3009     5.0820     4.2290
  430.0000   125.6695     5.2223     4.2279
  430.5000   122.3396     5.3676     4.2594
  431.0000   121.7248     5.6711     4.4666
  431.5000   125.0314     5.9922     4.9554
  432.0000   128.9694     6.2878     5.4218
  432.5000   129.5332     6.6507     5.8100
  433.0000   129.5187     7.0683     6.1828
  433.5000   131.6188     7.3657     6.5792
  434.0000   133.1155     7.5176     6.7163
  434.5000   133.1040     7.6725     6.7613
  435.0000   131.8451     7.6695     6.8535
  435.5000   130.6647     7.8268     6.9475
  436.0000   130.6531     7.8790     7.0917
  436.5000   130.6415     8.0414     7.0894
  437.0000   130.9316     8.0374     7.0875
  437.5000   130.3167     8.0342     7.0856
  438.0000   129.3973     8.0309     7.1335
  438.5000   129.6903     8.0270     7.1312
  439.0000   130.5808     8.0238     7.1292
  439.5000   132.9825     8.0206     7.1269
  440.0000   135.9875     8.0740     7.1250
  440.5000   139.6078     8.0700     7.1732
  441.0000   140.1876     8.2937     7.2715
  441.5000   136.8549     8.4647     7.3707
  442.0000   134.1284     8.5202     7.5238
  442.5000   131.1003     8.5160     7.6796
  443.0000   130.1837     8.4537     7.6775
  443.5000   131.1253     8.2742     7.6755
  444.0000   133.1743     8.0459     7.5677
  444.5000   134.3694     7.8771     7.2012
  445.0000   135.8661     7.8739     6.7214
  445.5000   137.3628     7.8708     6.2690
  446.0000   138.2565     7.9224     6.0117
  446.5000   138.2444     8.0352     5.9685
  447.0000   137.6269     8.2525     6.0085
  447.5000   133.6938     8.6587     6.5446
  448.0000   127.6490     9.1490     7.3438
  448.5000   118.2860     9.7344     8.4352
  449.0000   109.8280    10.8725     9.5551
  449.5000   100.7294    12.1127    11.3626
  450.0000    92.1512    13.8299    12.3462
  450.5000    77.2112    15.9566    14.0679
  451.0000    68.7531    17.6343    15.8393
  451.5000    60.8984    18.3750    17.5714
  452.0000    53.0437    19.4143    19.0912
  452.5000    53.0317    20.3706    20.1977
  453.0000    55.4308    21.0795    21.3176
  453.5000    59.9441    21.6871    22.2167
  454.0000    63.2508    22.7268    23.8055
  454.5000    65.0491    23.5178    26.4087
  455.0000    65.0375    24.1709    30.1214
  455.5000    61.2932    24.8364    34.2374
