~VERSION INFORMATION
 VERS.                2.0:   CWLS LOG ASCII STANDARD - VERSION 2.0
 WRAP.                 NO:   ONE LINE PER DEPTH STEP
~WELL INFORMATION
#MNEM.UNIT      DATA TYPE    INFORMATION
#----------   ------------   ------------------------------
 STRT.F           20.0000:   START DEPTH
 STOP.F          600.0000:   STOP DEPTH
 STEP.F            0.5000:   STEP LENGTH
 NULL.          -999.2500:   NO VALUE
 COMP. FENIX & SCISSON INC:   COMPANY
 WELL. TEAPOT DOME #23 SX 3-4:   WELL
 FLD .             TEAPOT:   FIELD
 LOC .       S4 T38N R78W:   LOCATION
 CNTY.            NATRONA:   COUNTY
 STAT.            WYOMING:   STATE
 CTRY. UNITED STATES OF AMERICA:   COUNTRY
 SRVC.            Unknown:   SERVICE COMPANY
 DATE.        31-JUL-1978:   LOGDATE
 API .       490251067600:   API NUMBER
~CURVE INFORMATION
#MNEM.UNIT       API CODE    CURVE DESCRIPTION
#----------   ------------   ------------------------------
 DEPT.F                  :   
 CALD.IN     45 280 60 00:   CALIPER FROM DENSITY LOG
 GRD .GAPI   45 310 01 00:   GAMMA RAY FROM DENSITY LOG
 CORR.G/C3   45 356 01 00:   DENSITY CORRECTION
 DPHI.DEC    45 890 12 00:   DENSITY POROSITY SANDSTONE
 RHOB.G/C3   45 350 01 00:   BULK DENSITY
 SPR .MV     07 010 01 00:   SPONTANEOUS POTENTIAL
 ILD .OHMM   07 120 46 00:   INDUCTION LOG DEEP
 SN  .OHMM   07 040 16 00:   SHORT NORMAL 16"
 CILD.MMHO   07 110 46 00:   CONDUCTIVITY INDUCTION LOG DEEP
~PARAMETER INFORMATION
#MNEM.UNIT          VALUE    DESCRIPTION
#----------   ------------   ------------------------------
 PD  .                 GL:   PERMANENT DATUM
 EPD .F              5181:   ELEVATION PERMANENT DATUM
 LMF .                 KB:   LOG MEASURED FROM
 DAPD.F                 4:   FEET ABOVE PERMANENT DATUM
 DMF .                 KB:   DRILLING MEASURED FROM
 EKB .F              5185:   KELLING BUSHING
 EGL .F              5181:   GROUND LEVEL
 DATE.        31-JUL-1978:   RUN DATE
 RUN .                  1:   RUN NUMBER
 DD  .F               595:   DEPTH DRILLER
 DL  .F               606:   DEPTH LOGGER
 BLI .F               600:   BOTTOM LOG INTERVAL
 TLI .F                40:   TOP LOG INTERVAL
 CBL .F                45:   CASING BOTTOM LOGGER
 BS  .IN            7.875:   BIT SIZE
 BSD .F               595:   BIT SIZE AT DEPTH
 DFT .                KCL:   DRILLING FLUID TYPE
 DFD .                9.0:   DRILLING FLUID DENSITY
 DFV .                 36:   DRILLING FLUID VISCOSITY
 DFPH.                9.0:   DRILLING FLUID PH
 DFL .                8.0:   DRILLING FLUID LOSS
 MSS .           FLOWLINE:   MUD SAMPLE SOURCE
 BHT .F                74:   BOTTOM HOLE TEMPERATURE
 TCS .HRS            0500:   TIME CURCULATED STOPPED
 MRT .F                74:   MAXIMUM RECORDED TEMPERATURE
 LUN .               2958:   LOGGING UNIT NUMBER
 LUL .               CASP:   LOGGING UNIT LOCATION
 ENGI.            POINTER:   RECORDING ENGINEER
 WITN.              AMEND:   WITNESSED BY
 CLNT.            A2DTECH:   CLIENT CODE
 ORIG.           5" PRINT:   ORIGIN OF DATA
 UWI .       490251067600:   UNIQUE WELL ID
 DICO. A2D Technologies, Inc.:   DIGITIZING COMPANY
~OTHER INFORMATION
~A   DEPT     CALD        GRD       CORR       DPHI       RHOB        SPR        ILD         SN       CILD   
# ...
  494.5000     8.1169    82.3102    -0.0101     0.2107     2.3393   -17.6805    14.1625    11.3808    58.5817
  495.0000     7.9535    82.6252    -0.0015     0.1867     2.3664   -16.3295    14.9763    11.5440    55.5014
  495.5000     7.8801    79.9416     0.0149     0.1792     2.3432   -15.4243    15.9465    11.7094    53.1701
  496.0000     7.8966    76.8083     0.0209     0.2062     2.2826   -15.1135    16.8628    11.8773    50.0898
  496.5000     7.8831    75.4741     0.0030     0.2238     2.2557   -15.2518    17.9553    11.9646    48.5076
  497.0000     7.8246    73.3902    -0.0045     0.2367     2.2468   -14.7889    18.7266    12.0526    46.9254
  497.5000     7.7961    71.7561    -0.0044     0.2357     2.1989   -14.6266    19.6664    12.0577    46.1133
  498.0000     7.9326    69.0726    -0.0059     0.2645     2.1623   -14.4644    19.8152    12.1464    46.7783
  498.5000     8.0391    65.6356    -0.0126     0.2962     2.1968   -14.4507    19.9651    12.1516    46.6732
  499.0000     7.9806    70.9019     0.0010     0.2011     2.2531   -14.4398    20.2529    12.1556    46.6067
  499.5000     7.8918    71.3667     0.0289     0.1925     2.3400   -14.4265    20.5473    12.1607    47.2751
  500.0000     7.8333    73.0508     0.0440     0.1840     2.3431   -14.7088    20.7025    12.1657    47.1910
  500.5000     7.8354    73.2185     0.0395     0.1912     2.3589   -14.6997    20.1523    12.1716    45.5866
  501.0000     7.8969    75.4789     0.0397     0.1205     2.4885   -14.9879    19.7516    12.1781    46.9784
  501.5000     7.8981    79.0846     0.0450     0.0765     2.5508   -15.1298    19.2257    12.0155    49.1193
  502.0000     7.8995    78.0564     0.0646     0.0871     2.5119   -15.1203    18.9740    11.9387    50.5378
  502.5000     7.9010    77.4722     0.0745     0.1300     2.3862   -15.0916    18.7226    11.9460    51.1805
  503.0000     7.9475    78.9897     0.0443     0.1689     2.3450   -14.8054    18.2269    11.9518    51.8233
  503.5000     8.0840    80.9511     0.0180     0.1865     2.3361   -14.4993    17.7416    11.8754    53.2152
  504.0000     8.1155    81.8616     0.0128     0.1967     2.3347   -14.4884    17.1504    11.8812    54.6070
  504.5000     8.1170    80.1793     0.0144     0.1780     2.3805   -14.3328    16.8094    11.8038    57.4704
  505.0000     8.1185    79.1779     0.0227     0.1580     2.4000   -14.1752    16.4725    11.8099    59.6113
  505.5000     8.0901    77.1270     0.0333     0.1616     2.3761   -14.3150    16.0214    11.7340    60.2806
  506.0000     8.0166    74.1535     0.0363     0.1690     2.3612   -14.3058    15.6000    11.6506    60.9234
  506.5000     8.0631    76.4220     0.0281     0.1801     2.3583   -14.4457    15.5094    11.5047    60.0415
  507.0000     8.1696    79.4298     0.0274     0.1800     2.3643   -14.4363    15.5191    11.4312    59.1861
  507.5000     8.1861    76.3090     0.0276     0.1725     2.3779   -14.2787    15.5289    11.2799    59.1011
  508.0000     8.1876    74.5335     0.0298     0.1635     2.3810   -13.9726    15.5387    11.1307    58.9963
  508.5000     8.2341    71.1137     0.0344     0.1602     2.3788   -13.6664    15.5485    10.9832    59.6429
  509.0000     8.2657    69.9316     0.0360     0.1652     2.3542   -13.2116    15.3425    10.8378    61.0639
  509.5000     8.2819    73.2428     0.0299     0.1919     2.3153   -12.7568    14.2316    10.6198    64.6738
  510.0000     8.2624    75.8021     0.0270     0.2131     2.2809   -12.5992    12.9285    10.4072    69.0619
  510.5000     8.2709    75.3719     0.0203     0.2242     2.3117   -12.4417    13.1165    10.3406    72.7009
  511.0000     8.3313    76.2870     0.0151     0.1907     2.3223   -12.4326    13.0344    10.3469    72.5946
  511.5000     8.3478    78.6968     0.0369     0.1612     2.3797   -12.2751    12.4273    10.4237    70.9902
  512.0000     8.3794    81.4056     0.0528     0.1633     2.3823   -12.4169    12.2626    10.4288    69.3858
  512.5000     8.4109    76.8110     0.0551     0.1920     2.3067   -12.4056    12.6159    10.5062    69.2795
  513.0000     8.3673    74.8291     0.0409     0.2162     2.2948   -12.2480    12.8881    10.5114    69.1732
  513.5000     8.3374    72.1395     0.0250     0.2204     2.3511   -12.3899    12.8962    10.5165    69.8160
  514.0000     8.2354    71.1559     0.0280     0.1618     2.4231   -12.3786    12.9043    10.5216    70.4588
  514.5000     8.5090    72.5235     0.0530     0.1598     2.4353   -12.3715    12.9124    10.5268    69.6035
  515.0000     7.9986    73.7375     0.0591     0.1604     2.3948   -12.3626    13.0234    10.5319    67.9990
  515.5000     7.7001    75.9979     0.0486     0.1597     2.3918   -12.3536    13.3918    10.6101    64.8965
  516.0000     7.6414    78.4077     0.0291     0.1525     2.3867   -12.4934    13.7642    10.6142    63.2921
  516.5000     7.6283    79.7712     0.0217     0.1639     2.3957   -12.4844    14.1601    10.6929    62.4367
  517.0000     7.6448    79.9344     0.0225     0.1504     2.4010   -12.6241    14.8688    10.7040    63.8552
  517.5000     7.7063    77.8645     0.0233     0.1545     2.3697   -12.7637    14.5732    10.8521    65.2470
  518.0000     7.4829    77.2802     0.0233     0.1716     2.3720   -12.9034    13.5159    10.9326    65.9473
  518.5000     7.4091    75.6587     0.0204     0.1644     2.3691   -12.8942    13.3389    11.0137    68.0502
  519.0000     7.4110    73.1358     0.0227     0.1709     2.3684   -12.8852    13.1622    11.2497    70.9206
  519.5000     7.4125    71.8087     0.0267     0.1739     2.3701   -12.7276    12.9899    11.3332    72.3125
  520.0000     7.4141    71.9764     0.0273     0.1697     2.3987   -12.7186    12.7336    11.4173    70.7081
  520.5000     7.4122    73.1301     0.0336     0.1582     2.4076   -12.7096    12.6519    11.5020    69.8527
  521.0000     7.3075    75.7060     0.0409     0.1477     2.4076   -12.8491    12.7496    11.5076    67.4992
  521.5000     7.2683    80.3128     0.0380     0.1447     2.4017   -13.1373    13.1149    11.5133    65.1458
  522.0000     7.2545    79.1723     0.0373     0.1552     2.3943   -12.9797    13.4906    11.5189    64.2904
  522.5000     6.9565    78.6249     0.0351     0.1623     2.3916   -12.9707    13.8771    11.5245    63.4351
  523.0000     6.8831    79.7045     0.0344     0.1509     2.4005   -13.4075    13.9821    11.5302    63.3288
  523.5000     6.8546    79.5732     0.0344     0.1572     2.4013   -14.5872    13.9909    11.6962    62.4734
  524.0000     6.8112    77.6482     0.0345     0.1481     2.4426   -15.4720    13.9012    11.8646    63.1162
  524.5000     6.6778    76.0222     0.0338     0.1209     2.4868   -15.6115    13.7213    12.0355    63.0099
  525.0000     6.5743    78.1331     0.0376     0.0918     2.5071   -16.3432    13.7440    12.0414    62.9036
  525.5000     6.4709    80.5383     0.0444     0.0770     2.5267   -19.0088    14.1327    12.0473    62.7973
  526.0000     6.3371    76.3758     0.0500     0.0824     2.4204   -19.5964    14.6332    11.9687    61.1929
  526.5000     6.5189    80.1309     0.0528     0.1648     2.3471   -19.5852    15.2545    11.8767    61.1086
  527.0000     6.5351    82.5407     0.0317     0.1971     2.3291   -19.5522    14.8483    11.7349    61.0037
  527.5000     6.4017    83.4558     0.0123     0.1986     2.3919   -19.4007    14.7552    11.6598    60.8988
  528.0000     6.8683    81.0824     0.0046     0.1328     2.4265   -19.2630    14.4620    11.5811    61.5434
  528.5000     7.1547    83.7912     0.0312     0.1254     2.4195   -19.2541    14.4711    11.4320    61.4371
  529.0000     7.3686    84.8520     0.0403     0.1451     2.3991   -19.3958    14.5806    11.4376    60.5818
  529.5000     7.4273    84.3837     0.0321     0.1550     2.3947   -19.6820    15.1022    11.4432    60.4755
  530.0000     7.4138    82.3268     0.0336     0.1565     2.3805   -19.9703    15.6425    11.4488    60.3692
  530.5000     7.4455    85.3603     0.0382     0.1756     2.3514   -20.4069    15.0172    11.4544    62.5101
