~VERSION INFORMATION
 VERS.                2.0:   CWLS LOG ASCII STANDARD - VERSION 2.0
 WRAP.                 NO:   ONE LINE PER DEPTH STEP
~WELL INFORMATION
#MNEM.UNIT      DATA TYPE    INFORMATION
#----------   ------------   ------------------------------
 STRT.F            1.0000:   START DEPTH
 STOP.F          886.0000:   STOP DEPTH
 STEP.F            0.5000:   STEP LENGTH
 NULL.          -999.2500:   NO VALUE
 COMP. BROWN JOHN E&C INC:   COMPANY
 WELL. NAVAL PETROLEUM RESERVE 3 SHX-1 #33-2:   WELL
 FLD .             NPR #3:   FIELD
 LOC .       S2 T38N R78W:   LOCATION
 CNTY.            NATRONA:   COUNTY
 STAT.            WYOMING:   STATE
 CTRY. UNITED STATES OF AMERICA:   COUNTRY
 SRVC.      Western Atlas:   SERVICE COMPANY
 DATE.        26-NOV-1991:   LOGDATE
 API .       490252248300:   API NUMBER
~CURVE INFORMATION
#MNEM.UNIT       API CODE    CURVE DESCRIPTION
#----------   ------------   ------------------------------
 DEPT.F                  :   
 RILD.OHMM   07 120 46 00:   INDUCTION LOG DEEP RESISTIVITY
 RILM.OHMM   07 120 44 00:   INDUCTION LOG MEDIUM RESISTIVITY
 RFOC.OHMM   07 220 04 00:   RESISTIVITY FOCUSED LOG
 SPR .MV     07 010 01 00:   SPONTANEOUS POTENTIAL
 GRR .GAPI   07 310 01 00:   GAMMA RAY
~PARAMETER INFORMATION
#MNEM.UNIT          VALUE    DESCRIPTION
#----------   ------------   ------------------------------
 PD  .                 GL:   PERMANENT DATUM
 EPD .F              5133:   ELEVATION PERMANENT DATUM
 LMF .                 KB:   LOG MEASURED FROM
 DAPD.F                10:   FEET ABOVE PERMANENT DATUM
 DMF .                 KB:   DRILLING MEASURED FROM
 EKB .F              5143:   KELLING BUSHING
 EGL .F              5133:   GROUND LEVEL
 DATE.        26-NOV-1991:   RUN DATE
 RUN .                  1:   RUN NUMBER
 DD  .F               892:   DEPTH DRILLER
 DL  .F               889:   DEPTH LOGGER
 BLI .F               837:   BOTTOM LOG INTERVAL
 CS  .IN            8.625:   CASING SIZE
 CBD .F                40:   CASING BOTTOM DRILLER
 CBL .F                55:   CASING BOTTOM LOGGER
 BS  .IN            7.875:   BIT SIZE
 BSD .F               892:   BIT SIZE AT DEPTH
 DFT .            POLYMER:   DRILLING FLUID TYPE
 DFD .                9.8:   DRILLING FLUID DENSITY
 DFV .                 38:   DRILLING FLUID VISCOSITY
 DFPH.                9.5:   DRILLING FLUID PH
 DFL .               10.6:   DRILLING FLUID LOSS
 MSS .           FLOWLINE:   MUD SAMPLE SOURCE
 RMS .OHMM           2.08:   RESISTIVITY MUD SAMPLE
 MST .F                78:   MUD SAMPLE TEMPERATURE
 RMF .OHMM           1.66:   RESISTIVITY MUD FILTRATE SAMPLE
 MFST.F                78:   MUD FILTRATE SAMPLE TEMPERATURE
 RMC .OHMM           2.60:   RESISTIVITY MUD CAKE
 MCST.F                78:   MUD CAKE SAMPLE TEMPERATURE
 MFSS.               MEAS:   MUD FILTRATE SAMPLE SOURCE
 MCSS.               CALC:   MUD CAKE SAMPLE SOURCE
 RMB .OHMM           1.08:   RESISTIVITY MUD AT BHT
 BHT .F               150:   BOTTOM HOLE TEMPERATURE
 TCS .HRS               2:   TIME CURCULATED STOPPED
 MRT .F               150:   MAXIMUM RECORDED TEMPERATURE
 LUN .            HL-6307:   LOGGING UNIT NUMBER
 LUL .         CASPER, WY:   LOGGING UNIT LOCATION
 ENGI.             ZIEGER:   RECORDING ENGINEER
 WITN.             STRONG:   WITNESSED BY
 CLNT.            A2DTECH:   CLIENT CODE
 ORIG.           5" PRINT:   ORIGIN OF DATA
 UWI .       490252248300:   UNIQUE WELL ID
 DICO. A2D Technologies, Inc.:   DIGITIZING COMPANY
~OTHER INFORMATION
~A    DEPT    RILD       RILM       RFOC        SPR         GRR  
# ...
  489.0000     6.3287     6.3630     6.3637   -84.2660   123.4611
  489.5000     6.3712     6.4505     6.4380   -84.7273   124.3608
  490.0000     6.4133     6.4937     6.4845   -85.0377   121.0265
  490.5000     6.4552     6.6279     6.5282   -85.3484   118.6007
  491.0000     6.4989     6.6723     6.5269   -85.3592   116.7792
  491.5000     6.5439     6.7173     6.5708   -85.3680   116.7703
  492.0000     6.5843     6.7619     6.6283   -85.3767   120.4471
  492.5000     6.6279     6.8070     6.7061   -85.3855   123.5498
  493.0000     6.6822     6.9003     6.8037   -85.3943   126.4093
  493.5000     6.7621     6.9464     6.8444   -85.0993   125.4941
  494.0000     6.7598     6.9929     6.8430   -84.8084   116.7239
  494.5000     6.7575     6.9905     6.8414   -84.2141   115.5088
  495.0000     6.7552     6.9403     6.8378   -83.7456   117.9147
  495.5000     6.7530     6.8905     6.7781   -83.4775   121.5312
  496.0000     6.7040     6.8410     6.7431   -83.1846   123.9393
  496.5000     6.6089     6.8392     6.6949   -83.3465   125.4410
  497.0000     6.6070     6.7901     6.6937   -83.8077   126.6607
  497.5000     6.6044     6.7882     6.6819   -84.4199   126.9339
  498.0000     6.6022     6.7859     6.6236   -84.8811   124.8080
  498.5000     6.6459     6.6907     6.5974   -85.3424   121.7781
  499.0000     6.6437     6.6426     6.6419   -85.5023   119.6544
  499.5000     6.6414     6.6408     6.6870   -85.5130   119.3435
  500.0000     6.5933     6.6454     6.5551   -85.9741   118.8531
  500.5000     6.7292     6.6839     6.5914   -85.9814   117.8248
  501.0000     6.7733     6.6826     6.7361   -85.9887   117.8248
  501.5000     6.7699     6.6812     6.7256   -85.8433   118.4290
  502.0000     6.8149     6.7732     6.5751   -85.8525   122.3565
  502.5000     6.9067     6.9138     6.5386   -85.7089   125.9819
  503.0000     6.9039     7.0581     6.6674   -85.5654   126.5861
  503.5000     7.0462     7.2549     6.9558   -85.5745   117.5227
  504.0000     7.1417     7.3547     7.1257   -85.2802   113.8973
  504.5000     7.2470     7.4560     7.2602   -84.9858   115.4079
  505.0000     7.3870     7.6641     7.3799   -84.9931   118.4290
  505.5000     7.5393     7.7159     7.5510   -84.5479   119.6375
  506.0000     7.6947     7.8221     7.5554   -84.4042   118.7311
  506.5000     7.7990     7.8750     7.6183   -84.4118   118.4290
  507.0000     7.9056     8.0385     7.6503   -84.2682   119.6375
  507.5000     7.9566     8.1496     7.6479   -84.2773   119.9396
  508.0000     8.0689     8.3192     7.7561   -84.4355   117.2205
  508.5000     8.2871     8.5511     7.8531   -85.0461   114.1994
  509.0000     8.5168     8.7295     7.9959   -85.5059   112.3867
  509.5000     8.7529     8.8576     8.1314   -85.6640   110.2719
  510.0000     8.9333     9.0959     8.2433   -86.1238   109.6677
  510.5000     9.0554     9.3499     8.4556   -86.2821   110.5740
  511.0000     9.2412     9.5450     8.7305   -86.2911   109.2891
  511.5000     9.3664     9.8110     9.0654   -86.1457   106.3444
  512.0000     9.5594     9.8778     9.4587   -86.0040   105.7402
  512.5000     9.5546    10.0133     9.5889   -85.7097   108.7613
  513.0000     9.4192    10.0809     9.2832   -85.5661   110.8761
  513.5000     9.2857    10.0784     9.0079   -85.2715   109.9698
  514.0000     9.2178     9.9376     8.7543   -85.1282   107.5529
  514.5000     9.0872     9.7987     8.6179   -84.8185   106.3444
  515.0000     8.9584     9.5287     8.5310   -84.5395   105.4381
  515.5000     8.8314     9.2661     8.6372   -84.5487   105.1359
  516.0000     8.7570     9.0735     8.7445   -84.2525   107.0330
  516.5000     8.5820     8.9467     8.6059   -84.1090   109.9698
  517.0000     8.5193     8.8830     8.1984   -83.9654   110.5740
  517.5000     8.4570     8.8194     8.0083   -83.9746   109.9698
  518.0000     8.4536     8.8177     7.9688   -83.9819   110.2719
  518.5000     8.4502     8.8159     8.1476   -83.9894   108.1571
  519.0000     8.5056     8.8141     8.1453   -83.9983   106.0423
  519.5000     8.5021     8.8123     8.1169   -84.1564   104.5317
  520.0000     8.5570     8.8105     8.0066   -84.6162   105.1359
  520.5000     8.6131     8.8088     8.0263   -84.7744   107.5529
  521.0000     8.6704     8.8760     8.2222   -85.2342   107.8550
  521.5000     8.7272     8.9903     8.3629   -85.2415   105.9950
  522.0000     8.5432     8.9260     8.3605   -85.3997   103.9275
  522.5000     8.4807     8.8012     8.3580   -85.4087   103.0211
  523.0000     8.3027     8.7386     8.2283   -85.2634   103.9275
  523.5000     8.2357     8.5570     8.0864   -85.1199   103.3233
  524.0000     8.0125     8.4374     8.0109   -84.6765   100.3021
  524.5000     7.9539     8.2620     8.0083   -84.5330   102.1148
  525.0000     7.8412     8.1937     8.0009   -84.2383   106.9486
  525.5000     7.7839     8.0882     7.8940   -84.0950   111.1782
  526.0000     7.6205     8.0311     7.8353   -83.7868   111.4804
  526.5000     7.5648     8.0853     7.7267   -83.6572   108.0827
  527.0000     7.5095     8.0833     7.6716   -83.6663   106.0423
  527.5000     7.5587     8.0817     7.6695   -83.8245   108.4592
  528.0000     7.5549     8.0242     7.6673   -83.9826   109.9698
  528.5000     7.5518     8.0226     7.6652   -84.1407   108.1571
  529.0000     7.5488     8.0206     7.6630   -84.1480   105.1359
  529.5000     7.5457     7.9635     7.6080   -84.4575   106.0423
  530.0000     7.5427     7.9069     7.5849   -84.7662   108.7613
  530.5000     7.5397     7.8507     7.5181   -84.9259   110.8761
  531.0000     7.4845     7.7948     7.4449   -85.0841   112.6888
  531.5000     7.3777     7.6328     7.4377   -84.7879   113.5952
  532.0000     7.3238     7.5261     7.3896   -84.3427   108.7613
  532.5000     7.3208     7.5770     7.3875   -84.0502   106.6465
  533.0000     7.3179     7.6809     7.4366   -83.6050   105.1359
  533.5000     7.4171     7.7870     7.4349   -83.4615   104.8338
  534.0000     7.5178     7.8392     7.4991   -83.1413   105.4381
  534.5000     7.5669     7.8926     7.5615   -82.8746   107.5529
  535.0000     7.6165     8.0012     7.6244   -82.7292   109.3656
  535.5000     7.5601     8.0549     7.5827   -82.4349   109.3656
  536.0000     7.4014     7.9394     7.4132   -82.2932   105.1359
  536.5000     7.2965     7.7150     7.3021   -82.1478   103.3233
  537.0000     7.0940     7.4583     7.0686   -82.0060   103.9275
  537.5000     6.8972     7.2528     6.9693   -82.0136   104.8338
  538.0000     6.7994     6.9558     6.8090   -82.0226   104.8338
  538.5000     6.7030     6.7641     6.6916   -82.1807   105.7402
  539.0000     6.6016     6.6235     6.5876   -82.3388   108.1571
  539.5000     6.5137     6.5309     6.4951   -82.4970   111.7825
  540.0000     6.5111     6.4845     6.1427   -82.8059   113.2931
  540.5000     6.5538     6.5283     5.8639   -82.9641   111.1782
  541.0000     6.6426     6.5724     5.9362   -83.1222   109.9698
  541.5000     6.6868     6.7089     6.0531   -83.1483   108.7613
  542.0000     6.7300     6.7546     6.1823   -83.2895   108.4592
  542.5000     6.8212     6.8002     6.3119   -83.1441   108.4592
  543.0000     6.8178     6.7985     6.4607   -83.1532   108.7613
  543.5000     6.8151     6.8444     6.5145   -83.0079   109.3656
  544.0000     6.8123     6.8907     6.5242   -82.8643   109.9698
  544.5000     6.8096     6.8889     6.4676   -82.5716   110.8761
  545.0000     6.7598     6.8399     6.4307   -82.4283   111.7825
  545.5000     6.7571     6.8386     6.4596   -82.4359   111.7825
  546.0000     6.7077     6.8372     6.4719   -82.4447   111.1782
  546.5000     6.7516     6.8358     6.5268   -82.2994   112.3867
  547.0000     6.7959     6.8344     6.5764   -82.3085   114.5278
  547.5000     6.8404     6.8806     6.6024   -82.4666   117.2205
  548.0000     6.8370     6.9271     6.7392   -82.6248   119.9396
  548.5000     6.8825     6.9254     6.7889   -82.6321   120.8459
  549.0000     6.9276     6.9240     6.8297   -82.6395   115.4079
  549.5000     6.9724     6.9711     6.8278   -82.6485   112.9909
