~VERSION INFORMATION
 VERS.                2.0:   CWLS LOG ASCII STANDARD - VERSION 2.0
 WRAP.                 NO:   ONE LINE PER DEPTH STEP
~WELL INFORMATION
#MNEM.UNIT      DATA TYPE    INFORMATION
#----------   ------------   ------------------------------
 STRT.F            0.0000:   START DEPTH
 STOP.F         1002.0000:   STOP DEPTH
 STEP.F            0.5000:   STEP LENGTH
 NULL.          -999.2500:   NO VALUE
 COMP. U S NAVY-INTEX OIL:   COMPANY
 WELL.     NPR ##3 28-S-2:   WELL
 FLD .             TEAPOT:   FIELD
 LOC .       S2 T38N R78W:   LOCATION
 CNTY.            NATRONA:   COUNTY
 STAT.            WYOMING:   STATE
 CTRY. UNITED STATES OF AMERICA:   COUNTRY
 SRVC.      NL McCullough:   SERVICE COMPANY
 DATE.        13-JUN-1963:   LOGDATE
 API .       490250639400:   API NUMBER
~CURVE INFORMATION
#MNEM.UNIT       API CODE    CURVE DESCRIPTION
#----------   ------------   ------------------------------
 DEPT.F                  :   
 ASN .OHMM   05 041 16 00:   AMPLIFIED SHORT NORMAL 16"
 ILD .OHMM   05 120 46 00:   INDUCTION LOG DEEP
 CILD.MMHO   05 110 46 00:   CONDUCTIVITY INDUCTION LOG DEEP
 SPR .MV     05 010 01 00:   SPONTANEOUS POTENTIAL FROM RES.
 GR  .GAPI   30 310 01 00:   GAMMA RAY
~PARAMETER INFORMATION
#MNEM.UNIT          VALUE    DESCRIPTION
#----------   ------------   ------------------------------
 PD  .                 GL:   PERMANENT DATUM
 EPD .F              5147:   ELEVATION PERMANENT DATUM
 LMF .                 KB:   LOG MEASURED FROM
 DAPD.F                 5:   FEET ABOVE PERMANENT DATUM
 DMF .                 KB:   DRILLING MEASURED FROM
 EKB .F              5152:   KELLING BUSHING
 EGL .F              5147:   GROUND LEVEL
 DATE.        13-SEP-1963:   RUN DATE
 RUN .                  1:   RUN NUMBER
 BLI .F               600:   BOTTOM LOG INTERVAL
 CS  .IN                7:   CASING SIZE
 DFT .                OIL:   DRILLING FLUID TYPE
 ENGI.            JACKSON:   RECORDING ENGINEER
 WITN.             HUDSON:   WITNESSED BY
 CLNT.            A2DTECH:   CLIENT CODE
 ORIG.           5" PRINT:   ORIGIN OF DATA
 UWI .       490250639400:   UNIQUE WELL ID
 DICO. A2D Technologies, Inc.:   DIGITIZING COMPANY
~OTHER INFORMATION
~A    DEPT     ASN        ILD       CILD        SPR          GR  
# ...
  305.0000     9.7743     8.2932   118.7204   -36.6218   108.5714
  305.5000     9.7756     8.4418   117.2092   -36.6218   107.2407
  306.0000     9.7441     8.5901   116.4499   -36.6218   106.3768
  306.5000     9.7125     8.8128   114.1869   -36.7713   102.3244
  307.0000     9.6809     8.9610   112.6757   -36.9208   103.0397
  307.5000     9.6493     9.1092   110.4126   -37.0703   105.4612
  308.0000     9.7136     9.3323   107.3977   -37.0703   107.5831
  308.5000     9.8629     9.4805   105.1347   -37.0703   102.9633
  309.0000    10.0123     9.7036   102.1197   -37.0703   105.7499
  309.5000    10.0868     9.8518    99.8567   -37.2197   104.9141
  310.0000    10.2362    10.0000    99.0974   -37.2197    98.8786
  310.5000    10.3855    10.0823    97.5862   -37.2197    90.7647
  311.0000    10.5448    10.3094    96.0750   -37.2197    87.9940
  311.5000    10.7589    10.5940    93.8120   -37.2197    88.7591
  312.0000    10.9830    10.8171    91.5287   -37.3692    88.5990
  312.5000    11.2817    10.9657    89.2228   -37.5187    85.1935
  313.0000    11.4311    11.1888    87.0225   -37.5187    84.1607
  313.5000    11.6551    11.3370    84.0060   -37.5187    85.2114
  314.0000    11.8045    11.6345    83.2467   -37.6682    90.4287
  314.5000    11.9538    11.8576    81.7356   -37.6682    93.7193
  315.0000    12.1032    12.0062    80.9763   -37.8176    88.6609
  315.5000    12.1778    12.1541    80.9689   -37.9671    89.2651
  316.0000    12.2523    12.1526    80.9614   -38.2661    87.6371
  316.5000    12.2522    12.2263    80.9540   -38.4295    91.6639
  317.0000    12.1773    12.1496    80.9466   -38.8640    89.4407
  317.5000    12.0277    12.0733    80.9392   -39.4619    82.3068
  318.0000    11.8780    12.0718    82.4355   -40.0598    81.8691
  318.5000    11.7931    11.9955    83.1819   -39.0135    80.3422
  319.0000    11.5787    11.9172    84.6764   -38.5650    81.1743
  319.5000    11.5786    11.7620    85.4210   -38.2661    82.1939
  320.0000    11.5037    11.6068    86.9172   -38.1166    84.1374
  320.5000    11.4288    11.4516    87.6616   -38.1166    92.3286
  321.0000    11.3539    11.2392    88.4414   -38.1166    90.1054
  321.5000    11.2791    11.1629    89.1506   -38.1166    91.4559
  322.0000    11.2042    11.1614    89.8950   -38.1166    88.3399
  322.5000    11.1293    11.0851    90.6395   -38.1166    86.2655
  323.0000    11.1291    11.0836    90.6302   -38.1166    88.0602
  323.5000    11.1290    11.0822    90.6228   -38.1166    90.1502
  324.0000    11.1288    11.0807    90.6154   -38.1166    86.7388
  324.5000    11.1287    11.0792    89.8561   -38.2661    87.9382
  325.0000    11.0538    11.0777    89.8487   -38.2661    87.6496
  325.5000    11.0537    11.0762    89.8413   -38.2661    85.7240
  326.0000    10.9788    10.9999    89.0820   -38.2661    85.8795
  326.5000    10.9786    10.9984    89.0746   -38.2661    82.3193
  327.0000    10.9037    10.9221    89.8190   -38.2661    80.8401
  327.5000    10.8288    10.7709    90.5635   -38.1166    82.1884
  328.0000    10.6792    10.5449    92.0602   -37.8176    86.6616
  328.5000    10.6043    10.3907    93.5562   -37.6682    85.4801
  329.0000    10.5294    10.0858    95.8044   -37.5187    80.7272
  329.5000    10.4545     9.8668    98.0607   -37.5187    79.5434
  330.0000    10.3797     9.7153    99.5989   -37.2197    78.3641
  330.5000    10.3048     9.6389   101.0453   -37.2197    80.6052
  331.0000    10.2299     9.6375   101.7898   -37.0703    86.8642
  331.5000    10.1550     9.6360   101.7805   -37.0703    86.5733
  332.0000    10.0801     9.5597   102.5250   -37.0703    88.5190
  332.5000    10.0052     9.4833   102.5176   -37.0703    88.3792
  333.0000     9.9253     9.3322   103.2621   -37.0703    87.1976
  333.5000     9.7807     9.3307   103.2546   -37.0703    86.6091
  334.0000     9.6311     9.3292   103.2472   -37.0703    88.5549
  334.5000     9.5562     9.3277   103.2398   -37.0703    89.1590
  335.0000     9.4813     9.3262   103.2324   -37.0703    89.1680
  335.5000     9.4811     9.3248   103.9787   -37.0703    89.1770
  336.0000     9.4810     9.3233   103.9695   -37.0703    89.1859
  336.5000     9.4808     9.3218   103.9620   -37.0703    89.3437
  337.0000     9.5555     9.3203   103.9546   -37.0703    89.2016
  337.5000     9.6300     9.3189   103.9472   -37.0703    86.9807
  338.0000     9.7047     9.4671   103.9398   -37.0703    81.1860
  338.5000     9.7793     9.4736   103.9324   -37.0703    84.0224
  339.0000     9.9285     9.5390   103.9248   -37.0703    87.9004
  339.5000    10.0031     9.5371   103.9173   -37.0703    86.1236
  340.0000     9.9283     9.5357   104.6620   -37.0703    83.8982
  340.5000     9.8534     9.4593   104.6528   -37.0703    86.5880
  341.0000     9.7779     9.0836   107.6529   -37.0703    90.6148
  341.5000     9.7589     8.7079   112.1567   -37.0703    87.4988
  342.0000     9.7398     8.3321   118.1643   -37.0703    85.2733
  342.5000     9.4940     8.0313   123.4201   -37.0703    88.8537
  343.0000     9.1501     7.8052   127.1721   -37.0703    86.7619
  343.5000     8.8061     7.7289   130.1722   -36.9208    83.9609
  344.0000     8.6714     7.5777   131.6704   -36.7673    85.7556
  344.5000     8.6713     7.4266   132.4148   -36.3109    81.4454
  345.0000     8.6712     7.2754   132.4056   -35.8744    82.3908
  345.5000     8.7019     7.1990   131.6463   -35.9023    86.4136
  346.0000     8.8582     7.2724   130.8870   -36.4723    97.2284
  346.5000     9.0892     7.4955   128.6239   -36.9208    96.4695
  347.0000     9.1787     7.7186   126.3609   -36.9208    92.3334
  347.5000     9.2384     7.9466   124.0599   -36.7713    91.9195
  348.0000     9.2831     8.1736   122.5865   -36.7713    92.9862
  348.5000     9.3427     8.3878   121.7044   -36.6218    93.7351
  349.0000     9.3874     8.4612   120.3143   -36.4723    90.2453
  349.5000     9.3873     8.5345   119.5550   -36.1734    83.4651
  350.0000     9.3722     8.4582   118.7448   -36.0067    82.2917
  350.5000     9.4283     8.5321   118.1023   -35.9020    82.1589
  351.0000     9.4765     8.5313   117.4599   -35.4290    87.9773
  351.5000     9.5960     8.5306   115.7895   -35.4365    89.3314
  352.0000     9.7602     8.5298   115.0376   -35.7309    94.8522
  352.5000     9.8946     8.5291   115.0376   -35.7324   101.7123
  353.0000     9.9543     8.6032   114.2857   -35.7339   106.6378
  353.5000     9.9990     8.6024   113.5338   -35.7354   107.0954
  354.0000    10.0138     8.6017   113.5338   -35.7369   104.4354
  354.5000    10.0136     8.5261   113.5338   -35.7384   104.8966
  355.0000     9.9686     8.5253   114.2857   -35.7399   102.0841
  355.5000     9.9236     8.5246   115.0376   -35.7414    96.5930
  356.0000     9.8637     8.5238   115.7895   -35.7429    93.3340
  356.5000     9.7738     8.5231   116.5414   -35.5949    94.8369
  357.0000     9.7139     8.5223   116.5414   -35.5964   102.2922
  357.5000     9.6390     8.4468   116.5414   -35.4487   107.3666
  358.0000     9.6090     8.4460   116.5414   -35.4502   107.6790
  358.5000     9.6387     8.4453   116.5414   -35.3019   105.9081
  359.0000     9.7133     8.5195   116.5414   -35.3037   100.1194
  359.5000     9.8178     8.5186   116.5414   -35.3052    98.1997
  360.0000     9.8924     8.5179   116.5414   -35.3067    97.7681
  360.5000     9.9221     8.5171   116.5414   -35.3082    92.7234
  361.0000     9.8472     8.5164   116.5414   -35.3097    93.1847
  361.5000     9.7424     8.5156   116.5414   -35.3112    95.5805
  362.0000     9.7112     8.5149   116.5414   -35.6116    94.5536
  362.5000     9.7123     8.5141   116.5414   -35.7626    95.7589
  363.0000     9.6972     8.4385   116.5414   -35.7641    96.9642
  363.5000     9.6372     8.4378   117.2932   -35.7656    95.9374
  364.0000     9.5474     8.4370   118.0451   -35.7671   101.7559
  364.5000     9.4725     8.4363   118.7970   -35.6187   101.0874
  365.0000     9.3976     8.4355   119.5489   -35.6206    97.4700
  365.5000     9.3526     8.3599   119.5489   -35.6220    98.9852
