~VERSION INFORMATION
 VERS.                2.0:   CWLS LOG ASCII STANDARD - VERSION 2.0
 WRAP.                 NO:   ONE LINE PER DEPTH STEP
~WELL INFORMATION
#MNEM.UNIT      DATA TYPE    INFORMATION
#----------   ------------   ------------------------------
 STRT.F          131.0000:   START DEPTH
 STOP.F         1085.0000:   STOP DEPTH
 STEP.F            0.5000:   STEP LENGTH
 NULL.          -999.2500:   NO VALUE
 COMP. U S NAVY-INTEX OIL:   COMPANY
 WELL.     UPR #3 #66-S-2:   WELL
 FLD .             TEAPOT:   FIELD
 LOC .       S2 T38N R78W:   LOCATION
 CNTY.            NATRONA:   COUNTY
 STAT.            WYOMING:   STATE
 CTRY. UNITED STATES OF AMERICA:   COUNTRY
 SRVC.       Schlumberger:   SERVICE COMPANY
 DATE.        18-JUL-1964:   LOGDATE
 API .       490250641300:   API NUMBER
~CURVE INFORMATION
#MNEM.UNIT       API CODE    CURVE DESCRIPTION
#----------   ------------   ------------------------------
 DEPT.F                  :   
 ASN .OHMM   05 041 16 00:   AMPLIFIED SHORT NORMAL 16"
 CILD.MMHO   05 110 46 00:   CONDUCTIVITY INDUCTION LOG DEEP
 ILD .OHMM   05 120 46 00:   INDUCTION LOG DEEP
 SPR .MV     05 010 01 00:   SPONTANEOUS POTENTIAL FROM RES.
 GR  .GAPI   30 310 01 00:   GAMMA RAY
 CALS.IN     60 280 50 00:   CALIPER FROM SONIC LOG
 DT  .US/F   60 520 33 00:   INTERVAL TRANSIT TIME
~PARAMETER INFORMATION
#MNEM.UNIT          VALUE    DESCRIPTION
#----------   ------------   ------------------------------
 PD  .                 GL:   PERMANENT DATUM
 EPD .F              5204:   ELEVATION PERMANENT DATUM
 LMF .                 KB:   LOG MEASURED FROM
 DAPD.F                 5:   FEET ABOVE PERMANENT DATUM
 DMF .                 KB:   DRILLING MEASURED FROM
 EKB .F              5209:   KELLING BUSHING
 EGL .F              5204:   GROUND LEVEL
 DATE.          7-18-1964:   RUN DATE
 RUN .                  1:   RUN NUMBER
 DD  .F              1085:   DEPTH DRILLER
 DL  .F              1086:   DEPTH LOGGER
 BLI .F              1085:   BOTTOM LOG INTERVAL
 TLI .F               131:   TOP LOG INTERVAL
 CS  .IN            8.625:   CASING SIZE
 CBD .F                10:   CASING BOTTOM DRILLER
 BS  .IN             6.75:   BIT SIZE
 BSD .F              5204:   BIT SIZE AT DEPTH
 DFT .                GEL:   DRILLING FLUID TYPE
 DFD .                9.5:   DRILLING FLUID DENSITY
 DFV .                 47:   DRILLING FLUID VISCOSITY
 DFL .                 10:   DRILLING FLUID LOSS
 MSS .           FLOWLINE:   MUD SAMPLE SOURCE
 RMS .OHMM           2.58:   RESISTIVITY MUD SAMPLE
 MST .F                93:   MUD SAMPLE TEMPERATURE
 RMF .OHMM           2.27:   RESISTIVITY MUD FILTRATE SAMPLE
 MFST.F                93:   MUD FILTRATE SAMPLE TEMPERATURE
 MFSS.                 FP:   MUD FILTRATE SAMPLE SOURCE
 TCS .HRS             1.5:   TIME CURCULATED STOPPED
 LUN .               3527:   LOGGING UNIT NUMBER
 LUL .              CSPR.:   LOGGING UNIT LOCATION
 ENGI.            WINKLER:   RECORDING ENGINEER
 WITN.          JORGENSEN:   WITNESSED BY
 CLNT.            A2DTECH:   CLIENT CODE
 ORIG.    1" , 2.5" PRINT:   ORIGIN OF DATA
 UWI .       490250641300:   UNIQUE WELL ID
 DICO. A2D Technologies, Inc.:   DIGITIZING COMPANY
~OTHER INFORMATION
~A   DEPT      ASN       CILD        ILD        SPR         GR       CALS         DT   
# ...
  358.5000     8.2368   152.1084     7.6763   -42.1338  -999.2500  -999.2500  -999.2500
  359.0000     8.1343   157.5805     7.6772   -42.4132  -999.2500  -999.2500  -999.2500
  359.5000     7.8163   164.7290     7.5758   -42.4125  -999.2500  -999.2500  -999.2500
  360.0000     7.4615   169.8795     7.4504   -42.4118  -999.2500  -999.2500  -999.2500
  360.5000     7.2196   172.3995     7.3250   -42.4110  -999.2500  -999.2500  -999.2500
  361.0000     7.0191   174.8092     7.1997   -42.3216  -999.2500  -999.2500  -999.2500
  361.5000     6.8493   176.2048     7.0855   -42.1154  -999.2500  -999.2500  -999.2500
  362.0000     6.7355   177.3294     7.0864   -42.1137  -999.2500  -999.2500  -999.2500
  362.5000     6.6642   178.5894     6.8576   -41.8197  -999.2500  -999.2500  -999.2500
  363.0000     6.6645   179.2169     6.7902   -41.8191  -999.2500  -999.2500  -999.2500
  363.5000     6.7085   179.2169     6.6523   -41.8184  -999.2500  -999.2500  -999.2500
  364.0000     6.7416   179.3575     6.4474   -41.9373  -999.2500  -999.2500  -999.2500
  364.5000     6.7541   180.7229     6.3458   -42.1110  -999.2500  -999.2500  -999.2500
  365.0000     6.7461   180.7229     6.3467   -42.1103  -999.2500  -999.2500  -999.2500
  365.5000     6.7135   180.7229     6.1988   -42.1095  -999.2500  -999.2500  -999.2500
  366.0000     6.6367   180.7229     6.1994   -42.1088  -999.2500  -999.2500  -999.2500
  366.5000     6.5635   180.7229     6.2001   -42.1081  -999.2500  -999.2500  -999.2500
  367.0000     6.4484   180.7229     6.2009   -42.1073  -999.2500  -999.2500  -999.2500
  367.5000     6.3543   180.7229     6.2016   -42.1066  -999.2500  -999.2500  -999.2500
  368.0000     6.3124   180.7229     6.2024   -42.1059  -999.2500  -999.2500  -999.2500
  368.5000     6.3258   180.7229     6.2032   -42.0863  -999.2500  -999.2500  -999.2500
  369.0000     6.3784   180.7229     6.2039   -41.8102  -999.2500  -999.2500  -999.2500
  369.5000     6.4613   180.7229     6.2046   -41.5843  -999.2500  -999.2500  -999.2500
  370.0000     6.5296   180.7229     6.1334   -41.5147  -999.2500  -999.2500  -999.2500
  370.5000     6.5324   180.7229     6.0081   -41.3765  -999.2500  -999.2500  -999.2500
  371.0000     6.4391   184.3675     5.9092   -41.2191  -999.2500  -999.2500  -999.2500
  371.5000     6.2888   193.9606     5.9023   -41.1686  -999.2500  -999.2500  -999.2500
  372.0000     6.1243   202.4095     5.6132   -40.9235  -999.2500  -999.2500  -999.2500
  372.5000     5.8994   207.7560     5.5066   -40.9227  -999.2500  -999.2500  -999.2500
  373.0000     5.7237   211.7672     5.3812   -40.9221  -999.2500  -999.2500  -999.2500
  373.5000     5.6405   216.8675     5.3177   -40.9213  -999.2500  -999.2500  -999.2500
  374.0000     5.5404   215.6225     5.2793   -40.9206  -999.2500  -999.2500  -999.2500
  374.5000     5.4760   214.3625     5.1703   -40.9199  -999.2500  -999.2500  -999.2500
  375.0000     5.4660   213.1024     5.1712   -40.9191  -999.2500  -999.2500  -999.2500
  375.5000     5.4943   211.8424     5.0520   -40.9184  -999.2500  -999.2500  -999.2500
  376.0000     5.5479   210.8434     5.0238   -40.9176  -999.2500  -999.2500  -999.2500
  376.5000     5.6423   210.8283     5.0246   -40.9169  -999.2500  -999.2500  -999.2500
  377.0000     5.7049   209.3374     5.0253   -40.9162  -999.2500  -999.2500  -999.2500
  377.5000     5.7554   208.3082     5.0552   -40.9154  -999.2500  -999.2500  -999.2500
  378.0000     5.7858   207.0482     5.1756   -40.9147  -999.2500  -999.2500  -999.2500
  378.5000     5.7805   205.7882     5.1764   -40.8902  -999.2500  -999.2500  -999.2500
  379.0000     5.7557   204.8193     5.1771   -40.6191  -999.2500  -999.2500  -999.2500
  379.5000     5.7276   204.8193     5.2650   -40.6184  -999.2500  -999.2500  -999.2500
  380.0000     5.7061   204.8193     5.3274   -40.6176  -999.2500  -999.2500  -999.2500
  380.5000     5.6813   203.7600     5.3281   -40.6169  -999.2500  -999.2500  -999.2500
  381.0000     5.6820   202.5000     5.3480   -40.6162  -999.2500  -999.2500  -999.2500
  381.5000     5.7238   201.2400     5.4784   -40.6154  -999.2500  -999.2500  -999.2500
  382.0000     5.8069   199.9800     5.6017   -40.6147  -999.2500  -999.2500  -999.2500
  382.5000     5.9364   198.5693     5.6287   -40.6139  -999.2500  -999.2500  -999.2500
  383.0000     6.0585   194.2771     5.6295   -40.6132  -999.2500  -999.2500  -999.2500
  383.5000     6.1247   191.0089     5.6846   -40.7858  -999.2500  -999.2500  -999.2500
  384.0000     6.1751   188.0722     5.8115   -40.9059  -999.2500  -999.2500  -999.2500
  384.5000     6.2038   184.3574     5.9293   -40.9051  -999.2500  -999.2500  -999.2500
  385.0000     6.2170   179.6687     5.9301   -40.9044  -999.2500  -999.2500  -999.2500
  385.5000     6.2675   175.9939     6.1557   -40.9037  -999.2500  -999.2500  -999.2500
  386.0000     6.3231   173.1928     6.2292   -40.9028  -999.2500  -999.2500  -999.2500
  386.5000     6.4135   172.0733     6.2299   -40.9022  -999.2500  -999.2500  -999.2500
  387.0000     6.4781   170.8132     6.2307   -40.7412  -999.2500  -999.2500  -999.2500
  387.5000     6.5150   169.5532     6.2314   -40.6066  -999.2500  -999.2500  -999.2500
  388.0000     6.5223   169.0562     6.2321   -40.6059  -999.2500  -999.2500  -999.2500
  388.5000     6.4929   170.7228     6.2330   -40.5765  -999.2500  -999.2500  -999.2500
  389.0000     6.4428   176.2048     6.2336   -40.3102  -999.2500  -999.2500  -999.2500
  389.5000     6.3252   183.1022     6.2344   -40.3096  -999.2500  -999.2500  -999.2500
  390.0000     6.1598   193.3734     6.1210   -40.1176  -999.2500  -999.2500  -999.2500
  390.5000     5.8457   204.7140     5.8695   -39.8667  -999.2500  -999.2500  -999.2500
  391.0000     5.4930   215.6428     5.6181   -39.7191  -999.2500  -999.2500  -999.2500
  391.5000     5.1888   225.8885     5.3446   -39.6588  -999.2500  -999.2500  -999.2500
  392.0000     4.9353   237.9518     5.0000   -39.4078  -999.2500  -999.2500  -999.2500
  392.5000     4.6406   253.2881     4.6224   -39.1286  -999.2500  -999.2500  -999.2500
  393.0000     4.4538   273.4030     4.3145   -39.1279  -999.2500  -999.2500  -999.2500
  393.5000     4.2345   286.5713     4.0630   -39.1272  -999.2500  -999.2500  -999.2500
  394.0000     4.0521   290.2208     3.8600   -39.1265  -999.2500  -999.2500  -999.2500
  394.5000     3.9216   288.9608     3.8609   -39.2162  -999.2500  -999.2500  -999.2500
  395.0000     3.9408   287.6506     3.8617   -39.4657  -999.2500  -999.2500  -999.2500
  395.5000     4.3807   284.0211     4.0724   -39.7152  -999.2500  -999.2500  -999.2500
  396.0000     4.5243   280.2410     4.2431   -40.0058  -999.2500  -999.2500  -999.2500
  396.5000     4.6323   275.7432     4.4296   -40.2142  -999.2500  -999.2500  -999.2500
  397.0000     4.8434   263.1532     4.6456   -40.2985  -999.2500  -999.2500  -999.2500
  397.5000     5.0570   239.0807     4.7867   -40.4191  -999.2500  -999.2500  -999.2500
  398.0000     5.3138   219.8795     5.0566   -40.5912  -999.2500  -999.2500  -999.2500
  398.5000     5.7192   202.5196     5.1750   -40.5904  -999.2500  -999.2500  -999.2500
  399.0000     6.0053   190.8432     5.3018   -40.5897  -999.2500  -999.2500  -999.2500
  399.5000     6.1751   182.2591     5.5010   -40.3490  -999.2500  -999.2500  -999.2500
  400.0000     6.3314   175.2009     5.7044   -40.2941  -999.2500  -999.2500  -999.2500
  400.5000     6.4518   168.9006     5.8312   -40.2941  -999.2500  -999.2500  -999.2500
  401.0000     6.5632   162.6204     5.9623   -40.2941  -999.2500  -999.2500  -999.2500
  401.5000     6.6890   158.1325     6.2523   -40.4559  -999.2500  -999.2500  -999.2500
  402.0000     6.8148   156.0843     6.4683   -40.7059  -999.2500  -999.2500  -999.2500
  402.5000     6.9542   153.5642     6.7212   -40.8824  -999.2500  -999.2500  -999.2500
  403.0000     6.9768   151.5763     6.8497   -40.9118  -999.2500  -999.2500  -999.2500
  403.5000     6.9485   150.0302     6.8900   -41.1765  -999.2500  -999.2500  -999.2500
