~VERSION INFORMATION
 VERS.                2.0:   CWLS LOG ASCII STANDARD - VERSION 2.0
 WRAP.                 NO:   ONE LINE PER DEPTH STEP
~WELL INFORMATION
#MNEM.UNIT      DATA TYPE    INFORMATION
#----------   ------------   ------------------------------
 STRT.F           14.0000:   START DEPTH
 STOP.F          608.0000:   STOP DEPTH
 STEP.F            0.1000:   STEP LENGTH
 NULL.          -999.2500:   NO VALUE
 COMP. FENIX & SCISSON INC:   COMPANY
 WELL. NAVAL PETROLEUM RESERVE 3 S-15 #72-15:   WELL
 FLD .             TEAPOT:   FIELD
 LOC .      S15 T38N R78W:   LOCATION
 CNTY.            NATRONA:   COUNTY
 STAT.            WYOMING:   STATE
 CTRY. UNITED STATES OF AMERICA:   COUNTRY
 SRVC.           BIRDWELL:   SERVICE COMPANY
 DATE.        21-JUL-1978:   LOGDATE
 API .       490251067300:   API NUMBER
~CURVE INFORMATION
#MNEM.UNIT       API CODE    CURVE DESCRIPTION
#----------   ------------   ------------------------------
 DEPT.F                  :   
 ILD .OHMM   05 120 46 00:   INDUCTION LOG DEEP
 SN  .OHMM   05 040 16 00:   SHORT NORMAL 16"
 SPR .MV     05 010 01 00:   SPONTANEOUS POTENTIAL FROM RES.
 CALD.IN     45 280 60 00:   CALIPER FROM DENSITY LOG
 DPHI.DEC    45 890 12 00:   DENSITY POROSITY SANDSTONE
 DRHO.G/C3   45 356 01 00:   DENSITY CORRECTION
 GRD .GAPI   45 310 01 00:   GAMMA RAY FROM DENSITY LOG
 RHOB.G/C3   45 350 01 00:   BULK DENSITY
~PARAMETER INFORMATION
#MNEM.UNIT          VALUE    DESCRIPTION
#----------   ------------   ------------------------------
 PD  .                 GL:   PERMANENT DATUM
 EPD .F              5238:   ELEVATION PERMANENT DATUM
 LMF .                 KB:   LOG MEASURED FROM
 DAPD.F                 4:   FEET ABOVE PERMANENT DATUM
 DMF .                 KB:   DRILLING MEASURED FROM
 EKB .F              5242:   KELLING BUSHING
 EGL .F              5238:   GROUND LEVEL
 DATE.        21-JUL-1978:   RUN DATE
 RUN .                  1:   RUN NUMBER
 DD  .F               597:   DEPTH DRILLER
 DL  .F               615:   DEPTH LOGGER
 BLI .F               608:   BOTTOM LOG INTERVAL
 TLI .F                35:   TOP LOG INTERVAL
 CS  .IN            8.625:   CASING SIZE
 CBD .F                40:   CASING BOTTOM DRILLER
 CBL .F                35:   CASING BOTTOM LOGGER
 BS  .IN            7.875:   BIT SIZE
 BSD .F               597:   BIT SIZE AT DEPTH
 DFT .                KCL:   DRILLING FLUID TYPE
 DFD .                8.6:   DRILLING FLUID DENSITY
 DFV .                 33:   DRILLING FLUID VISCOSITY
 DFPH.                9.0:   DRILLING FLUID PH
 MSS .            MUD PIT:   MUD SAMPLE SOURCE
 MFSS.               MEAS:   MUD FILTRATE SAMPLE SOURCE
 MCSS.               MEAS:   MUD CAKE SAMPLE SOURCE
 BHT .F                74:   BOTTOM HOLE TEMPERATURE
 TCS .HRS               2:   TIME CURCULATED STOPPED
 MRT .F                74:   MAXIMUM RECORDED TEMPERATURE
 LUN .               2958:   LOGGING UNIT NUMBER
 LUL .             CASPER:   LOGGING UNIT LOCATION
 ENGI.             MILLER:   RECORDING ENGINEER
 WITN.           MCGINLEY:   WITNESSED BY
 CLNT.            A2DTECH:   CLIENT CODE
 ORIG.           5" PRINT:   ORIGIN OF DATA
 UWI .       490251067300:   UNIQUE WELL ID
 DICO. A2D Technologies, Inc.:   DIGITIZING COMPANY
~OTHER INFORMATION
~A   DEPT      ILD         SN        SPR       CALD       DPHI       DRHO         GRD      RHOB   
# ...
  524.3000    13.2166    11.5493   -12.8852     7.8774     0.1577     0.0314    74.6233     2.4235
  524.4000    13.2166    11.5489   -12.8864     7.8775     0.1586     0.0322    74.4368     2.4223
  524.5000    13.2166    11.5486   -12.8876     7.8775     0.1589     0.0322    74.2504     2.4209
  524.6000    13.2166    11.5483   -12.8888     7.8775     0.1586     0.0322    74.0640     2.4198
  524.7000    13.2166    11.5480   -12.9316     7.8781     0.1577     0.0344    73.8931     2.4190
  524.8000    13.2166    11.5477   -12.9939     7.8927     0.1565     0.0360    73.7685     2.4184
  524.9000    13.2166    11.5473   -13.0423     7.8927     0.1553     0.0373    73.6206     2.4179
  525.0000    13.2166    11.5470   -13.0435     7.8927     0.1543     0.0382    73.4188     2.4179
  525.1000    13.2166    11.5467   -13.0752     7.8928     0.1531     0.0382    73.1705     2.4191
  525.2000    13.2166    11.5464   -13.1069     7.8907     0.1517     0.0382    72.9685     2.4204
  525.3000    13.2166    11.5461   -13.1387     7.8777     0.1500     0.0382    72.8057     2.4219
  525.4000    13.2166    11.5457   -13.1704     7.8778     0.1481     0.0382    72.4096     2.4238
  525.5000    13.2166    11.4871   -13.2049     7.8778     0.1461     0.0382    72.2931     2.4256
  525.6000    13.2166    11.4656   -13.2672     7.8778     0.1442     0.0382    72.1685     2.4277
  525.7000    13.2166    11.4653   -13.3294     7.8779     0.1429     0.0382    71.9826     2.4293
  525.8000    13.2166    11.4650   -13.3529     7.8779     0.1419     0.0382    71.7343     2.4316
  525.9000    13.1796    11.4647   -13.3541     7.8779     0.1409     0.0374    71.4719     2.4340
  526.0000    13.1426    11.4644   -13.3627     7.8779     0.1397     0.0362    70.8958     2.4365
  526.1000    13.1257    11.4398   -13.4046     7.8780     0.1403     0.0347    70.6878     2.4389
  526.2000    13.1257    11.4074   -13.4465     7.8780     0.1414     0.0322    70.3632     2.4411
  526.3000    13.1257    11.3845   -13.4884     7.8780     0.1429     0.0322    70.0898     2.4426
  526.4000    13.1257    11.3842   -13.5100     7.8781     0.1449     0.0303    69.9652     2.4452
  526.5000    13.1257    11.3838   -13.5112     7.8781     0.1476     0.0286    69.8356     2.4474
  526.6000    13.1257    11.3835   -13.5124     7.8781     0.1502     0.0273    69.9533     2.4479
  526.7000    13.1114    11.3832   -13.5136     7.8782     0.1533     0.0262    70.3505     2.4479
  526.8000    13.0747    11.3829   -13.5148     7.8782     0.1566     0.0262    70.7800     2.4479
  526.9000    13.0354    11.3826   -13.5400     7.8782     0.1597     0.0251    71.1502     2.4479
  527.0000    13.0354    11.3823   -13.5819     7.8783     0.1614     0.0239    71.5203     2.4476
  527.1000    13.0354    11.3820   -13.6238     7.8783     0.1633     0.0221    71.9417     2.4466
  527.2000    13.0354    11.3816   -13.6697     7.8783     0.1651     0.0200    72.2606     2.4448
  527.3000    13.0354    11.3740   -13.6708     7.8783     0.1663     0.0187    72.6308     2.4434
  527.4000    13.0354    11.3578   -13.6720     7.8784     0.1670     0.0175    72.8963     2.4413
  527.5000    13.0354    11.3415   -13.7007     7.8784     0.1678     0.0172    73.0442     2.4389
  527.6000    13.0071    11.3253   -13.7629     7.8784     0.1686     0.0172    73.2947     2.4362
  527.7000    12.9707    11.3090   -13.8255     7.8785     0.1688     0.0172    73.4155     2.4331
  527.8000    12.9457    11.2843   -13.8672     7.8785     0.1687     0.0174    73.5383     2.4299
  527.9000    12.9442    11.2523   -13.9091     7.8785     0.1681     0.0187    73.5937     2.4275
  528.0000    12.9261    11.2230   -13.9510     7.8785     0.1670     0.0199    73.5525     2.4251
  528.1000    12.9080    11.2226   -13.9993     7.8786     0.1656     0.0219    73.4018     2.4217
  528.2000    12.8899    11.2223   -14.0615     7.8786     0.1643     0.0244    72.9875     2.4170
  528.3000    12.8718    11.2220   -14.1327     7.8786     0.1633     0.0265    72.7675     2.4115
  528.4000    12.8508    11.2217   -14.1337     7.8787     0.1622     0.0278    72.3542     2.4059
  528.5000    12.8149    11.2214   -14.1349     7.8800     0.1611     0.0292    71.9693     2.4043
  528.6000    12.7789    11.2211   -14.1361     7.8846     0.1600     0.0292    71.6646     2.4025
  528.7000    12.7681    11.2208   -14.1373     7.8893     0.1587     0.0292    71.1690     2.4009
  528.8000    12.7346    11.2205   -14.1386     7.8939     0.1580     0.0292    70.6736     2.3999
  528.9000    12.6803    11.2202   -14.1397     7.8939     0.1571     0.0292    70.3730     2.4014
  529.0000    12.6803    11.2199   -14.2289     7.8940     0.1562     0.0292    70.1247     2.4026
  529.1000    12.6803    11.2195   -14.2921     7.8940     0.1553     0.0292    69.8765     2.4047
  529.2000    12.6803    11.2192   -14.2933     7.8940     0.1548     0.0284    69.6282     2.4072
  529.3000    12.6803    11.2189   -14.2990     7.8940     0.1541     0.0277    69.3577     2.4096
  529.4000    12.6690    11.2186   -14.4458     7.8941     0.1533     0.0277    69.2443     2.4120
  529.5000    12.6336    11.2183   -14.4468     7.8941     0.1526     0.0277    69.0342     2.4141
  529.6000    12.5930    11.2180   -14.4480     7.8941     0.1520     0.0262    68.8443     2.4163
  529.7000    12.5629    11.2176   -14.4492     7.8942     0.1518     0.0262    68.7197     2.4187
  529.8000    12.5277    11.2174   -14.4504     7.8942     0.1518     0.0262    68.5951     2.4209
  529.9000    12.5064    11.2171   -14.4517     7.8942     0.1516     0.0262    68.4472     2.4227
  530.0000    12.5007    11.2168   -14.4528     7.8943     0.1515     0.0262    68.2454     2.4246
  530.1000    12.4657    11.2164   -14.4540     7.9005     0.1515     0.0262    68.0705     2.4264
  530.2000    12.4307    11.2161   -14.5095     7.9094     0.1515     0.0262    67.9459     2.4278
  530.3000    12.3959    11.2158   -14.6063     7.9095     0.1515     0.0262    67.8022     2.4294
  530.4000    12.3612    11.2155   -14.6075     7.9095     0.1515     0.0256    67.5378     2.4313
  530.5000    12.3349    11.2152   -14.6087     7.9095     0.1513     0.0247    67.4213     2.4313
  530.6000    12.3349    11.2149   -14.6099     7.9095     0.1510     0.0247    67.2967     2.4313
  530.7000    12.3349    11.2146   -14.6111     7.9096     0.1506     0.0232    67.1108     2.4313
  530.8000    12.3349    11.2143   -14.6123     7.9096     0.1503     0.0232    66.9309     2.4313
  530.9000    12.3349    11.2140   -14.6135     7.9096     0.1500     0.0232    66.9230     2.4314
  531.0000    12.3239    11.2137   -14.6149     7.9097     0.1496     0.0232    66.7781     2.4328
  531.1000    12.2894    11.2133   -14.6159     7.9097     0.1497     0.0230    66.5702     2.4328
  531.2000    12.2500    11.2130   -14.6935     7.9097     0.1504     0.0217    66.3984     2.4328
  531.3000    12.1912    11.2127   -14.7682     7.9098     0.1513     0.0217    66.3231     2.4328
  531.4000    12.1657    11.2124   -14.7694     7.9098     0.1518     0.0217    66.3222     2.4329
  531.5000    12.1522    11.2121   -14.7707     7.9098     0.1526     0.0217    66.3212     2.4336
  531.6000    12.1182    11.2118   -14.7718     7.9098     0.1531     0.0221    66.6762     2.4336
  531.7000    12.0820    11.2115   -14.7730     7.9099     0.1536     0.0232    67.2293     2.4331
  531.8000    12.0820    11.2112   -14.7742     7.9099     0.1540     0.0232    67.7825     2.4328
  531.9000    12.0820    11.2312   -14.7754     7.9099     0.1543     0.0232    68.2764     2.4326
  532.0000    12.0499    11.2520   -14.7780     7.9100     0.1545     0.0240    68.7702     2.4319
  532.1000    11.9989    11.2728   -14.8199     7.9100     0.1548     0.0252    69.3323     2.4298
  532.2000    11.9989    11.2877   -14.8618     7.9100     0.1550     0.0262    69.6513     2.4287
  532.3000    11.9989    11.2873   -14.9037     7.9101     0.1553     0.0262    70.0214     2.4275
