~VERSION INFORMATION
 VERS.                2.0:   CWLS LOG ASCII STANDARD - VERSION 2.0
 WRAP.                 NO:   ONE LINE PER DEPTH STEP
~WELL INFORMATION
#MNEM.UNIT      DATA TYPE    INFORMATION
#----------   ------------   ------------------------------
 STRT.F           86.0000:   START DEPTH
 STOP.F          708.0000:   STOP DEPTH
 STEP.F            0.5000:   STEP LENGTH
 NULL.          -999.2500:   NO VALUE
 COMP. U S NAVY/INTEX OIL CO:   COMPANY
 WELL.      33 S-11 #3-11:   WELL
 FLD .             TEAPOT:   FIELD
 LOC .      S11 T38N R78W:   LOCATION
 CNTY.            NATRONA:   COUNTY
 STAT.            WYOMING:   STATE
 CTRY. UNITED STATES OF AMERICA:   COUNTRY
 SRVC.       Schlumberger:   SERVICE COMPANY
 DATE.        11-JUL-1962:   LOGDATE
 API .       490250636000:   API NUMBER
~CURVE INFORMATION
#MNEM.UNIT       API CODE    CURVE DESCRIPTION
#----------   ------------   ------------------------------
 DEPT.F                  :   
 SPR .MV     05 010 01 00:   SPONTANEOUS POTENTIAL FROM RES.
 CILD.MMHO   05 110 46 00:   CONDUCTIVITY INDUCTION LOG DEEP
 ILD .OHMM   05 120 46 00:   INDUCTION LOG DEEP
 ASN .OHMM   05 041 16 00:   AMPLIFIED SHORT NORMAL 16"
 GR  .GAPI   30 310 01 00:   GAMMA RAY
~PARAMETER INFORMATION
#MNEM.UNIT          VALUE    DESCRIPTION
#----------   ------------   ------------------------------
 PD  .                 GL:   PERMANENT DATUM
 EPD .F              5171:   ELEVATION PERMANENT DATUM
 LMF .                 KB:   LOG MEASURED FROM
 DAPD.F                 5:   FEET ABOVE PERMANENT DATUM
 DMF .                 KB:   DRILLING MEASURED FROM
 EKB .F              5176:   KELLING BUSHING
 EGL .F              5171:   GROUND LEVEL
 DATE.            7-11-62:   RUN DATE
 RUN .                  1:   RUN NUMBER
 DD  .F               710:   DEPTH DRILLER
 DL  .F               709:   DEPTH LOGGER
 BLI .F               708:   BOTTOM LOG INTERVAL
 TLI .F                86:   TOP LOG INTERVAL
 BS  .IN             6.75:   BIT SIZE
 BSD .F               710:   BIT SIZE AT DEPTH
 DFT .            GEL/OIL:   DRILLING FLUID TYPE
 DFD .               10.3:   DRILLING FLUID DENSITY
 DFV .                 50:   DRILLING FLUID VISCOSITY
 DFL .                3.7:   DRILLING FLUID LOSS
 RMS .OHMM           5.66:   RESISTIVITY MUD SAMPLE
 MST .F                77:   MUD SAMPLE TEMPERATURE
 RMF .OHMM           4.44:   RESISTIVITY MUD FILTRATE SAMPLE
 MFST.F                77:   MUD FILTRATE SAMPLE TEMPERATURE
 RMC .OHMM            5.9:   RESISTIVITY MUD CAKE
 MCST.F                77:   MUD CAKE SAMPLE TEMPERATURE
 TCS .HRS               1:   TIME CURCULATED STOPPED
 LUN .               2503:   LOGGING UNIT NUMBER
 LUL .               CSPR:   LOGGING UNIT LOCATION
 ENGI.             DANNER:   RECORDING ENGINEER
 WITN.          JORGENSEN:   WITNESSED BY
 CLNT.            A2DTECH:   CLIENT CODE
 ORIG.       2", 5" PRINT:   ORIGIN OF DATA
 UWI .       490250636000:   UNIQUE WELL ID
 DICO. A2D Technologies, Inc.:   DIGITIZING COMPANY
~OTHER INFORMATION
~A   DEPT      SPR        CILD         ILD        ASN       GR   
# ...
  330.0000   -57.4407   108.0570     8.6060     9.0004  -999.2500
  330.5000   -57.0229   107.6995     8.6349     8.9082  -999.2500
  331.0000   -56.6123   107.8810     8.5867     8.8189  -999.2500
  331.5000   -56.5156   109.0101     8.5392     8.7397  -999.2500
  332.0000   -56.3373   110.1392     8.4921     8.8080  -999.2500
  332.5000   -56.1437   111.2682     8.4451     8.9439  -999.2500
  333.0000   -55.9460   112.3973     8.3981     8.7357  -999.2500
  333.5000   -55.9724   113.5264     8.3510     8.5570  -999.2500
  334.0000   -56.4160   114.6554     8.3040     8.7404  -999.2500
  334.5000   -56.7126   115.7845     8.2569     8.8499  -999.2500
  335.0000   -56.7255   116.9136     8.2099     8.6834  -999.2500
  335.5000   -56.8673   117.7350     8.1628     8.5163  -999.2500
  336.0000   -57.2206   118.2751     8.1158     8.4333  -999.2500
  336.5000   -57.5772   118.8021     8.0687     8.4191  -999.2500
  337.0000   -57.9402   119.3308     8.0217     8.3592  -999.2500
  337.5000   -58.2869   119.8601     7.9746     8.2926  -999.2500
  338.0000   -58.5666   120.3893     7.9276     8.3318  -999.2500
  338.5000   -58.4847   120.9186     7.8806     8.3724  -999.2500
  339.0000   -58.3382   121.4478     7.8335     8.3307  -999.2500
  339.5000   -58.1915   121.9771     7.7865     8.2547  -999.2500
  340.0000   -58.0465   122.5063     7.7394     8.1788  -999.2500
  340.5000   -57.9412   122.9789     7.6924     8.1163  -999.2500
  341.0000   -57.9432   124.3752     7.6452     8.0761  -999.2500
  341.5000   -57.9434   125.7499     7.6162     8.0669  -999.2500
  342.0000   -57.8379   126.1353     7.5988     8.0616  -999.2500
  342.5000   -57.6423   126.6079     7.5816     8.0561  -999.2500
  343.0000   -57.4464   127.0806     7.5644     8.0500  -999.2500
  343.5000   -57.2518   127.5532     7.5471     8.0173  -999.2500
  344.0000   -57.1282   128.0258     7.5299     7.9579  -999.2500
  344.5000   -56.9771   128.4985     7.5127     7.8996  -999.2500
  345.0000   -56.7208   128.9734     7.4955     7.8680  -999.2500
  345.5000   -56.4631   129.4406     7.4782     7.8370  -999.2500
  346.0000   -56.2045   129.4989     7.4610     7.8090  -999.2500
  346.5000   -56.1867   128.2327     7.4434     7.8378  -999.2500
  347.0000   -56.5699   126.9809     7.4241     7.9043  -999.2500
  347.5000   -56.9183   125.7292     7.5055     7.9702  -999.2500
  348.0000   -56.9388   124.4774     7.5999     8.0364  -999.2500
  348.5000   -56.9931   123.2257     7.6945     8.0839  -999.2500
  349.0000   -57.0475   121.9739     7.7889     8.1164  -999.2500
  349.5000   -57.1021   120.7222     7.8832     8.2287  -999.2500
  350.0000   -57.0969   119.4704     7.9776     8.3380  -999.2500
  350.5000   -56.7948   118.2187     8.0719     8.4375  -999.2500
  351.0000   -56.4889   116.9669     8.1663     8.4627  -999.2500
  351.5000   -56.1838   115.7151     8.2609     8.4911  -999.2500
  352.0000   -55.8784   114.7670     8.3556     8.6161  -999.2500
  352.5000   -55.5620   115.5914     8.4352     8.7750  -999.2500
  353.0000   -55.6099   116.4158     8.3649     8.8225  -999.2500
  353.5000   -55.7564   117.2401     8.2913     8.4584  -999.2500
  354.0000   -55.9007   118.0645     8.2183     8.2698  -999.2500
  354.5000   -55.9680   118.8889     8.1463     8.5905  -999.2500
  355.0000   -56.0701   119.6970     8.0393     8.6313  -999.2500
  355.5000   -56.0998   121.3263     7.9258     8.3866  -999.2500
  356.0000   -56.0481   123.3082     7.8121     8.1477  -999.2500
  356.5000   -55.9951   125.2900     7.6985     8.0264  -999.2500
  357.0000   -55.9389   127.2719     7.5850     7.9303  -999.2500
  357.5000   -55.9425   129.2538     7.4714     7.8339  -999.2500
  358.0000   -56.8341   131.2356     7.3578     7.7385  -999.2500
  358.5000   -57.0547   133.2175     7.2442     7.6730  -999.2500
  359.0000   -56.7465   135.1993     7.1302     7.6048  -999.2500
  359.5000   -56.4414   137.1812     7.0166     7.5370  -999.2500
  360.0000   -56.1409   138.8246     6.9219     7.4690  -999.2500
  360.5000   -56.1192   138.3600     6.9658     7.4027  -999.2500
  361.0000   -56.2127   137.8953     7.0078     7.3622  -999.2500
  361.5000   -56.3074   137.4307     7.0493     7.3845  -999.2500
  362.0000   -56.3975   136.9660     7.0907     7.4254  -999.2500
  362.5000   -56.4832   135.6957     7.1321     7.5469  -999.2500
  363.0000   -56.7138   133.7172     7.1733     7.6779  -999.2500
  363.5000   -56.6912   131.7387     7.2126     7.7607  -999.2500
  364.0000   -56.6126   129.7602     7.3306     7.8159  -999.2500
  364.5000   -56.5344   127.7817     7.4619     7.8706  -999.2500
  365.0000   -56.6846   125.8032     7.5936     7.9253  -999.2500
  365.5000   -57.1181   124.7475     7.7251     7.9798  -999.2500
  366.0000   -57.5260   123.4440     7.8566     8.0327  -999.2500
  366.5000   -57.4449   122.2270     7.9895     8.0924  -999.2500
  367.0000   -57.3240   121.0101     8.1242     8.1506  -999.2500
  367.5000   -57.5810   119.6970     8.0713     8.2094  -999.2500
  368.0000   -57.7202   120.4643     8.0028     8.2090  -999.2500
  368.5000   -57.2702   121.5251     7.9349     8.2020  -999.2500
  369.0000   -57.1279   122.5859     7.8674     8.1950  -999.2500
  369.5000   -57.2099   123.6467     7.7999     8.1831  -999.2500
  370.0000   -57.3084   124.7075     7.7324     8.1247  -999.2500
  370.5000   -57.3128   125.7682     7.6649     8.0668  -999.2500
  371.0000   -57.1428   126.8290     7.5973     8.0090  -999.2500
  371.5000   -56.9709   127.8898     7.5298     7.9506  -999.2500
  372.0000   -56.7987   128.9506     7.4631     7.9289  -999.2500
  372.5000   -56.7227   130.0114     7.4553     7.9547  -999.2500
  373.0000   -56.7292   130.8081     7.5291     7.9855  -999.2500
  373.5000   -56.3255   129.8217     7.6019     7.9917  -999.2500
  374.0000   -56.2193   128.3185     7.6750     8.0007  -999.2500
  374.5000   -56.8696   126.8026     7.7481     8.0104  -999.2500
  375.0000   -57.0841   125.0635     7.8250     8.0814  -999.2500
  375.5000   -56.8618   122.6058     7.9531     8.2262  -999.2500
  376.0000   -56.6373   120.1875     8.0913     8.3699  -999.2500
  376.5000   -56.4124   117.7617     8.2299     8.5185  -999.2500
  377.0000   -56.1832   115.3361     8.3683     8.6688  -999.2500
  377.5000   -56.1337   112.9105     8.5067     8.8222  -999.2500
  378.0000   -56.6976   110.4848     8.6452     8.9756  -999.2500
  378.5000   -57.2684   108.0592     8.7835     9.1288  -999.2500
  379.0000   -57.5564   105.6336     8.9219     9.2826  -999.2500
  379.5000   -57.3761   103.2073     9.0611     9.3940  -999.2500
  380.0000   -57.1842   100.7809     9.2278     9.4844  -999.2500
  380.5000   -56.9969    98.3568     9.4374     9.6070  -999.2500
  381.0000   -56.8097    96.7094     9.6463     9.8565  -999.2500
  381.5000   -56.6222    95.5068     9.8555    10.1063  -999.2500
  382.0000   -56.4358    94.3042    10.0646    10.5376  -999.2500
  382.5000   -56.3170    92.7273    10.2737    10.8607  -999.2500
  383.0000   -56.6178    90.1717    10.4827    11.0768  -999.2500
  383.5000   -56.9406    87.6151    10.6919    11.2929  -999.2500
  384.0000   -57.2696    85.0529    10.9091    11.5094  -999.2500
  384.5000   -57.3302    82.5187    10.9603    11.7232  -999.2500
  385.0000   -57.3413    81.0441    11.0272    11.8602  -999.2500
  385.5000   -57.6240    80.6005    11.2305    11.7756  -999.2500
  386.0000   -57.9195    80.7298    11.3199    11.6940  -999.2500
  386.5000   -58.2147    81.9163    11.1862    11.6119  -999.2500
  387.0000   -58.5120    83.1028    11.0564    11.5305  -999.2500
  387.5000   -58.5007    84.2893    10.9259    11.4655  -999.2500
  388.0000   -58.4362    85.4758    10.7956    11.3661  -999.2500
  388.5000   -58.3723    86.6623    10.6654    11.2439  -999.2500
  389.0000   -58.2501    87.8488    10.5351    11.1207  -999.2500
  389.5000   -58.1046    89.0353    10.4047    10.9994  -999.2500
  390.0000   -57.9576    90.2222    10.2743    10.8822  -999.2500
  390.5000   -57.8102    91.4096    10.1446    10.7377  -999.2500
