~VERSION INFORMATION
 VERS.                2.0:   CWLS LOG ASCII STANDARD - VERSION 2.0
 WRAP.                 NO:   ONE LINE PER DEPTH STEP
~WELL INFORMATION
#MNEM.UNIT      DATA TYPE    INFORMATION
#----------   ------------   ------------------------------
 STRT.F          100.0000:   START DEPTH
 STOP.F          874.0000:   STOP DEPTH
 STEP.F            0.5000:   STEP LENGTH
 NULL.          -999.2500:   NO VALUE
 COMP. U S NAVY-INTEX OIL:   COMPANY
 WELL.     NPR #3 #45-S-2:   WELL
 FLD .             TEAPOT:   FIELD
 LOC .       S2 T38N R78W:   LOCATION
 CNTY.            NATRONA:   COUNTY
 STAT.            WYOMING:   STATE
 CTRY. UNITED STATES OF AMERICA:   COUNTRY
 SRVC.       Schlumberger:   SERVICE COMPANY
 DATE.        15-JUL-1962:   LOGDATE
 API .       490250642400:   API NUMBER
~CURVE INFORMATION
#MNEM.UNIT       API CODE    CURVE DESCRIPTION
#----------   ------------   ------------------------------
 DEPT.F                  :   
 ASN .OHMM   05 041 16 00:   AMPLIFIED SHORT NORMAL 16"
 CILD.MMHO   05 110 46 00:   CONDUCTIVITY INDUCTION LOG DEEP
 ILD .OHMM   05 120 46 00:   INDUCTION LOG DEEP
 SPR .MV     05 010 01 00:   SPONTANEOUS POTENTIAL FROM RES.
 GR  .GAPI   30 310 01 00:   GAMMA RAY
~PARAMETER INFORMATION
#MNEM.UNIT          VALUE    DESCRIPTION
#----------   ------------   ------------------------------
 LMF .                 KB:   LOG MEASURED FROM
 DMF .                 KB:   DRILLING MEASURED FROM
 EKB .F              5149:   KELLING BUSHING
 EGL .F              5144:   GROUND LEVEL
 DATE.        15-JUL-1962:   RUN DATE
 RUN .                  1:   RUN NUMBER
 DD  .F               875:   DEPTH DRILLER
 DL  .F               875:   DEPTH LOGGER
 BLI .F               874:   BOTTOM LOG INTERVAL
 TLI .F               100:   TOP LOG INTERVAL
 BS  .IN             6.75:   BIT SIZE
 BSD .F               875:   BIT SIZE AT DEPTH
 DFT .           OIL EMUL:   DRILLING FLUID TYPE
 DFD .               10.2:   DRILLING FLUID DENSITY
 DFV .                 42:   DRILLING FLUID VISCOSITY
 DFL .                4.6:   DRILLING FLUID LOSS
 RMS .OHMM            6.0:   RESISTIVITY MUD SAMPLE
 MST .F                64:   MUD SAMPLE TEMPERATURE
 RMF .OHMM            5.8:   RESISTIVITY MUD FILTRATE SAMPLE
 MFST.F                64:   MUD FILTRATE SAMPLE TEMPERATURE
 RMC .OHMM            5.2:   RESISTIVITY MUD CAKE
 MCST.F                66:   MUD CAKE SAMPLE TEMPERATURE
 TCS .HRS             0.5:   TIME CURCULATED STOPPED
 LUN .               2503:   LOGGING UNIT NUMBER
 LUL .               CSPR:   LOGGING UNIT LOCATION
 ENGI.           ELLERMAN:   RECORDING ENGINEER
 WITN.          JORGENSON:   WITNESSED BY
 CLNT.            A2DTECH:   CLIENT CODE
 ORIG.           5" PRINT:   ORIGIN OF DATA
 UWI .       490250642400:   UNIQUE WELL ID
 DICO. A2D Technologies, Inc.:   DIGITIZING COMPANY
~OTHER INFORMATION
~A   DEPT        ASN      CILD       ILD        SPR         GR   
# ...
  466.0000     9.7252   105.3704     9.0089   -39.9583  -999.2500
  466.5000     9.6357   106.8415     9.0823   -38.9134  -999.2500
  467.0000     9.5611   107.5455     9.1218   -38.1674  -999.2500
  467.5000     9.5464   107.4998     9.1542   -38.0194  -999.2500
  468.0000     9.5918   107.4546     9.2275   -38.1707  -999.2500
  468.5000     9.6390   106.6515     9.2259   -38.1721  -999.2500
  469.0000     9.6971   106.6061     9.2244   -38.3230  -999.2500
  469.5000     9.6824   107.3124     9.2230   -38.3245  -999.2500
  470.0000     9.6228   107.2683     9.2216   -38.1761  -999.2500
  470.5000     9.5631   107.2273     9.2200   -38.0284  -999.2500
  471.0000     9.5036   107.9394     9.1434   -37.7200  -999.2500
  471.5000     9.4590   108.6515     9.0671   -37.3732  -999.2500
  472.0000     9.4128   110.1222     8.9908   -37.1101  -999.2500
  472.5000     9.3249   113.8550     8.8397   -36.9879  -999.2500
  473.0000     9.2803   116.8412     8.7634   -36.6904  -999.2500
  473.5000     9.2207   119.8274     8.6871   -36.6922  -999.2500
  474.0000     9.1162   122.0671     8.5319   -36.6936  -999.2500
  474.5000     8.7694   125.0423     8.1599   -36.5456  -999.2500
  475.0000     8.5080   128.0285     7.9339   -36.3975  -999.2500
  475.5000     8.2189   131.0151     7.7079   -36.2499  -999.2500
  476.0000     8.0096   134.0606     7.5567   -36.2511  -999.2500
  476.5000     7.8303   136.9761     7.5553   -36.2528  -999.2500
  477.0000     7.7108   139.2047     7.5539   -36.1044  -999.2500
  477.5000     7.6362   139.9292     7.6273   -36.1062  -999.2500
  478.0000     7.6515   140.6427     7.7007   -36.2571  -999.2500
  478.5000     7.8222   136.7997     7.8489   -36.2586  -999.2500
  479.0000     8.2210   132.2101     7.9972   -36.4098  -999.2500
  479.5000     8.5207   127.3068     8.1454   -36.5608  -999.2500
  480.0000     8.6408   123.3332     8.3117   -36.5622  -999.2500
  480.5000     8.7309   119.9456     8.4416   -36.5636  -999.2500
  481.0000     8.8359   118.3864     8.5150   -36.5651  -999.2500
  481.5000     8.9710   116.8271     8.5135   -36.4171  -999.2500
  482.0000     8.8964   116.7830     8.4369   -36.4185  -999.2500
  482.5000     8.7902   117.5075     8.4354   -36.4203  -999.2500
  483.0000     8.8222   119.7251     8.3593   -36.4218  -999.2500
  483.5000     8.8823   121.1970     8.3577   -36.7222  -999.2500
  484.0000     8.7479   123.0656     8.2814   -37.0226  -999.2500
  484.5000     8.6135   124.8849     8.2799   -37.6219  -999.2500
  485.0000     8.5389   126.3559     8.2036   -38.0718  -999.2500
  485.5000     8.5093   126.3182     8.1273   -37.9183  -999.2500
  486.0000     8.4946   125.5101     8.2007   -37.4771  -999.2500
  486.5000     8.5272   125.4661     8.2738   -37.2309  -999.2500
  487.0000     8.6150   124.3662     8.3229   -36.9980  -999.2500
  487.5000     8.7201   122.3476     8.4207   -36.7337  -999.2500
  488.0000     8.7952   121.0303     8.4940   -36.6996  -999.2500
  488.5000     8.8554   119.2273     8.5674   -36.5874  -999.2500
  489.0000     8.9006   117.6667     8.5656   -36.7384  -999.2500
  489.5000     8.9458   116.8571     8.7139   -36.7399  -999.2500
  490.0000     8.9770   116.0555     8.7124   -36.7417  -999.2500
  490.5000     9.0363   116.0114     8.7110   -36.7431  -999.2500
  491.0000     9.0515   115.9673     8.7095   -36.7446  -999.2500
  491.5000     9.0668   115.9232     8.7081   -36.7460  -999.2500
  492.0000     9.0072   117.3939     8.7066   -36.8969  -999.2500
  492.5000     8.8877   117.3485     8.7048   -37.1973  -999.2500
  493.0000     8.8132   118.0526     8.6285   -37.7967  -999.2500
  493.5000     8.7686   118.7727     8.6080   -38.2469  -999.2500
  494.0000     8.7705   119.4906     8.5508   -38.5473  -999.2500
  494.5000     8.7992   119.4394     8.4745   -39.1467  -999.2500
  495.0000     8.8294   120.1600     8.3982   -39.5965  -999.2500
  495.5000     8.8297   120.1049     8.3967   -39.8969  -999.2500
  496.0000     8.8000   120.0606     8.3949   -40.0479  -999.2500
  496.5000     8.7554   120.0152     8.3935   -39.8998  -999.2500
  497.0000     8.7108   119.9615     8.3172   -39.7518  -999.2500
  497.5000     8.6659   119.9174     8.3157   -39.4547  -999.2500
  498.0000     8.6044   119.8734     8.3143   -39.1568  -999.2500
  498.5000     8.4964   119.8293     8.2380   -39.0088  -999.2500
  499.0000     8.3770   122.0579     8.1617   -38.8607  -999.2500
  499.5000     8.3625   124.2865     8.0850   -38.8625  -999.2500
  500.0000     8.3935   125.7576     8.2339   -38.2664  -999.2500
  500.5000     8.4242   125.6941     8.1634   -38.8589  -999.2500
  501.0000     8.4249   125.6355     8.1678   -39.4525  -999.2500
  501.5000     8.3948   125.5758     8.1722   -39.8966  -999.2500
  502.0000     8.3663   125.5036     8.1766   -40.4903  -999.2500
  502.5000     8.3520   125.4450     8.1071   -40.3338  -999.2500
  503.0000     8.3680   125.3864     8.0355   -40.0100  -999.2500
  503.5000     8.3837   125.3278     8.0409   -39.5792  -999.2500
  504.0000     8.3994   126.0414     8.0453   -39.5749  -999.2500
  504.5000     8.4002   126.7273     7.9737   -39.5705  -999.2500
  505.0000     8.4159   127.4247     7.9792   -39.7157  -999.2500
  505.5000     8.3702   128.1237     7.9087   -39.7113  -999.2500
  506.0000     8.2824   128.8227     7.9132   -39.7070  -999.2500
  506.5000     8.2231   129.5216     7.8425   -39.0717  -999.2500
  507.0000     8.2088   129.4484     7.8480   -38.2025  -999.2500
  507.5000     8.2095   129.3898     7.8518   -38.0487  -999.2500
  508.0000     8.2103   128.5736     7.8563   -37.8948  -999.2500
  508.5000     8.2260   127.7574     7.9359   -38.0411  -999.2500
  509.0000     8.2569   126.3704     7.9402   -38.1862  -999.2500
  509.5000     8.3067   124.5063     7.9446   -38.4798  -999.2500
  510.0000     8.4085   122.2639     8.0240   -39.0733  -999.2500
  510.5000     8.4693   121.4478     8.1041   -39.0679  -999.2500
  511.0000     8.5902   120.3813     8.1833   -38.7646  -999.2500
  511.5000     8.6660   119.0578     8.2625   -38.7603  -999.2500
  512.0000     8.7568   118.9992     8.2669   -39.3538  -999.2500
  512.5000     8.8026   118.9394     8.3461   -39.7979  -999.2500
  513.0000     8.7883   118.8674     8.4253   -40.0927  -999.2500
  513.5000     8.7892   119.5663     8.4296   -39.9387  -999.2500
  514.0000     8.7749   119.5077     8.3592   -39.6114  -999.2500
  514.5000     8.7906   119.4491     8.2887   -38.8826  -999.2500
  515.0000     8.7762   120.1628     8.2941   -38.2804  -999.2500
  515.5000     8.7619   120.8485     8.1488   -37.9771  -999.2500
  516.0000     8.7177   122.3036     8.1531   -37.9728  -999.2500
  516.5000     8.6734   123.0026     8.0078   -37.9684  -999.2500
  517.0000     8.5828   123.7016     8.0121   -38.1136  -999.2500
  517.5000     8.5097   123.6283     7.8668   -38.2587  -999.2500
  518.0000     8.4205   125.0995     7.7214   -38.1038  -999.2500
  518.5000     8.3762   127.2990     7.6520   -37.8005  -999.2500
  519.0000     8.3169   128.7576     7.5805   -37.4972  -999.2500
  519.5000     8.2576   130.2121     7.5859   -37.4929  -999.2500
  520.0000     8.1982   131.7677     7.5143   -37.7875  -999.2500
  520.5000     8.1389   133.8681     7.4438   -38.0822  -999.2500
  521.0000     8.0777   135.3246     7.4493   -38.5371  -999.2500
  521.5000     7.9153   137.5388     7.4536   -38.9703  -999.2500
  522.0000     7.7659   139.7529     7.3831   -38.6660  -999.2500
  522.5000     7.7065   140.4665     7.3886   -38.0637  -999.2500
  523.0000     7.7073   140.3933     7.3929   -37.1625  -999.2500
  523.5000     7.7230   139.5073     7.3967   -36.8592  -999.2500
  524.0000     7.7688   137.2311     7.4765   -37.1538  -999.2500
  524.5000     7.8752   134.8998     7.4805   -37.6024  -999.2500
  525.0000     7.9555   133.9016     7.5911   -38.2162  -999.2500
  525.5000     8.0564   131.5968     7.6392   -38.6356  -999.2500
  526.0000     8.1022   130.1785     7.7186   -38.6302  -999.2500
  526.5000     8.1179   128.8813     7.7988   -38.3269  -999.2500
