~VERSION INFORMATION
 VERS.                2.0:   CWLS LOG ASCII STANDARD - VERSION 2.0
 WRAP.                 NO:   ONE LINE PER DEPTH STEP
~WELL INFORMATION
#MNEM.UNIT      DATA TYPE    INFORMATION
#----------   ------------   ------------------------------
 STRT.F            8.0000:   START DEPTH
 STOP.F         1010.0000:   STOP DEPTH
 STEP.F            0.5000:   STEP LENGTH
 NULL.          -999.2500:   NO VALUE
 COMP.          U.S. NAVY:   COMPANY
 WELL. RES 3 TEAPOT DOM #47S-35:   WELL
 FLD .             TEAPOT:   FIELD
 LOC .      S35 T39N R78W:   LOCATION
 CNTY.            NATRONA:   COUNTY
 STAT.            WYOMING:   STATE
 CTRY. UNITED STATES OF AMERICA:   COUNTRY
 SRVC.      NL McCullough:   SERVICE COMPANY
 DATE.        12-NOV-1958:   LOGDATE
 API .       490250650800:   API NUMBER
~CURVE INFORMATION
#MNEM.UNIT       API CODE    CURVE DESCRIPTION
#----------   ------------   ------------------------------
 DEPT.F                  :   
 GRN .GAPI   35 310 01 00:   GAMMA RAY
 NEUT.NAPI   35 330 01 00:   NEUTRON
~PARAMETER INFORMATION
#MNEM.UNIT          VALUE    DESCRIPTION
#----------   ------------   ------------------------------
 PD  .                 GL:   PERMANENT DATUM
 EPD .F             51891:   ELEVATION PERMANENT DATUM
 DATE.        11-NOV-1959:   RUN DATE
 RUN .                  1:   RUN NUMBER
 BLI .F              1004:   BOTTOM LOG INTERVAL
 CS  .IN            8.625:   CASING SIZE
 WITN.             MARTNE:   WITNESSED BY
 CLNT.            A2DTECH:   CLIENT CODE
 ORIG.         2.5" PRINT:   ORIGIN OF DATA
 UWI .       490250650800:   UNIQUE WELL ID
 DICO. A2D Technologies, Inc.:   DIGITIZING COMPANY
~OTHER INFORMATION
~A    DEPT     GRN       NEUT   
# ...
  129.5000     5.1516   177.3550
  130.0000     5.0713   178.8614
  130.5000     5.0517   178.1189
  131.0000     5.0727   177.3763
  131.5000     5.2956   177.3301
  132.0000     5.4184   176.6411
  132.5000     5.3988   183.3397
  133.0000     5.4199   190.4323
  133.5000     5.4408   186.2135
  134.0000     5.4618   163.9295
  134.5000     5.4827   160.9382
  135.0000     5.5444   164.6934
  135.5000     5.7191   166.1998
  136.0000     5.8336   166.2069
  136.5000     5.7086   164.3177
  137.0000     5.5090   155.6223
  137.5000     5.4338   145.0212
  138.0000     5.2042   143.7467
  138.5000     5.0429   146.7466
  139.0000     4.9221   147.0640
  139.5000     4.8013   146.7691
  140.0000     4.7587   146.0270
  140.5000     4.7216   146.0348
  141.0000     4.8831   144.5402
  141.5000     5.2054   143.8002
  142.0000     5.4221   172.1888
  142.5000     5.3929   178.2972
  143.0000     5.3327   169.7150
  143.5000     5.3132   159.4680
  144.0000     5.3342   154.0430
  144.5000     5.3351   155.0910
  145.0000     5.3831   159.5959
  145.5000     5.4825   159.6030
  146.0000     5.5990   157.3163
  146.5000     5.7137   152.6888
  147.0000     5.6718   149.5452
  147.5000     5.5822   144.4153
  148.0000     5.5829   139.1904
  148.5000     5.5633   135.6172
  149.0000     5.5032   131.1707
  149.5000     5.3394   123.6816
  150.0000     5.2413   118.4414
  150.5000     5.2991   110.2026
  151.0000     5.4403   105.6571
  151.5000     5.5068   100.4963
  152.0000     5.3456    88.5158
  152.5000     5.2855    81.2156
  153.0000     5.3672    75.8421
  153.5000     5.4894    74.2654
  154.0000     5.5710    76.5230
  154.5000     5.2815    80.2783
  155.0000     5.2484    86.2824
  155.5000     5.3027    90.0377
  156.0000     5.3684    82.2287
  156.5000     5.4126    70.6149
  157.0000     5.4337    64.3803
  157.5000     5.4951    63.8293
  158.0000     5.6375    66.7166
  158.5000     5.5167    81.6929
  159.0000     5.2136    81.0956
  159.5000     5.2915    76.6050
  160.0000     5.5147    75.8621
  160.5000     5.5803    75.8697
  161.0000     5.4816    76.6264
  161.5000     5.3500    75.8839
  162.0000     5.1716    77.6662
  162.5000     4.9351    90.1429
  163.0000     4.9675   109.2479
  163.5000     5.1391   108.4645
  164.0000     5.3018   106.6578
  164.5000     5.5252   105.1657
  165.0000     5.6676   104.4228
  165.5000     5.7493   104.4303
  166.0000     5.6495   106.9467
  166.5000     5.4168   116.5366
  167.0000     5.2328   124.1604
  167.5000     5.0222   124.6988
  168.0000     4.9553   123.9580
  168.5000     5.1259   126.9655
  169.0000     5.3696   134.4689
  169.5000     5.6943   139.7234
  170.0000     5.7557   138.9809
  170.5000     5.7564   136.7354
  171.0000     5.7571   132.0940
  171.5000     5.7305   128.9505
  172.0000     5.6500   120.4499
  172.5000     5.4371   113.5293
  173.0000     5.2335   113.9205
  173.5000     5.2343   115.7960
  174.0000     5.3564   116.5527
  174.5000     5.4989   117.3095
  175.0000     5.6295   118.0663
  175.5000     5.7838   118.8368
  176.0000     5.7785   119.5802
  176.5000     5.7286   119.5877
  177.0000     5.6947   119.5952
  177.5000     5.6854   118.5345
  178.0000     5.7672   116.9665
  178.5000     5.8286   113.6220
  179.0000     5.8293   110.6306
  179.5000     5.8299   106.1400
  180.0000     5.7901   100.8998
  180.5000     5.7561    96.3568
  181.0000     5.6967    92.3613
  181.5000     5.6303    88.2134
  182.0000     5.6107    82.6687
  182.5000     5.6521    79.9475
  183.0000     5.7135    83.0834
  183.5000     5.7142    88.9593
  184.0000     5.6338    91.2153
  184.5000     5.6143    91.9721
  185.0000     5.6150    91.9792
  185.5000     5.6157    91.9865
  186.0000     5.5679    91.9940
  186.5000     5.4755    93.3246
  187.0000     5.2130    97.3089
  187.5000     4.9504   102.0427
  188.0000     5.0523   108.6957
  188.5000     5.3162   113.7718
  189.0000     5.3781   118.2767
  189.5000     5.4391   122.0320
  190.0000     5.3150   125.7872
  190.5000     5.2109   128.1460
  191.0000     5.2072   130.5547
  191.5000     5.3244   132.9635
  192.0000     5.4630   135.6522
  192.5000     5.5245   138.8868
  193.0000     5.6669   143.6206
  193.5000     5.7485   147.5798
  194.0000     5.6653   149.0862
  194.5000     5.5879   149.0934
  195.0000     5.6349   149.1005
  195.5000     5.7547   149.9213
  196.0000     5.7729   153.2834
  196.5000     5.4897   156.3018
  197.0000     5.4093   159.4603
  197.5000     5.3290   165.2236
  198.0000     5.5119   171.6356
  198.5000     5.6345   173.1420
  199.0000     5.6550   172.3995
  199.5000     5.5094   170.9074
  200.0000     5.4720   167.9160
  200.5000     5.4584   157.3888
  201.0000     5.4630   159.2553
  201.5000     5.4749   161.1913
  202.0000     5.4645   148.8855
  202.5000     5.4435   147.7127
  203.0000     5.2528   152.9385
  203.5000     5.0910   157.5638
  204.0000     4.9089   162.1889
  204.5000     4.8483   167.1438
  205.0000     4.9903   174.8376
  205.5000     5.1322   175.3648
  206.0000     5.1932   169.5066
  206.5000     5.1529   159.7687
  207.0000     5.1126   155.2783
  207.5000     5.1189   147.0397
  208.0000     5.4216   140.3004
  208.5000     5.4979   139.4878
  209.0000     5.4744   142.5639
  209.5000     5.4578   150.0973
  210.0000     5.4580   152.3738
  210.5000     5.4583   154.7601
  211.0000     5.4163   157.8461
  211.5000     5.3409   162.4313
  212.0000     5.1791   167.7661
  212.5000     5.0743   171.6017
  213.0000     5.0764   172.6073
  213.5000     5.4393   165.2099
  214.0000     5.5205   161.7591
  214.5000     5.5004   157.4989
  215.0000     5.5006   147.9025
  215.5000     5.4400   138.1647
  216.0000     5.3390   130.6757
  216.5000     5.1974   129.1829
  217.0000     5.0964   132.9392
  217.5000     5.1168   135.9450
  218.0000     5.1373   137.4516
  218.5000     5.1577   138.9581
  219.0000     5.1984   140.4848
  219.5000     5.3355   141.3418
  220.0000     5.7982   142.7281
  220.5000     5.8471   141.2362
  221.0000     5.8473   141.4243
  221.5000     5.7932   148.1284
  222.0000     5.7386   152.5038
  222.5000     5.7061   140.8170
  223.0000     5.6763   139.2953
  223.5000     5.6458   145.0399
  224.0000     5.6576   147.2864
  224.5000     5.7070   149.5441
  225.0000     5.7274   159.2966
  225.5000     5.7884   153.3069
  226.0000     5.7278   147.3172
  226.5000     5.5255   123.3365
  227.0000     5.3839   122.5937
  227.5000     5.3234   126.3496
  228.0000     5.3033   133.1035
  228.5000     5.2428   135.3598
  229.0000     5.2219   135.5773
  229.5000     5.2027   138.3733
  230.0000     5.2313   140.7796
  230.5000     5.3080   147.7737
  231.0000     5.3699   154.0780
  231.5000     5.4373   156.3930
  232.0000     5.5002   153.4033
  232.5000     5.5556   153.7606
  233.0000     5.6545   158.7857
  233.5000     5.7199   167.5686
  234.0000     5.7818   172.1753
  234.5000     5.7808   168.4344
  235.0000     5.6302   154.9485
  235.5000     5.5899   159.4536
  236.0000     5.6104   165.4579
  236.5000     5.6106   167.7140
  237.0000     5.6108   172.9687
  237.5000     5.5705   175.2249
  238.0000     5.5504   174.4427
  238.5000     5.5506   173.7402
  239.0000     5.5305   176.8666
  239.5000     5.5299   180.9821
  240.0000     5.4688   183.5082
  240.5000     5.4074   182.7650
  241.0000     5.3896   181.7441
  241.5000     5.3898   182.0315
  242.0000     5.4003   183.5382
  242.5000     5.4570   188.1434
  243.0000     5.5119   190.6097
  243.5000     5.4839   179.8139
  244.0000     5.4337   177.6440
  244.5000     5.3713   173.2109
  245.0000     5.2994   173.0385
  245.5000     5.2177   181.3719
  246.0000     5.2297   183.2784
  246.5000     5.3919   190.3537
  247.0000     5.3921   193.3595
  247.5000     5.4125   185.1209
  248.0000     5.6962   174.6335
  248.5000     5.7167   171.6423
  249.0000     5.5751   174.6481
  249.5000     5.3931   191.8967
  250.0000     5.1502   198.6507
  250.5000     5.1302   201.7366
