~VERSION INFORMATION
 VERS.                2.0:   CWLS LOG ASCII STANDARD - VERSION 2.0
 WRAP.                 NO:   ONE LINE PER DEPTH STEP
~WELL INFORMATION
#MNEM.UNIT      DATA TYPE    INFORMATION
#----------   ------------   ------------------------------
 STRT.F            0.0000:   START DEPTH
 STOP.F          717.5000:   STOP DEPTH
 STEP.F            0.5000:   STEP LENGTH
 NULL.          -999.2500:   NO VALUE
 COMP. LAWRENCE/ALLISON INC:   COMPANY
 WELL. NPR 3 #27-64-SX-11-WP:   WELL
 FLD .             TEAPOT:   FIELD
 LOC .      S11 T38N R78W:   LOCATION
 CNTY.            NATRONA:   COUNTY
 STAT.            WYOMING:   STATE
 CTRY. UNITED STATES OF AMERICA:   COUNTRY
 SRVC.      Dresser Atlas:   SERVICE COMPANY
 DATE.        15-SEP-1984:   LOGDATE
 API .       490251097500:   API NUMBER
~CURVE INFORMATION
#MNEM.UNIT       API CODE    CURVE DESCRIPTION
#----------   ------------   ------------------------------
 DEPT.F                  :   
 CALD.IN     45 280 60 00:   CALIPER FROM DENSITY LOG
 CNC .DEC    42 890 03 00:   COMPENSATED NEUTRON POROSITY SANDSTONE
 CORR.G/C3   45 356 01 00:   DENSITY CORRECTION
 DEN .G/C3   45 350 01 00:   BULK DENSTIY
 PORD.DEC    45 890 12 00:   POROSITY DENSITY SANDSTONE
 GRR .GAPI   07 310 01 00:   GAMMA RAY FROM RESISTIVITY
 RFOC.OHMM   07 220 01 00:   RESISTIVITY FOCUSED LOG
 RILD.OHMM   07 120 46 00:   RESISTIVITY INDUCTION LOG DEEP
 RILM.OHMM   07 120 44 00:   RESITIVITY INDUCTION LOG MEDIUM
 SPR .MV     07 010 01 00:   SPONTANEOUS POTENTIAL FROM RES.
~PARAMETER INFORMATION
#MNEM.UNIT          VALUE    DESCRIPTION
#----------   ------------   ------------------------------
 PD  .                 GL:   PERMANENT DATUM
 EPD .F              5198:   ELEVATION PERMANENT DATUM
 LMF .                 GL:   LOG MEASURED FROM
 DMF .                 GL:   DRILLING MEASURED FROM
 EGL .F              5198:   GROUND LEVEL
 DATE.        15-SEP-1984:   RUN DATE
 RUN .                  1:   RUN NUMBER
 DD  .F               736:   DEPTH DRILLER
 DL  .F               722:   DEPTH LOGGER
 BLI .F               704:   BOTTOM LOG INTERVAL
 TLI .F                42:   TOP LOG INTERVAL
 CS  .IN            8.625:   CASING SIZE
 CBD .F                42:   CASING BOTTOM DRILLER
 CBL .F                42:   CASING BOTTOM LOGGER
 BS  .IN            7.875:   BIT SIZE
 BSD .F               736:   BIT SIZE AT DEPTH
 DFT .          KCL WATER:   DRILLING FLUID TYPE
 MSS .           FLOWLINE:   MUD SAMPLE SOURCE
 RMS .OHMM           0.22:   RESISTIVITY MUD SAMPLE
 MST .F                70:   MUD SAMPLE TEMPERATURE
 RMB .OHMM           0.17:   RESISTIVITY MUD AT BHT
 BHT .F                90:   BOTTOM HOLE TEMPERATURE
 TCS .HRS               5:   TIME CURCULATED STOPPED
 MRT .F                90:   MAXIMUM RECORDED TEMPERATURE
 LUN .               6274:   LOGGING UNIT NUMBER
 LUL .               GLTE:   LOGGING UNIT LOCATION
 ENGI.             RAUTIO:   RECORDING ENGINEER
 WITN.            JOHNSON:   WITNESSED BY
 CLNT.            A2DTECH:   CLIENT CODE
 ORIG.         2.5" PRINT:   ORIGIN OF DATA
 UWI .       490251097500:   UNIQUE WELL ID
 DICO. A2D Technologies, Inc.:   DIGITIZING COMPANY
~OTHER INFORMATION
~A    DEPT    CALD        CNC       CORR        DEN       PORD         GRR      RFOC       RILD       RILM        SPR   
# ...
  201.0000     8.2181     0.3030     0.0034     2.4361     0.1480    95.7864     8.2316     7.7510     7.7528    -1.8131
  201.5000     8.2177     0.3095     0.0079     2.4464     0.1409    95.5897     8.2226     7.7426     7.8531    -1.5362
  202.0000     8.2172     0.3160     0.0150     2.4508     0.1376    93.0731     8.2130     7.7330     7.8452    -1.2658
  202.5000     8.2167     0.3132     0.0208     2.4476     0.1363    92.1006     8.2019     7.7255     7.9446    -1.2870
  203.0000     8.2162     0.3018     0.0236     2.4430     0.1372    92.0515     8.3067     7.8245     7.9378    -1.3115
  203.5000     8.2157     0.3004    -0.0033     2.4395     0.1403    90.8315     8.2981     7.9230     8.0406    -0.7381
  204.0000     8.2153     0.3056    -0.0213     2.4333     0.1441    90.7298     8.4041     7.9133     8.0323    -0.7574
  204.5000     8.2148     0.3063    -0.0273     2.4282     0.1476    91.1894     8.3911     8.0154     8.1353    -0.7781
  205.0000     8.2143     0.3010    -0.0275     2.4251     0.1512    91.8935     8.3824     8.1174     8.1274    -0.8022
  205.5000     8.2138     0.3046    -0.0235     2.4228     0.1524    92.4438     8.4895     8.2194     8.2325    -0.8205
  206.0000     8.2133     0.3176    -0.0143     2.4309     0.1519    89.9408     8.4788     8.3237     8.2239    -0.5429
  206.5000     8.2128     0.3224    -0.0021     2.4487     0.1469    91.0868     8.5859     8.4295     8.3294    -0.5651
  207.0000     8.2124     0.3015     0.0101     2.4575     0.1376    92.9055     8.5758     8.5375     8.3214    -0.5887
  207.5000     8.2119     0.2908     0.0163     2.4575     0.1301    94.0523     8.8054     8.6446     8.4291    -0.3107
  208.0000     8.2114     0.2701     0.0102     2.4544     0.1328    94.7298     8.8540     8.7543     8.4201    -0.3314
  208.5000     8.2109     0.2610     0.0249     2.4604     0.1316    95.1538     8.9052     8.8760     8.5273    -0.3521
  209.0000     8.2104     0.2633     0.0397     2.4693     0.1267    95.1077     9.0178     8.9794     8.5201    -0.3752
  209.5000     8.2100     0.2727     0.0425     2.4673     0.1218    95.0710     9.0072     9.0918     8.6303    -0.0976
  210.0000     8.2095     0.2878     0.0305     2.4623     0.1243    94.8718     8.9967     9.2072     8.7399    -0.1183
  210.5000     8.2090     0.2919     0.0184     2.4600     0.1303    93.4911     8.9853     9.1976     8.8520    -0.5917
  211.0000     8.2085     0.2896     0.0122     2.4612     0.1303    92.5761     9.1001     9.4441     8.8439    -1.0492
  211.5000     8.2080     0.2879     0.0138     2.4696     0.1262    91.3215     9.2163     9.5605     9.0004    -1.6598
  212.0000     8.2076     0.2897     0.0311     2.4776     0.1209    90.1302     9.2021     9.6834     9.0719    -1.5858
  212.5000     8.2071     0.2921     0.0433     2.4835     0.1161    89.4894     9.4484     9.6951     9.3145    -1.1095
  213.0000     8.1764     0.2898     0.0504     2.4849     0.1150    90.0473     9.4382     9.9328     9.3237    -1.1316
  213.5000     8.1748     0.2794     0.0314     2.4789     0.1178    91.1914     9.5592     9.9184     9.4773    -1.1509
  214.0000     8.1733     0.2717     0.0188     2.4774     0.1210    89.7436     9.6783    10.0458     9.5464    -1.1716
  214.5000     8.1717     0.2790     0.0161     2.4788     0.1197    87.5496     9.6664    10.1742     9.5369    -1.1956
  215.0000     8.1997     0.2868     0.0230     2.4817     0.1185    86.3295     9.7899    10.1621     9.6840    -1.5098
  215.5000     8.2277     0.2894     0.0288     2.4816     0.1176    89.0434     9.9149    10.1496     9.7853    -1.8738
  216.0000     8.2312     0.2793     0.0287     2.4812     0.1164    93.2623     9.8996    10.2797     9.9090    -2.5641
  216.5000     8.2542     0.2687     0.0285     2.4785     0.1165    94.4911    10.1646    10.2685    10.0361    -3.3490
  217.0000     8.2228     0.2581     0.0195     2.4770     0.1171    94.4489    10.6571    10.3289    10.0265    -3.9590
  217.5000     8.2511     0.2469    -0.0015     2.4769     0.1189    83.8658    12.0661    10.3874    10.0169    -4.3393
  218.0000     8.2491     0.2339    -0.0016     2.4793     0.1183    73.7041    14.8743    10.3722    10.0062    -4.8876
  218.5000     8.2475     0.2238    -0.0018     2.5213     0.1117    70.0604    17.5196    10.2235     9.9977    -5.2065
  219.0000     8.2459     0.2167    -0.0019     2.5642     0.0756    68.2486    14.4361    10.2123     9.9881    -5.5207
  219.5000     8.2442     0.2144    -0.0021     2.5834     0.0569    86.4852    10.9942    10.0613     9.9785    -5.5414
  220.0000     8.2426     0.2171     0.0227     2.5745     0.0812    93.9645    10.0810    10.0513     9.9681    -5.7199
  220.5000     8.2410     0.2316     0.0365     2.5403     0.1002    93.5643    10.0706     9.9036     9.9594    -6.1764
  221.0000     8.2393     0.2425     0.0301     2.4907     0.1215    91.1598    10.0589     9.7561     9.9498    -6.7870
  221.5000     8.2377     0.2633     0.0122     2.4622     0.1357    91.7160    10.1860     9.7466     9.9385    -7.3994
  222.0000     8.2361     0.2810     0.0150     2.4493     0.1381    92.8521    10.1730     9.7367     9.9301    -8.0156
  222.5000     8.2345     0.2793     0.0267     2.4499     0.1346    93.4024    10.3029     9.6775     9.9212    -8.6256
  223.0000     8.2328     0.2763     0.0298     2.4565     0.1280    93.3609    10.2907     9.5814     9.9117    -8.9744
  223.5000     8.2312     0.2776     0.0115     2.4676     0.1250    93.9181    10.2764     9.5721     9.9007    -9.3688
  224.0000     8.2296     0.2953     0.0022     2.4708     0.1235    91.4964    10.1258     9.5621     9.8923   -10.1690
  224.5000     8.2280     0.2967     0.0034     2.4670     0.1263    90.2763    10.1150     9.5516     9.8832   -10.7790
  225.0000     8.2263     0.2742     0.0193     2.4670     0.1288    90.2367    10.1032     9.5396     9.8178   -11.1440
  225.5000     8.2247     0.2611     0.0347     2.4669     0.1280    89.9408    10.0893     9.5304     9.7287   -11.7071
  226.0000     8.2231     0.2612     0.0447     2.4683     0.1243    88.9648    10.0789     9.5203     9.5881   -12.3223
  226.5000     8.2214     0.2719     0.0405     2.4712     0.1218    87.7448    10.2076     9.5098     9.5792   -12.6365
  227.0000     8.2198     0.2766     0.0230     2.4697     0.1248    89.1479    10.1951     9.3688     9.3802   -13.0177
  227.5000     8.2182     0.2708     0.0015     2.4589     0.1332    91.2130    10.1813     9.3597     9.3012   -13.5651
  228.0000     8.2166     0.2625     0.0162     2.4545     0.1326    91.1670    10.1708     9.3496     9.1668   -14.1798
  228.5000     8.2149     0.2643     0.0249     2.4532     0.1326    91.1304    10.1595     9.3393     9.1581   -14.4970
  229.0000     8.2133     0.2673     0.0252     2.4546     0.1338    92.4339    10.1476     9.3279     9.1493   -14.8915
  229.5000     8.2117     0.2666     0.0098     2.4545     0.1346    94.0493    10.1341     9.1920     9.1396   -15.4231
  230.0000     8.2101     0.2636     0.0005     2.4545     0.1336    97.5111    10.1236     9.1819     9.1317   -15.7415
  230.5000     8.2084     0.2627    -0.0060     2.4544     0.1326    99.3235    10.1122     9.1719     9.1230   -16.0562
  231.0000     8.2068     0.2727    -0.0174     2.4543     0.1320   101.1756    10.1004     9.1609     9.2383   -16.0769
  231.5000     8.2052     0.2828    -0.0003     2.4557     0.1296    96.7913    10.0871     9.1518     9.2304   -16.3972
  232.0000     8.1933     0.2845     0.0141     2.4794     0.1214    93.2044    10.0767     9.0173     9.2223   -16.7114
  232.5000     8.1723     0.2759     0.0204     2.5001     0.1029    92.5761    10.0651     9.0055     9.2135   -17.0266
  233.0000     8.1707     0.2724     0.0251     2.5075     0.1016    95.9408    10.0534     8.9968     9.2031   -17.3432
  233.5000     8.1691     0.2700     0.0264     2.4967     0.1127    98.4018    10.0404     8.9877     9.1953   -17.3672
  234.0000     8.1672     0.2760     0.0233     2.4800     0.1201   100.1403    10.0299     8.9779     9.1870   -17.6813
