~VERSION INFORMATION
 VERS.                2.0:   CWLS LOG ASCII STANDARD - VERSION 2.0
 WRAP.                 NO:   ONE LINE PER DEPTH STEP
~WELL INFORMATION
#MNEM.UNIT      DATA TYPE    INFORMATION
#----------   ------------   ------------------------------
 STRT.F            0.0000:   START DEPTH
 STOP.F         1340.0000:   STOP DEPTH
 STEP.F            0.5000:   STEP LENGTH
 NULL.          -999.2500:   NO VALUE
 COMP. U S NAVY-INTEX OIL:   COMPANY
 WELL. NAVAL PETROLEUM RESERVE 3 S #81-14:   WELL
 FLD .             TEAPOT:   FIELD
 LOC .      S14 T38N R78W:   LOCATION
 CNTY.            NATRONA:   COUNTY
 STAT.            WYOMING:   STATE
 CTRY. UNITED STATES OF AMERICA:   COUNTRY
 SRVC.       Schlumberger:   SERVICE COMPANY
 DATE.        20-AUG-1966:   LOGDATE
 API .       490250971600:   API NUMBER
~CURVE INFORMATION
#MNEM.UNIT       API CODE    CURVE DESCRIPTION
#----------   ------------   ------------------------------
 DEPT.F                  :   
 SPR .MV     07 010 01 00:   SPONTANEOUS POTENTIAL
 CILD.MMHO   07 110 46 00:   CONDUCTIVITY INDUCTION LOG DEEP
 ILD .OHMM   07 120 46 00:   INDUCTION LOG DEEP
 ASN .OHMM   01 041 16 00:   AMPLIFIED SHORT NORMAL 16"
 CALD.IN     45 280 60 00:   CALIPER
 RHOB.G/C3   45 350 01 00:   BULK DENSITY
 DPHI.DEC    45 890 12 00:   DENSITY POROSITY SANDSTONE
 GRD .GAPI   45 310 01 00:   GAMMA RAY FROM DENSITY LOG
 CORR.G/C3   45 356 01 00:   DENSITY CORRECTION
~PARAMETER INFORMATION
#MNEM.UNIT          VALUE    DESCRIPTION
#----------   ------------   ------------------------------
 PD  .                 GL:   PERMANENT DATUM
 EPD .F              5283:   ELEVATION PERMANENT DATUM
 LMF .                 KB:   LOG MEASURED FROM
 DAPD.F                 5:   FEET ABOVE PERMANENT DATUM
 DMF .                 KB:   DRILLING MEASURED FROM
 EKB .F              5288:   KELLING BUSHING
 EGL .F              5283:   GROUND LEVEL
 DATE.            8-20-66:   RUN DATE
 RUN .                  1:   RUN NUMBER
 DD  .F              1340:   DEPTH DRILLER
 DL  .F              1337:   DEPTH LOGGER
 BLI .F              1336:   BOTTOM LOG INTERVAL
 TLI .F                17:   TOP LOG INTERVAL
 CS  .IN            8.625:   CASING SIZE
 CBD .F                15:   CASING BOTTOM DRILLER
 CBL .F                17:   CASING BOTTOM LOGGER
 BS  .IN            7.875:   BIT SIZE
 BSD .F              1340:   BIT SIZE AT DEPTH
 DFT .           GEL-CHEM:   DRILLING FLUID TYPE
 DFD .                9.8:   DRILLING FLUID DENSITY
 DFV .                 70:   DRILLING FLUID VISCOSITY
 DFL .                  8:   DRILLING FLUID LOSS
 MSS .          FLOW LINE:   MUD SAMPLE SOURCE
 RMS .OHMM           1.26:   RESISTIVITY MUD SAMPLE
 MST .F                71:   MUD SAMPLE TEMPERATURE
 RMF .OHMM            .71:   RESISTIVITY MUD FILTRATE SAMPLE
 MFST.F                71:   MUD FILTRATE SAMPLE TEMPERATURE
 MFSS.                  M:   MUD FILTRATE SAMPLE SOURCE
 RMB .OHMM           1.04:   RESISTIVITY MUD AT BHT
 BHT .F                86:   BOTTOM HOLE TEMPERATURE
 TCS .HRS               2:   TIME CURCULATED STOPPED
 MRT .F                86:   MAXIMUM RECORDED TEMPERATURE
 LUN .               3527:   LOGGING UNIT NUMBER
 LUL .               CSPR:   LOGGING UNIT LOCATION
 ENGI.          TOLLEFSON:   RECORDING ENGINEER
 WITN.                MAY:   WITNESSED BY
 CLNT.            A2DTECH:   CLIENT CODE
 ORIG.        2" 5" PRINT:   ORIGIN OF DATA
 UWI .       490250971600:   UNIQUE WELL ID
 DICO. A2D Technologies, Inc.:   DIGITIZING COMPANY
~OTHER INFORMATION
~A    DEPT     SPR       CILD        ILD        ASN         CALD     RHOB       DPHI          GRD     CORR   
# ...
   73.0000   -54.1903   225.5653     4.4411     1.9287     7.9321     2.4565     0.1345    97.8038     0.0630
   73.5000   -54.0220   224.1890     4.4411     2.0076     7.9324     2.4301     0.1320    97.2322     0.0734
   74.0000   -53.8482   222.8126     4.4411     2.0877     7.9327     2.4276     0.1316    96.4179     0.0649
   74.5000   -53.7532   221.4362     4.4411     2.1697     7.9329     2.4293     0.1387    95.6041     0.0598
   75.0000   -53.6784   220.0599     4.4411     2.1763     7.9332     2.4306     0.1462    94.7983     0.0525
   75.5000   -53.6040   221.6779     4.4411     2.1643     7.9335     2.4306     0.1535    93.9853     0.0479
   76.0000   -53.5289   222.6843     4.4411     2.1518     7.9338     2.4162     0.1523    94.3303     0.0539
   76.5000   -53.4568   223.6907     4.4411     2.1613     7.9341     2.4015     0.1499    95.6359     0.0620
   77.0000   -53.5059   224.6971     4.4411     2.1916     7.9343     2.3867     0.1507    96.9586     0.0641
   77.5000   -53.7996   225.7034     4.4411     2.2206     7.9346     2.3825     0.1580    98.2773     0.0569
   78.0000   -54.0903   226.7098     4.4413     2.2536     7.9349     2.3952     0.1679    99.4388     0.0492
   78.5000   -54.3803   227.0459     4.4410     2.4627     7.9352     2.4039     0.1638    98.7960     0.0445
   79.0000   -54.3172   227.0459     4.4013     2.7930     7.9355     2.4128     0.1576    97.8948     0.0425
   79.5000   -54.1875   227.0521     4.3566     3.1367     7.9357     2.4215     0.1513    96.9634     0.0551
   80.0000   -54.0506   228.8196     4.3120     3.4806     7.9360     2.4258     0.1451    96.6874     0.0678
   80.5000   -54.3447   231.8473     4.2674     3.8287     7.9363     2.4139     0.1432    97.6204     0.0552
   81.0000   -54.8605   234.8726     4.2230     4.3249     7.9366     2.4024     0.1535    98.5209     0.0502
   81.5000   -55.3858   238.0240     4.1784     4.7437     7.9368     2.3909     0.1617    99.4201     0.0503
   82.0000   -55.5503   238.2116     4.1227     4.5905     7.9371     2.3795     0.1699   100.3228     0.0539
   82.5000   -55.2025   239.0220     4.0125     4.3333     7.9374     2.3681     0.1781   101.2375     0.0397
   83.0000   -54.8559   240.0200     3.9032     4.0821     7.9377     2.3566     0.1863   100.6820     0.0208
   83.5000   -54.5268   241.3024     3.7933     3.8852     7.9380     2.3450     0.1846    99.9376     0.0277
   84.0000   -53.8464   243.9022     3.7898     4.0646     7.9382     2.3343     0.1818    99.1929     0.0308
   84.5000   -53.3885   246.5020     3.8753     4.3123     7.9385     2.3422     0.1790    98.4513     0.0362
   85.0000   -53.0141   246.8383     3.9623     4.6291     7.9388     2.3520     0.1762    97.7045     0.0403
   85.5000   -53.0185   246.6303     4.0412     4.9414     7.9391     2.3617     0.1734    97.0023     0.0453
   86.0000   -53.3493   246.4224     4.0423     4.9521     7.9393     2.3713     0.1707    96.7437     0.0507
   86.5000   -53.6752   246.2144     4.0419     4.9595     7.9396     2.3810     0.1655    97.6058     0.0559
   87.0000   -53.8059   246.0080     4.0405     4.9935     7.9399     2.3906     0.1605    99.1282     0.0608
   87.5000   -53.8084   243.8338     4.0947     5.0378     7.9402     2.4003     0.1555   100.6568     0.0572
   88.0000   -53.8139   241.1102     4.1598     5.1099     7.9405     2.4099     0.1505   102.1940     0.0465
   88.5000   -53.4911   238.3866     4.2250     5.2151     7.9407     2.4196     0.1455   103.7188     0.0500
   89.0000   -53.0417   235.6630     4.2893     5.2121     7.9410     2.4292     0.1406   104.5544     0.0752
   89.5000   -52.6214   231.8788     4.3459     5.2035     7.9413     2.4389     0.1356   102.1401     0.0811
   90.0000   -52.7488   226.5115     4.4465     5.2402     7.9416     2.4485     0.1306   100.3015     0.0710
   90.5000   -53.2581   221.1460     4.5511     5.3365     7.9419     2.4582     0.1256   101.2201     0.0626
   91.0000   -53.9178   215.7763     4.6551     5.3575     7.9421     2.4679     0.1206   102.3595     0.0668
   91.5000   -54.2403   210.4078     4.7591     5.4071     7.9424     2.4775     0.1148   103.5029     0.0767
   92.0000   -54.3112   205.0422     4.8633     5.5116     7.9427     2.4872     0.1193   104.6455     0.0817
   92.5000   -54.3763   201.0978     4.9669     5.6320     7.9430     2.4971     0.1215   105.7885     0.0755
   93.0000   -54.4440   198.9022     5.0413     5.7529     7.9432     2.4827     0.1182   106.9060     0.0582
   93.5000   -54.5688   197.5339     5.0400     5.8783     7.9435     2.4730     0.1148   106.8115     0.0569
   94.0000   -54.6936   196.1656     5.0400     5.8987     7.9438     2.4993     0.1114   104.8784     0.0621
   94.5000   -54.7995   195.1098     5.0402     5.9091     7.9441     2.5183     0.1096   102.9742     0.0680
   95.0000   -54.5840   194.6307     5.0427     5.9563     7.9443     2.5457     0.1211   101.0536     0.0793
   95.5000   -54.3619   195.8483     4.9478     5.9700     7.9446     2.5198     0.1328   100.1222     0.0760
   96.0000   -54.1430   199.3147     4.8439     5.9057     7.9449     2.4672     0.1440   100.1941     0.0448
   96.5000   -53.9704   202.7811     4.8217     5.8801     7.9452     2.4318     0.1469   102.1811     0.0483
   97.0000   -53.8764   204.6797     4.8037     5.8409     7.9455     2.4019     0.1497   104.1790     0.0533
   97.5000   -53.7768   205.6251     4.7853     5.8042     7.9457     2.4226     0.1506   106.0249     0.0473
   98.0000   -53.6503   206.4197     4.7667     5.7380     7.9460     2.4348     0.1491   105.9400     0.0409
   98.5000   -53.5264   207.0920     4.7478     5.6532     7.9463     2.4330     0.1472   104.4442     0.0549
   99.0000   -53.4124   209.0006     4.7289     5.6193     7.9466     2.4195     0.1453   102.9516     0.0642
   99.5000   -53.4939   212.0752     4.6986     5.6189     7.9469     2.4095     0.1434   101.4624     0.0622
  100.0000   -53.5822   212.0845     4.6688     5.6017     7.9471     2.4131     0.1415    99.9731     0.0518
  100.5000   -53.6695   212.0777     4.6389     5.5771     7.9474     2.4165     0.1396    98.4783     0.0444
  101.0000   -53.7566   212.0731     4.6091     5.5521     7.9477     2.4162     0.1405    96.9326     0.0340
  101.5000   -53.8440   212.0759     4.5792     5.5270     7.9480     2.4134     0.1461    98.4021     0.0428
  102.0000   -53.9314   212.5504     4.5493     5.5021     7.9482     2.4107     0.1516   100.4008     0.0584
  102.5000   -54.0104   214.3954     4.5194     5.4989     7.9485     2.4079     0.1571   101.7856     0.0511
  103.0000   -54.0082   216.2404     4.4895     5.4990     7.9488     2.4050     0.1627   101.3736     0.0387
  103.5000   -54.0080   218.0854     4.4596     5.4995     7.9491     2.4051     0.1570   100.4106     0.0276
  104.0000   -54.0080   219.9305     4.4298     5.4967     7.9494     2.4106     0.1512    99.4527     0.0245
  104.5000   -54.0080   221.7908     4.3999     5.4329     7.9496     2.4163     0.1453    98.4923     0.0337
  105.0000   -54.0080   223.0441     4.3700     5.3681     7.9499     2.4200     0.1404    97.5286     0.0541
  105.5000   -54.0080   224.0543     4.3401     5.3037     7.9502     2.4106     0.1510    96.5601     0.0668
  106.0000   -54.0081   224.4685     4.3102     5.2365     7.9505     2.4013     0.1602    96.7017     0.0702
  106.5000   -54.0082   226.6481     4.2803     5.2145     7.9507     2.3920     0.1715    99.2420     0.0632
  107.0000   -54.0077   228.8148     4.2495     5.2062     7.9510     2.3902     0.1655   101.7528     0.0507
  107.5000   -53.9810   228.8589     4.2688     5.1997     7.9513     2.3980     0.1558   104.2305     0.0514
  108.0000   -53.8995   228.2812     4.3074     5.2277     7.9516     2.4056     0.1452   105.9945     0.0535
  108.5000   -53.8181   227.0459     4.3463     5.3100     7.9519     2.4102     0.1550   103.6124     0.0556
  109.0000   -53.8302   225.8958     4.3851     5.3389     7.9521     2.4103     0.1660   100.9222     0.0604
