~VERSION INFORMATION
 VERS.                2.0:   CWLS LOG ASCII STANDARD - VERSION 2.0
 WRAP.                 NO:   ONE LINE PER DEPTH STEP
~WELL INFORMATION
#MNEM.UNIT      DATA TYPE    INFORMATION
#----------   ------------   ------------------------------
 STRT.F           66.0000:   START DEPTH
 STOP.F         1030.5000:   STOP DEPTH
 STEP.F            0.5000:   STEP LENGTH
 NULL.          -999.2500:   NO VALUE
 COMP. U S NAVY/INTEX OIL CO:   COMPANY
 WELL.      NRP-3 #68S-11:   WELL
 FLD .             TEAPOT:   FIELD
 LOC .      S11 T38N R78W:   LOCATION
 CNTY.            NATRONA:   COUNTY
 STAT.            WYOMING:   STATE
 CTRY. UNITED STATES OF AMERICA:   COUNTRY
 SRVC.       Schlumberger:   SERVICE COMPANY
 DATE.        07-JUL-1962:   LOGDATE
 API .       490250632700:   API NUMBER
~CURVE INFORMATION
#MNEM.UNIT       API CODE    CURVE DESCRIPTION
#----------   ------------   ------------------------------
 DEPT.F                  :   
 SPR .MV     05 010 01 00:   SPONTANEOUS POTENTIAL FROM RES.
 ASN .OHMM   05 041 16 00:   AMPLIFIED SHORT NORMAL 16"
 ILD .OHMM   05 120 46 00:   INDUCTION LOG DEEP
 CILD.MMHO   05 110 46 00:   CONDUCTIVITY INDUCTION LOG DEEP
 GRN .GAPI   35 310 30 00:   GAMMA RAY
 GR  .GAPI   81 310 01 00:   GAMMA RAY
~PARAMETER INFORMATION
#MNEM.UNIT          VALUE    DESCRIPTION
#----------   ------------   ------------------------------
 LMF .                 KB:   LOG MEASURED FROM
 DMF .                 KB:   DRILLING MEASURED FROM
 EKB .F              5226:   KELLING BUSHING
 EGL .F              5221:   GROUND LEVEL
 DATE.           7-7-1962:   RUN DATE
 RUN .                  1:   RUN NUMBER
 DD  .F              1030:   DEPTH DRILLER
 DL  .F              1031:   DEPTH LOGGER
 BLI .F              1030:   BOTTOM LOG INTERVAL
 TLI .F                90:   TOP LOG INTERVAL
 CBD .F                10:   CASING BOTTOM DRILLER
 BS  .IN             6.75:   BIT SIZE
 BSD .F              1030:   BIT SIZE AT DEPTH
 DFT .            GEL-OIL:   DRILLING FLUID TYPE
 DFD .               10.2:   DRILLING FLUID DENSITY
 DFV .                 50:   DRILLING FLUID VISCOSITY
 DFL .                3.6:   DRILLING FLUID LOSS
 RMS .OHMM           5.06:   RESISTIVITY MUD SAMPLE
 MST .F                71:   MUD SAMPLE TEMPERATURE
 RMF .OHMM           4.89:   RESISTIVITY MUD FILTRATE SAMPLE
 MFST.F                71:   MUD FILTRATE SAMPLE TEMPERATURE
 RMC .OHMM           4.85:   RESISTIVITY MUD CAKE
 MCST.F                71:   MUD CAKE SAMPLE TEMPERATURE
 MFSS.                  M:   MUD FILTRATE SAMPLE SOURCE
 MCSS.                  M:   MUD CAKE SAMPLE SOURCE
 RMB .OHMM           4.54:   RESISTIVITY MUD AT BHT
 BHT .F                82:   BOTTOM HOLE TEMPERATURE
 TCS .HRS               1:   TIME CURCULATED STOPPED
 MRT .F                82:   MAXIMUM RECORDED TEMPERATURE
 LUN .               2503:   LOGGING UNIT NUMBER
 LUL .              CSPR.:   LOGGING UNIT LOCATION
 ENGI.             KNOBEL:   RECORDING ENGINEER
 WITN.          JORGENSEN:   WITNESSED BY
 CLNT.            A2DTECH:   CLIENT CODE
 ORIG.      2" & 5" PRINT:   ORIGIN OF DATA
 UWI .       490250632700:   UNIQUE WELL ID
 DICO. A2D Technologies, Inc.:   DIGITIZING COMPANY
~OTHER INFORMATION
~A   DEPT      SPR        ASN        ILD       CILD        GRN          GR  
   66.0000  -999.2500  -999.2500  -999.2500  -999.2500  -999.2500    77.3737
   66.5000  -999.2500  -999.2500  -999.2500  -999.2500  -999.2500    81.0101
   67.0000  -999.2500  -999.2500  -999.2500  -999.2500  -999.2500    81.5977
   67.5000  -999.2500  -999.2500  -999.2500  -999.2500  -999.2500    82.1222
   68.0000  -999.2500  -999.2500  -999.2500  -999.2500  -999.2500    82.5119
   68.5000  -999.2500  -999.2500  -999.2500  -999.2500  -999.2500    81.6866
   69.0000  -999.2500  -999.2500  -999.2500  -999.2500  -999.2500    80.8812
   69.5000  -999.2500  -999.2500  -999.2500  -999.2500  -999.2500    80.0549
   70.0000  -999.2500  -999.2500  -999.2500  -999.2500  -999.2500    78.9378
   70.5000  -999.2500  -999.2500  -999.2500  -999.2500  -999.2500    76.9970
   71.0000  -999.2500  -999.2500  -999.2500  -999.2500  -999.2500    75.0598
   71.5000  -999.2500  -999.2500  -999.2500  -999.2500  -999.2500    76.6884
   72.0000  -999.2500  -999.2500  -999.2500  -999.2500  -999.2500    78.6434
   72.5000  -999.2500  -999.2500  -999.2500  -999.2500  -999.2500    80.6054
   73.0000  -999.2500  -999.2500  -999.2500  -999.2500  -999.2500    81.7450
   73.5000  -999.2500  -999.2500  -999.2500  -999.2500  -999.2500    81.8827
   74.0000  -999.2500  -999.2500  -999.2500  -999.2500  -999.2500    79.9118
   74.5000  -999.2500  -999.2500  -999.2500  -999.2500  -999.2500    78.0102
   75.0000  -999.2500  -999.2500  -999.2500  -999.2500  -999.2500    77.7423
   75.5000  -999.2500  -999.2500  -999.2500  -999.2500  -999.2500    81.3212
   76.0000  -999.2500  -999.2500  -999.2500  -999.2500  -999.2500    84.3419
   76.5000  -999.2500  -999.2500  -999.2500  -999.2500  -999.2500    86.0665
   77.0000  -999.2500  -999.2500  -999.2500  -999.2500  -999.2500    83.6028
   77.5000  -999.2500  -999.2500  -999.2500  -999.2500  -999.2500    79.5013
   78.0000  -999.2500  -999.2500  -999.2500  -999.2500  -999.2500    76.5532
   78.5000  -999.2500  -999.2500  -999.2500  -999.2500  -999.2500    79.5621
   79.0000  -999.2500  -999.2500  -999.2500  -999.2500  -999.2500    82.3942
   79.5000  -999.2500  -999.2500  -999.2500  -999.2500  -999.2500    78.1736
   80.0000  -999.2500  -999.2500  -999.2500  -999.2500  -999.2500    74.0439
   80.5000  -999.2500  -999.2500  -999.2500  -999.2500  -999.2500    70.2809
   81.0000  -999.2500  -999.2500  -999.2500  -999.2500  -999.2500    68.5119
   81.5000  -999.2500  -999.2500  -999.2500  -999.2500  -999.2500    69.1632
   82.0000  -999.2500  -999.2500  -999.2500  -999.2500  -999.2500    71.5886
   82.5000  -999.2500  -999.2500  -999.2500  -999.2500  -999.2500    75.9757
   83.0000  -999.2500  -999.2500  -999.2500  -999.2500  -999.2500    80.3863
   83.5000  -999.2500  -999.2500  -999.2500  -999.2500  -999.2500    85.1707
   84.0000   -56.2926  -999.2500  -999.2500  -999.2500  -999.2500    91.8712
   84.5000   -56.3337  -999.2500  -999.2500  -999.2500  -999.2500    99.2679
   85.0000   -56.3744  -999.2500  -999.2500  -999.2500  -999.2500   109.9820
   85.5000   -56.4162  -999.2500  -999.2500  -999.2500  -999.2500   111.1182
   86.0000   -56.4561  -999.2500  -999.2500  -999.2500  -999.2500   106.0740
   86.5000   -56.6698  -999.2500  -999.2500  -999.2500  -999.2500    99.8290
   87.0000   -56.6752  -999.2500  -999.2500  -999.2500  -999.2500   100.3532
   87.5000   -56.6736  -999.2500  -999.2500  -999.2500  -999.2500   102.7761
   88.0000   -56.6744  -999.2500  -999.2500  -999.2500  -999.2500   104.5684
   88.5000   -56.6730  -999.2500  -999.2500  -999.2500  -999.2500   104.8174
   89.0000   -56.5839  -999.2500  -999.2500  -999.2500  -999.2500   102.7262
   89.5000   -56.4785  -999.2500     5.0998  -999.2500  -999.2500   100.6727
   90.0000   -56.3731  -999.2500     5.2395  -999.2500  -999.2500    98.6257
   90.5000   -56.2382     1.2610     5.9381  -999.2500  -999.2500    98.6031
   91.0000   -56.1006     1.2909     5.8861   178.1437  -999.2500   100.6688
   91.5000   -56.0429     1.3936     5.8254   177.0602  -999.2500   104.1588
   92.0000   -56.0021     1.5445     5.7607   175.9196  -999.2500   107.2527
   92.5000   -55.9616     1.7194     5.6980   175.0071  -999.2500   107.0160
   93.0000   -55.9209     2.9111     5.6356   174.1517  -999.2500   106.9420
   93.5000   -55.8803     4.4089     5.5732   177.5200  -999.2500   108.9505
   94.0000   -55.8396     5.9254     5.5108   182.0110  -999.2500   111.0453
   94.5000   -55.7989     6.2958     5.4484   186.5020  -999.2500   112.3520
   95.0000   -55.7583     6.2171     5.3862   190.9930  -999.2500   107.8163
   95.5000   -55.7176     6.1302     5.3383   195.4840  -999.2500   104.0086
   96.0000   -55.6769     6.0461     5.3389   199.9751  -999.2500   100.3393
   96.5000   -55.6362     5.9623     5.3358   199.8668  -999.2500   101.2927
   97.0000   -55.5956     5.8759     5.4699   194.9428  -999.2500   103.6272
   97.5000   -55.5549     5.8695     5.5944   190.0188  -999.2500   107.1532
   98.0000   -55.5142     5.9092     5.7192   185.0948  -999.2500   110.8159
   98.5000   -55.4735     6.1574     5.8437   180.1708  -999.2500   112.2336
   99.0000   -55.4329     6.3972     5.9681   175.2468  -999.2500   107.3572
   99.5000   -55.3922     6.6369     6.0927   170.3228  -999.2500   102.2518
  100.0000   -55.3514     6.8696     6.2174   165.3988  -999.2500   100.8148
  100.5000   -55.3110     6.9484     6.3415   160.4748  -999.2500   108.6431
  101.0000   -55.2781     7.0056     6.4395   160.8101  -999.2500   115.9347
  101.5000   -55.2706     7.0651     6.4373   163.0187  -999.2500   119.0600
  102.0000   -55.2231     6.9476     6.4252   165.2243  -999.2500   118.2560
  102.5000   -55.1761     6.7686     6.3606   167.4357  -999.2500   113.4884
  103.0000   -55.1292     6.7133     6.2972   169.6442  -999.2500   108.7689
  103.5000   -55.0824     6.7070     6.2340   171.8528  -999.2500   104.0000
  104.0000   -55.0355     6.7014     6.1708   174.0613  -999.2500   103.4036
  104.5000   -54.9887     6.6786     6.1075   176.2698  -999.2500   105.3819
  105.0000   -54.9418     6.5592     6.0443   178.1437  -999.2500   105.8717
  105.5000   -54.8950     6.4405     5.9811   179.6607  -999.2500   105.4504
  106.0000   -54.8481     6.3206     5.9178   182.0072  -999.2500   104.3697
  106.5000   -54.8013     6.3033     5.8546   184.3533  -999.2500   101.4016
  107.0000   -54.7544     6.3340     5.7914   186.7003  -999.2500    98.3717
  107.5000   -54.7077     6.2714     5.7282   189.0469  -999.2500    95.6516
  108.0000   -54.6811     6.1958     5.6648   191.3935  -999.2500    97.2775
  108.5000   -54.6813     6.1200     5.6002   193.7400  -999.2500   100.9710
  109.0000   -54.6813     6.0442     5.5415   196.0866  -999.2500   104.6110
  109.5000   -54.6813     5.9685     5.5289   197.1058  -999.2500   106.9093
  110.0000   -54.6813     5.8917     5.4422   195.4329  -999.2500   107.8154
  110.5000   -54.6813     5.8631     5.4392   192.4218  -999.2500   108.7382
  111.0000   -54.6813     5.9680     5.4390   189.4119  -999.2500   109.6577
  111.5000   -54.6812     6.0748     5.4389   186.3996  -999.2500   108.7483
  112.0000   -54.6811     6.1812     5.4379   183.3885  -999.2500   104.3900
  112.5000   -54.6881     6.2874     5.4450   180.3773  -999.2500   101.3345
  113.0000   -54.4744     6.3936     5.6355   177.3662  -999.2500   102.0558
  113.5000   -54.4856     6.4999     5.8341   174.3551  -999.2500   104.9689
  114.0000   -54.5047     6.6067     6.0319   171.3440  -999.2500   107.9279
  114.5000   -54.5232     6.7130     6.2295   168.3329  -999.2500   108.0519
  115.0000   -54.5418     6.7519     6.4274   165.1697  -999.2500   105.4602
  115.5000   -54.5604     6.7877     6.6249   165.1697  -999.2500   103.6181
  116.0000   -54.5790     6.8238     6.8199   165.1697  -999.2500   102.2153
  116.5000   -54.5976     6.8603     6.8417   165.1697  -999.2500   101.4453
  117.0000   -54.6162     6.8970     6.6109   169.0619  -999.2500   108.1675
  117.5000   -54.6348     6.9322     6.3836   173.2963  -999.2500   113.7800
