~VERSION INFORMATION
 VERS.                2.0:   CWLS LOG ASCII STANDARD - VERSION 2.0
 WRAP.                 NO:   ONE LINE PER DEPTH STEP
~WELL INFORMATION
#MNEM.UNIT      DATA TYPE    INFORMATION
#----------   ------------   ------------------------------
 STRT.F           15.0000:   START DEPTH
 STOP.F          620.0000:   STOP DEPTH
 STEP.F            0.5000:   STEP LENGTH
 NULL.          -999.2500:   NO VALUE
 COMP.       F D SERV INC:   COMPANY
 WELL. NAVAL PETROLEUM RESERVE 3 SX-1 #87-1-10:   WELL
 FLD .             TEAPOT:   FIELD
 LOC .      S10 T38N R78W:   LOCATION
 CNTY.            NATRONA:   COUNTY
 STAT.            WYOMING:   STATE
 CTRY. UNITED STATES OF AMERICA:   COUNTRY
 SRVC.     Atlas Wireline:   SERVICE COMPANY
 DATE.        02-JAN-1991:   LOGDATE
 API .       490252247100:   API NUMBER
~CURVE INFORMATION
#MNEM.UNIT       API CODE    CURVE DESCRIPTION
#----------   ------------   ------------------------------
 DEPT.F                  :   
 GRR .GAPI   07 310 01 00:   GAMMA RAY
 RILD.OHMM   07 120 46 00:   INDUCTION LOG DEEP RESISTIVITY
 RILM.OHMM   07 120 44 00:   INDUCTION LOG MEDIUM RESISTIVITY
~PARAMETER INFORMATION
#MNEM.UNIT          VALUE    DESCRIPTION
#----------   ------------   ------------------------------
 PD  .                 GL:   PERMANENT DATUM
 EPD .F              5239:   ELEVATION PERMANENT DATUM
 LMF .                 KB:   LOG MEASURED FROM
 DAPD.F                10:   FEET ABOVE PERMANENT DATUM
 DMF .                 KB:   DRILLING MEASURED FROM
 EKB .F              5249:   KELLING BUSHING
 EDF .F              5248:   DRILLING FLOOR
 EGL .F              5239:   GROUND LEVEL
 DATE.        02-JAN-1991:   RUN DATE
 RUN .                  1:   RUN NUMBER
 DD  .F               630:   DEPTH DRILLER
 DL  .F               630:   DEPTH LOGGER
 BLI .F               628:   BOTTOM LOG INTERVAL
 CS  .IN            9.625:   CASING SIZE
 CBD .F                40:   CASING BOTTOM DRILLER
 CBL .F                50:   CASING BOTTOM LOGGER
 BS  .IN            8.625:   BIT SIZE
 BSD .F               630:   BIT SIZE AT DEPTH
 DFT .                AIR:   DRILLING FLUID TYPE
 LUN .            HL 6274:   LOGGING UNIT NUMBER
 LUL .             CASPER:   LOGGING UNIT LOCATION
 ENGI.       P. RASMUSSEN:   RECORDING ENGINEER
 WITN.          G. STRONG:   WITNESSED BY
 CLNT.            A2DTECH:   CLIENT CODE
 ORIG.           5" PRINT:   ORIGIN OF DATA
 UWI .       490252247100:   UNIQUE WELL ID
 DICO. A2D Technologies, Inc.:   DIGITIZING COMPANY
~OTHER INFORMATION
~A   DEPT       GRR      RILD       RILM   
# ...
  379.0000   144.6883     6.0906     5.6997
  379.5000   145.2784     6.4355     5.8577
  380.0000   141.6367     6.8000     6.0206
  380.5000   138.0733     7.0433     6.2732
  381.0000   136.2681     7.3334     6.5823
  381.5000   134.4630     7.4852     6.8590
  382.0000   132.6601     7.5880     7.1481
  382.5000   135.6432     7.6917     7.4102
  383.0000   135.6607     7.7968     7.6009
  383.5000   133.5040     7.7941     7.5984
  384.0000   130.7744     7.7921     7.7017
  384.5000   129.6182     7.7899     7.6991
  385.0000   130.8071     7.7874     7.6965
  385.5000   134.6907     7.7853     7.6939
  386.0000   135.5823     7.7295     7.6914
  386.5000   133.1763     7.7274     7.6357
  387.0000   135.5349     7.7254     7.5799
  387.5000   138.3234     7.7770     7.5251
  388.0000   142.1322     7.7748     7.4707
  388.5000   141.2231     7.7727     7.4682
  389.0000   141.5138     7.8245     7.5697
  389.5000   142.1039     7.8768     7.5672
  390.0000   143.8916     7.9845     7.6701
  390.5000   141.7871     8.0930     7.6675
  391.0000   138.1856     8.1476     7.7717
  391.5000   130.3964     7.9775     7.8774
  392.0000   125.8906     7.8115     7.8741
  392.5000   124.9837     7.5232     7.6566
  393.0000   125.5738     6.7509     7.0441
  393.5000   127.6609     6.2113     6.0473
  394.0000   131.2450     5.7545     5.1202
  394.5000   136.6255     5.5190     4.8429
  395.0000   148.0837     5.4795     4.9132
  395.5000   157.0160     5.5161     5.0794
  396.0000   151.2679     5.6302     5.2929
  396.5000   144.6724     5.8719     5.6312
  397.0000   138.9751     6.3293     6.1592
  397.5000   133.5771     6.9232     6.6902
  398.0000   130.5744     7.5206     7.2670
  398.5000   128.4699     8.2834     7.9484
  399.0000   130.5788     8.8133     8.6448
  399.5000   132.9414     8.9959     8.8111
  400.0000   135.0285     9.0558     8.9309
  400.5000   136.8162     9.1163     8.9906
  401.0000   138.8422     9.1148     8.9897
  401.5000   137.9961     9.6317     8.9896
  402.0000   135.2927    10.2523     9.3870
  402.5000   132.5893    10.9315    10.0627
  403.0000   128.6883    11.9283    10.7569
  403.5000   124.4879    13.0485    11.6061
  404.0000   118.1357    14.4727    12.8738
  404.5000   105.0934    16.0525    14.7827
  405.0000    78.3515    17.8046    16.2843
  405.5000    69.3607    19.8851    18.1884
  406.0000    64.2621    22.5182    20.3151
  406.5000    65.4509    24.2943    22.3787
  407.0000    67.2385    26.2104    23.6493
  407.5000    69.3255    26.3871    23.6460
  408.0000    71.7120    26.3621    23.3172
  408.5000    75.2960    26.1931    22.8350
  409.0000    78.8800    26.0072    22.5181
  409.5000    76.4760    25.4677    22.2056
  410.0000    74.6707    24.9394    22.0495
  410.5000    75.9511    24.7624    22.0465
  411.0000    79.4414    24.7574    22.1966
  411.5000    84.2231    24.9255    22.3478
  412.0000    84.8153    25.2664    22.6561
  412.5000    83.6067    25.4368    22.9952
  413.0000    82.4003    25.6081    23.4466
  413.5000    80.5951    25.6028    23.6070
  414.0000    79.0893    25.4199    23.2786
  414.5000    77.5835    24.7209    22.9556
  415.0000    76.3771    24.3762    22.6370
  415.5000    76.0689    23.8706    22.0161
  416.0000    80.0160    23.3754    21.7105
  416.5000    81.4383    23.0494    21.1150
  417.0000    81.1302    22.8858    20.5357
  417.5000    80.8242    23.3611    20.1110
  418.0000    81.7114    23.6820    20.2481
  418.5000    82.3036    24.0070    20.8135
  419.0000    83.4902    24.3367    21.3941
  419.5000    84.6812    24.6708    21.9915
  420.0000    85.2712    24.8371    22.4498
  420.5000    84.9608    25.0045    22.7596
  421.0000    84.6526    25.1730    22.5996
  421.5000    84.3443    25.3426    22.4407
  422.0000    83.3932    25.3362    22.2727
  422.5000    82.2289    25.3311    21.9736
  423.0000    84.0165    24.9778    21.8185
  423.5000    86.7023    24.6295    21.5157
  424.0000    88.1905    24.2861    21.2172
  424.5000    88.1817    23.9347    20.7784
  425.0000    88.1729    23.4235    20.4901
  425.5000    88.1641    23.1225    20.2057
  426.0000    89.9517    22.4866    19.9253
  426.5000    92.9370    22.0202    19.6488
  427.0000    94.1298    21.4147    19.2336
  427.5000    92.2305    20.8258    18.5855
  428.0000    88.7168    20.3938    17.9505
  428.5000    88.1114    19.8330    17.4581
  429.0000    90.4956    19.2877    17.0971
  429.5000    92.5826    18.8876    16.7436
  430.0000    94.6696    18.6156    16.5112
  430.5000    96.7567    18.3445    16.1698
  431.0000    95.8497    18.1075    16.1676
  431.5000    94.0445    18.1038    16.1654
  432.0000    92.5387    18.1001    16.3885
  432.5000    91.6217    18.2230    16.5001
  433.0000    93.4510    18.3458    16.6124
  433.5000    96.4880    18.4695    16.7249
  434.0000    95.1959    18.5940    16.8394
  434.5000    94.4870    18.8483    17.0717
  435.0000    96.3759    18.9753    17.1880
  435.5000    97.5647    18.9714    17.5456
  436.0000    99.0530    18.8367    17.5432
  436.5000   100.2440    18.7022    17.7853
  437.0000    98.7360    18.5694    17.7828
  437.5000    97.8290    18.4376    17.6577
  438.0000    98.7184    18.3068    17.5331
  438.5000   101.7096    18.3031    17.5308
  439.0000   104.7724    18.0478    17.4725
  439.5000   103.2667    18.0442    17.1659
  440.0000    99.8786    17.9161    17.0453
  440.5000    98.0734    17.7889    16.9254
  441.0000    96.2682    17.5408    16.6905
  441.5000    95.9622    17.3999    16.5732
  442.0000    99.2447    17.1726    16.3432
  442.5000   100.1363    17.0508    16.2096
  443.0000    99.8259    16.8130    16.1137
  443.5000    99.8174    16.5785    15.8901
  444.0000   100.1078    16.5752    15.6696
  444.5000   100.0989    16.5718    15.6674
  445.0000   100.7286    16.4542    15.5573
  445.5000   101.5783    16.4509    15.5552
  446.0000   102.1683    16.4475    15.6612
  446.5000   103.9538    16.4441    15.6590
  447.0000   104.5460    16.4552    15.6568
  447.5000   102.4392    16.5516    15.6728
  448.0000   100.3346    16.5474    15.7613
  448.5000    99.1282    16.6598    15.7587
  449.0000    98.8200    16.6556    15.6479
  449.5000    99.1106    16.6522    15.6458
  450.0000    99.4012    16.5340    15.5358
  450.5000    99.7176    16.3034    15.4266
  451.0000   102.0667    16.0761    14.7927
  451.5000   103.8486    15.8987    14.7887
  452.0000   102.9322    15.6529    14.6828
  452.5000   100.8218    15.4020    14.5776
  453.0000    99.0109    15.3968    14.3734
  453.5000    97.1999    15.2696    14.1719
  454.0000    94.7902    15.1738    13.9725
  454.5000    94.8204    14.9602    13.9687
  455.0000    98.5029    14.7496    13.8687
  455.5000   100.1321    14.4417    13.7693
  456.0000    98.6206    14.3373    13.5764
  456.5000    97.7115    14.1355    13.5727
  457.0000    98.2957    13.9365    13.4755
  457.5000    97.6787    13.9317    13.3790
  458.0000    97.0654    13.9260    13.3753
  458.5000    97.9490    14.0191    13.3716
  459.0000    99.4910    14.0133    13.3672
  459.5000   100.9140    14.0085    13.4576
  460.0000    99.9976    13.9073    13.3603
  460.5000   100.5855    13.9026    13.2646
  461.0000   101.7649    13.8979    13.1696
  461.5000   102.3528    13.7974    13.1660
  462.0000   102.9334    13.5906    12.9807
  462.5000   103.5180    13.3181    12.9772
  463.0000   104.1019    13.1307    12.7954
  463.5000   104.4311    12.9459    12.7920
  464.0000   104.9710    12.8523    12.7003
  464.5000   104.6535    12.7593    12.5224
  465.0000   103.4413    12.7550    12.5190
  465.5000   104.0292    12.6628    12.4293
  466.0000   104.6134    12.5712    12.4259
  466.5000   103.3977    12.5660    12.4218
  467.0000   101.5867    12.3891    12.3328
  467.5000   100.3742    12.3850    12.1600
  468.0000   101.5540    12.3808    12.0729
  468.5000   104.2340    12.3766    11.9038
  469.0000   105.7201    12.3725    11.7370
  469.5000   103.9055    12.4089    11.8154
