~VERSION INFORMATION
 VERS.                2.0:   CWLS LOG ASCII STANDARD - VERSION 2.0
 WRAP.                 NO:   ONE LINE PER DEPTH STEP
~WELL INFORMATION
#MNEM.UNIT      DATA TYPE    INFORMATION
#----------   ------------   ------------------------------
 STRT.F           42.0000:   START DEPTH
 STOP.F          866.0000:   STOP DEPTH
 STEP.F            0.5000:   STEP LENGTH
 NULL.          -999.2500:   NO VALUE
 COMP. FENIX & SCISSON INC:   COMPANY
 WELL.      NPR-SX #47-11:   WELL
 FLD .             TEAPOT:   FIELD
 LOC .      S11 T38N R78W:   LOCATION
 CNTY.            NATRONA:   COUNTY
 STAT.            WYOMING:   STATE
 CTRY. UNITED STATES OF AMERICA:   COUNTRY
 SRVC.            Unknown:   SERVICE COMPANY
 DATE.        25-FEB-1978:   LOGDATE
 API .       490251058700:   API NUMBER
~CURVE INFORMATION
#MNEM.UNIT       API CODE    CURVE DESCRIPTION
#----------   ------------   ------------------------------
 DEPT.F                  :   
 SPR .MV     07 010 01 00:   SPONTANEOUS POTENTIAL
 SN  .OHMM   07 040 16 00:   SHORT NORMAL 16'
 ILD .OHMM   07 120 46 00:   INDUCTION LOG DEEP
 CORR.G/C3   45 356 01 00:   DENSITY CORRECTION
 RHOB.G/C3   45 350 01 00:   BULK DENSITY
 DPHI.DEC    45 890 12 00:   DENSITY POROSITY SANDSTONE
 CALD.IN     45 280 60 00:   CALIPER FROM DENSITY LOG
 GRD .GAPI   45 310 01 00:   GAMMA RAY FROM DENSITY LOG
~PARAMETER INFORMATION
#MNEM.UNIT          VALUE    DESCRIPTION
#----------   ------------   ------------------------------
 PD  .                 GL:   PERMANENT DATUM
 EPD .F              5202:   ELEVATION PERMANENT DATUM
 LMF .                 KB:   LOG MEASURED FROM
 DAPD.F                 4:   FEET ABOVE PERMANENT DATUM
 DMF .                 KB:   DRILLING MEASURED FROM
 EKB .F              5206:   KELLING BUSHING
 EGL .F              5202:   GROUND LEVEL
 DATE.            2-25-78:   RUN DATE
 RUN .                  1:   RUN NUMBER
 DD  .F               870:   DEPTH DRILLER
 DL  .F               870:   DEPTH LOGGER
 BLI .F               865:   BOTTOM LOG INTERVAL
 TLI .F                47:   TOP LOG INTERVAL
 CS  .IN            8.625:   CASING SIZE
 CBD .F                40:   CASING BOTTOM DRILLER
 CBL .F                47:   CASING BOTTOM LOGGER
 BS  .IN            7.875:   BIT SIZE
 BSD .F               870:   BIT SIZE AT DEPTH
 DFT .                KCL:   DRILLING FLUID TYPE
 DFD .                8.7:   DRILLING FLUID DENSITY
 DFV .                 35:   DRILLING FLUID VISCOSITY
 DFL .                4.8:   DRILLING FLUID LOSS
 MSS .         CIRCULATED:   MUD SAMPLE SOURCE
 RMS .OHMM            1.5:   RESISTIVITY MUD SAMPLE
 MST .F                70:   MUD SAMPLE TEMPERATURE
 RMF .OHMM            .75:   RESISTIVITY MUD FILTRATE SAMPLE
 MFST.F                74:   MUD FILTRATE SAMPLE TEMPERATURE
 RMC .OHMM            1.8:   RESISTIVITY MUD CAKE
 MCST.F                68:   MUD CAKE SAMPLE TEMPERATURE
 MFSS.              PRESS:   MUD FILTRATE SAMPLE SOURCE
 RMB .OHMM            1.5:   RESISTIVITY MUD AT BHT
 BHT .F                70:   BOTTOM HOLE TEMPERATURE
 TCS .HRS               2:   TIME CURCULATED STOPPED
 MRT .F                70:   MAXIMUM RECORDED TEMPERATURE
 LUN .               2958:   LOGGING UNIT NUMBER
 LUL .               CASP:   LOGGING UNIT LOCATION
 CLNT.            A2DTECH:   CLIENT CODE
 ORIG.        2" 5" PRINT:   ORIGIN OF DATA
 UWI .       490251058700:   UNIQUE WELL ID
 DICO. A2D Technologies, Inc.:   DIGITIZING COMPANY
~OTHER INFORMATION
~A   DEPT      SPR         SN        ILD       CORR       RHOB       DPHI         CALD      GRD   
# ...
  811.5000   -26.7819    10.5295     9.8111     0.0164     2.4921     0.1052     8.9530    89.7194
  812.0000   -26.7440    10.7809     9.9991     0.0139     2.4873     0.1005     8.9536    88.5117
  812.5000   -26.6441    10.9064    10.1908     0.0148     2.4901     0.1048     8.9541    90.2309
  813.0000   -26.5941    10.9600    10.3781     0.0163     2.4860     0.1131     8.9546    88.1937
  813.5000   -26.5939    11.0142    10.4952     0.0075     2.4718     0.1201     8.9551    87.3030
  814.0000   -26.5935    11.0693    10.5433    -0.0016     2.4577     0.1241     8.9556    84.6542
  814.5000   -26.5936    11.1248    10.5916    -0.0071     2.4515     0.1254     8.9561    86.2337
  815.0000   -26.5936    11.1805    10.6402    -0.0036     2.4505     0.1237     8.9566    86.6003
  815.5000   -26.5936    11.2366    10.6889     0.0013     2.4531     0.1177     8.9571    87.3491
  816.0000   -26.5936    11.2929    10.7379     0.0111     2.4657     0.1126     8.9576    88.7305
  816.5000   -26.5936    11.3496    10.7871     0.0197     2.4766     0.1083     8.9581    90.2979
  817.0000   -26.5936    11.4065    10.8366     0.0214     2.4792     0.1053     8.9586    91.3445
  817.5000   -26.5936    11.4636    10.8650     0.0220     2.4841     0.1091     8.9591    92.6065
  818.0000   -26.5936    11.5216    10.8209     0.0200     2.4752     0.1137     8.9596    91.5225
  818.5000   -26.5936    11.5943    10.7855     0.0099     2.4702     0.1195     8.9601    91.6765
  819.0000   -26.5936    11.5555    10.7503     0.0085     2.4616     0.1231     8.9606    89.3998
  819.5000   -26.5935    11.5006    10.7152     0.0089     2.4545     0.1199     8.9611    85.4147
  820.0000   -26.5932    11.4461    10.6803     0.0093     2.4582     0.1170     8.9616    86.3533
  820.5000   -26.5937    11.3920    10.6454     0.0081     2.4518     0.1250     8.9621    88.3275
  821.0000   -26.5965    11.3383    10.6107     0.0041     2.4501     0.1259     8.9626    90.2974
  821.5000   -26.7831    11.2848    10.5761     0.0015     2.4494     0.1255     8.9631    92.2355
  822.0000   -27.3342    11.2315    10.5416     0.0015     2.4497     0.1240     8.9636    92.0697
  822.5000   -27.3919    11.1785    10.5073     0.0013     2.4537     0.1192     8.9641    90.8851
  823.0000   -27.4223    11.1258    10.4744     0.0068     2.4674     0.1117     8.9646    90.0670
  823.5000   -27.4295    11.0732    10.4744     0.0137     2.4779     0.1049     8.9651    90.2218
  824.0000   -27.1926    11.0210    10.4744     0.0191     2.4893     0.1032     8.9656    91.1173
  824.5000   -27.1502    10.9695    10.4744     0.0234     2.4855     0.1080     8.9661    89.0619
  825.0000   -27.0715    10.8436    10.4505     0.0226     2.4794     0.1098     8.9666    88.0144
  825.5000   -26.9926    10.7203    10.3330     0.0216     2.4821     0.1056     8.9671    87.3144
  826.0000   -26.9137    10.5985    10.2169     0.0249     2.4884     0.1045     8.9676    88.5728
  826.5000   -26.8354    10.4780    10.1021     0.0267     2.4879     0.1049     8.9681    90.5291
  827.0000   -26.8042    10.3589     9.9885     0.0282     2.4887     0.1034     8.9686    92.3472
  827.5000   -26.8500    10.2561     9.8763     0.0301     2.4936     0.1022     8.9691    94.6973
  828.0000   -26.8944    10.1812     9.7652     0.0314     2.4934     0.1006     8.9696    92.1681
  828.5000   -26.9404    10.1071     9.6555     0.0308     2.4911     0.1019     8.9701    93.4750
  829.0000   -26.9868    10.0337     9.5470     0.0274     2.4843     0.1105     8.9706    93.8262
  829.5000   -27.1790     9.9610     9.4397     0.0204     2.4774     0.1100     8.9711    91.3450
  830.0000   -27.6290     9.8679     9.3336     0.0170     2.4756     0.1091     8.9716    90.6478
  830.5000   -27.4032     9.7315     9.2287     0.0177     2.4837     0.1022     8.9721    90.3043
  831.0000   -26.8072     9.5970     9.1249     0.0197     2.4873     0.1155     8.9726    88.1916
  831.5000   -27.0074     9.4644     9.0224     0.0216     2.4757     0.1110     8.9732    90.8962
  832.0000   -26.7655     9.3336     8.9210     0.0231     2.4778     0.1051     8.9736    96.0168
  832.5000   -26.4006     9.2037     8.8207     0.0290     2.4867     0.0992     8.9742    93.7992
  833.0000   -26.4015     9.1085     8.7215     0.0415     2.4966     0.0927     8.9747    91.7280
  833.5000   -26.8343     9.0662     8.6231     0.0493     2.5064     0.0920     8.9752    90.3259
  834.0000   -27.2986     9.0224     8.5401     0.0491     2.5052     0.1000     8.9757    89.7959
  834.5000   -27.7544     8.9792     8.5069     0.0421     2.4857     0.1083     8.9762    95.7648
  835.0000   -27.6103     8.9366     8.4738     0.0238     2.4917     0.0945     8.9767    99.9218
  835.5000   -27.2806     8.8942     8.4408     0.0239     2.5023     0.0992     8.9772   101.8148
  836.0000   -26.9603     8.8519     8.4078     0.0241     2.4883     0.1090     8.9777   104.2420
  836.5000   -26.9554     8.8098     8.3749     0.0144     2.4757     0.1105     8.9782   106.4990
  837.0000   -26.9674     8.7680     8.3421     0.0167     2.4755     0.1116     8.9787   106.2233
  837.5000   -26.9055     8.7263     8.2964     0.0185     2.4717     0.1126     8.9792   103.6248
  838.0000   -26.8470     8.6129     8.1787     0.0171     2.4697     0.1099     8.9797   102.7237
  838.5000   -26.7877     8.4423     8.0627     0.0212     2.4782     0.1035     8.9802   101.0238
  839.0000   -26.6358     8.2751     7.9483     0.0269     2.4908     0.0949     8.9807   101.0781
  839.5000   -26.5948     8.1112     7.8355     0.0340     2.5042     0.0877     8.9812   101.6030
  840.0000   -26.5932     7.9505     7.7243     0.0425     2.5152     0.0915     8.9817    99.9503
  840.5000   -26.5935     7.7931     7.6147     0.0446     2.4965     0.1028     8.9822    95.5536
  841.0000   -26.5936     7.6512     7.5067     0.0343     2.4803     0.1084     8.9827    92.4908
  841.5000   -26.5936     7.5915     7.4002     0.0287     2.4776     0.1067     8.9832    96.4755
  842.0000   -26.5935     7.5244     7.2952     0.0291     2.4774     0.1102     8.9837   102.0202
  842.5000   -26.5935     7.4577     7.2198     0.0315     2.4692     0.1152     8.9842    94.4607
  843.0000   -26.5944     7.3917     7.1786     0.0290     2.4598     0.1211     8.9847   105.0878
  843.5000   -26.5945     7.3263     7.1368     0.0235     2.4504     0.1270     8.9852   104.4734
  844.0000   -26.7113     7.2614     7.1047     0.0209     2.4410     0.1328     8.9857   107.0211
  844.5000   -26.9004     7.1972     6.8448     0.0250     2.4381     0.1344     8.9862   104.6490
  845.0000   -27.0908     7.0407     6.6001     0.0353     2.4497     0.1220     8.9867   103.8877
  845.5000   -27.2823     6.8033     6.3628     0.0407     2.4630     0.1118     8.9872   102.6203
  846.0000   -27.4736     6.5740     6.1297     0.0348     2.4764     0.1051     8.9877   102.2290
  846.5000   -27.6637     6.3524     6.0733     0.0285     2.4864     0.1003     8.9882   104.2822
  847.0000   -27.7857     6.3004     6.0733     0.0343     2.4940     0.1000     8.9887   100.5703
  847.5000   -27.7656     6.3000     6.0733     0.0354     2.5043     0.0909     8.9892    97.4224
  848.0000   -27.7486     6.5637     6.3450     0.0434     2.5191     0.0852     8.9897    99.0295
  848.5000   -27.7317     7.0026     6.7275     0.0411     2.5115     0.0906     8.9902    95.2029
  849.0000   -27.7145     7.4721     7.1331     0.0372     2.5043     0.0966     8.9907    92.6776
  849.5000   -27.6975     7.9723     7.5631     0.0317     2.4995     0.1064     8.9912    99.2114
  850.0000   -27.6804     8.5060     8.0190     0.0252     2.4823     0.1114     8.9917    99.2958
  850.5000   -27.6633     8.8698     8.3916     0.0205     2.4780     0.1044     8.9923    97.6900
  851.0000   -27.6462     9.0352     8.3865     0.0223     2.4879     0.0996     8.9928    99.6452
  851.5000   -27.6292     9.0835     8.3761     0.0241     2.4937     0.1003     8.9932    99.9457
