~VERSION INFORMATION
 VERS.                2.0:   CWLS LOG ASCII STANDARD - VERSION 2.0
 WRAP.                 NO:   ONE LINE PER DEPTH STEP
~WELL INFORMATION
#MNEM.UNIT      DATA TYPE    INFORMATION
#----------   ------------   ------------------------------
 STRT.F          700.0000:   START DEPTH
 STOP.F         2111.0000:   STOP DEPTH
 STEP.F            0.5000:   STEP LENGTH
 NULL.          -999.2500:   NO VALUE
 COMP. FENIX & SCISSON INC:   COMPANY
 WELL.    35 SAX 34 #3-34:   WELL
 FLD .             TEAPOT:   FIELD
 LOC .      S34 T39N R78W:   LOCATION
 CNTY.            NATRONA:   COUNTY
 STAT.            WYOMING:   STATE
 CTRY. UNITED STATES OF AMERICA:   COUNTRY
 SRVC.            Unknown:   SERVICE COMPANY
 DATE.        29-MAY-1978:   LOGDATE
 API .       490251061700:   API NUMBER
~CURVE INFORMATION
#MNEM.UNIT       API CODE    CURVE DESCRIPTION
#----------   ------------   ------------------------------
 DEPT.F                  :   
 CALD.IN     45 280 60 00:   CALIPER FROM DENSITY LOG
 GRD .GAPI   45 310 01 00:   GAMMA RAY FROM DENSITY LOG
 RHOB.G/C3   45 350 01 00:   BULK DENSITY
 DPHI.DEC    45 890 00 00:   DENSITY POROSITY
 CORR.G/C3   45 356 01 00:   DENSITY CORRECTION
~PARAMETER INFORMATION
#MNEM.UNIT          VALUE    DESCRIPTION
#----------   ------------   ------------------------------
 PD  .                 GL:   PERMANENT DATUM
 EPD .F              5105:   ELEVATION PERMANENT DATUM
 LMF .                 KB:   LOG MEASURED FROM
 DAPD.F                10:   FEET ABOVE PERMANENT DATUM
 DMF .                 KB:   DRILLING MEASURED FROM
 EKB .F              5115:   KELLING BUSHING
 EGL .F              5105:   GROUND LEVEL
 DATE.          5-29-1978:   RUN DATE
 RUN .                  1:   RUN NUMBER
 DD  .F              2111:   DEPTH DRILLER
 DL  .F              2118:   DEPTH LOGGER
 BLI .F              2110:   BOTTOM LOG INTERVAL
 TLI .F               720:   TOP LOG INTERVAL
 CS  .IN            9.625:   CASING SIZE
 CBD .F               711:   CASING BOTTOM DRILLER
 CBL .F               721:   CASING BOTTOM LOGGER
 BS  .IN             8.75:   BIT SIZE
 BSD .F              2111:   BIT SIZE AT DEPTH
 DFT .                OIL:   DRILLING FLUID TYPE
 TCS .HRS               1:   TIME CURCULATED STOPPED
 LUN .               2958:   LOGGING UNIT NUMBER
 LUL .               CASP:   LOGGING UNIT LOCATION
 ENGI.             MILLER:   RECORDING ENGINEER
 WITN.           MCGINLEY:   WITNESSED BY
 CLNT.            A2DTECH:   CLIENT CODE
 ORIG.           5" PRINT:   ORIGIN OF DATA
 UWI .       490251061700:   UNIQUE WELL ID
 DICO. A2D Technologies, Inc.:   DIGITIZING COMPANY
~OTHER INFORMATION
~A   DEPT     CALD         GRD      RHOB       DPHI       CORR   
# ...
 1310.0000     9.6108    64.5728     2.3676     0.1166     0.2455
 1310.5000     9.5941    65.5687     2.3730     0.1141     0.2455
 1311.0000     9.6270    65.2665     2.3734     0.1137     0.2475
 1311.5000     9.6740    65.0088     2.3739     0.1150     0.2501
 1312.0000     9.6511    65.7507     2.3744     0.1117     0.2528
 1312.5000     9.5926    68.4972     2.3753     0.1101     0.2554
 1313.0000     9.5915    69.6397     2.3779     0.1090     0.2581
 1313.5000     9.6065    67.5631     2.3799     0.1023     0.2608
 1314.0000     9.6683    66.6261     2.3808     0.1055     0.2614
 1314.5000     9.6499    67.4890     2.3897     0.1094     0.2547
 1315.0000     9.6255    68.1877     2.3875     0.1098     0.2470
 1315.5000     9.6012    68.0382     2.3818     0.1079     0.2455
 1316.0000     9.5921    68.4311     2.3799     0.1054     0.2463
 1316.5000     9.6043    69.1634     2.3816     0.1070     0.2507
 1317.0000     9.6171    69.5919     2.3840     0.1097     0.2550
 1317.5000     9.6300    69.5787     2.3830     0.1094     0.2593
 1318.0000     9.6245    69.0136     2.3805     0.1076     0.2636
 1318.5000     9.6135    66.5952     2.3785     0.1136     0.2677
 1319.0000     9.6412    64.2596     2.3776     0.1206     0.2689
 1319.5000     9.6838    62.7931     2.3750     0.1270     0.2703
 1320.0000     9.6388    61.9987     2.3632     0.1250     0.2716
 1320.5000     9.5745    60.0126     2.3528     0.1210     0.2730
 1321.0000     9.5919    58.5571     2.3534     0.1291     0.2722
 1321.5000     9.6101    60.2638     2.3574     0.1369     0.2702
 1322.0000     9.5853    63.1273     2.3471     0.1345     0.2681
 1322.5000     9.5592    65.6110     2.3381     0.1454     0.2679
 1323.0000     9.5518    66.5030     2.3349     0.1465     0.2684
 1323.5000     9.5515    66.1347     2.3284     0.1473     0.2690
 1324.0000     9.5524    65.1900     2.3258     0.1457     0.2693
 1324.5000     9.5853    62.8568     2.3261     0.1389     0.2597
 1325.0000     9.6207    60.4682     2.3296     0.1494     0.2496
 1325.5000     9.6560    59.7143     2.3284     0.1428     0.2434
 1326.0000     9.6914    59.7639     2.3230     0.1374     0.2487
 1326.5000     9.7271    59.9430     2.3298     0.1340     0.2569
 1327.0000     9.7130    60.1229     2.3361     0.1365     0.2571
 1327.5000     9.6919    60.2947     2.3420     0.1353     0.2539
 1328.0000     9.6706    60.2576     2.3422     0.1321     0.2515
 1328.5000     9.6494    59.7458     2.3426     0.1305     0.2515
 1329.0000     9.6285    59.5965     2.3430     0.1301     0.2515
 1329.5000     9.6176    60.7366     2.3433     0.1309     0.2515
 1330.0000     9.6556    61.7906     2.3437     0.1315     0.2515
 1330.5000     9.6928    61.9487     2.3433     0.1321     0.2510
 1331.0000     9.7301    62.2869     2.3411     0.1389     0.2497
 1331.5000     9.7676    65.9497     2.3388     0.1340     0.2484
 1332.0000     9.7426    69.8782     2.3377     0.1289     0.2489
 1332.5000     9.7103    69.7725     2.3461     0.1289     0.2537
 1333.0000     9.6780    69.0552     2.3519     0.1289     0.2586
 1333.5000     9.6501    68.5845     2.3520     0.1289     0.2633
 1334.0000     9.6471    67.9882     2.3522     0.1272     0.2629
 1334.5000     9.6435    64.4884     2.3524     0.1254     0.2623
 1335.0000     9.6399    61.2901     2.3526     0.1236     0.2617
 1335.5000     9.6362    61.7298     2.3527     0.1299     0.2609
 1336.0000     9.6329    63.2966     2.3538     0.1397     0.2596
 1336.5000     9.6127    64.8057     2.3438     0.1441     0.2584
 1337.0000     9.5862    66.3189     2.3307     0.1457     0.2580
 1337.5000     9.5592    67.9763     2.3268     0.1390     0.2598
 1338.0000     9.5329    68.1836     2.3296     0.1298     0.2614
 1338.5000     9.5371    68.0996     2.3376     0.1206     0.2590
 1339.0000     9.5429    68.0222     2.3464     0.1114     0.2548
 1339.5000     9.5492    67.3544     2.3598     0.1022     0.2479
 1340.0000     9.5805    65.3141     2.3729     0.0990     0.2411
 1340.5000     9.6442    63.0479     2.3860     0.1059     0.2343
 1341.0000     9.6516    63.6167     2.3899     0.1125     0.2298
 1341.5000     9.6517    65.4137     2.3841     0.1170     0.2315
 1342.0000     9.6186    65.5185     2.3785     0.1161     0.2347
 1342.5000     9.5573    65.0236     2.3745     0.1145     0.2405
 1343.0000     9.5290    64.9974     2.3741     0.1129     0.2464
 1343.5000     9.5229    65.0000     2.3748     0.1096     0.2475
 1344.0000     9.5172    65.0035     2.3773     0.1059     0.2449
 1344.5000     9.5123    64.9813     2.3799     0.1042     0.2409
 1345.0000     9.5182    64.5328     2.3851     0.1038     0.2395
 1345.5000     9.5242    64.0809     2.3904     0.1026     0.2395
 1346.0000     9.5301    63.6256     2.3925     0.1018     0.2394
 1346.5000     9.5517    63.5378     2.3937     0.1006     0.2439
 1347.0000     9.5788    63.4697     2.3949     0.0994     0.2494
 1347.5000     9.6067    63.4258     2.3960     0.0971     0.2624
 1348.0000     9.5954    64.3204     2.3986     0.0720     0.2759
 1348.5000     9.5688    66.1399     2.4038     0.0727     0.2896
 1349.0000     9.5418    67.9444     2.4191     0.0796     0.2848
 1349.5000     9.5144    68.2995     2.4359     0.0809     0.2774
 1350.0000     9.5361    68.1384     2.4268     0.0898     0.2732
 1350.5000     9.5655    67.0817     2.4222     0.1050     0.2693
 1351.0000     9.5426    66.0646     2.4154     0.1078     0.2677
 1351.5000     9.5024    65.8377     2.3903     0.1140     0.2681
 1352.0000     9.4603    66.2623     2.3791     0.1265     0.2685
 1352.5000     9.4696    66.7092     2.3762     0.1389     0.2689
 1353.0000     9.4924    66.7729     2.3569     0.1455     0.2694
 1353.5000     9.5156    66.0570     2.3364     0.1429     0.2694
 1354.0000     9.5381    65.7070     2.3191     0.1329     0.2808
 1354.5000     9.5339    66.9269     2.3303     0.1234     0.2935
 1355.0000     9.4902    68.0358     2.3439     0.1218     0.2770
 1355.5000     9.4467    68.1464     2.3571     0.1214     0.2570
 1356.0000     9.4238    68.2817     2.3618     0.1202     0.2370
 1356.5000     9.4111    68.4203     2.3630     0.1139     0.2166
 1357.0000     9.4541    68.0271     2.3648     0.1062     0.2146
 1357.5000     9.5016    61.8956     2.3741     0.0960     0.2139
 1358.0000     9.5495    61.9924     2.3871     0.0870     0.2089
 1358.5000     9.5636    61.5812     2.4001     0.0862     0.2026
 1359.0000     9.5496    60.7724     2.4109     0.0998     0.1963
 1359.5000     9.5343    60.1740     2.4087     0.0973     0.1899
 1360.0000     9.5611    59.8089     2.4035     0.0948     0.1881
 1360.5000     9.5877    60.2747     2.3990     0.0922     0.2001
 1361.0000     9.5601    62.9970     2.4039     0.0905     0.2125
 1361.5000     9.5334    63.6230     2.4073     0.0890     0.2246
 1362.0000     9.5068    63.0581     2.4086     0.0875     0.2275
 1362.5000     9.4802    62.5682     2.4100     0.0881     0.2265
 1363.0000     9.4536    62.4115     2.4114     0.0903     0.2254
 1363.5000     9.4273    62.9983     2.4110     0.0960     0.2244
 1364.0000     9.3992    63.2397     2.4058     0.1038     0.2235
 1364.5000     9.4529    63.2992     2.3991     0.0997     0.2259
 1365.0000     9.5153    63.3592     2.3929     0.0970     0.2368
 1365.5000     9.5230    63.3827     2.3946     0.0972     0.2485
 1366.0000     9.5313    61.8860     2.3966     0.0992     0.2576
 1366.5000     9.5134    60.2631     2.3974     0.1034     0.2614
 1367.0000     9.4937    59.2148     2.3956     0.0734     0.2728
 1367.5000     9.4740    59.6385     2.3959     0.0750     0.2840
 1368.0000     9.4543    60.7439     2.4247     0.0704     0.2689
 1368.5000     9.4347    61.7876     2.4382     0.0655     0.2531
 1369.0000     9.4151    61.8739     2.4450     0.0692     0.2419
 1369.5000     9.3960    61.9254     2.4479     0.0725     0.2313
 1370.0000     9.3668    61.9719     2.4420     0.0848     0.2206
 1370.5000     9.3364    61.7109     2.4362     0.0945     0.2099
