~VERSION INFORMATION
 VERS.                2.0:   CWLS LOG ASCII STANDARD - VERSION 2.0
 WRAP.                 NO:   ONE LINE PER DEPTH STEP
~WELL INFORMATION
#MNEM.UNIT      DATA TYPE    INFORMATION
#----------   ------------   ------------------------------
 STRT.F            0.0000:   START DEPTH
 STOP.F         2720.0000:   STOP DEPTH
 STEP.F            0.5000:   STEP LENGTH
 NULL.          -999.2500:   NO VALUE
 COMP. DEPARTMENT OF ENERGY:   COMPANY
 WELL.       NPR-3 #410-A:   WELL
 FLD . TEAPOT NAVAL RESERVE:   FIELD
 LOC .      S20 T39N R78W:   LOCATION
 CNTY.            NATRONA:   COUNTY
 STAT.            WYOMING:   STATE
 CTRY. UNITED STATES OF AMERICA:   COUNTRY
 SRVC.      NL McCullough:   SERVICE COMPANY
 DATE.        26-JUL-1965:   LOGDATE
 API .       490251144500:   API NUMBER
~CURVE INFORMATION
#MNEM.UNIT       API CODE    CURVE DESCRIPTION
#----------   ------------   ------------------------------
 DEPT.F                  :   
 GR  .GAPI   30 310 01 00:   GAMMA RAY
 CALI.IN     30 280 01 00:   CALIPER
~PARAMETER INFORMATION
#MNEM.UNIT          VALUE    DESCRIPTION
#----------   ------------   ------------------------------
 PD  .                 GL:   PERMANENT DATUM
 LMF .                 GL:   LOG MEASURED FROM
 DATE.            7-16-65:   RUN DATE
 RUN .                  1:   RUN NUMBER
 DD  .F              2720:   DEPTH DRILLER
 TLI .F              2100:   TOP LOG INTERVAL
 CS  .IN            6.875:   CASING SIZE
 DFT .              WATER:   DRILLING FLUID TYPE
 ENGI. FITZSIMMONE/COWLTHORPE:   RECORDING ENGINEER
 WITN.             HUDSON:   WITNESSED BY
 CLNT.            A2DTECH:   CLIENT CODE
 ORIG.           5" PRINT:   ORIGIN OF DATA
 UWI .       490251144500:   UNIQUE WELL ID
 DICO. A2D Technologies, Inc.:   DIGITIZING COMPANY
~OTHER INFORMATION
~A    DEPT      GR         CALI 
# ...
 1336.5000  -999.2500     5.8972
 1337.0000  -999.2500     5.8927
 1337.5000  -999.2500     5.8935
 1338.0000  -999.2500     5.9060
 1338.5000  -999.2500     5.9183
 1339.0000  -999.2500     5.9294
 1339.5000  -999.2500     5.9257
 1340.0000  -999.2500     5.9218
 1340.5000  -999.2500     5.9179
 1341.0000  -999.2500     5.9141
 1341.5000  -999.2500     5.9104
 1342.0000  -999.2500     5.8997
 1342.5000  -999.2500     5.8881
 1343.0000  -999.2500     5.8766
 1343.5000  -999.2500     5.8676
 1344.0000  -999.2500     5.8630
 1344.5000  -999.2500     5.8584
 1345.0000  -999.2500     5.8538
 1345.5000  -999.2500     5.8491
 1346.0000  -999.2500     5.8445
 1346.5000  -999.2500     5.8399
 1347.0000  -999.2500     5.8352
 1347.5000  -999.2500     5.8302
 1348.0000  -999.2500     5.8382
 1348.5000  -999.2500     5.8504
 1349.0000  -999.2500     5.8626
 1349.5000  -999.2500     5.8666
 1350.0000  -999.2500     5.8600
 1350.5000  -999.2500     5.8535
 1351.0000  -999.2500     5.8470
 1351.5000  -999.2500     5.8404
 1352.0000  -999.2500     5.8339
 1352.5000  -999.2500     5.8265
 1353.0000  -999.2500     5.8167
 1353.5000  -999.2500     5.8070
 1354.0000  -999.2500     5.7972
 1354.5000  -999.2500     5.7875
 1355.0000  -999.2500     5.7778
 1355.5000  -999.2500     5.7680
 1356.0000  -999.2500     5.7583
 1356.5000  -999.2500     5.7492
 1357.0000  -999.2500     5.7470
 1357.5000  -999.2500     5.7447
 1358.0000  -999.2500     5.7424
 1358.5000  -999.2500     5.7400
 1359.0000  -999.2500     5.7377
 1359.5000  -999.2500     5.7354
 1360.0000  -999.2500     5.7330
 1360.5000  -999.2500     5.7307
 1361.0000  -999.2500     5.7334
 1361.5000  -999.2500     5.7576
 1362.0000  -999.2500     5.7812
 1362.5000  -999.2500     5.8049
 1363.0000  -999.2500     5.8286
 1363.5000  -999.2500     5.8521
 1364.0000  -999.2500     5.8685
 1364.5000  -999.2500     5.8621
 1365.0000  -999.2500     5.8563
 1365.5000  -999.2500     5.8500
 1366.0000  -999.2500     5.8652
 1366.5000  -999.2500     5.8848
 1367.0000  -999.2500     5.9051
 1367.5000  -999.2500     5.9133
 1368.0000  -999.2500     5.9184
 1368.5000  -999.2500     5.9233
 1369.0000  -999.2500     5.9285
 1369.5000  -999.2500     5.9288
 1370.0000  -999.2500     5.9274
 1370.5000  -999.2500     5.9260
 1371.0000  -999.2500     5.9247
 1371.5000  -999.2500     5.9233
 1372.0000  -999.2500     5.9220
 1372.5000  -999.2500     5.9206
 1373.0000  -999.2500     5.9193
 1373.5000  -999.2500     5.9179
 1374.0000  -999.2500     5.9165
 1374.5000  -999.2500     5.9152
 1375.0000  -999.2500     5.9138
 1375.5000  -999.2500     5.9125
 1376.0000  -999.2500     5.9111
 1376.5000  -999.2500     5.9095
 1377.0000  -999.2500     5.8976
 1377.5000  -999.2500     5.8921
 1378.0000  -999.2500     5.9067
 1378.5000  -999.2500     5.9210
 1379.0000  -999.2500     5.9353
 1379.5000  -999.2500     5.9493
 1380.0000  -999.2500     5.9518
 1380.5000  -999.2500     5.9541
 1381.0000  -999.2500     5.9564
 1381.5000  -999.2500     5.9588
 1382.0000  -999.2500     5.9612
 1382.5000  -999.2500     5.9636
 1383.0000  -999.2500     5.9660
 1383.5000  -999.2500     5.9683
 1384.0000  -999.2500     5.9668
 1384.5000  -999.2500     5.9571
 1385.0000  -999.2500     5.9476
 1385.5000  -999.2500     5.9380
 1386.0000  -999.2500     5.9303
 1386.5000  -999.2500     5.9380
 1387.0000  -999.2500     5.9455
 1387.5000  -999.2500     5.9530
 1388.0000  -999.2500     5.9605
 1388.5000  -999.2500     5.9687
 1389.0000  -999.2500     5.9464
 1389.5000  -999.2500     5.9141
 1390.0000  -999.2500     5.9358
 1390.5000  -999.2500     5.9679
 1391.0000  -999.2500     5.9466
 1391.5000  -999.2500     5.9304
 1392.0000  -999.2500     5.9606
 1392.5000  -999.2500     5.9899
 1393.0000  -999.2500     5.9707
 1393.5000  -999.2500     5.9430
 1394.0000  -999.2500     5.9144
 1394.5000  -999.2500     5.9145
 1395.0000  -999.2500     5.9206
 1395.5000  -999.2500     5.9269
 1396.0000  -999.2500     5.9286
 1396.5000  -999.2500     5.9267
 1397.0000  -999.2500     5.9247
 1397.5000  -999.2500     5.9227
 1398.0000  -999.2500     5.9208
 1398.5000  -999.2500     5.9188
 1399.0000  -999.2500     5.9168
 1399.5000  -999.2500     5.9149
 1400.0000  -999.2500     5.9128
 1400.5000  -999.2500     5.9111
 1401.0000  -999.2500     5.9209
 1401.5000  -999.2500     5.9558
 1402.0000  -999.2500     5.9595
 1402.5000  -999.2500     5.9428
 1403.0000  -999.2500     5.9289
 1403.5000  -999.2500     5.9514
 1404.0000  -999.2500     5.9710
 1404.5000  -999.2500     5.9450
 1405.0000  -999.2500     5.9159
 1405.5000  -999.2500     5.9096
 1406.0000  -999.2500     5.9096
 1406.5000  -999.2500     5.9096
 1407.0000  -999.2500     5.9096
 1407.5000  -999.2500     5.9096
 1408.0000  -999.2500     5.9096
 1408.5000  -999.2500     5.9096
 1409.0000  -999.2500     5.9096
 1409.5000  -999.2500     5.9096
 1410.0000  -999.2500     5.9096
 1410.5000  -999.2500     5.9096
 1411.0000  -999.2500     5.9096
 1411.5000  -999.2500     5.9096
 1412.0000  -999.2500     5.9096
 1412.5000  -999.2500     5.9096
 1413.0000  -999.2500     5.9096
 1413.5000  -999.2500     5.9096
 1414.0000  -999.2500     5.9096
 1414.5000  -999.2500     5.9096
 1415.0000  -999.2500     5.9096
 1415.5000  -999.2500     5.9096
 1416.0000  -999.2500     5.9096
 1416.5000  -999.2500     5.9096
 1417.0000  -999.2500     5.9096
 1417.5000  -999.2500     5.9096
 1418.0000  -999.2500     5.9096
 1418.5000  -999.2500     5.9096
 1419.0000  -999.2500     5.9096
 1419.5000  -999.2500     5.9096
 1420.0000  -999.2500     5.9096
 1420.5000  -999.2500     5.9096
 1421.0000  -999.2500     5.9096
 1421.5000  -999.2500     5.9096
 1422.0000  -999.2500     5.9096
 1422.5000  -999.2500     5.9096
 1423.0000  -999.2500     5.9096
 1423.5000  -999.2500     5.9097
 1424.0000  -999.2500     5.9120
 1424.5000  -999.2500     5.9174
 1425.0000  -999.2500     5.9228
 1425.5000  -999.2500     5.9283
 1426.0000  -999.2500     5.9337
 1426.5000  -999.2500     5.9391
 1427.0000  -999.2500     5.9446
 1427.5000  -999.2500     5.9495
 1428.0000  -999.2500     5.9433
 1428.5000  -999.2500     5.9368
 1429.0000  -999.2500     5.9305
 1429.5000  -999.2500     5.9274
 1430.0000  -999.2500     5.9249
 1430.5000  -999.2500     5.9224
 1431.0000  -999.2500     5.9198
 1431.5000  -999.2500     5.9173
 1432.0000  -999.2500     5.9148
 1432.5000  -999.2500     5.9122
 1433.0000  -999.2500     5.9097
 1433.5000  -999.2500     5.9071
 1434.0000  -999.2500     5.9046
 1434.5000  -999.2500     5.9021
 1435.0000  -999.2500     5.8995
 1435.5000  -999.2500     5.8970
 1436.0000  -999.2500     5.8945
 1436.5000  -999.2500     5.8919
 1437.0000  -999.2500     5.8895
 1437.5000  -999.2500     5.8868
 1438.0000  -999.2500     5.8842
 1438.5000  -999.2500     5.8817
 1439.0000  -999.2500     5.8791
 1439.5000  -999.2500     5.8765
 1440.0000  -999.2500     5.8739
 1440.5000  -999.2500     5.8712
 1441.0000  -999.2500     5.8702
 1441.5000  -999.2500     5.8876
 1442.0000  -999.2500     5.9049
 1442.5000  -999.2500     5.9221
 1443.0000  -999.2500     5.9389
 1443.5000  -999.2500     5.9423
 1444.0000  -999.2500     5.9214
 1444.5000  -999.2500     5.9011
 1445.0000  -999.2500     5.8961
 1445.5000  -999.2500     5.9109
 1446.0000  -999.2500     5.9262
 1446.5000  -999.2500     5.9262
 1447.0000  -999.2500     5.9214
 1447.5000  -999.2500     5.9164
 1448.0000  -999.2500     5.9114
 1448.5000  -999.2500     5.9148
 1449.0000  -999.2500     5.9229
 1449.5000  -999.2500     5.9312
 1450.0000  -999.2500     5.9395
 1450.5000  -999.2500     5.9481
 1451.0000  -999.2500     5.9473
 1451.5000  -999.2500     5.9440
 1452.0000  -999.2500     5.9407
 1452.5000  -999.2500     5.9373
 1453.0000  -999.2500     5.9340
 1453.5000  -999.2500     5.9307
 1454.0000  -999.2500     5.9274
 1454.5000  -999.2500     5.9240
 1455.0000  -999.2500     5.9207
 1455.5000  -999.2500     5.9174
 1456.0000  -999.2500     5.9141
 1456.5000  -999.2500     5.9106
 1457.0000  -999.2500     5.9205
 1457.5000  -999.2500     5.9364
