~VERSION INFORMATION
 VERS.                2.0:   CWLS LOG ASCII STANDARD - VERSION 2.0
 WRAP.                 NO:   ONE LINE PER DEPTH STEP
~WELL INFORMATION
#MNEM.UNIT      DATA TYPE    INFORMATION
#----------   ------------   ------------------------------
 STRT.F           20.0000:   START DEPTH
 STOP.F          677.0000:   STOP DEPTH
 STEP.F            0.5000:   STEP LENGTH
 NULL.          -999.2500:   NO VALUE
 COMP. FENIX & SCISSON INC:   COMPANY
 WELL. 11 WI NPR 3 #36-26 SX:   WELL
 FLD .             TEAPOT:   FIELD
 LOC .      S11 T38N R78W:   LOCATION
 CNTY.            NATRONA:   COUNTY
 STAT.            WYOMING:   STATE
 CTRY. UNITED STATES OF AMERICA:   COUNTRY
 SRVC.      Dresser Atlas:   SERVICE COMPANY
 DATE.        06-AUG-1980:   LOGDATE
 API .       490251084100:   API NUMBER
~CURVE INFORMATION
#MNEM.UNIT       API CODE    CURVE DESCRIPTION
#----------   ------------   ------------------------------
 DEPT.F                  :   
 SPR .MV     07 010 01 00:   SPONTANEOUS POTENTIAL
 SFL .OHMM   07 220 01 00:   SHALLOW FOCUSED LOG RESISTIVITY
 ILD .OHMM   07 120 46 00:   INDUCTION LOG DEEP
 ILM .OHMM   07 120 44 00:   INDUCTION LOG MEDIUM
 GRD .GAPI   45 310 01 00:   GAMMA RAY FROM DENSITY LOG
 RHOB.G/C3   45 350 01 00:   BULK DENSITY
 CALD.IN     45 280 60 00:   CALIPER
 CORR.G/C3   45 356 01 00:   DENSITY CORRECTION
 DPOR.DEC    45 890 12 00:   DENSITY POROSITY SANDSTONE
 NPOR.DEC    42 890 03 00:   NEUTRON POROSITY SANDSTONE
~PARAMETER INFORMATION
#MNEM.UNIT          VALUE    DESCRIPTION
#----------   ------------   ------------------------------
 PD  .                 GL:   PERMANENT DATUM
 EPD .F              5191:   ELEVATION PERMANENT DATUM
 LMF .                 KB:   LOG MEASURED FROM
 DAPD.F                 5:   FEET ABOVE PERMANENT DATUM
 DMF .                 KB:   DRILLING MEASURED FROM
 EKB .F              5196:   KELLING BUSHING
 EGL .F              5191:   GROUND LEVEL
 DATE.             8-6-80:   RUN DATE
 RUN .                  1:   RUN NUMBER
 DD  .F               680:   DEPTH DRILLER
 DL  .F               679:   DEPTH LOGGER
 BLI .F               676:   BOTTOM LOG INTERVAL
 TLI .F                20:   TOP LOG INTERVAL
 BS  .IN            7.875:   BIT SIZE
 BSD .F               680:   BIT SIZE AT DEPTH
 DFT .                KCL:   DRILLING FLUID TYPE
 DFD .                9.4:   DRILLING FLUID DENSITY
 DFV .                 45:   DRILLING FLUID VISCOSITY
 DFPH.                 12:   DRILLING FLUID PH
 MSS .           FLOWLINE:   MUD SAMPLE SOURCE
 RMS .OHMM            .11:   RESISTIVITY MUD SAMPLE
 MST .F                65:   MUD SAMPLE TEMPERATURE
 RMF .OHMM             .1:   RESISTIVITY MUD FILTRATE SAMPLE
 MFST.F                60:   MUD FILTRATE SAMPLE TEMPERATURE
 RMC .OHMM            .17:   RESISTIVITY MUD CAKE
 MCST.F                65:   MUD CAKE SAMPLE TEMPERATURE
 MFSS.               MEAS:   MUD FILTRATE SAMPLE SOURCE
 MCSS.              CHART:   MUD CAKE SAMPLE SOURCE
 TCS .HRS              .5:   TIME CURCULATED STOPPED
 MRT .F               100:   MAXIMUM RECORDED TEMPERATURE
 LUN .               6240:   LOGGING UNIT NUMBER
 LUL .               RVTN:   LOGGING UNIT LOCATION
 ENGI.            K. RALL:   RECORDING ENGINEER
 WITN.     AMAND/MCINTYRE:   WITNESSED BY
 CLNT.            A2DTECH:   CLIENT CODE
 ORIG.        2" 5" PRINT:   ORIGIN OF DATA
 UWI .       490251084100:   UNIQUE WELL ID
 DICO. A2D Technologies, Inc.:   DIGITIZING COMPANY
~OTHER INFORMATION
~A   DEPT       SPR       SFL         ILD         ILM      GRD       RHOB       CALD       CORR       DPOR       NPOR   
# ...
  522.5000   -58.8196    14.9181    16.8394    15.2101    80.2059     2.3828     8.1014     0.0191     0.1868     0.2519
  523.0000   -58.9390    14.8990    16.3329    15.1757    79.5983     2.3752     8.0974     0.0078     0.1769     0.2459
  523.5000   -58.9366    15.4374    16.3349    15.7373    81.7982     2.3709     8.0935     0.0073     0.1820     0.2359
  524.0000   -58.9360    15.8923    16.3344    15.8980    83.5095     2.3945     8.0895     0.0215     0.1860     0.2305
  524.5000   -58.8914    15.8997    16.3346    15.8428    83.8567     2.4048     8.0864     0.0310     0.1653     0.2244
  525.0000   -58.6871    15.0262    16.3349    15.8011    84.5468     2.3751     8.0840     0.0182     0.1657     0.2244
  525.5000   -58.4895    15.0367    16.3349    15.7447    85.5424     2.3489     8.0817     0.0017     0.1851     0.2413
  526.0000   -58.2921    15.0367    16.6229    15.8617    84.9180     2.3462     8.0794     0.0168     0.1996     0.2624
  526.5000   -58.1135    15.0367    16.9054    16.0430    82.6629     2.3514     8.0770     0.0188     0.1970     0.2734
  527.0000   -58.0299    15.0374    17.1927    16.2265    79.6894     2.3579     8.0747     0.0175     0.1931     0.2551
  527.5000   -57.9500    15.0339    17.4850    16.4121    76.9785     2.3647     8.0724     0.0132     0.1890     0.2345
  528.0000   -57.6970    15.7366    17.7822    16.5921    77.2437     2.3520     8.0700     0.0033     0.1864     0.2295
  528.5000   -57.4230    16.3387    18.0844    16.7691    81.2271     2.3273     8.0677    -0.0064     0.2002     0.2525
  529.0000   -57.1496    16.3395    18.2492    16.9480    84.1137     2.3012     8.0662    -0.0146     0.2119     0.2603
  529.5000   -56.9399    15.8703    18.2741    17.1289    85.5277     2.2910     8.0650    -0.0144     0.2236     0.2509
  530.0000   -57.0574    15.5178    18.2990    17.3116    86.1400     2.2917     8.0637    -0.0144     0.2313     0.2335
  530.5000   -57.1681    15.3105    18.3240    17.4217    85.8833     2.3071     8.0625    -0.0177     0.2262     0.2151
  531.0000   -57.2785    15.7101    18.3491    16.7274    84.9112     2.3187     8.0612    -0.0189     0.2197     0.2056
  531.5000   -57.3887    16.1121    18.3741    16.2493    84.8830     2.3255     8.0600    -0.0108     0.2133     0.2161
  532.0000   -57.4989    16.5259    18.4105    15.7850    84.8854     2.3493     8.0587    -0.0024     0.2041     0.2330
  532.5000   -57.6092    16.7962    18.1031    15.3339    84.8736     2.3513     8.0575    -0.0016     0.1952     0.2491
  533.0000   -57.7193    16.7912    17.5506    14.8990    84.9566     2.3336     8.0562    -0.0094     0.2005     0.2489
  533.5000   -57.8280    16.7951    17.0162    14.7091    86.6612     2.3165     8.0550    -0.0188     0.2086     0.2485
  534.0000   -57.9422    16.4864    16.4983    14.5229    89.2625     2.3327     8.0537    -0.0126     0.2156     0.2480
  534.5000   -58.2083    16.1958    15.9959    14.3610    89.7303     2.3574     8.0525     0.0090     0.2148     0.2483
  535.0000   -58.4696    15.9119    15.5075    15.0297    89.4801     2.3761     8.0513     0.0130     0.1939     0.2487
  535.5000   -58.7285    15.6329    15.0387    14.8046    89.1821     2.3746     8.0500     0.0099     0.1812     0.2546
  536.0000   -58.9412    15.3589    14.9385    14.5344    90.9582     2.3788     8.0487    -0.0043     0.1801     0.2639
  536.5000   -58.9361    15.2191    14.8219    14.2765    93.2022     2.3857     8.0476    -0.0023     0.1772     0.2681
  537.0000   -58.9361    15.1048    14.7037    14.1038    93.6398     2.3924     8.0498     0.0045     0.1729     0.2540
  537.5000   -58.9363    14.9913    14.6274    14.1638    94.0915     2.4081     8.0562     0.0112     0.1684     0.2540
  538.0000   -58.9185    14.8990    14.7457    14.2140    97.0253     2.4204     8.0625     0.0195     0.1610     0.2630
  538.5000   -58.7795    15.3870    14.9030    14.2644   100.1503     2.3904     8.0616     0.0269     0.1533     0.2703
  539.0000   -58.6413    15.8127    15.0664    14.3149   100.2581     2.3488     8.0338     0.0237     0.1718     0.2641
  539.5000   -58.5694    16.2502    15.4935    14.4282    98.1372     2.3287     8.0070     0.0336     0.1934     0.2616
  540.0000   -58.7717    16.6995    16.7007    15.3937    91.4928     2.3277     7.9801     0.0441     0.2093     0.2598
  540.5000   -58.9670    17.1632    17.9802    16.5368    85.0535     2.3710     7.9608     0.0507     0.2006     0.2493
  541.0000   -59.1301    17.5592    19.3615    17.7649    80.3901     2.4293     7.9508     0.0540     0.1798     0.2333
  541.5000   -59.0218    17.9445    20.1849    19.1007    81.1355     2.5224     7.9407     0.0570     0.1382     0.2210
  542.0000   -58.8692    18.0748    19.8365    19.1007    83.1192     2.5598     7.9307     0.0473     0.0959     0.2088
  542.5000   -58.4744    17.5921    19.1210    18.4255    85.2718     2.4897     7.9206     0.0242     0.0719     0.1966
  543.0000   -58.2910    17.2621    18.4314    17.8263    87.4213     2.4267     7.9106     0.0014     0.1128     0.1939
  543.5000   -58.2200    15.3760    17.7666    16.7986    89.6108     2.3688     7.9053    -0.0029     0.1601     0.2009
  544.0000   -58.1487    14.3511    17.1258    15.5359    91.9596     2.3412     7.9085     0.0086     0.2024     0.2116
  544.5000   -58.1326    14.4689    16.4860    14.8990    94.3126     2.3611     7.9116     0.0216     0.1964     0.2197
  545.0000   -58.1322    14.6494    15.9412    14.9898    96.3641     2.3888     7.9146     0.0408     0.1819     0.2233
  545.5000   -58.1335    14.7660    15.4523    15.0367    96.2335     2.4060     7.9177     0.0622     0.1673     0.2268
  546.0000   -58.0391    14.2847    14.9785    14.7221    94.5164     2.4127     7.9208     0.0573     0.1585     0.2404
  546.5000   -57.8913    13.9625    14.5192    14.4011    92.9796     2.4043     7.9240     0.0470     0.1625     0.2562
  547.0000   -57.7382    13.9114    14.3606    14.0914    93.2888     2.3923     7.9247     0.0318     0.1690     0.2587
  547.5000   -57.7304    13.8640    14.3606    14.0634    94.9994     2.3773     7.9247     0.0177     0.1800     0.2435
  548.0000   -57.6985    13.8168    14.3053    14.0355    96.8255     2.3624     7.9246     0.0126     0.1909     0.2327
  548.5000   -57.6555    13.7698    14.1417    14.0076    97.7415     2.3563     7.9246     0.0111     0.1936     0.2323
  549.0000   -57.6121    13.7229    13.9798    13.9797    97.8369     2.3685     7.9246     0.0251     0.1789     0.2371
  549.5000   -57.5685    13.5862    13.8199    13.8625    97.8913     2.3963     7.9246     0.0432     0.1625     0.2367
  550.0000   -57.5400    13.4327    13.6617    13.6960    98.6993     2.4067     7.9246     0.0396     0.1617     0.2351
  550.5000   -57.6352    13.2809    13.5054    13.5316    99.0195     2.3767     7.9246     0.0246     0.1891     0.2362
  551.0000   -57.7321    13.1309    13.3509    13.3691    98.0706     2.3492     7.9246     0.0090     0.2015     0.2381
  551.5000   -57.8292    12.9826    13.1981    13.2086    97.1775     2.3283     7.9246    -0.0054     0.2138     0.2401
  552.0000   -57.9275    12.8359    13.0471    13.0501    98.0860     2.3075     7.9246    -0.0196     0.2277     0.2496
  552.5000   -57.9325    12.7416    12.9783    12.8924   101.2526     2.2919     7.9246    -0.0257     0.2311     0.2628
  553.0000   -57.9318    12.8943    13.1599    12.8247   102.4950     2.3226     7.9246    -0.0115     0.1983     0.2659
  553.5000   -57.9318    13.0085    13.2960    12.7803    99.6590     2.3682     7.9246     0.0214     0.1739     0.2486
  554.0000   -57.9315    13.1237    13.4334    12.7361    97.7285     2.4034     7.9246     0.0358     0.1647     0.2391
  554.5000   -57.9639    13.2193    13.5725    12.6921    97.7165     2.3779     7.9246     0.0317     0.1868     0.2466
  555.0000   -58.0192    13.1657    13.7129    12.6482    98.0830     2.3618     7.9246     0.0248     0.1908     0.2499
  555.5000   -58.0742    13.0986    13.8421    12.6045    96.4341     2.3560     7.9246     0.0172     0.1931     0.2486
