~VERSION INFORMATION
 VERS.                2.0:   CWLS LOG ASCII STANDARD - VERSION 2.0
 WRAP.                 NO:   ONE LINE PER DEPTH STEP
~WELL INFORMATION
#MNEM.UNIT      DATA TYPE    INFORMATION
#----------   ------------   ------------------------------
 STRT.F           38.5000:   START DEPTH
 STOP.F          606.0000:   STOP DEPTH
 STEP.F            0.5000:   STEP LENGTH
 NULL.          -999.2500:   NO VALUE
 COMP. FENIX & SCISSON INC:   COMPANY
 WELL.      NPR-X3 #185-2:   WELL
 FLD .             TEAPOT:   FIELD
 LOC .       S2 T38N R78W:   LOCATION
 CNTY.            NATRONA:   COUNTY
 STAT.            WYOMING:   STATE
 CTRY. UNITED STATES OF AMERICA:   COUNTRY
 SRVC.            Unknown:   SERVICE COMPANY
 DATE.        30-JAN-1978:   LOGDATE
 API .       490251056200:   API NUMBER
~CURVE INFORMATION
#MNEM.UNIT       API CODE    CURVE DESCRIPTION
#----------   ------------   ------------------------------
 DEPT.F                  :   
 CALD.IN     45 280 60 00:   CALIPER
 GRD .GAPI   45 310 01 00:   GAMMA RAY FROM DENSITY LOG
 CORR.G/C3   45 356 01 00:   DENSITY CORRECTION
 RHOB.G/C3   45 350 01 00:   BULK DENSITY
 DPHI.DEC    45 890 12 00:   DENSITY POROSITY SANDSTONE
 SPR .MV     05 010 01 00:   SPONTANEOUS POTENTIAL FROM RES.
 SN  .OHMM   05 040 16 00:   SHORT NORMAL 16"
 ILD .OHMM   05 120 46 00:   INDUCTION LOG DEEP
~PARAMETER INFORMATION
#MNEM.UNIT          VALUE    DESCRIPTION
#----------   ------------   ------------------------------
 PD  .                 GL:   PERMANENT DATUM
 EPD .F              5134:   ELEVATION PERMANENT DATUM
 LMF .                 KB:   LOG MEASURED FROM
 DAPD.F                 4:   FEET ABOVE PERMANENT DATUM
 DMF .                 KB:   DRILLING MEASURED FROM
 EKB .F              5138:   KELLING BUSHING
 EGL .F              5134:   GROUND LEVEL
 DATE.            1-30-78:   RUN DATE
 RUN .                  1:   RUN NUMBER
 DD  .F               600:   DEPTH DRILLER
 DL  .F               604:   DEPTH LOGGER
 BLI .F               598:   BOTTOM LOG INTERVAL
 TLI .F                40:   TOP LOG INTERVAL
 CS  .IN            8.625:   CASING SIZE
 CBD .F                40:   CASING BOTTOM DRILLER
 CBL .F                41:   CASING BOTTOM LOGGER
 BS  .IN            7.875:   BIT SIZE
 BSD .F               600:   BIT SIZE AT DEPTH
 DFT .                KCL:   DRILLING FLUID TYPE
 DFD .                8.6:   DRILLING FLUID DENSITY
 DFV .                 34:   DRILLING FLUID VISCOSITY
 DFPH.                 10:   DRILLING FLUID PH
 DFL .                  7:   DRILLING FLUID LOSS
 MSS .                PIT:   MUD SAMPLE SOURCE
 RMS .OHMM            .65:   RESISTIVITY MUD SAMPLE
 MST .F                70:   MUD SAMPLE TEMPERATURE
 RMF .OHMM            1.2:   RESISTIVITY MUD FILTRATE SAMPLE
 MFST.F                64:   MUD FILTRATE SAMPLE TEMPERATURE
 MFSS.               MEAS:   MUD FILTRATE SAMPLE SOURCE
 RMB .OHMM            .64:   RESISTIVITY MUD AT BHT
 BHT .F                71:   BOTTOM HOLE TEMPERATURE
 TCS .HRS               3:   TIME CURCULATED STOPPED
 MRT .F                71:   MAXIMUM RECORDED TEMPERATURE
 LUN .               2958:   LOGGING UNIT NUMBER
 LUL .                CAS:   LOGGING UNIT LOCATION
 ENGI.           REYNOLDS:   RECORDING ENGINEER
 WITN.         HARRINGTON:   WITNESSED BY
 CLNT.            A2DTECH:   CLIENT CODE
 ORIG.        2" 5" PRINT:   ORIGIN OF DATA
 UWI .       490251056200:   UNIQUE WELL ID
 DICO. A2D Technologies, Inc.:   DIGITIZING COMPANY
~OTHER INFORMATION
~A   DEPT     CALD        GRD        CORR      RHOB       DPHI        SPR         SN        ILD   
# ...
  200.5000     8.1624    92.4340     0.0837     2.4491     0.1264   -66.0910    11.9515    10.5164
  201.0000     8.1635    92.6851     0.0930     2.4497     0.1271   -66.0217    11.8147    10.4923
  201.5000     8.1645    91.7842     0.0995     2.4488     0.1280   -65.9523    11.6796    10.4598
  202.0000     8.1656    92.7213     0.0994     2.4537     0.1230   -65.8829    11.5472    10.4275
  202.5000     8.1666    93.7884     0.0994     2.4615     0.1178   -65.8135    11.4200    10.3953
  203.0000     8.1676    94.8349     0.0995     2.4653     0.1161   -65.7441    11.0803    10.3631
  203.5000     8.1687    94.1568     0.1042     2.4655     0.1214   -65.6743    10.8102    10.3311
  204.0000     8.1697    93.3331     0.1224     2.4556     0.1268   -65.6058    10.8102    10.2992
  204.5000     8.1708    94.5453     0.1400     2.4476     0.1244   -65.5347    10.8099    10.2673
  205.0000     8.1718    95.6962     0.1435     2.4511     0.1215   -65.7655    10.8102    10.2356
  205.5000     8.1729    96.1469     0.1499     2.4582     0.1196   -66.0871    10.8102    10.1838
  206.0000     8.1739    92.6961     0.1514     2.4638     0.1193   -65.9549    10.8102    10.1287
  206.5000     8.1750    92.5092     0.1356     2.4782     0.1155   -65.8326    10.8103    10.0739
  207.0000     8.1760    93.2149     0.0953     2.4892     0.0883   -65.7105    10.8104    10.0194
  207.5000     8.1771    93.9368     0.0835     2.5137     0.0964   -65.5886    10.8102     9.9652
  208.0000     8.1781    94.4005     0.0716     2.5047     0.1054   -65.4667    10.7442     9.9113
  208.5000     8.1782    94.0680     0.0715     2.4913     0.1073   -65.3446    10.5923     9.8617
  209.0000     8.1782    92.6462     0.0715     2.4806     0.1085   -65.2223    10.4425     9.7228
  209.5000     8.1782    92.3125     0.0677     2.4837     0.1084   -65.1107    10.2948     9.5954
  210.0000     8.1782    95.5763     0.0559     2.4877     0.1078   -65.1087    10.2129     9.4697
  210.5000     8.1782    95.8633     0.0523     2.4845     0.1107   -65.1092    10.1813     9.4059
  211.0000     8.1782    95.5801     0.0499     2.4875     0.1165   -65.1092    10.1498     9.3854
  211.5000     8.1782    98.3323     0.0476     2.4643     0.1199   -65.1084    10.1185     9.3649
  212.0000     8.1782    99.1020     0.0530     2.4627     0.1228   -65.1011    10.0872     9.3415
  212.5000     8.1782    98.9734     0.0593     2.4533     0.1223   -65.4070    10.0560     9.2487
  213.0000     8.1782   100.8451     0.0514     2.4534     0.1205   -65.7673    10.0250     9.1497
  213.5000     8.1782   101.5802     0.0421     2.4617     0.1189   -66.1305     9.9939     9.1029
  214.0000     8.1782   100.1664     0.0420     2.4715     0.1200   -66.2992     9.9630     9.0605
  214.5000     8.1782    99.3485     0.0444     2.4649     0.1211   -66.3026     9.9158     9.0177
  215.0000     8.1782    95.1576     0.0461     2.4588     0.1199   -66.3025     9.8606     8.9749
  215.5000     8.1782    94.6497     0.0470     2.4622     0.1185   -66.3024     9.8057     8.9325
  216.0000     8.1782    93.9730     0.0478     2.4646     0.1209   -66.3024     9.7187     8.9012
  216.5000     8.1782    93.6475     0.0459     2.4604     0.1211   -66.3063     9.5793     8.8784
  217.0000     8.1782    93.6660     0.0439     2.4591     0.1200   -66.0909     9.4419     8.8556
  217.5000     8.1782    93.6706     0.0418     2.4597     0.1218   -65.7908     9.3064     8.8329
  218.0000     8.1782    94.5891     0.0426     2.4595     0.1259   -65.4914     9.1632     8.8103
  218.5000     8.1782    94.4867     0.0449     2.4489     0.1292   -65.3044     9.1632     8.7878
  219.0000     8.1782    94.8406     0.0473     2.4473     0.1279   -65.2363     9.1632     8.7653
  219.5000     8.1782    94.7686     0.0470     2.4499     0.1268   -65.1217     9.1632     8.7527
  220.0000     8.1782    94.6519     0.0458     2.4525     0.1250   -65.1957     9.1632     8.7723
  220.5000     8.1782    95.3846     0.0446     2.4549     0.1229   -65.2628     9.1632     8.7866
  221.0000     8.1783    95.6699     0.0442     2.4498     0.1284   -65.2839     9.1633     8.8008
  221.5000     8.1783    94.0508     0.0459     2.4445     0.1313   -65.2095     9.1639     8.8154
  222.0000     8.1760    92.6305     0.0482     2.4427     0.1320   -65.1348     9.1446     8.8322
  222.5000     8.1603    92.4247     0.0560     2.4435     0.1237   -65.1689     9.0966     8.6912
  223.0000     8.1444    92.1724     0.0682     2.4481     0.1224   -65.2630     9.0487     8.5186
  223.5000     8.1493    92.2316     0.0789     2.4523     0.1213   -65.4289     9.0011     8.3492
  224.0000     8.1663    93.1641     0.0787     2.4611     0.1188   -65.6733     8.8934     8.1832
  224.5000     8.1736    94.7321     0.0777     2.4795     0.1121   -65.9166     8.7805     8.0202
  225.0000     8.1582    95.5821     0.0789     2.4821     0.1092   -66.1591     8.6689     7.8485
  225.5000     8.1564    94.3976     0.0663     2.4863     0.1084   -66.3035     8.5586     7.6762
  226.0000     8.1554    93.5670     0.0656     2.4917     0.1085   -66.3020     8.4504     7.5076
  226.5000     8.1543    94.0779     0.0592     2.4824     0.1130   -66.3014     8.3799     7.4868
  227.0000     8.1531    95.1899     0.0558     2.4707     0.1177   -66.3535     8.3162     7.5268
  227.5000     8.1520    97.1228     0.0590     2.4696     0.1221   -66.4269     8.2528     7.5837
  228.0000     8.1509    99.3623     0.0625     2.4597     0.1203   -66.4995     8.1899     7.6408
  228.5000     8.1498    99.2711     0.0636     2.4594     0.1199   -66.5018     8.1274     7.6962
  229.0000     8.1486    98.7937     0.0635     2.4606     0.1213   -66.4414     8.0578     7.7102
  229.5000     8.1475    97.4915     0.0666     2.4580     0.1217   -66.1428     8.0951     7.7238
  230.0000     8.1464    96.3676     0.0700     2.4572     0.1205   -65.8428     8.1379     7.7374
  230.5000     8.1453    96.8624     0.0712     2.4606     0.1189   -65.5556     8.1810     7.7510
  231.0000     8.1441    95.6209     0.0703     2.4641     0.1179   -65.5138     8.2242     7.7646
  231.5000     8.1430    97.1170     0.0724     2.4656     0.1169   -65.2786     8.2677     7.8191
  232.0000     8.1419    96.4061     0.0751     2.4671     0.1159   -65.2491     8.3114     7.8834
  232.5000     8.1408    98.1690     0.0745     2.4685     0.1149   -65.2022     8.3592     7.9482
  233.0000     8.1393    95.4125     0.0730     2.4688     0.1156   -65.1567     8.4586     8.0135
  233.5000     8.1371    96.0095     0.0717     2.4690     0.1141   -65.1122     8.5689     8.0794
  234.0000     8.1577    91.7718     0.0808     2.4693     0.1111   -65.2250     8.6805     8.1321
  234.5000     8.1583    92.2764     0.0854     2.4695     0.1097   -65.3844     8.8327     8.1321
  235.0000     8.1585    93.6467     0.0870     2.4725     0.1097   -65.6011     8.7832     8.1321
  235.5000     8.1584    95.7543     0.0911     2.4767     0.1066   -65.8167     8.7085     8.1321
  236.0000     8.1584    99.1286     0.0920     2.4810     0.1054   -66.0347     8.6344     8.0985
  236.5000     8.1584    98.3762     0.0846     2.4866     0.1014   -66.1027     8.5609     7.9994
  237.0000     8.1584    96.8931     0.0772     2.4929     0.1037   -66.1038     8.4881     7.9016
  237.5000     8.1584    95.9039     0.0680     2.4983     0.1087   -66.1035     8.4158     7.8047
  238.0000     8.1584    97.3419     0.0594     2.4890     0.1121   -66.1034     8.3442     7.7098
  238.5000     8.1584    97.2086     0.0603     2.4720     0.1162   -66.1037     8.2732     7.6258
  239.0000     8.1584    97.0842     0.0622     2.4623     0.1192   -66.1038     8.2028     7.6331
  239.5000     8.1584   100.4629     0.0641     2.4625     0.1187   -66.1004     8.1321     7.6410
  240.0000     8.1584   101.0526     0.0639     2.4632     0.1190   -65.9546     8.1324     7.6488
  240.5000     8.1584   100.8665     0.0578     2.4601     0.1197   -65.6448     8.2263     7.6567
