~VERSION INFORMATION
 VERS.                2.0:   CWLS LOG ASCII STANDARD - VERSION 2.0
 WRAP.                 NO:   ONE LINE PER DEPTH STEP
~WELL INFORMATION
#MNEM.UNIT      DATA TYPE    INFORMATION
#----------   ------------   ------------------------------
 STRT.F           99.0000:   START DEPTH
 STOP.F          761.5000:   STOP DEPTH
 STEP.F            0.5000:   STEP LENGTH
 NULL.          -999.2500:   NO VALUE
 COMP.          U.S. NAVY:   COMPANY
 WELL. RES 3 TEAPOT DOM #48S-11:   WELL
 FLD .             TEAPOT:   FIELD
 LOC .      S11 T38N R78W:   LOCATION
 CNTY.            NATRONA:   COUNTY
 STAT.            WYOMING:   STATE
 CTRY. UNITED STATES OF AMERICA:   COUNTRY
 SRVC.       Schlumberger:   SERVICE COMPANY
 DATE.        14-JUL-1963:   LOGDATE
 API .       490250632500:   API NUMBER
~CURVE INFORMATION
#MNEM.UNIT       API CODE    CURVE DESCRIPTION
#----------   ------------   ------------------------------
 DEPT.F                  :   
 SPR .MV     05 010 01 00:   SPONTANEOUS POTENTIAL FROM RES.
 ILD .OHMM   05 120 46 00:   INDUCTION LOG DEEP
 CILD.MMHO   05 110 46 00:   CONDUCTIVITY INDUCTION LOG DEEP
 GR  .GAPI   30 310 01 00:   GAMMA RAY
 ASN .OHMM   05 041 16 00:   AMPLIFIED SHORT NORMAL 16"
~PARAMETER INFORMATION
#MNEM.UNIT          VALUE    DESCRIPTION
#----------   ------------   ------------------------------
 PD  .                 GL:   PERMANENT DATUM
 EPD .F              5187:   ELEVATION PERMANENT DATUM
 LMF .                 KB:   LOG MEASURED FROM
 DAPD.F                 5:   FEET ABOVE PERMANENT DATUM
 DMF .                 KB:   DRILLING MEASURED FROM
 EKB .F              5192:   KELLING BUSHING
 EGL .F              5187:   GROUND LEVEL
 DATE.            7-14-63:   RUN DATE
 RUN .                  1:   RUN NUMBER
 DD  .F               762:   DEPTH DRILLER
 DL  .F               761:   DEPTH LOGGER
 BLI .F               760:   BOTTOM LOG INTERVAL
 TLI .F               100:   TOP LOG INTERVAL
 CS  .IN            8.625:   CASING SIZE
 CBD .F                10:   CASING BOTTOM DRILLER
 BS  .IN            7.875:   BIT SIZE
 BSD .F               762:   BIT SIZE AT DEPTH
 DFT .            GEL-OIL:   DRILLING FLUID TYPE
 DFD .                 10:   DRILLING FLUID DENSITY
 DFV .                 55:   DRILLING FLUID VISCOSITY
 DFPH.                9.5:   DRILLING FLUID PH
 DFL .                  4:   DRILLING FLUID LOSS
 MSS .          FLOW LINE:   MUD SAMPLE SOURCE
 RMS .OHMM           3.11:   RESISTIVITY MUD SAMPLE
 MST .F                78:   MUD SAMPLE TEMPERATURE
 RMF .OHMM           2.31:   RESISTIVITY MUD FILTRATE SAMPLE
 MFST.F                78:   MUD FILTRATE SAMPLE TEMPERATURE
 RMC .OHMM           3.82:   RESISTIVITY MUD CAKE
 MCST.F                78:   MUD CAKE SAMPLE TEMPERATURE
 MFSS.                  M:   MUD FILTRATE SAMPLE SOURCE
 MCSS.                  M:   MUD CAKE SAMPLE SOURCE
 TCS .HRS               1:   TIME CURCULATED STOPPED
 LUN .               4507:   LOGGING UNIT NUMBER
 ENGI.             KNOBEL:   RECORDING ENGINEER
 WITN.          JORGENSEN:   WITNESSED BY
 CLNT.            A2DTECH:   CLIENT CODE
 ORIG.       2", 5" PRINT:   ORIGIN OF DATA
 UWI .       490250632500:   UNIQUE WELL ID
 DICO. A2D Technologies, Inc.:   DIGITIZING COMPANY
~OTHER INFORMATION
~A   DEPT      SPR        ILD       CILD         GR        ASN   
# ...
  587.0000   -27.4119     3.9525   256.9637    38.3125     5.6329
  587.5000   -27.4005     3.5616   302.3943    41.6448     5.0861
  588.0000   -26.9408     2.9332   347.8250    45.8688     4.5350
  588.5000   -26.6018     2.5556   383.3040    44.1650     4.0319
  589.0000   -26.6029     2.5196   400.9045    47.1115     3.8485
  589.5000   -26.8164     2.4860   407.5377    52.0419     3.6551
  590.0000   -26.9931     2.4616   406.5327    54.0160     3.5653
  590.5000   -26.9367     2.5195   398.4925    46.2780     3.5047
  591.0000   -26.8846     2.6228   375.6181    45.2144     3.5621
  591.5000   -26.8314     3.1100   340.5126    48.1818     3.7617
  592.0000   -26.8231     3.5846   302.2061    54.9476     4.4502
  592.5000   -26.9429     4.0533   261.5244    63.6659     5.0614
  593.0000   -27.0635     4.5455   221.0640    63.1202     5.2824
  593.5000   -27.1843     5.0768   190.0536    54.2563     5.7798
  594.0000   -27.3048     5.6124   170.8995    49.6206     6.2838
  594.5000   -27.4122     6.1567   160.8241    52.9224     6.6312
  595.0000   -27.3590     6.3110   154.0266    54.5311     6.7249
  595.5000   -27.3025     6.4496   151.2817    62.3338     6.8010
  596.0000   -27.2468     6.4244   155.8593    57.7371     6.8971
  596.5000   -27.2095     6.2439   161.8512    54.9973     6.9984
  597.0000   -27.3747     5.9401   169.9708    53.6724     7.0695
  597.5000   -27.5574     5.6289   178.0905    53.1965     7.0062
  598.0000   -27.7392     5.4105   186.2101    44.6517     6.5153
  598.5000   -27.9221     5.2709   193.8859    41.6624     6.2087
  599.0000   -27.9259     5.1338   197.8263    52.6448     6.1538
  599.5000   -27.7603     4.9970   201.7667    65.6442     6.0837
  600.0000   -27.6145     4.8747   204.5226    58.1519     5.8443
  600.5000   -27.4898     4.8730   204.5226    62.9234     6.0258
  601.0000   -27.3498     4.8756   197.7108    61.7787     6.3201
  601.5000   -27.1445     5.0113   188.3305    62.0070     6.4872
  602.0000   -27.0092     5.4703   178.9503    60.1791     6.6061
  602.5000   -27.2767     5.8589   169.5701    61.5256     6.9195
  603.0000   -27.5663     6.2708   160.2172    62.6304     7.2356
  603.5000   -27.8565     6.5484   151.1593    66.1192     7.5559
  604.0000   -28.1539     6.8260   144.4687    59.5527     7.8690
  604.5000   -28.1716     7.1054   137.7085    63.8035     8.1870
  605.0000   -28.0999     7.3850   132.1608    56.1973     8.5047
  605.5000   -28.0281     7.6644   128.6410    58.5671     8.8212
  606.0000   -27.7963     7.9324   124.1206    50.4330     9.0627
  606.5000   -27.4360     8.1425   121.5980    52.7242     9.1564
  607.0000   -27.0689     8.3571   119.0955    43.9706     9.1621
  607.5000   -27.0071     8.3879   120.0335    52.9302     9.1289
  608.0000   -27.0124     8.2642   122.2848    56.9879     9.0952
  608.5000   -27.3103     8.1366   125.1256    53.4269     8.9320
  609.0000   -28.0227     8.0107   128.1235    59.0416     8.7580
  609.5000   -28.4985     7.8815   131.0179    51.9779     8.5838
  610.0000   -28.8887     7.6384   133.9124    55.5837     8.4100
  610.5000   -28.8818     7.3980   136.8069    60.3456     8.2563
  611.0000   -28.6276     7.1571   139.7014    59.7699     8.1145
  611.5000   -28.2810     6.8881   142.2764    61.9038     7.9707
  612.0000   -27.9081     6.4884   146.0754    62.1388     7.7972
  612.5000   -27.6053     6.0977   156.0302    54.5334     7.5036
  613.0000   -27.7108     5.7025   168.6935    53.6209     7.2199
  613.5000   -27.8241     5.4720   182.5582    56.7374     6.9378
  614.0000   -27.9360     5.1916   200.6281    63.0119     6.6114
  614.5000   -28.0136     4.9063   213.4479    60.7005     6.1933
  615.0000   -27.9787     4.7284   213.5678    58.3896     5.8709
  615.5000   -27.7227     4.5944   209.8627    57.8464     5.9308
  616.0000   -27.8163     4.6721   205.9229    54.0577     6.0825
  616.5000   -28.1783     4.8076   201.9832    56.4754     6.0977
  617.0000   -28.4912     4.9375   196.1876    63.7252     6.3853
  617.5000   -28.7314     5.3897   182.4121    62.4236     7.0603
  618.0000   -28.4921     5.9576   157.5879    65.2966     7.8750
  618.5000   -28.2556     6.6804   132.1608    70.3042     8.2849
  619.0000   -28.2307     7.4504   126.7552    61.9453     8.4366
  619.5000   -28.3308     7.8468   121.3281    59.9396     8.5511
  620.0000   -28.4300     8.0944   117.0854    56.6535     8.5117
  620.5000   -28.8409     8.0904   118.0456    49.1923     8.4594
  621.0000   -29.2704     8.0907   119.2145    52.7596     8.4764
  621.5000   -29.4257     8.0901   120.1005    57.9793     8.7129
  622.0000   -29.0627     8.0882   120.1005    60.1943     8.9334
  622.5000   -28.6410     8.1716   119.0352    58.7135     8.9958
  623.0000   -28.2176     8.2663   118.1308    62.6985     9.0989
  623.5000   -27.7961     8.3586   117.0349    58.0829     9.2211
  624.0000   -27.4026     8.2150   120.1963    63.3262     9.2284
  624.5000   -27.1889     7.9304   127.8291    60.2732     9.1918
  625.0000   -27.0091     7.4972   136.1809    61.0360     9.0907
  625.5000   -27.0979     7.0580   142.0474    61.9179     8.9162
  626.0000   -27.2001     6.9185   145.4593    63.5722     8.5974
  626.5000   -27.3010     6.8358   147.4854    66.4810     8.1199
  627.0000   -27.4056     6.6745   149.5116    66.8767     7.9935
  627.5000   -27.6274     6.5172   151.5377    67.4372     7.8228
  628.0000   -27.7255     6.3762   153.9038    71.0200     7.4204
  628.5000   -27.8212     6.2688   158.2455    64.4322     7.4370
  629.0000   -27.4674     6.1491   162.5872    59.5541     7.9809
  629.5000   -27.0268     6.0356   167.6633    57.8471     7.9463
  630.0000   -27.0010     5.8373   172.3618    48.1002     7.7049
  630.5000   -26.8464     5.7774   170.0871    55.3865     7.3120
  631.0000   -26.4663     5.9156   164.8342    65.3880     6.9366
  631.5000   -26.5046     6.1482   164.7276    68.6590     6.9476
  632.0000   -26.7599     6.0528   165.7407    64.9155     7.0507
  632.5000   -27.0121     6.0001   166.3317    54.6456     6.9694
  633.0000   -27.2168     6.1033   159.5410    59.9891     7.2024
  633.5000   -27.2955     6.5346   150.2546    58.8302     7.7211
  634.0000   -27.3798     6.9796   141.1725    59.4931     8.2040
  634.5000   -27.3563     7.4229   134.4603    59.5661     8.2822
  635.0000   -27.2376     7.6062   128.3819    61.0933     8.3462
  635.5000   -27.1210     7.7416   125.1256    62.9797     8.4118
  636.0000   -26.9899     7.5486   131.1558    57.6731     8.4724
  636.5000   -26.5749     7.0446   145.9844    42.7335     8.4876
  637.0000   -26.1672     6.3823   159.7733    45.8243     8.4128
  637.5000   -25.8044     5.7817   173.5623    48.8093     8.2164
  638.0000   -25.6878     5.5276   181.6784    47.4341     7.5345
  638.5000   -25.5621     5.3639   185.4271    57.7038     6.8500
  639.0000   -25.4267     5.3182   188.0804    61.2083     6.5532
  639.5000   -25.6797     5.2695   190.9749    53.5697     6.5799
  640.0000   -26.0101     5.2165   193.4673    59.8061     6.4492
  640.5000   -25.8675     5.1702   190.2197    62.7236     6.3373
  641.0000   -25.8120     5.4611   180.4020    63.8717     6.8314
  641.5000   -26.1264     6.0186   165.4991    66.1593     7.4261
  642.0000   -26.4053     6.5778   149.8439    64.0428     7.9035
  642.5000   -26.1098     7.1853   137.6976    65.9726     8.1460
  643.0000   -25.8200     7.7432   130.9012    62.9467     8.5719
  643.5000   -26.0230     8.0761   124.1474    55.9145     9.1073
  644.0000   -26.2041     8.4383   118.8086    57.0151     9.4045
  644.5000   -26.0579     8.7828   115.5852    53.7432     9.6906
  645.0000   -26.0158     8.8612   112.9015    56.2461     9.8967
  645.5000   -26.3128     8.9394   112.1511    51.8426     9.9822
  646.0000   -26.6011     9.0195   111.4007    40.5046    10.0695
  646.5000   -26.5263     9.0945   110.6503    49.4129    10.1222
  647.0000   -26.3999     9.0795   109.8999    61.0493    10.1808
  647.5000   -26.2728     9.0597   109.1495    60.6432    10.2389
