~VERSION INFORMATION
 VERS.                2.0:   CWLS LOG ASCII STANDARD - VERSION 2.0
 WRAP.                 NO:   ONE LINE PER DEPTH STEP
~WELL INFORMATION
#MNEM.UNIT      DATA TYPE    INFORMATION
#----------   ------------   ------------------------------
 STRT.F           16.0000:   START DEPTH
 STOP.F          661.0000:   STOP DEPTH
 STEP.F            0.5000:   STEP LENGTH
 NULL.          -999.2500:   NO VALUE
 COMP. FENIX & SCISSON INC:   COMPANY
 WELL.  26-66 SX 11 #I-11:   WELL
 FLD .             TEAPOT:   FIELD
 LOC .      S11 T38N R78W:   LOCATION
 CNTY.            NATRONA:   COUNTY
 STAT.            WYOMING:   STATE
 CTRY. UNITED STATES OF AMERICA:   COUNTRY
 SRVC.      Dresser Atlas:   SERVICE COMPANY
 DATE.        22-JUL-1980:   LOGDATE
 API .       490251083200:   API NUMBER
~CURVE INFORMATION
#MNEM.UNIT       API CODE    CURVE DESCRIPTION
#----------   ------------   ------------------------------
 DEPT.F                  :   
 SFL .OHMM   07 220 01 00:   SHALLOW FOCUSED LOG RESISTIVITY
 ILD .OHMM   07 120 46 00:   INDUCTION LOG DEEP
 ILM .OHMM   07 120 44 00:   INDUCTION LOG MEDIUM
 SPR .MV     07 010 01 00:   SPONTANEOUS POTENTIAL
 CALD.IN     45 280 60 00:   CALIPER
 GRD .GAPI   45 310 01 00:   GAMMA RAY FROM DENSITY LOG
 RHOB.G/C3   45 350 01 00:   BULK DENSITY
 CORR.G/C3   45 356 01 00:   DENSITY CORRECTION
 DPHI.DEC    45 890 12 00:   DENSITY POROSITY SANDSTONE
 NPHI.DEC    42 890 03 00:   NEUTRON POROSITY SANDSTONE
~PARAMETER INFORMATION
#MNEM.UNIT          VALUE    DESCRIPTION
#----------   ------------   ------------------------------
 PD  .                 GL:   PERMANENT DATUM
 EPD .F              5193:   ELEVATION PERMANENT DATUM
 LMF .                 KB:   LOG MEASURED FROM
 DAPD.F                 5:   FEET ABOVE PERMANENT DATUM
 DMF .                 KB:   DRILLING MEASURED FROM
 EKB .F              5198:   KELLING BUSHING
 EDF .F              5196:   DRILLING FLOOR
 EGL .F              5193:   GROUND LEVEL
 DATE.            7-22-80:   RUN DATE
 RUN .                  1:   RUN NUMBER
 DD  .F               655:   DEPTH DRILLER
 DL  .F               655:   DEPTH LOGGER
 BLI .F               653:   BOTTOM LOG INTERVAL
 TLI .F                20:   TOP LOG INTERVAL
 BS  .IN            7.875:   BIT SIZE
 BSD .F               655:   BIT SIZE AT DEPTH
 DFT .                KCL:   DRILLING FLUID TYPE
 DFD .                9.1:   DRILLING FLUID DENSITY
 DFV .                 46:   DRILLING FLUID VISCOSITY
 DFPH.                 11:   DRILLING FLUID PH
 DFL .                  6:   DRILLING FLUID LOSS
 MSS .           FLOWLINE:   MUD SAMPLE SOURCE
 RMS .OHMM            .17:   RESISTIVITY MUD SAMPLE
 MST .F                75:   MUD SAMPLE TEMPERATURE
 RMF .OHMM            .13:   RESISTIVITY MUD FILTRATE SAMPLE
 MFST.F                75:   MUD FILTRATE SAMPLE TEMPERATURE
 RMC .OHMM            .26:   RESISTIVITY MUD CAKE
 MCST.F                75:   MUD CAKE SAMPLE TEMPERATURE
 MFSS.                  C:   MUD FILTRATE SAMPLE SOURCE
 MCSS.                  C:   MUD CAKE SAMPLE SOURCE
 TCS .HRS               1:   TIME CURCULATED STOPPED
 LUN .               6240:   LOGGING UNIT NUMBER
 LUL .               RVTN:   LOGGING UNIT LOCATION
 ENGI.   K. RALL/J. GETTY:   RECORDING ENGINEER
 WITN.            RHOADES:   WITNESSED BY
 CLNT.            A2DTECH:   CLIENT CODE
 ORIG.        2" 5" PRINT:   ORIGIN OF DATA
 UWI .       490251083200:   UNIQUE WELL ID
 DICO. A2D Technologies, Inc.:   DIGITIZING COMPANY
~OTHER INFORMATION
~A   DEPT      SFL        ILD        ILM        SPR       CALD        GRD       RHOB       CORR         DPHI     NPHI   
# ...
  552.0000    10.4224    10.9444    10.5787   -46.2773     7.7606    92.5750     2.4826     0.0801     0.1168     0.2681
  552.5000    10.2394    10.7894    10.4567   -46.1967     7.7606    90.3706     2.4868     0.0917     0.1136     0.2711
  553.0000    10.0596    10.6367    10.3361   -46.0576     7.7606    90.6028     2.4960     0.0909     0.1104     0.2701
  553.5000     9.9777    10.4862    10.2572   -45.9199     7.7606    91.9631     2.4927     0.0836     0.1156     0.2617
  554.0000    10.0408    10.4479    10.3966   -45.7809     7.7606    94.2839     2.4595     0.0484     0.1394     0.2557
  554.5000    10.1578    10.5494    10.5018   -45.5685     7.7604    95.9869     2.4044     0.0366     0.1632     0.2559
  555.0000    10.2761    10.6422    10.6081   -44.9695     7.7593    96.3810     2.4113     0.0365     0.1621     0.2604
  555.5000    10.3959    10.9995    10.7155   -44.3726     7.7581    96.9424     2.4200     0.0366     0.1546     0.2543
  556.0000    10.7158    11.3652    11.0899   -43.7767     7.7570    98.2897     2.4184     0.0298     0.1609     0.2464
  556.5000    11.1629    11.7430    11.5620   -43.1810     7.7558    97.7820     2.4011     0.0182     0.1705     0.2374
  557.0000    11.6267    12.1334    12.0543   -42.5848     7.7547    96.1842     2.3921     0.0108     0.1721     0.2325
  557.5000    12.1206    13.3262    12.5632   -42.0123     7.7536    93.2381     2.3896     0.0122     0.1733     0.2298
  558.0000    12.9762    14.8828    13.7920   -41.4678     7.7524    94.7519     2.3876     0.0203     0.1761     0.2217
  558.5000    14.4579    16.5588    15.4129   -40.9166     7.7513    99.0548     2.3707     0.0296     0.1885     0.2180
  559.0000    16.1001    18.3089    17.2256   -40.0940     7.7502   100.4325     2.3437     0.0390     0.2094     0.2357
  559.5000    17.9282    20.7492    19.2532   -39.6406     7.7490    94.3320     2.3168     0.0467     0.2218     0.2707
  560.0000    19.9639    23.5143    21.6785   -39.2174     7.7479    90.3996     2.2968     0.0382     0.2373     0.2956
  560.5000    22.2306    27.2437    24.3405   -39.1345     7.7467    87.8514     2.2658     0.0232     0.2539     0.2742
  561.0000    22.7044    26.9793    26.0034   -39.0623     7.7456    84.2368     2.2452     0.0089     0.2576     0.2715
  561.5000    22.8576    26.3169    25.4534   -39.0215     7.7445    79.2116     2.2476     0.0212     0.2443     0.2693
  562.0000    22.1670    25.6905    24.1867   -39.2379     7.7433    77.0485     2.2789     0.0362     0.2305     0.2597
  562.5000    21.0745    25.0790    20.6428   -39.4499     7.7422    77.2314     2.3027     0.0440     0.2185     0.2398
  563.0000    20.0359    24.4820    20.6569   -39.6605     7.7411    76.3975     2.3163     0.0333     0.2169     0.2524
  563.5000    19.0484    23.9348    20.1509   -39.8710     7.7404    74.8575     2.3159     0.0169     0.2174     0.2619
  564.0000    18.1096    22.8848    19.6497   -40.0784     7.7404    74.6292     2.3150     0.0046     0.2170     0.2715
  564.5000    17.8250    21.9234    19.0932   -40.2052     7.7404    78.3517     2.3343     0.0191     0.2049     0.2783
  565.0000    17.6779    21.1445    18.5537   -40.1421     7.7404    80.6945     2.3538     0.0401     0.1931     0.2822
  565.5000    17.5419    20.4412    18.3353   -40.0829     7.7404    80.2890     2.3731     0.0613     0.1814     0.3092
  566.0000    17.4070    19.9081    18.1051   -40.0212     7.7404    80.6307     2.3875     0.0724     0.1757     0.3031
  566.5000    17.3392    19.8523    17.9266   -39.9128     7.7404    84.3978     2.3790     0.0633     0.1813     0.2974
  567.0000    17.3392    19.8005    17.7993   -39.7488     7.7404    87.7172     2.3678     0.0534     0.1860     0.2952
  567.5000    17.3392    19.7507    17.6616   -39.3180     7.7404    85.8375     2.3706     0.0444     0.1857     0.3144
  568.0000    17.3392    19.7252    17.7446   -38.8890     7.7404    82.6174     2.3763     0.0399     0.1813     0.3155
  568.5000    17.3392    19.7051    17.8362   -38.4681     7.7404    82.7523     2.3493     0.0305     0.1983     0.3026
  569.0000    17.1329    19.6654    17.9300   -38.4373     7.7404    88.4663     2.3247     0.0144     0.2111     0.2890
  569.5000    16.8517    19.6258    17.9894   -39.0419     7.7404    90.7917     2.3117     0.0067     0.2206     0.2716
  570.0000    16.5588    19.5863    17.5908   -39.5975     7.7404    89.2527     2.3263     0.0234     0.2068     0.2649
  570.5000    16.8386    19.5447    17.3392   -39.4608     7.7404    87.0490     2.3656     0.0453     0.1812     0.2709
  571.0000    17.1414    19.5447    17.4919   -39.2047     7.7404    87.5360     2.3748     0.0473     0.1824     0.2801
  571.5000    17.3392    19.4601    17.6727   -39.0218     7.7402    89.2996     2.3462     0.0354     0.1960     0.2864
  572.0000    17.1306    19.2248    17.6771   -39.2707     7.7523    91.5322     2.3192     0.0209     0.2095     0.2692
  572.5000    16.9155    18.9915    17.2539   -39.4707     7.7678    92.5577     2.3121     0.0071     0.2194     0.2551
  573.0000    16.7031    18.7612    17.0580   -39.6217     7.7795    89.5377     2.3147     0.0073     0.2168     0.2499
  573.5000    16.4934    18.5339    16.8553   -39.5440     7.7696    85.6945     2.3266     0.0091     0.2142     0.2478
  574.0000    16.4070    18.3094    16.6550   -39.4627     7.7600    81.7667     2.3482     0.0212     0.2035     0.2468
  574.5000    16.2566    18.0863    16.4570   -39.5792     7.7506    80.6972     2.3587     0.0344     0.1935     0.2534
  575.0000    16.0336    17.8736    16.2614   -39.8106     7.7411    80.6215     2.3609     0.0426     0.1904     0.2620
  575.5000    15.8123    17.4220    16.1076   -39.7489     7.7315    81.1157     2.3618     0.0425     0.1904     0.2752
  576.0000    15.5940    17.0403    15.8839   -39.6960     7.7218    83.5832     2.3682     0.0443     0.1887     0.2895
  576.5000    15.3788    16.6630    15.6647   -39.6412     7.7248    87.2178     2.3833     0.0534     0.1785     0.2943
  577.0000    15.1665    16.2945    15.4485   -39.8154     7.7302    90.8822     2.3983     0.0562     0.1677     0.2987
  577.5000    14.9570    15.9341    15.2353   -40.1890     7.7357    94.5485     2.3996     0.0394     0.1677     0.2927
  578.0000    14.7501    15.5816    15.0250   -40.5657     7.7412    97.7206     2.3665     0.0212     0.1873     0.2864
  578.5000    14.5545    15.4549    14.8262   -40.9372     7.7467    97.0345     2.3440     0.0108     0.1991     0.2929
  579.0000    14.5556    15.2966    14.8262   -41.2524     7.7522    91.2402     2.3507     0.0121     0.1930     0.2965
  579.5000    14.5556    15.1399    14.8262   -40.8047     7.7576    89.1019     2.3701     0.0230     0.1858     0.2976
  580.0000    14.5556    14.9848    14.8262   -40.2483     7.7587    88.2986     2.3876     0.0353     0.1776     0.2844
  580.5000    14.5610    14.9634    14.8262   -40.0237     7.7500    90.1963     2.3868     0.0477     0.1769     0.2915
  581.0000    14.4254    14.9634    14.6903   -40.0690     7.7415    93.3443     2.3883     0.0604     0.1753     0.2939
  581.5000    14.0379    15.1018    14.5091   -40.3526     7.7331    95.3388     2.3999     0.0658     0.1621     0.2923
  582.0000    13.7731    15.9226    14.4221   -41.1458     7.7246    95.8223     2.4255     0.0594     0.1633     0.2506
  582.5000    14.2899    16.9110    15.5715   -42.0412     7.7203    96.1039     2.4547     0.0495     0.1355     0.2307
  583.0000    16.0919    17.1803    16.9518   -42.9363     7.7203    97.0343     2.4856     0.0446     0.1176     0.2169
  583.5000    17.9436    16.5963    17.9900   -43.4578     7.7203    97.9531     2.5297     0.0481     0.0958     0.2081
  584.0000    20.6704    16.2162    16.6976   -43.4113     7.7203    97.6454     2.5873     0.0518     0.0741     0.2045
  584.5000    20.4733    15.8003    15.5316   -42.7175     7.7203    93.8986     2.5815     0.0456     0.0599     0.2086
  585.0000    18.4358    15.8260    14.4471   -42.1802     7.7203    89.5644     2.5545     0.0366     0.0761     0.2188
