~VERSION INFORMATION
 VERS.                2.0:   CWLS LOG ASCII STANDARD - VERSION 2.0
 WRAP.                 NO:   ONE LINE PER DEPTH STEP
~WELL INFORMATION
#MNEM.UNIT      DATA TYPE    INFORMATION
#----------   ------------   ------------------------------
 STRT.F            6.0000:   START DEPTH
 STOP.F          640.0000:   STOP DEPTH
 STEP.F            0.5000:   STEP LENGTH
 NULL.          -999.2500:   NO VALUE
 COMP. LAWRENCE/ALLISON INC:   COMPANY
 WELL. NPR 3 #81-11-SX-15:   WELL
 FLD .             TEAPOT:   FIELD
 LOC .      S15 T38N R78W:   LOCATION
 CNTY.            NATRONA:   COUNTY
 STAT.            WYOMING:   STATE
 CTRY. UNITED STATES OF AMERICA:   COUNTRY
 SRVC.           Gearhart:   SERVICE COMPANY
 DATE.        15-JUL-1987:   LOGDATE
 API .       490251115100:   API NUMBER
~CURVE INFORMATION
#MNEM.UNIT       API CODE    CURVE DESCRIPTION
#----------   ------------   ------------------------------
 DEPT.F                  :   
 GRR .GAPI   07 310 01 00:   GAMMA RAY
 RILD.OHMM   07 120 46 00:   INDUCTION LOG DEEP RESISTIVITY
 RILM.OHMM   07 120 44 00:   INDUCTION LOG MEDIUM RESISTIVITY
~PARAMETER INFORMATION
#MNEM.UNIT          VALUE    DESCRIPTION
#----------   ------------   ------------------------------
 PD  .                 GL:   PERMANENT DATUM
 EPD .F            5265.4:   ELEVATION PERMANENT DATUM
 LMF .                 KB:   LOG MEASURED FROM
 DAPD.F                 8:   FEET ABOVE PERMANENT DATUM
 DMF .                 KB:   DRILLING MEASURED FROM
 EKB .F            5273.4:   KELLING BUSHING
 EDF .F            5271.4:   DRILLING FLOOR
 EGL .F            5265.4:   GROUND LEVEL
 DATE.        15-JUL-1987:   RUN DATE
 RUN .                  1:   RUN NUMBER
 DD  .F               646:   DEPTH DRILLER
 DL  .F               648:   DEPTH LOGGER
 BLI .F               640:   BOTTOM LOG INTERVAL
 TLI .F                 6:   TOP LOG INTERVAL
 CS  .IN            8.625:   CASING SIZE
 CBD .F                50:   CASING BOTTOM DRILLER
 CBL .F                50:   CASING BOTTOM LOGGER
 BS  .IN             7.87:   BIT SIZE
 BSD .F               646:   BIT SIZE AT DEPTH
 DFT .                AIR:   DRILLING FLUID TYPE
 TCS .HRS            2400:   TIME CURCULATED STOPPED
 TLAB.HRS            0112:   TIME LOGGER AT BOTTOM
 LUN .               7597:   LOGGING UNIT NUMBER
 LUL .           GILLETTE:   LOGGING UNIT LOCATION
 ENGI.           JOHNSTON:   RECORDING ENGINEER
 WITN.         MR. STRONG:   WITNESSED BY
 CLNT.            A2DTECH:   CLIENT CODE
 ORIG.      2" , 5" PRINT:   ORIGIN OF DATA
 UWI .       490251115100:   UNIQUE WELL ID
 DICO. A2D Technologies, Inc.:   DIGITIZING COMPANY
~OTHER INFORMATION
~A    DEPT     GRR       RILD       RILM   
# ...
  461.0000    88.3168    21.2479    21.8487
  461.5000    91.6569    20.8115    21.3996
  462.0000    93.4841    20.3637    20.9593
  462.5000    91.6805    20.1043    20.3863
  463.0000    92.6000    19.9665    19.9669
  463.5000    93.8221    19.6929    19.5558
  464.0000    92.3210    19.5580    19.1538
  464.5000    88.0968    19.5593    18.7597
  465.0000    84.7503    19.5609    18.5020
  465.5000    89.3337    19.5622    18.3750
  466.0000    93.8840    19.5635    18.3220
  466.5000    95.7113    19.7011    18.4200
  467.0000    94.2102    19.8396    18.8107
  467.5000    92.1040    19.7037    19.0766
  468.0000    89.9978    19.5687    19.2129
  468.5000    87.7306    19.1671    19.3495
  469.0000    90.0214    18.7733    19.3227
  469.5000    90.3358    18.5157    19.0875
  470.0000    87.8871    18.1354    18.8265
  470.5000    86.4289    18.1369    18.5691
  471.0000    87.0458    18.0124    18.3152
  471.5000    89.1756    17.7655    18.0648
  472.0000    91.3054    17.6438    17.8178
  472.5000    92.8301    17.5401    17.5742
  473.0000    92.5393    17.4333    17.3339
  473.5000    89.8280    17.3265    17.2162
  474.0000    84.6960    17.2196    16.9813
  474.5000    81.0005    17.0420    16.8654
  475.0000    81.7952    16.5631    16.8683
  475.5000    85.3395    16.2416    16.8705
  476.0000    86.5616    16.1303    16.6399
  476.5000    87.4811    16.1317    16.5268
  477.0000    88.0981    16.1328    16.6444
  477.5000    88.7150    16.2462    16.4173
  478.0000    88.1217    16.2963    16.3053
  478.5000    85.7129    16.4756    16.1945
  479.0000    83.9092    16.4767    15.9731
  479.5000    85.7659    16.3638    15.8650
  480.0000    87.2641    16.3650    15.6482
  480.5000    87.8781    16.2528    15.4218
  481.0000    87.2847    16.0301    15.3212
  481.5000    84.8789    15.8102    15.2254
  482.0000    83.6804    15.7016    15.1221
  482.5000    83.9948    15.3794    14.9156
  483.0000    87.0323    15.3438    14.8138
  483.5000    89.4647    15.2751    14.8163
  484.0000    90.9975    15.2763    14.6136
  484.5000    91.6067    15.1717    14.5144
  485.0000    90.1082    15.0416    14.5164
  485.5000    88.3045    14.8608    14.4178
  486.0000    85.8958    14.8243    14.3200
  486.5000    87.7230    14.6582    14.2225
  487.0000    88.3399    14.7613    14.1259
  487.5000    87.7436    14.7994    14.0300
  488.0000    87.1532    14.8663    13.9351
  488.5000    88.0727    14.9709    13.9370
  489.0000    89.6340    15.0762    14.1341
  489.5000    92.1291    15.2879    14.4343
  490.0000    94.7677    15.5027    14.6384
  490.5000    94.4769    15.6117    14.9489
  491.0000    92.9758    15.6725    15.0552
  491.5000    92.6821    15.3986    15.0572
  492.0000    93.9072    15.1873    14.9544
  492.5000    95.7344    14.9792    14.7504
  493.0000    96.3853    14.8765    14.5488
  493.5000    91.5220    14.6725    14.3498
  494.0000    89.6622    14.4710    14.0561
  494.5000    88.2202    14.2727    13.8452
  495.0000    87.3214    14.0769    13.4697
  495.5000    86.4284    13.7877    12.8469
  496.0000    86.1347    13.7887    12.4963
  496.5000    89.4777    13.7898    12.4110
  497.0000    92.2126    13.8868    12.3267
  497.5000    94.6450    14.1800    12.4148
  498.0000    96.7748    14.9906    12.6781
  498.5000    94.0493    16.1810    13.1283
  499.0000    91.9194    17.4660    13.8138
  499.5000    90.7617    18.8529    15.7337
  500.0000    89.8658    20.3501    18.0828
  500.5000    88.6673    22.6775    19.9338
  501.0000    84.1405    25.7702    23.0698
  501.5000    78.1009    27.6243    25.7872
  502.0000    75.3895    29.2035    28.8247
  502.5000    72.9803    30.8730    31.3365
  503.0000    72.9926    32.4122    33.3796
  503.5000    73.6095    33.7927    34.8629
  504.0000    71.7095    35.2321    36.5305
  504.5000    70.9100    36.2264    37.5656
  505.0000    72.1350    35.9783    38.6299
  505.5000    73.3571    35.7318    39.1760
  506.0000    73.0634    34.7564    39.1813
  506.5000    71.8678    33.8070    38.1121
  507.0000    74.3002    33.1126    35.5576
  507.5000    79.1531    32.4319    34.3476
  508.0000    85.2164    32.4346    33.6445
  508.5000    85.8333    32.4368    33.4148
  509.0000    80.7043    32.1924    32.9579
  509.5000    76.7827    31.7726    32.2832
  510.0000    74.6765    31.1205    31.1846
  510.5000    74.0832    30.2705    30.5452
  511.0000    74.0271    29.8547    30.3376
  511.5000    74.9455    29.8572    30.1316
  512.0000    74.9541    29.6522    30.1638
  512.5000    74.6601    29.6547    30.7759
  513.0000    72.2481    29.6567    31.6479
  513.5000    70.7439    29.2196    32.7716
  514.0000    74.3855    28.6490    33.0036
  514.5000    75.3018    27.8669    29.5347
  515.0000    74.1001    27.1057    27.7473
  515.5000    74.4509    26.7338    27.1783
  516.0000    76.8425    26.1847    26.9937
  516.5000    79.5742    25.2933    26.2580
  517.0000    81.7008    24.7737    24.8410
  517.5000    83.8427    24.2649    24.5005
  518.0000    85.3510    24.4967    24.1655
  518.5000    85.6600    24.3304    24.3382
  519.0000    80.5270    24.1658    24.3415
  519.5000    77.2073    23.9383    25.0990
  520.0000    77.5206    23.3480    24.2477
  520.5000    81.4626    22.5553    23.5874
  521.0000    88.1278    22.0927    22.9440
  521.5000    91.4647    21.7910    22.4760
  522.0000    88.9074    21.4941    22.2382
  522.5000    84.5248    20.9090    21.7179
  523.0000    82.4154    20.4808    20.9802
  523.5000    86.6600    20.2005    20.5512
  524.0000    90.0331    19.6506    19.9861
  524.5000    93.3359    18.8386    19.3135
  525.0000    94.2501    18.4661    18.3998
  525.5000    90.9325    18.5971    17.5294
  526.0000    91.8488    18.7812    16.8167
  526.5000    93.6750    18.8665    16.8208
  527.0000    93.9840    19.3962    17.5407
  527.5000    90.9690    20.2237    18.6768
  528.0000    87.6493    20.7957    19.6119
  528.5000    84.8684    21.5329    20.7695
  529.0000    82.2223    21.5364    22.3908
  529.5000    81.3232    21.0954    23.6759
  530.0000    80.7245    20.8066    24.3483
  530.5000    80.7352    20.6661    22.5465
  531.0000    79.5335    20.2429    20.9048
  531.5000    82.8725    19.6919    20.0548
  532.0000    84.6965    19.1552    19.5087
  532.5000    85.6279    18.8936    19.1098
  533.0000    85.6214    18.3703    18.5904
  533.5000    85.6321    17.8784    18.4644
  534.0000    85.6407    17.7240    18.2139
  534.5000    85.3467    17.5140    17.9659
  535.0000    84.4476    17.2754    17.9696
  535.5000    83.8532    17.0395    17.7258
  536.0000    82.9540    16.9238    17.6061
  536.5000    83.5678    16.8094    17.4468
  537.0000    85.3918    16.7396    17.2500
  537.5000    84.4948    16.4675    17.1347
  538.0000    83.5957    16.3031    17.0189
  538.5000    82.9970    16.0974    16.8630
  539.0000    83.6128    15.9126    16.7545
  539.5000    84.2287    15.6954    16.5624
  540.0000    84.5399    15.5889    16.4518
  540.5000    85.1536    15.4145    16.2278
  541.0000    86.0699    15.2715    16.1185
  541.5000    86.4084    15.1684    15.8894
  542.0000    87.6021    14.8582    15.4670
  542.5000    88.2158    14.7572    15.2557
  543.0000    89.1321    14.6568    14.9446
  543.5000    90.0515    14.6593    14.8440
  544.0000    90.6643    14.6616    14.8476
  544.5000    90.3681    14.5621    14.7470
  545.0000    90.0741    14.6653    14.7864
  545.5000    89.7821    14.6673    14.8564
  546.0000    89.1879    14.6694    14.8595
  546.5000    88.2866    14.7736    14.9667
  547.0000    87.3896    14.7758    15.1792
  547.5000    86.4447    14.7777    15.1822
  548.0000    87.1044    14.7797    15.1895
  548.5000    87.4175    14.8847    15.2941
  549.0000    88.3338    14.8868    15.0867
  549.5000    88.6428    14.7860    14.8806
  550.0000    90.4690    14.6856    14.7471
  550.5000    96.2286    14.4856    14.5800
  551.0000    99.2629    14.3873    14.4826
  551.5000   101.3895    14.2892    14.3851
