~VERSION INFORMATION
 VERS.                2.0:   CWLS LOG ASCII STANDARD - VERSION 2.0
 WRAP.                 NO:   ONE LINE PER DEPTH STEP
~WELL INFORMATION
#MNEM.UNIT      DATA TYPE    INFORMATION
#----------   ------------   ------------------------------
 STRT.F          420.0000:   START DEPTH
 STOP.F         1937.0000:   STOP DEPTH
 STEP.F            0.5000:   STEP LENGTH
 NULL.          -999.2500:   NO VALUE
 COMP. LAWRENCE/ALLISON INC:   COMPANY
 WELL.      85 "X" #85-29:   WELL
 FLD .             TEAPOT:   FIELD
 LOC .      S29 T39N R78W:   LOCATION
 CNTY.            NATRONA:   COUNTY
 STAT.            WYOMING:   STATE
 CTRY. UNITED STATES OF AMERICA:   COUNTRY
 SRVC.            Unknown:   SERVICE COMPANY
 DATE.        28-SEP-1987:   LOGDATE
 API .       490251119100:   API NUMBER
~CURVE INFORMATION
#MNEM.UNIT       API CODE    CURVE DESCRIPTION
#----------   ------------   ------------------------------
 DEPT.F                  :   
 ROP .FT/HR  91 810 01 00:   RAT OF DRILLING PENETRATION
 TGAS.TC/CC  91 830 01 00:   TOTAL GAS UNIT
~PARAMETER INFORMATION
#MNEM.UNIT          VALUE    DESCRIPTION
#----------   ------------   ------------------------------
 DATE.        28-SEP-1987:   RUN DATE
 BLI .F              1937:   BOTTOM LOG INTERVAL
 TLI .F               420:   TOP LOG INTERVAL
 LUN .              T-146:   LOGGING UNIT NUMBER
 CLNT.            A2DTECH:   CLIENT CODE
 ORIG.           5" PRINT:   ORIGIN OF DATA
 UWI .       490251119100:   UNIQUE WELL ID
 DICO. A2D Technologies, Inc.:   DIGITIZING COMPANY
~OTHER INFORMATION
~A   DEPT        ROP       TGAS 
  420.0000     0.2992     0.7563
  420.5000     0.2986     0.9879
  421.0000     0.2985     1.0405
  421.5000     0.2984     1.4090
  422.0000     0.2983     1.7776
  422.5000     0.2982     1.7658
  423.0000     0.2981     1.7523
  423.5000     0.2988     2.1237
  424.0000     0.2994     1.7299
  424.5000     0.3001     2.1012
  425.0000     0.3008     2.0872
  425.5000     0.3014     1.6962
  426.0000     0.3021     1.6850
  426.5000     0.3028     1.6738
  427.0000     0.3035     1.6626
  427.5000     0.3041     1.6726
  428.0000     0.3048     1.6833
  428.5000     0.3055     1.6939
  429.0000     0.3062     1.7046
  429.5000     0.3068     1.7152
  430.0000     0.3075     1.7259
  430.5000     0.3082     1.7365
  431.0000     0.3088     1.7472
  431.5000     0.3095     1.7578
  432.0000     0.3102     1.7685
  432.5000     0.3109     1.7791
  433.0000     0.3115     1.7898
  433.5000     0.3122     1.8004
  434.0000     0.3129     1.8111
  434.5000     0.3136     1.8217
  435.0000     0.3142     1.8324
  435.5000     0.3149     1.8430
  436.0000     0.3156     1.8537
  436.5000     0.3162     1.8643
  437.0000     0.3169     1.8750
  437.5000     0.3176     1.8856
  438.0000     0.3183     1.8963
  438.5000     0.3189     1.9069
  439.0000     0.3196     1.9176
  439.5000     0.3203     1.9282
  440.0000     0.3209     1.9389
  440.5000     0.3216     1.9495
  441.0000     0.3223     1.9602
  441.5000     0.3230     1.9708
  442.0000     0.3236     1.9815
  442.5000     0.3243     1.9921
  443.0000     0.3250     2.0028
  443.5000     0.3257     2.0134
  444.0000     0.3263     2.0241
  444.5000     0.3270     2.0751
  445.0000     0.3277     2.1689
  445.5000     0.3283     2.2627
  446.0000     0.3290     2.3565
  446.5000     0.3297     2.4503
  447.0000     0.3304     2.5441
  447.5000     0.3310     2.6379
  448.0000     0.3123     2.7040
  448.5000     0.3027     2.3127
  449.0000     0.3026     2.2990
  449.5000     0.3026     1.9081
  450.0000     0.3025     1.5171
  450.5000     0.3024     1.1262
  451.0000     0.3027     1.4975
  451.5000     0.3030     1.4835
  452.0000     0.3034     1.8548
  452.5000     0.3037     1.8408
  453.0000     0.3040     1.8296
  453.5000     0.3043     1.8184
  454.0000     0.3047     1.8489
  454.5000     0.3050     1.8811
  455.0000     0.3053     1.9134
  455.5000     0.3057     1.9457
  456.0000     0.3060     1.9780
  456.5000     0.3063     2.0103
  457.0000     0.3067     2.0425
  457.5000     0.3070     2.0748
  458.0000     0.3073     2.1071
  458.5000     0.3076     2.1394
  459.0000     0.3080     2.1716
  459.5000     0.3083     2.2039
  460.0000     0.3086     2.2362
  460.5000     0.3090     2.2685
  461.0000     0.3093     2.3008
  461.5000     0.3096     2.3330
  462.0000     0.3100     2.3653
  462.5000     0.3103     2.4195
  463.0000     0.3106     2.4618
  463.5000     0.3109     2.4525
  464.0000     0.3113     2.4450
  464.5000     0.3116     2.4375
  465.0000     0.3119     2.0503
  465.5000     0.3123     1.6630
  466.0000     0.3126     1.2758
  466.5000     0.3129     1.2683
  467.0000     0.3133     1.2608
  467.5000     0.3136     1.2532
  468.0000     0.3139     1.6256
  468.5000     0.3142     1.9979
  469.0000     0.3146     2.3701
  469.5000     0.3149     2.7424
  470.0000     0.3152     3.1147
  470.5000     0.3156     3.1053
  471.0000     0.3159     3.0978
  471.5000     0.3162     3.0904
  472.0000     0.3166     3.0829
  472.5000     0.3169     3.0754
  473.0000     0.3265     3.0679
  473.5000     0.3358     3.0604
  474.0000     0.4021     3.0529
  474.5000     0.4113     3.0455
  475.0000     0.4112     3.0380
  475.5000     0.4016     3.0304
  476.0000     0.4015     3.0228
  476.5000     0.4014     3.0152
  477.0000     0.3824     3.0062
  477.5000     0.3823     3.3803
  478.0000     0.3822     3.3710
  478.5000     0.3821     3.3646
  479.0000     0.3820     2.9762
  479.5000     0.3819     3.1414
  480.0000     0.3818     3.3429
  480.5000     0.3818     3.3335
  481.0000     0.3817     3.3261
  481.5000     0.3910     3.7002
  482.0000     0.4004     3.6908
  482.5000     0.4003     3.6834
  483.0000     0.4002     3.2961
  483.5000     0.4001     3.2886
  484.0000     0.4000     3.2810
  484.5000     0.3999     3.6534
  485.0000     0.3998     3.2643
  485.5000     0.3997     3.2568
  486.0000     0.3996     3.2506
  486.5000     0.3995     2.8621
  487.0000     0.3994     2.8546
  487.5000     0.3993     3.2288
  488.0000     0.3992     3.2194
  488.5000     0.3991     3.2119
  489.0000     0.3991     3.2045
  489.5000     0.3990     2.8172
  490.0000     0.3989     3.1914
  490.5000     0.3988     3.1820
  491.0000     0.3989     3.5544
  491.5000     0.3992     3.9265
  492.0000     0.3996     3.9190
  492.5000     0.3999     3.9114
  493.0000     0.4003     3.9038
  493.5000     0.4006     3.8947
  494.0000     0.4010     3.8886
  494.5000     0.4013     3.8810
  495.0000     0.4017     3.8723
  495.5000     0.4020     4.2456
  496.0000     0.4024     3.8573
  496.5000     0.4027     3.4701
  497.0000     0.4031     2.7031
  497.5000     0.4034     3.0773
  498.0000     0.4038     3.0679
  498.5000     0.4041     3.4405
  499.0000     0.4045     3.4327
  499.5000     0.4048     3.4421
  500.0000     0.4052     3.5067
  500.5000     0.4055     3.5714
  501.0000     0.4059     3.6361
  501.5000     0.4062     3.7008
  502.0000     0.4066     3.7654
  502.5000     0.4069     3.8301
  503.0000     0.4073     3.8948
  503.5000     0.4076     3.9595
  504.0000     0.4080     4.0241
  504.5000     0.4083     4.0888
  505.0000     0.4087     4.1016
  505.5000     0.4090     4.0946
  506.0000     0.4094     4.0875
  506.5000     0.4097     4.0805
  507.0000     0.4101     4.0734
  507.5000     0.4104     4.0663
  508.0000     0.4108     4.0593
  508.5000     0.4111     4.0522
  509.0000     0.4115     4.0451
  509.5000     0.4118     4.0381
  510.0000     0.4122     4.0310
  510.5000     0.4125     4.0239
  511.0000     0.4129     4.0169
  511.5000     0.4132     4.0098
  512.0000     0.4136     4.0027
  512.5000     0.4129     3.9957
  513.0000     0.4120     3.9886
  513.5000     0.4112     3.9815
  514.0000     0.4104     3.9745
  514.5000     0.4095     3.9674
  515.0000     0.4087     3.9603
  515.5000     0.4079     3.9533
  516.0000     0.4070     3.9462
  516.5000     0.4062     4.6898
  517.0000     0.4054     5.0508
  517.5000     0.4045     5.0316
  518.0000     0.4037     5.0127
  518.5000     0.4029     4.9900
  519.0000     0.4020     4.9713
  519.5000     0.4012     4.9526
  520.0000     0.4004     4.5542
  520.5000     0.3995     4.5354
  521.0000     0.3987     4.5167
  521.5000     0.3979     4.1183
  522.0000     0.3970     4.0996
  522.5000     0.3962     4.0809
  523.0000     0.3954     4.0622
  523.5000     0.3945     4.0435
  524.0000     0.3937     4.4045
  524.5000     0.3929     4.3861
  525.0000     0.3920     4.3671
  525.5000     0.3912     4.3481
  526.0000     0.3904     4.7094
  526.5000     0.3895     4.6216
  527.0000     0.3887     4.2876
  527.5000     0.3878     4.2689
  528.0000     0.3870     4.6299
  528.5000     0.3862     4.2315
  529.0000     0.3853     4.2128
  529.5000     0.3845     4.5785
  530.0000     0.3837     4.5551
  530.5000     0.3828     4.5364
  531.0000     0.3820     4.5177
  531.5000     0.3847     4.4990
  532.0000     0.3904     4.4803
  532.5000     0.3962     4.4616
  533.0000     0.4002     4.4429
  533.5000     0.4096     4.4163
  534.0000     0.3338     4.0253
  534.5000     0.3148     4.0063
  535.0000     0.3147     3.9836
  535.5000     0.3241     3.5886
  536.0000     0.3145     3.5664
  536.5000     0.3147     3.5477
  537.0000     0.3151     3.5316
  537.5000     0.3155     3.5103
  538.0000     0.3159     3.4916
  538.5000     0.3162     3.4729
  539.0000     0.3166     3.4557
  539.5000     0.3170     3.4355
  540.0000     0.3173     3.4168
  540.5000     0.3177     3.3981
  541.0000     0.3181     3.7595
