~VERSION INFORMATION
 VERS.                2.0:   CWLS LOG ASCII STANDARD - VERSION 2.0
 WRAP.                 NO:   ONE LINE PER DEPTH STEP
~WELL INFORMATION
#MNEM.UNIT      DATA TYPE    INFORMATION
#----------   ------------   ------------------------------
 STRT.F           16.0000:   START DEPTH
 STOP.F          900.0000:   STOP DEPTH
 STEP.F            0.5000:   STEP LENGTH
 NULL.          -999.2500:   NO VALUE
 COMP. FENIX & SCISSON INC:   COMPANY
 WELL.    NPR-3 #65S15-15:   WELL
 FLD .             TEAPOT:   FIELD
 LOC .      S15 T38N R78W:   LOCATION
 CNTY.            NATRONA:   COUNTY
 STAT.            WYOMING:   STATE
 CTRY. UNITED STATES OF AMERICA:   COUNTRY
 SRVC.            Unknown:   SERVICE COMPANY
 DATE.        11-MAY-1978:   LOGDATE
 API .       490251062400:   API NUMBER
~CURVE INFORMATION
#MNEM.UNIT       API CODE    CURVE DESCRIPTION
#----------   ------------   ------------------------------
 DEPT.F                  :   
 RHOB.G/C3   45 350 01 00:   BULK DENSITY
 DPHI.DEC    45 890 12 00:   DENSITY POROSITY SANDSTONE
 CORR.G/C3   45 356 01 00:   DENSITY CORRECTION
 GRD .GAPI   45 310 01 00:   GAMMA RAY FROM DENSITY LOG
 CALD.IN     45 280 60 00:   CALIPER FROM DENSITY LOG
 SPR .MV     05 010 01 00:   SPONTANEOUS POTENTIAL FROM RES.
 SN  .OHMM   05 040 16 00:   SHORT NORMAL 16"
 IL  .OHMM   05 120 00 00:   INDUCTION LOG
~PARAMETER INFORMATION
#MNEM.UNIT          VALUE    DESCRIPTION
#----------   ------------   ------------------------------
 PD  .                 GL:   PERMANENT DATUM
 EPD .F              5289:   ELEVATION PERMANENT DATUM
 LMF .                 KB:   LOG MEASURED FROM
 DAPD.F                 4:   FEET ABOVE PERMANENT DATUM
 DMF .                 KB:   DRILLING MEASURED FROM
 EKB .F              5293:   KELLING BUSHING
 EDF .F                  :   DRILLING FLOOR
 EGL .F              5289:   GROUND LEVEL
 DATE.          5-11-1978:   RUN DATE
 RUN .                  1:   RUN NUMBER
 DD  .F               887:   DEPTH DRILLER
 DL  .F               889:   DEPTH LOGGER
 BLI .F               883:   BOTTOM LOG INTERVAL
 TLI .F                40:   TOP LOG INTERVAL
 CS  .IN            8.625:   CASING SIZE
 CBD .F                40:   CASING BOTTOM DRILLER
 CBL .F                40:   CASING BOTTOM LOGGER
 BS  .IN            7.875:   BIT SIZE
 BSD .F               887:   BIT SIZE AT DEPTH
 DFT .                KCL:   DRILLING FLUID TYPE
 DFD .                8.6:   DRILLING FLUID DENSITY
 DFV .                 30:   DRILLING FLUID VISCOSITY
 DFPH.                9.5:   DRILLING FLUID PH
 DFL .                  8:   DRILLING FLUID LOSS
 MSS .                   :   MUD SAMPLE SOURCE
 RMS .OHMM            .42:   RESISTIVITY MUD SAMPLE
 MST .F                68:   MUD SAMPLE TEMPERATURE
 RMF .OHMM            .38:   RESISTIVITY MUD FILTRATE SAMPLE
 MFST.F                68:   MUD FILTRATE SAMPLE TEMPERATURE
 RMC .OHMM            .68:   RESISTIVITY MUD CAKE
 MCST.F                66:   MUD CAKE SAMPLE TEMPERATURE
 MFSS.           MEASURED:   MUD FILTRATE SAMPLE SOURCE
 MCSS.                   :   MUD CAKE SAMPLE SOURCE
 RMB .OHMM               :   RESISTIVITY MUD AT BHT
 BHT .F                72:   BOTTOM HOLE TEMPERATURE
 TCS .HRS               2:   TIME CURCULATED STOPPED
 TLAB.HRS                :   TIME LOGGER AT BOTTOM
 MRT .F                72:   MAXIMUM RECORDED TEMPERATURE
 LUN .              CASP.:   LOGGING UNIT NUMBER
 LUL .               2958:   LOGGING UNIT LOCATION
 ENGI.             MILLER:   RECORDING ENGINEER
 WITN.           MCGINLEY:   WITNESSED BY
 CLNT.            A2DTECH:   CLIENT CODE
 ORIG.      2" & 5" PRINT:   ORIGIN OF DATA
 UWI .       490251062400:   UNIQUE WELL ID
 DICO. A2D Technologies, Inc.:   DIGITIZING COMPANY
 OS  .                   :   OTHER SERVICES
 PWI .                   :   PRIMARY WELL IDENTIFIER
 R1  .                   :   REMARKS 1
 R2  .                   :   REMARKS 2
~OTHER INFORMATION
~A   DEPT     RHOB       DPHI       CORR         GRD      CALD        SPR         SN         IL   
# ...
  421.0000     2.4903     0.1119     0.0051    82.0712     7.2050   -40.9360     7.8740     7.3568
  421.5000     2.4906     0.1126     0.0082    83.5689     7.2933   -40.9368     7.8001     7.3375
  422.0000     2.4908     0.1132     0.0111    83.5278     7.3813   -40.9774     7.7096     7.3183
  422.5000     2.4917     0.1046     0.0102    82.8612     7.4207   -41.0219     7.7440     7.2951
  423.0000     2.4941     0.1102     0.0055    83.7485     7.4111   -41.0663     7.8051     7.3221
  423.5000     2.4967     0.1133     0.0047    84.7536     7.3835   -41.1107     7.8667     7.3568
  424.0000     2.4927     0.1142     0.0050    83.6362     7.3183   -41.1550     7.9287     7.3915
  424.5000     2.4879     0.1150     0.0053    81.1919     7.2808   -41.1994     7.9913     7.4265
  425.0000     2.4856     0.1135     0.0056    78.5501     7.3854   -41.2437     8.0546     7.4616
  425.5000     2.4842     0.1107     0.0059    77.1424     7.4824   -41.2881     8.1176     7.4968
  426.0000     2.4891     0.1079     0.0062    76.9795     7.4814   -41.3324     8.1483     7.5325
  426.5000     2.4943     0.1052     0.0065    76.8770     7.4766   -41.3768     8.1229     7.5691
  427.0000     2.4994     0.1104     0.0055    76.9860     7.4722   -41.4212     8.1044     7.5434
  427.5000     2.5002     0.1079     0.0045    80.4665     7.4682   -41.4656     8.0860     7.5105
  428.0000     2.5007     0.1043     0.0084    81.9454     7.4754   -41.5090     8.0676     7.4779
  428.5000     2.5038     0.1006     0.0165    81.0279     7.5119   -41.4954     8.0493     7.4454
  429.0000     2.5131     0.0970     0.0273    80.6022     7.5483   -41.4099     8.0311     7.4131
  429.5000     2.5222     0.0933     0.0304    82.8417     7.5822   -41.3251     8.0128     7.3809
  430.0000     2.5281     0.0896     0.0293    85.1110     7.5261   -41.2400     7.9946     7.3488
  430.5000     2.5274     0.0977     0.0204    85.1090     7.4681   -41.1550     7.9765     7.3169
  431.0000     2.5239     0.1060     0.0116    80.9514     7.5023   -41.0698     7.9584     7.2851
  431.5000     2.5118     0.1140     0.0063    79.6187     7.5237   -40.9854     7.9403     7.2535
  432.0000     2.4981     0.1127     0.0060    80.6619     7.5204   -40.9473     7.9223     7.2220
  432.5000     2.4878     0.1114     0.0055    81.2243     7.5173   -41.0059     7.9043     7.1905
  433.0000     2.4880     0.1101     0.0052    81.2162     7.5141   -41.0626     7.8864     7.1619
  433.5000     2.4897     0.1088     0.0048    81.2131     7.5110   -41.1193     7.8685     7.1598
  434.0000     2.4914     0.1146     0.0029    81.2307     7.5079   -41.1760     7.8531     7.1576
  434.5000     2.4928     0.1222    -0.0023    82.2608     7.4998   -41.2328     7.8571     7.1553
  435.0000     2.4849     0.1232    -0.0073    83.0826     7.4620   -41.2894     7.8609     7.1531
  435.5000     2.4763     0.1243    -0.0052    83.2495     7.3873   -41.3358     7.8647     7.1508
  436.0000     2.4699     0.1254    -0.0028    83.3814     7.2858   -41.3348     7.8685     7.1485
  436.5000     2.4673     0.1238    -0.0003    82.4088     7.1845   -41.3345     7.8723     7.1462
  437.0000     2.4716     0.1120     0.0022    81.3859     7.1144   -41.3347     7.8761     7.1439
  437.5000     2.4790     0.1144    -0.0010    80.3689     7.0892   -41.3511     7.8799     7.1417
  438.0000     2.4862     0.1191    -0.0051    79.4863     7.0698   -41.4197     7.8837     7.1394
  438.5000     2.4807     0.1266    -0.0093    79.0324     7.1532   -41.4855     7.8875     7.1371
  439.0000     2.4717     0.1301    -0.0135    79.1367     7.2372   -41.5514     7.8913     7.1349
  439.5000     2.4621     0.1322    -0.0155    78.9374     7.3214   -41.6180     7.8951     7.1326
  440.0000     2.4610     0.1302    -0.0156    77.9895     7.3186   -41.6831     7.8989     7.1303
  440.5000     2.4630     0.1266    -0.0109    77.0529     7.3099   -41.6838     7.9027     7.1280
  441.0000     2.4651     0.1201    -0.0056    78.1260     7.3017   -41.4328     7.9065     7.1258
  441.5000     2.4722     0.1124    -0.0004    80.0710     7.2939   -41.1889     7.9103     7.1235
  442.0000     2.4827     0.1161    -0.0015    82.1048     7.2836   -40.9458     7.9141     7.1212
  442.5000     2.4871     0.1190    -0.0040    84.5472     7.2190   -40.7309     7.9179     7.1190
  443.0000     2.4846     0.1161    -0.0040    87.0137     7.1526   -40.7363     7.9217     7.1167
  443.5000     2.4840     0.1133    -0.0021    87.9308     7.0865   -40.7370     7.9256     7.1144
  444.0000     2.4889     0.1112    -0.0054    86.1409     7.0250   -40.7370     7.9316     7.1122
  444.5000     2.4937     0.1132     0.0014    84.3052     6.9928   -40.7370     7.9377     7.1099
  445.0000     2.4901     0.1151     0.0092    84.2620     7.0076   -40.7370     7.9439     7.1076
  445.5000     2.4864     0.1170     0.0138    84.3475     7.0379   -40.7370     7.9500     7.1054
  446.0000     2.4845     0.1188     0.0111    84.3805     7.0685   -40.7370     7.9562     7.1031
  446.5000     2.4829     0.1192     0.0087    84.1512     7.0990   -40.7370     7.9623     7.1008
  447.0000     2.4830     0.1171     0.0129    83.9259     7.1296   -40.7370     7.9685     7.0986
  447.5000     2.4830     0.1150     0.0162    83.6928     7.1607   -40.7370     7.9747     7.0963
  448.0000     2.4843     0.1129     0.0137    84.0414     7.1586   -40.7370     7.9808     7.0963
  448.5000     2.4857     0.1107     0.0114    84.7345     7.1500   -40.7370     7.9870     7.0963
  449.0000     2.4870     0.1104     0.0076    84.0417     7.1412   -40.7370     7.9933     7.0963
  449.5000     2.4883     0.1132     0.0031    83.1753     7.1325   -40.7370     7.9983     7.0963
  450.0000     2.4890     0.1168    -0.0014    81.2226     7.1237   -40.7370     7.9865     7.0963
  450.5000     2.4889     0.1204    -0.0059    79.1939     7.1147   -40.7370     7.9748     7.0963
  451.0000     2.4826     0.1240    -0.0105    78.5420     7.1069   -40.7370     7.9632     7.0963
  451.5000     2.4755     0.1246    -0.0116    82.0940     7.1559   -40.7370     7.9517     7.0963
  452.0000     2.4682     0.1212    -0.0083    82.5420     7.2098   -40.7370     7.9401     7.0963
  452.5000     2.4728     0.1170    -0.0040    83.7338     7.2640   -40.7370     7.9286     7.0961
  453.0000     2.4801     0.1140     0.0003    83.7434     7.2988   -40.7370     7.9171     7.0968
  453.5000     2.4861     0.1150     0.0046    82.5399     7.3219   -40.7370     7.9056     7.0634
  454.0000     2.4859     0.1119     0.0088    81.4709     7.3192   -40.7370     7.8941     7.0328
  454.5000     2.4900     0.1072     0.0132    82.2091     7.3096   -40.7370     7.8826     7.0021
  455.0000     2.4960     0.1045     0.0093    82.7723     7.2999   -40.7370     7.8712     6.9715
  455.5000     2.5020     0.1068     0.0018    82.1046     7.2902   -40.7370     7.8601     6.9411
  456.0000     2.5035     0.1145    -0.0058    82.0439     7.2881   -40.7370     7.8204     6.9108
  456.5000     2.4986     0.1108    -0.0057    83.5340     7.2930   -40.7370     7.7408     6.8806
  457.0000     2.4937     0.1040     0.0043    84.9934     7.2982   -40.7370     7.6616     6.8506
  457.5000     2.4887     0.1187     0.0010    86.3431     7.3028   -40.7370     7.5833     6.8207
  458.0000     2.4838     0.1194    -0.0003    85.9676     7.3730   -40.7370     7.5058     6.7909
  458.5000     2.4788     0.1203     0.0078    85.8420     7.4790   -40.7370     7.4291     6.7769
  459.0000     2.4798     0.1160     0.0157    86.4490     7.5423   -40.7370     7.3531     6.8284
  459.5000     2.4820     0.1146     0.0215    86.9846     7.6065   -40.7370     7.2779     6.8675
  460.0000     2.4843     0.1124     0.0264    86.4269     7.6704   -40.7370     7.2036     6.9067
  460.5000     2.4887     0.1078     0.0311    84.6492     7.6995   -40.7370     7.1619     6.9461
  461.0000     2.5004     0.1032     0.0343    82.9082     7.6878   -40.7370     7.3363     6.9858
