~VERSION INFORMATION
 VERS.                2.0:   CWLS LOG ASCII STANDARD - VERSION 2.0
 WRAP.                 NO:   ONE LINE PER DEPTH STEP
~WELL INFORMATION
#MNEM.UNIT      DATA TYPE    INFORMATION
#----------   ------------   ------------------------------
 STRT.F            0.0000:   START DEPTH
 STOP.F         3139.0000:   STOP DEPTH
 STEP.F            0.5000:   STEP LENGTH
 NULL.          -999.2500:   NO VALUE
 COMP. BROWN JOHN E&C INC:   COMPANY
 WELL.       TX-10 #63-10:   WELL
 FLD .             TEAPOT:   FIELD
 LOC .      S10 T38N R78W:   LOCATION
 CNTY.            NATRONA:   COUNTY
 STAT.            WYOMING:   STATE
 CTRY. UNITED STATES OF AMERICA:   COUNTRY
 SRVC.       Schlumberger:   SERVICE COMPANY
 DATE.        05-OCT-1982:   LOGDATE
 API .       490251090100:   API NUMBER
~CURVE INFORMATION
#MNEM.UNIT       API CODE    CURVE DESCRIPTION
#----------   ------------   ------------------------------
 DEPT.F                  :   
 DPHI.DEC    45 890 12 00:   DENSITY POROSITY  SANDSTONE
 GRD .GAPI   45 310 01 00:   GAMMA RAY FROM DENSITY LOG
 NPHI.DEC    42 890 03 00:   NEUTRON POROSITY SANDSTONE
 CALD.IN     45 280 60 00:   CALIPER FROM DENSITY LOG
 CORR.G/C3   45 356 01 00:   DENSITY CORRECTION
 RHOB.G/C3   45 350 01 00:   BULK DENSITY
 ILD .OHMM   07 120 46 00:   INDUCTION LOG DEEP
 ILM .OHMM   07 120 44 00:   INDUCTION LOG MEDIUM
 SFLU.OHMM   07 220 01 00:   SPHERICALLY FOCUSED LOG UNAVERAGED RESISTIVITY
 SPR .MV     07 010 01 00:   SPONTANEOUS POTENTIAL
~PARAMETER INFORMATION
#MNEM.UNIT          VALUE    DESCRIPTION
#----------   ------------   ------------------------------
 PD  .                 GL:   PERMANENT DATUM
 EPD .F              5189:   ELEVATION PERMANENT DATUM
 LMF .                 KB:   LOG MEASURED FROM
 DAPD.F                10:   FEET ABOVE PERMANENT DATUM
 DMF .                 KB:   DRILLING MEASURED FROM
 EKB .F              5199:   KELLING BUSHING
 EGL .F              5189:   GROUND LEVEL
 DATE.        05-OCT-1982:   RUN DATE
 RUN .                  1:   RUN NUMBER
 DD  .F              3200:   DEPTH DRILLER
 DL  .F              3142:   DEPTH LOGGER
 BLI .F              3139:   BOTTOM LOG INTERVAL
 TLI .F               484:   TOP LOG INTERVAL
 CS  .IN            9.625:   CASING SIZE
 CBD .F               482:   CASING BOTTOM DRILLER
 CBL .F               484:   CASING BOTTOM LOGGER
 BS  .IN            7.875:   BIT SIZE
 BSD .F              3200:   BIT SIZE AT DEPTH
 DFT .        KCL/POLYMER:   DRILLING FLUID TYPE
 DFD .                8.6:   DRILLING FLUID DENSITY
 DFV .                 38:   DRILLING FLUID VISCOSITY
 DFPH.                8.5:   DRILLING FLUID PH
 DFL .                6.8:   DRILLING FLUID LOSS
 MSS .           MUD TANK:   MUD SAMPLE SOURCE
 RMS .OHMM            .40:   RESISTIVITY MUD SAMPLE
 MST .F                64:   MUD SAMPLE TEMPERATURE
 RMF .OHMM            .34:   RESISTIVITY MUD FILTRATE SAMPLE
 MFST.F                64:   MUD FILTRATE SAMPLE TEMPERATURE
 RMC .OHMM            .36:   RESISTIVITY MUD CAKE
 MCST.F                64:   MUD CAKE SAMPLE TEMPERATURE
 MFSS.               MEAS:   MUD FILTRATE SAMPLE SOURCE
 MCSS.               CALC:   MUD CAKE SAMPLE SOURCE
 RMB .OHMM             .2:   RESISTIVITY MUD AT BHT
 BHT .F               125:   BOTTOM HOLE TEMPERATURE
 TCS .HRS            2300:   TIME CURCULATED STOPPED
 TLAB.HRS            0500:   TIME LOGGER AT BOTTOM
 MRT .F               125:   MAXIMUM RECORDED TEMPERATURE
 LUN .               8043:   LOGGING UNIT NUMBER
 LUL .                GLT:   LOGGING UNIT LOCATION
 ENGI.            NEUFFER:   RECORDING ENGINEER
 WITN.             STRONG:   WITNESSED BY
 CLNT.            A2DTECH:   CLIENT CODE
 ORIG.           5" PRINT:   ORIGIN OF DATA
 UWI .       490251090100:   UNIQUE WELL ID
 DICO. A2D Technologies, Inc.:   DIGITIZING COMPANY
~OTHER INFORMATION
~A    DEPT    DPHI          GRD     NPHI       CALD       CORR       RHOB        ILD        ILM       SFLU        SPR   
# ...
  837.5000     0.0949    88.7922     0.3219    11.1706     0.0617     2.4901     9.0929     7.5812     7.6810   -80.0544
  838.0000     0.1079    90.8432     0.3051    11.1702     0.0450     2.4653     9.2761     7.8464     7.9490   -80.0614
  838.5000     0.1155    92.6430     0.2997    11.1698     0.0435     2.4668     9.5340     8.2337     8.1696   -79.9164
  839.0000     0.1119    93.7708     0.2954    11.1693     0.0525     2.4743     9.8711     8.5808     8.4541   -79.7715
  839.5000     0.1082    93.7569     0.2925    11.1688     0.0540     2.4757    10.4243     8.9426     8.6898   -79.7803
  840.0000     0.1114    93.1558     0.2972    11.1532     0.0494     2.4690    10.7884     9.4489     8.9913   -79.9393
  840.5000     0.1138    90.7593     0.2945    11.1680     0.0410     2.4682    11.2425     9.7796     9.3050   -80.1001
  841.0000     0.1108    89.8859     0.2866    11.1675     0.0410     2.4772    11.5551     9.9830     9.6296   -80.1071
  841.5000     0.0991    89.8748     0.2816    11.1671     0.0432     2.4944    11.8759    10.1205     9.9649   -80.1142
  842.0000     0.0941    88.9787     0.2842    11.1665     0.0469     2.5004    12.0387    10.1893    10.0321   -80.4269
  842.5000     0.0941    86.8929     0.2860    11.1661     0.0499     2.4996    12.2037    10.2583    10.0985   -80.4340
  843.0000     0.0929    84.8239     0.2846    11.1657     0.0521     2.5056    12.3710    10.2566    10.1658   -80.4410
  843.5000     0.0893    84.2228     0.2822    11.1653     0.0642     2.5132    12.5400    10.2553    10.2330   -80.7537
  844.0000     0.0799    86.5716     0.2813    11.1647     0.0778     2.5265    12.7114    10.2540    10.3014   -80.7608
  844.5000     0.0755    87.4454     0.2878    11.1796     0.0808     2.5295    12.7089    10.2523    10.2981   -80.7678
  845.0000     0.0761    87.4315     0.2908    11.1790     0.0732     2.5302    12.7951    10.3221    10.3675   -80.7751
  845.5000     0.0761    87.4204     0.2847    11.1786     0.0678     2.5317    12.8807    10.3926    10.4367   -80.7836
  846.0000     0.0744    87.1143     0.2610    11.1781     0.0693     2.5362    12.8776    10.5354    10.4332   -80.6387
  846.5000     0.0725    87.1031     0.2569    11.1625     0.0768     2.5384    12.8751    10.5337    10.4300   -80.4938
  847.0000     0.0720    87.0892     0.2590    11.1773     0.0821     2.5331    12.8726    10.3879    10.5003   -80.5025
  847.5000     0.0782    87.3759     0.2620    11.1768     0.0790     2.5248    12.8696    10.3151    10.4969   -80.3559
  848.0000     0.0847    88.8369     0.2652    11.1927     0.0775     2.5203    12.8671    10.1720    10.6403   -80.2127
  848.5000     0.0820    90.3007     0.2679    11.2214     0.0759     2.5233    12.6838     9.9622    10.7113   -80.2215
  849.0000     0.0785    90.8796     0.2699    11.2362     0.0705     2.5255    12.2547     9.7550    10.6341   -80.0748
  849.5000     0.0832    90.5707     0.2736    11.2509     0.0667     2.5117    11.8366     9.4242    10.5575   -79.7776
  850.0000     0.0988    90.4418     0.2820    11.2504     0.0561     2.4820    11.5120     9.2298    10.2671   -79.3307
  850.5000     0.1066    90.2554     0.2903    11.2498     0.0522     2.4827    11.1950     8.7910     9.5789   -79.5707
  851.0000     0.1019    92.6014     0.2932    11.2492     0.0673     2.4936    10.8858     8.4315     9.1242   -79.8524
  851.5000     0.0938    93.4753     0.2912    11.2485     0.0726     2.5142    10.2780     8.1991     8.8731   -80.1005
  852.0000     0.0840    89.9217     0.2900    11.2479     0.0740     2.5194     9.8755     8.0840     8.6887   -80.2554
  852.5000     0.0815    89.0257     0.2912    11.2473     0.0763     2.5202     9.4716     7.9704     8.5043   -80.4103
  853.0000     0.0809    89.3097     0.2986    11.2467     0.0815     2.5179     9.4033     7.9123     8.5060   -80.5659
  853.5000     0.0865    89.0009     0.3006    11.2460     0.0905     2.5111     9.3355     7.8553     8.6812   -80.5689
  854.0000     0.0824    87.5149     0.3030    11.2455     0.1071     2.5231     9.4621     7.8526     8.6191   -80.8758
  854.5000     0.0777    86.3239     0.3063    11.2449     0.1245     2.5351     9.4589     7.9592     8.4401   -81.0307
  855.0000     0.0736    86.0177     0.3090    11.2595     0.1207     2.5283     9.4551     7.9565     8.3220   -80.8816
  855.5000     0.0718    87.7740     0.3122    11.2741     0.1115     2.5184     9.5834     8.0645     8.3198   -80.8846
  856.0000     0.0854    89.5329     0.3146    11.3189     0.1191     2.5216     9.5802     8.0617     8.3229   -80.8875
  856.5000     0.0798    89.2268     0.3031    11.4094     0.1357     2.5388     9.5770     8.0584     8.5484   -80.8912
  857.0000     0.0742    88.3281     0.2971    11.4847     0.1440     2.5380     9.5738     8.0558     8.7850   -80.7414
  857.5000     0.0716    87.7271     0.2981    11.5618     0.1234     2.5252     9.5048     7.9977     8.7827   -80.5923
  858.0000     0.0795    89.4859     0.3017    11.6655     0.1082     2.5110     9.4361     7.9400     8.7199   -80.4433
  858.5000     0.0872    90.6548     0.3076    11.7104     0.1059     2.5102     9.4323     7.9374     8.5979   -80.2943
  859.0000     0.0845    91.8237     0.3094    11.7252     0.1211     2.5215     9.3643     7.9347     8.5364   -80.2979
  859.5000     0.0763    90.0400     0.3088    11.7238     0.1384     2.5290     9.3612     7.9864     8.3521   -80.3009
  860.0000     0.0748    87.6691     0.3091    11.6782     0.1489     2.5312     9.3581     8.0397     8.2993   -80.3045
  860.5000     0.0751    87.6580     0.3094    11.6624     0.1459     2.5304     9.3550     8.0364     8.5290   -80.3331
  861.0000     0.0746    88.5292     0.3100    11.6467     0.1572     2.5476     9.3518     8.0337     8.5268   -80.4937
  861.5000     0.0678    89.4031     0.3109    11.6158     0.1658     2.5679     9.3480     7.9758     8.4658   -80.6173
  862.0000     0.0560    89.9823     0.3135    11.5999     0.1707     2.5769     9.3449     7.9182     8.2899   -80.6202
  862.5000     0.0504    90.5582     0.3286    11.5690     0.1411     2.5603     9.2778     7.8566     8.1740   -80.8447
  863.0000     0.0521    89.9572     0.3139    11.5380     0.1168     2.5243     9.1472     7.6968     7.9960   -80.9301
  863.5000     0.0711    88.1762     0.3029    11.4768     0.1054     2.5138     9.0881     7.6942     7.8917   -81.0857
  864.0000     0.0852    87.5752     0.2934    11.4442     0.1137     2.5153     8.8921     7.6250     8.0548   -81.2406
  864.5000     0.0820    87.5614     0.2840    11.3844     0.1227     2.5200     8.8885     7.5843     8.2783   -81.2435
  865.0000     0.0779    88.1403     0.2741    11.3535     0.1166     2.5235     8.8244     7.6867     8.2191   -81.0938
  865.5000     0.0861    89.3092     0.2806    11.3226     0.0968     2.5108     8.8215     7.7372     8.1604   -80.9447
  866.0000     0.0985    90.5253     0.2960    11.2913     0.0750     2.4913     8.8799     7.8043     8.1005   -80.9484
  866.5000     0.1085    91.6470     0.2981    11.2302     0.0619     2.4761     8.8767     7.8933     8.0435   -80.7994
  867.0000     0.1177    89.8633     0.2963    11.1993     0.0512     2.4598     8.9971     7.8906     8.0414   -80.6503
  867.5000     0.1209    87.4923     0.2960    11.1684     0.0557     2.4582     9.0610     7.9427     8.0392   -80.6540
  868.0000     0.1159    86.8913     0.2978    11.1375     0.0724     2.4770     9.1523     7.9957     8.1489   -80.6569
  868.5000     0.1021    90.4174     0.3026    11.0761     0.0927     2.5047     9.3031     8.0478     8.2601   -80.6598
  869.0000     0.0883    91.5890     0.3090    11.0300     0.0995     2.5230     9.3644     8.1008     8.3152   -80.5106
  869.5000     0.0827    91.5752     0.3049    10.9839     0.1017     2.5324     9.5172     8.1535     8.3737   -80.3617
  870.0000     0.0794    90.6764     0.3007    10.9681     0.1100     2.5286     9.6203     8.2080     8.4848   -80.3647
  870.5000     0.0780    92.1403     0.2949    10.9524     0.1008     2.5219     9.8183     8.3193     8.6596   -80.3684
