~VERSION INFORMATION
 VERS.                2.0:   CWLS LOG ASCII STANDARD - VERSION 2.0
 WRAP.                 NO:   ONE LINE PER DEPTH STEP
~WELL INFORMATION
#MNEM.UNIT      DATA TYPE    INFORMATION
#----------   ------------   ------------------------------
 STRT.F          100.0000:   START DEPTH
 STOP.F          872.0000:   STOP DEPTH
 STEP.F            0.5000:   STEP LENGTH
 NULL.          -999.2500:   NO VALUE
 COMP. U S NAVY/INTEX OIL CO:   COMPANY
 WELL. 53 S 11 #N P R 3-11:   WELL
 FLD .             TEAPOT:   FIELD
 LOC .      S11 T38N R78W:   LOCATION
 CNTY.            NATRONA:   COUNTY
 STAT.            WYOMING:   STATE
 CTRY. UNITED STATES OF AMERICA:   COUNTRY
 SRVC.       Schlumberger:   SERVICE COMPANY
 DATE.        07-AUG-1961:   LOGDATE
 API .       490250635800:   API NUMBER
~CURVE INFORMATION
#MNEM.UNIT       API CODE    CURVE DESCRIPTION
#----------   ------------   ------------------------------
 DEPT.F                  :   
 CILD.MMHO   05 110 46 00:   CONDUCTIVITY INDUCTION LOG DEEP
 ILD .OHMM   05 120 46 00:   INDUCTION LOG DEEP
 SPR .MV     05 010 01 00:   SPONTANEOUS POTENTIAL FROM RES.
 ASN .OHMM   05 041 16 00:   AMPLIFIED SHORT NORMAL 16"
~PARAMETER INFORMATION
#MNEM.UNIT          VALUE    DESCRIPTION
#----------   ------------   ------------------------------
 PD  .                 GL:   PERMANENT DATUM
 EPD .F              5192:   ELEVATION PERMANENT DATUM
 LMF .                 KB:   LOG MEASURED FROM
 DAPD.F                 6:   FEET ABOVE PERMANENT DATUM
 DMF .                 KB:   DRILLING MEASURED FROM
 EKB .F              5198:   KELLING BUSHING
 EGL .F              5192:   GROUND LEVEL
 DATE.             8-7-61:   RUN DATE
 RUN .                  1:   RUN NUMBER
 DD  .F               870:   DEPTH DRILLER
 DL  .F               873:   DEPTH LOGGER
 BLI .F               872:   BOTTOM LOG INTERVAL
 TLI .F               100:   TOP LOG INTERVAL
 BS  .IN            7.875:   BIT SIZE
 BSD .F               870:   BIT SIZE AT DEPTH
 DFT .            GEL/OIL:   DRILLING FLUID TYPE
 DFD .               10.4:   DRILLING FLUID DENSITY
 DFV .                 43:   DRILLING FLUID VISCOSITY
 RMS .OHMM            .02:   RESISTIVITY MUD SAMPLE
 MST .F                70:   MUD SAMPLE TEMPERATURE
 TCS .HRS               1:   TIME CURCULATED STOPPED
 LUN .               2544:   LOGGING UNIT NUMBER
 LUL .                 NC:   LOGGING UNIT LOCATION
 ENGI.             QUINCY:   RECORDING ENGINEER
 WITN.          JORGENSON:   WITNESSED BY
 CLNT.            A2DTECH:   CLIENT CODE
 ORIG.       2", 5" PRINT:   ORIGIN OF DATA
 UWI .       490250635800:   UNIQUE WELL ID
 DICO. A2D Technologies, Inc.:   DIGITIZING COMPANY
~OTHER INFORMATION
~A   DEPT      CILD         ILD      SPR          ASN 
# ...
  246.0000   348.8150     1.3115   -22.3923     3.4300
  246.5000   373.8111     1.1986   -22.6101     3.3004
  247.0000   401.1949     1.0747   -22.8288     3.1684
  247.5000   428.7828     0.9729   -23.0516     3.0387
  248.0000   456.3707     0.8757   -23.2597     2.9769
  248.5000   471.3568     0.8548   -23.3602     2.9160
  249.0000   464.4975     0.9525   -23.1343     2.9057
  249.5000   457.2864     1.0537   -22.7564     2.9303
  250.0000   422.7806     1.1536   -22.5341     3.0546
  250.5000   387.8434     1.2838   -22.5467     3.1607
  251.0000   352.9062     1.6965   -22.6294     3.4049
  251.5000   317.9690     2.1284   -22.7153     3.7764
  252.0000   283.0318     2.5761   -22.7227     4.1307
  252.5000   250.2513     2.9389   -22.5625     4.4439
  253.0000   237.2864     3.0344   -22.3535     4.4474
  253.5000   230.1508     3.0607   -22.1402     4.4058
  254.0000   230.1508     2.8512   -22.2002     4.3795
  254.5000   252.2613     2.6502   -22.5501     4.3214
  255.0000   267.1213     2.4434   -22.7432     4.2445
  255.5000   280.4953     2.2393   -22.7183     4.1679
  256.0000   293.8694     2.0501   -22.7419     4.0129
  256.5000   314.1765     1.8284   -22.8641     3.8654
  257.0000   338.1463     1.6272   -23.0312     3.7187
  257.5000   362.1161     1.4152   -23.1727     3.5692
  258.0000   386.0860     1.2630   -23.3381     3.4465
  258.5000   405.0251     1.2490   -23.1756     3.3536
  259.0000   407.0352     1.1701   -23.0170     3.2750
  259.5000   407.0352     1.1715   -22.9324     3.2423
  260.0000   385.2596     1.3243   -22.8196     3.3138
  260.5000   359.9188     1.4602   -22.7318     3.5852
  261.0000   332.0526     1.6828   -22.6890     3.7180
  261.5000   304.1863     2.0771   -22.6556     3.9577
  262.0000   276.3201     2.4864   -22.6210     4.4013
  262.5000   248.4538     2.8961   -22.5855     4.9039
  263.0000   220.5876     3.3032   -22.5535     5.0670
  263.5000   201.0409     3.7333   -22.5180     5.2331
  264.0000   198.1335     3.8566   -22.5601     5.3789
  264.5000   195.2261     3.9367   -22.8835     5.5391
  265.0000   191.9598     4.0251   -23.1912     5.6999
  265.5000   186.7453     4.1714   -23.5000     5.8519
  266.0000   180.7963     4.3944   -23.8074     5.9928
  266.5000   174.8473     4.6349   -24.1281     6.1544
  267.0000   168.8983     4.8772   -24.5301     6.3773
  267.5000   162.9494     5.1162   -24.4023     6.6344
  268.0000   157.0004     5.3644   -24.2790     6.8750
  268.5000   152.8392     5.5801   -24.0683     7.1418
  269.0000   150.8040     5.5688   -23.9304     7.2892
  269.5000   150.2099     5.5111   -24.0302     7.3088
  270.0000   151.1676     5.4584   -24.1274     7.3521
  270.5000   152.1253     5.4038   -24.1318     7.3749
  271.0000   153.0831     5.3501   -23.8366     7.3327
  271.5000   154.0408     5.2961   -23.4912     7.2795
  272.0000   154.9985     5.2419   -23.1087     7.2282
  272.5000   155.9563     5.1886   -22.9204     7.1832
  273.0000   156.9140     5.1333   -23.1007     7.1848
  273.5000   157.8717     5.0891   -23.2770     7.1975
  274.0000   158.8294     5.0807   -23.4592     7.1968
  274.5000   159.7872     5.0408   -23.6518     7.1603
  275.0000   160.7449     4.9990   -23.7444     7.1229
  275.5000   161.7026     4.9596   -23.7476     7.0871
  276.0000   162.6604     4.9158   -23.9190     7.0481
  276.5000   163.6181     4.8868   -24.0907     7.0216
  277.0000   164.5758     4.8788   -24.2735     7.0004
  277.5000   165.5336     4.9263   -24.3575     6.9590
  278.0000   164.2658     5.0099   -24.3148     6.9597
  278.5000   162.0045     5.0793   -24.0506     6.9559
  279.0000   159.7432     5.1576   -23.7706     7.0472
  279.5000   157.4819     5.2255   -23.5245     7.1694
  280.0000   154.5505     5.3419   -23.3025     7.2748
  280.5000   149.5757     5.6039   -23.0944     7.3872
  281.0000   144.6008     5.9109   -22.8919     7.4956
  281.5000   139.6259     6.1878   -22.7158     7.6068
  282.0000   133.6683     6.5249   -22.8737     7.7161
  282.5000   132.4435     6.7175   -23.1503     7.8330
  283.0000   130.9171     6.8695   -23.3877     7.8469
  283.5000   129.3907     7.0250   -23.6369     7.7967
  284.0000   127.6382     6.9531   -23.8878     7.7268
  284.5000   129.7186     6.8344   -24.1229     7.6047
  285.0000   132.1608     6.7075   -24.4026     7.4570
  285.5000   135.5377     6.5732   -24.5596     7.3141
  286.0000   140.4221     6.4546   -24.5504     7.1616
  286.5000   145.7286     5.8534   -24.4755     6.9999
  287.0000   165.3065     5.0909   -24.2402     6.8076
  287.5000   183.2161     4.2621   -24.0140     6.6053
  288.0000   202.0101     3.3256   -23.7911     6.0499
  288.5000   263.9196     2.3471   -23.5206     5.4552
  289.0000   329.0452     1.5128   -23.1968     4.8548
  289.5000   394.1708     0.9147   -22.8969     4.2609
  290.0000   451.2563     0.8151   -22.5936     3.6691
  290.5000   504.1708     0.7739   -22.2643     3.3363
  291.0000   534.5729     0.7421   -22.1125     3.0205
  291.5000   543.7186     0.7539   -22.2575     2.9990
  292.0000   514.9749     0.8147   -22.3849     3.0123
  292.5000   473.3668     0.8803   -22.5284     3.1764
  293.0000   443.2161     1.0075   -22.6600     3.3542
  293.5000   326.6332     1.8454   -22.8691     3.8097
  294.0000   252.5025     2.5808   -23.0936     4.2719
  294.5000   202.0302     3.8059   -23.4127     4.6828
  295.0000   157.7889     5.4213   -23.7188     6.9335
  295.5000   103.5176     6.8000   -24.0211     8.0895
  296.0000    89.6482     8.5297   -24.3039     8.7339
  296.5000    79.3970    10.1304   -24.3630     9.2749
  297.0000    83.9196    11.3048   -24.2521     9.4485
  297.5000    89.4472    10.7260   -24.0683     9.5117
  298.0000   101.5075     9.6182   -23.9184     9.5756
  298.5000   117.9306     8.5919   -23.7319     9.5286
  299.0000   131.6447     7.6583   -23.6117     8.8301
  299.5000   145.3588     6.5124   -23.2096     8.2704
  300.0000   159.0729     5.1613   -22.5817     7.7127
  300.5000   175.8794     4.5316   -22.5063     7.0122
  301.0000   179.8995     4.3644   -22.6175     6.7691
  301.5000   177.8895     4.2481   -22.9399     6.3502
  302.0000   175.8794     4.3924   -23.2629     6.4062
  302.5000   169.0452     4.7756   -23.5862     6.5259
  303.0000   159.7990     5.1380   -23.9164     7.0803
  303.5000   140.1206     5.7923   -24.2294     8.3384
  304.0000   115.5779     6.8912   -24.5838     9.1574
  304.5000   108.6346     7.9349   -24.7613     9.5540
  305.0000   101.0194     9.0859   -24.6631    10.1164
  305.5000    93.3795     9.7988   -24.5858    10.2388
  306.0000    89.3582    10.0423   -24.4927    10.4146
  306.5000    89.3567    10.3696   -24.4086    10.5746
  307.0000    87.6776    10.6559   -24.3193    10.7393
  307.5000    84.4240    10.9621   -24.2328    10.8958
  308.0000    81.1537    11.2626   -24.1445    11.0474
  308.5000    77.8552    11.5252   -24.0579    11.2875
  309.0000    74.5585    11.6227   -23.9708    11.4701
  309.5000    74.1480    11.7034   -23.9294    11.3810
  310.0000    75.5213    11.7855   -23.9660    11.4739
  310.5000    76.8988    11.8675   -24.2135    11.5260
  311.0000    78.2788    11.9494   -24.4539    11.5622
  311.5000    79.3751    12.0314   -24.6977    11.6186
  312.0000    78.4397    12.1133   -24.9340    11.6659
  312.5000    77.6658    12.1954   -25.1914    11.7217
  313.0000    76.8930    12.2775   -25.4192    11.7653
  313.5000    76.1120    12.3596   -25.5680    11.8465
  314.0000    75.3309    12.4417   -25.5212    11.9817
  314.5000    74.5499    12.5238   -25.4015    12.1021
  315.0000    73.7688    12.6059   -25.2944    12.2391
  315.5000    72.9878    12.6879   -25.1239    12.3674
  316.0000    72.2067    12.7698   -24.8568    12.5032
  316.5000    71.4257    12.8513   -24.6702    12.6303
  317.0000    70.6447    12.9419   -24.4509    12.7754
  317.5000    69.8636    13.1089   -24.2565    12.8592
  318.0000    69.0826    13.2899   -24.0287    13.0875
  318.5000    68.3015    13.4783   -23.9514    13.3477
