~VERSION INFORMATION
 VERS.                2.0:   CWLS LOG ASCII STANDARD - VERSION 2.0
 WRAP.                 NO:   ONE LINE PER DEPTH STEP
~WELL INFORMATION
#MNEM.UNIT      DATA TYPE    INFORMATION
#----------   ------------   ------------------------------
 STRT.F            3.0000:   START DEPTH
 STOP.F          600.0000:   STOP DEPTH
 STEP.F            0.5000:   STEP LENGTH
 NULL.          -999.2500:   NO VALUE
 COMP. FENIX & SCISSON INC:   COMPANY
 WELL.     NPR-3 #83SX4-4:   WELL
 FLD .             TEAPOT:   FIELD
 LOC .       S4 T38N R78W:   LOCATION
 CNTY.            NATRONA:   COUNTY
 STAT.            WYOMING:   STATE
 CTRY. UNITED STATES OF AMERICA:   COUNTRY
 SRVC.           BIRDWELL:   SERVICE COMPANY
 DATE.        02-AUG-1978:   LOGDATE
 API .       490251067700:   API NUMBER
~CURVE INFORMATION
#MNEM.UNIT       API CODE    CURVE DESCRIPTION
#----------   ------------   ------------------------------
 DEPT.F                  :   
 GRD .GAPI   45 310 01 00:   GAMMA RAY FROM DENSITY LOG
 CORR.G/C3   45 356 01 00:   DENSITY CORRECTION
 RHOB.G/C3   45 350 01 00:   BULK DENSITY
 DPHI.DEC    45 890 12 00:   DENSITY POROSITY SANDSTONE
 SPR .MV     05 010 01 00:   SPONTANEOUS POTENTIAL
 ILD .OHMM   05 120 46 00:   INDUCTION LOG DEEP
 SN  .OHMM   05 040 00 00:   SHORT NORMAL
~PARAMETER INFORMATION
#MNEM.UNIT          VALUE    DESCRIPTION
#----------   ------------   ------------------------------
 PD  .                 GL:   PERMANENT DATUM
 EPD .F              5204:   ELEVATION PERMANENT DATUM
 LMF .                 KB:   LOG MEASURED FROM
 DAPD.F                 4:   FEET ABOVE PERMANENT DATUM
 DMF .                 KB:   DRILLING MEASURED FROM
 EKB .F              5204:   KELLING BUSHING
 EGL .F              5200:   GROUND LEVEL
 DATE.        02-AUG-1978:   RUN DATE
 RUN .                  1:   RUN NUMBER
 DD  .F               590:   DEPTH DRILLER
 DL  .F               606:   DEPTH LOGGER
 BLI .F               590:   BOTTOM LOG INTERVAL
 TLI .F                30:   TOP LOG INTERVAL
 CS  .IN            8.625:   CASING SIZE
 CBD .F                40:   CASING BOTTOM DRILLER
 BS  .IN            7.875:   BIT SIZE
 BSD .F               590:   BIT SIZE AT DEPTH
 DFT .                KCL:   DRILLING FLUID TYPE
 DFD .                8.7:   DRILLING FLUID DENSITY
 DFV .                 32:   DRILLING FLUID VISCOSITY
 DFPH.                  9:   DRILLING FLUID PH
 DFL .                 12:   DRILLING FLUID LOSS
 MSS .           FLOWLINE:   MUD SAMPLE SOURCE
 RMS .OHMM             .4:   RESISTIVITY MUD SAMPLE
 MST .F                61:   MUD SAMPLE TEMPERATURE
 RMF .OHMM             .5:   RESISTIVITY MUD FILTRATE SAMPLE
 MFST.F                50:   MUD FILTRATE SAMPLE TEMPERATURE
 RMC .OHMM            .65:   RESISTIVITY MUD CAKE
 MCST.F                66:   MUD CAKE SAMPLE TEMPERATURE
 MFSS.               MEAS:   MUD FILTRATE SAMPLE SOURCE
 BHT .F                78:   BOTTOM HOLE TEMPERATURE
 TCS .HRS            0300:   TIME CURCULATED STOPPED
 MRT .F                78:   MAXIMUM RECORDED TEMPERATURE
 LUN .               3006:   LOGGING UNIT NUMBER
 LUL .               CASP:   LOGGING UNIT LOCATION
 ENGI.             MILLER:   RECORDING ENGINEER
 WITN.              AMEND:   WITNESSED BY
 CLNT.            A2DTECH:   CLIENT CODE
 ORIG.           5" PRINT:   ORIGIN OF DATA
 UWI .       490251067700:   UNIQUE WELL ID
 DICO. A2D Technologies, Inc.:   DIGITIZING COMPANY
~OTHER INFORMATION
~A    DEPT     GRD       CORR       RHOB       DPHI        SPR        ILD         SN   
# ...
  503.5000    35.5643     0.0673     2.4378     0.1534   -21.0982    16.1461    14.8602
  504.0000    39.3136     0.0732     2.3937     0.1800   -21.0849    17.0679    15.2858
  504.5000    43.5141     0.0851     2.3732     0.1953   -21.0717    18.0422    15.9412
  505.0000    47.3535     0.0986     2.3570     0.1968   -21.0585    18.6821    16.2854
  505.5000    48.1556     0.0970     2.3689     0.1863   -21.0453    19.0799    16.4099
  506.0000    32.3535     0.0985     2.3801     0.1786   -21.0320    19.4862    16.4221
  506.5000    30.8397     0.0924     2.3876     0.1744   -20.8696    19.4942    16.4343
  507.0000    30.9800     0.0714     2.3906     0.1792   -20.5578    19.5021    16.4466
  507.5000    31.5714     0.0667     2.3434     0.2073   -20.3954    19.5101    16.4590
  508.0000    30.3098     0.0774     2.3217     0.2208   -20.3821    19.5182    16.4714
  508.5000    29.8946     0.0893     2.3202     0.2211   -20.3687    19.2600    16.3702
  509.0000    30.1852     0.0997     2.3202     0.2199   -20.8447    19.1336    16.2702
  509.5000    30.9270     0.1445     2.3217     0.2142   -21.6824    19.1433    16.0600
  510.0000    31.9696     0.1445     2.3547     0.1906   -21.8218    19.2835    15.8554
  510.5000    32.2603     0.1489     2.3621     0.1973   -21.9578    19.2913    15.6506
  511.0000    32.2477     0.1788     2.3599     0.1984   -22.0938    19.1664    15.5520
  511.5000    32.5383     0.2087     2.3733     0.1685   -22.0773    18.3981    15.4570
  512.0000    33.2801     0.1593     2.4414     0.1430   -22.3659    17.6603    15.2601
  512.5000    35.0746     0.0934     2.4314     0.1520   -22.5019    17.3061    15.1668
  513.0000    37.9216     0.0619     2.3718     0.1740   -22.4854    17.1765    15.0738
  513.5000    40.0630     0.0604     2.3508     0.2044   -22.4722    16.7354    14.9819
  514.0000    42.4102     0.0663     2.3411     0.2071   -22.6115    16.7422    14.7884
  514.5000    44.0543     0.0678     2.3404     0.2074   -22.5950    16.7490    14.6856
  515.0000    44.9464     0.0647     2.3403     0.2072   -22.4325    16.6391    14.5081
  515.5000    45.9890     0.0647     2.3396     0.2066   -22.4193    16.5316    14.4194
  516.0000    47.0315     0.0663     2.3426     0.2057   -22.2567    16.5400    14.3313
  516.5000    48.2486     0.0721     2.3463     0.2039   -22.2299    16.4315    14.2437
  517.0000    48.6655     0.0735     2.3530     0.1976   -22.0577    16.4398    14.1566
  517.5000    43.2394     0.0765     2.3553     0.2030   -21.9153    16.4465    14.1698
  518.0000    39.0188     0.0749     2.3455     0.2066   -21.7528    16.3400    14.0806
  518.5000    37.0538     0.0734     2.3448     0.2033   -21.5904    16.3469    13.9945
  519.0000    34.9104     0.0704     2.3545     0.1956   -21.4279    16.2412    14.0075
  519.5000    33.1214     0.0643     2.3597     0.1929   -21.7132    16.1363    14.0179
  520.0000    32.8105     0.0568     2.3695     0.1854   -22.2970    16.0320    14.0283
  520.5000    31.5974     0.0538     2.3613     0.2108   -22.4363    16.0402    14.0388
  521.0000    28.8806     0.0627     2.3305     0.2127   -22.4198    15.9349    14.0494
  521.5000    26.9156     0.0657     2.3485     0.2019   -22.5591    15.9430    14.0596
  522.0000    26.3038     0.0626     2.3717     0.1881   -22.5426    15.9495    13.9737
  522.5000    26.4443     0.0611     2.3821     0.1806   -22.3801    15.9559    13.9866
  523.0000    26.8829     0.0625     2.3829     0.1842   -22.8146    15.9624    13.9970
  523.5000    28.2262     0.0640     2.3814     0.1819   -23.5478    15.9689    14.1040
  524.0000    30.1710     0.0639     2.3814     0.1831   -24.1315    15.9754    14.1145
  524.5000    31.6646     0.0684     2.3844     0.1808   -24.2826    15.9819    14.1250
  525.0000    32.7072     0.0773     2.3926     0.1735   -24.5771    15.9884    14.0387
  525.5000    32.8450     0.0788     2.4084     0.1693   -24.6888    16.1055    14.0491
  526.0000    33.2860     0.0772     2.4105     0.1654   -24.6723    16.0013    13.9632
  526.5000    34.7797     0.0773     2.4135     0.1619   -24.6591    16.0079    13.9736
  527.0000    37.4764     0.0816     2.4188     0.1604   -24.6458    15.6868    13.9840
  527.5000    39.2782     0.0861     2.4180     0.1604   -24.6326    15.5855    13.9944
  528.0000    38.6567     0.0920     2.4187     0.1589   -24.6194    15.5934    14.1016
  528.5000    34.5865     0.0950     2.4195     0.1574   -24.6062    15.5997    14.1123
  529.0000    31.7192     0.0949     2.4202     0.1583   -24.5930    15.4973    14.2223
  529.5000    30.6565     0.0963     2.4180     0.1607   -24.5797    15.2931    14.2329
  530.0000    31.3983     0.1008     2.4165     0.1616   -24.5665    15.1927    14.2435
  530.5000    32.6572     0.1082     2.4232     0.1544   -24.7025    15.2004    14.3524
  531.0000    36.1877     0.1157     2.4308     0.1533   -25.1371    15.1007    14.3630
  531.5000    39.1851     0.1171     2.4284     0.1545   -25.2731    15.0031    14.4728
  532.0000    41.8818     0.1186     2.4344     0.1500   -25.2597    15.0107    14.4836
  532.5000    43.6762     0.1185     2.4351     0.1509   -25.2463    15.0168    14.4943
  533.0000    45.0195     0.1200     2.4350     0.1464   -25.2597    15.1267    14.7059
  533.5000    45.4606     0.1214     2.4406     0.1437   -26.1124    15.2375    14.8183
  534.0000    44.5457     0.1244     2.4553     0.1380   -26.9947    15.3492    14.9316
  534.5000    43.7838     0.1363     2.4718     0.1258   -28.0263    15.5686    14.9428
  535.0000    43.6233     0.1333     2.5040     0.1105   -29.2071    15.5762    14.9541
  535.5000    43.3125     0.1257     2.5339     0.1012   -29.4957    15.5826    14.8624
  536.0000    42.5423     0.1047     2.5429     0.0991   -29.6284    15.4803    14.6731
  536.5000    41.6357     0.0778     2.5339     0.0999   -29.6152    15.2747    14.4835
  537.0000    40.7233     0.0611     2.5009     0.1138   -29.7545    14.9699    14.1984
  537.5000    40.4125     0.0567     2.4620     0.1408   -29.7380    14.5689    13.9190
  538.0000    40.2520     0.0642     2.4388     0.1477   -29.7248    14.0814    13.5516
  538.5000    39.9412     0.0776     2.4321     0.1525   -29.7115    13.4239    13.2824
  539.0000    39.9308     0.0746     2.4405     0.1446   -29.8478    12.9747    12.9342
  539.5000    40.3696     0.0850     2.4582     0.1393   -29.9836    12.7149    12.8527
  540.0000    40.5125     0.0984     2.4575     0.1369   -29.9701    12.6314    12.6887
  540.5000    38.6953     0.1043     2.4612     0.1316   -30.1064    12.5498    12.6113
  541.0000    37.1815     0.0968     2.4709     0.1241   -29.9406    12.4687    12.4485
  541.5000    36.8707     0.0848     2.4732     0.1216   -29.9274    12.4750    12.3725
  542.0000    38.6626     0.0638     2.4679     0.1293   -29.9142    12.3943    12.2968
  542.5000    40.7578     0.0471     2.4582     0.1382   -29.9009    12.4852    12.3082
  543.0000    43.1537     0.0428     2.4417     0.1475   -30.7832    12.4045    12.2307
  543.5000    45.0985     0.0442     2.4357     0.1514   -31.8148    12.4097    12.2421
  544.0000    46.4418     0.0442     2.4441     0.1430   -31.9541    12.5006    12.2512
  544.5000    47.6431     0.0396     2.4499     0.1430   -31.9376    12.5932    12.2603
  545.0000    48.9755     0.0366     2.4409     0.1463   -32.3721    12.5983    12.2694
  545.5000    52.2737     0.0366     2.4364     0.1490   -33.1052    12.5157    12.2785
  546.0000    55.1208     0.0455     2.4349     0.1499   -33.6896    12.5220    12.2876
  546.5000    54.5092     0.0499     2.4417     0.1472   -33.6758    12.5271    12.2968
  547.0000    48.6344     0.0499     2.4529     0.1416   -33.6625    12.5322    12.3059
  547.5000    45.8646     0.0513     2.4514     0.1422   -33.6493    12.6227    12.3150
  548.0000    43.3486     0.0558     2.4439     0.1419   -34.8656    12.6291    12.3243
  548.5000    40.4814     0.0587     2.4469     0.1395   -35.4139    12.6342    12.3336
