~VERSION INFORMATION
 VERS.                2.0:   CWLS LOG ASCII STANDARD - VERSION 2.0
 WRAP.                 NO:   ONE LINE PER DEPTH STEP
~WELL INFORMATION
#MNEM.UNIT      DATA TYPE    INFORMATION
#----------   ------------   ------------------------------
 STRT.F           83.0000:   START DEPTH
 STOP.F         3044.0000:   STOP DEPTH
 STEP.F            0.5000:   STEP LENGTH
 NULL.          -999.2500:   NO VALUE
 COMP.   TESORO PETROLEUM:   COMPANY
 WELL.  NPR # 3  AX #81-4:   WELL
 FLD .        TEAPOT DOME:   FIELD
 LOC .       S4 T38N R78W:   LOCATION
 CNTY.            NATRONA:   COUNTY
 STAT.            WYOMING:   STATE
 CTRY. UNITED STATES OF AMERICA:   COUNTRY
 SRVC.       Schlumberger:   SERVICE COMPANY
 DATE.        31-JUL-1969:   LOGDATE
 API .       490251002700:   API NUMBER
~CURVE INFORMATION
#MNEM.UNIT       API CODE    CURVE DESCRIPTION
#----------   ------------   ------------------------------
 DEPT.F                  :   
 CILD.MMHO   05 110 46 00:   CONDUCTIVITY INDUCTION LOG DEEP
 ILD .OHMM   05 120 46 00:   INDUCTION LOG DEEP
 SN  .OHMM   05 040 16 00:   SHORT NORMAL 16"
 SPR .MV     05 010 01 00:   SPONTANEOUS POTENTIAL FROM RES.
 CALD.IN     45 280 60 00:   CALIPER FROM DENSITY
 DPHI.DEC    45 890 12 00:   DENSITY POROSITY SANDSTONE
 GRD .GAPI   45 310 01 00:   GAMMA RAY FROM DENSITY LOG
 RHOB.G/C3   45 350 01 00:   BULK DENSITY
 DRHO.G/C3   45 356 01 00:   DENSITY CORRECTION
~PARAMETER INFORMATION
#MNEM.UNIT          VALUE    DESCRIPTION
#----------   ------------   ------------------------------
 PD  .                 GL:   PERMANENT DATUM
 EPD .F              5170:   ELEVATION PERMANENT DATUM
 LMF .                 KB:   LOG MEASURED FROM
 DAPD.F                13:   FEET ABOVE PERMANENT DATUM
 DMF .                 KB:   DRILLING MEASURED FROM
 EKB .F              5183:   KELLING BUSHING
 EGL .F              5170:   GROUND LEVEL
 DATE.            7-31-69:   RUN DATE
 RUN .                  2:   RUN NUMBER
 DD  .F              3047:   DEPTH DRILLER
 DL  .F              3044:   DEPTH LOGGER
 BLI .F              3043:   BOTTOM LOG INTERVAL
 TLI .F               626:   TOP LOG INTERVAL
 CS  .IN            10.75:   CASING SIZE
 CBD .F               625:   CASING BOTTOM DRILLER
 CBL .F               626:   CASING BOTTOM LOGGER
 BS  .IN             6.25:   BIT SIZE
 BSD .F              3047:   BIT SIZE AT DEPTH
 DFT .      FRESH GEL MUD:   DRILLING FLUID TYPE
 DFD .                9.7:   DRILLING FLUID DENSITY
 DFV .                 50:   DRILLING FLUID VISCOSITY
 DFPH.                9.5:   DRILLING FLUID PH
 DFL .                  8:   DRILLING FLUID LOSS
 MSS .          FLOW LINE:   MUD SAMPLE SOURCE
 RMS .OHMM           1.35:   RESISTIVITY MUD SAMPLE
 MST .F                74:   MUD SAMPLE TEMPERATURE
 RMF .OHMM            .81:   RESISTIVITY MUD FILTRATE SAMPLE
 MFST.F                74:   MUD FILTRATE SAMPLE TEMPERATURE
 MFSS.                  M:   MUD FILTRATE SAMPLE SOURCE
 RMB .OHMM            .83:   RESISTIVITY MUD AT BHT
 BHT .F               121:   BOTTOM HOLE TEMPERATURE
 TCS .HRS               4:   TIME CURCULATED STOPPED
 MRT .F               121:   MAXIMUM RECORDED TEMPERATURE
 LUN .               4507:   LOGGING UNIT NUMBER
 LUL .               CSPR:   LOGGING UNIT LOCATION
 ENGI.               MIXA:   RECORDING ENGINEER
 WITN.                MAY:   WITNESSED BY
 CLNT.            A2DTECH:   CLIENT CODE
 ORIG.     1", 2.5" PRINT:   ORIGIN OF DATA
 UWI .       490251002700:   UNIQUE WELL ID
 DICO. A2D Technologies, Inc.:   DIGITIZING COMPANY
~OTHER INFORMATION
~A   DEPT      CILD       ILD         SN        SPR       CALD       DPHI        GRD       RHOB       DRHO   
# ...
 1944.5000   131.8224     7.9721    11.3100   -20.8164     9.3416     0.0570   128.3226     2.5348     0.0265
 1945.0000   130.0928     7.9721    11.3084   -20.8179     9.3418     0.0666   125.3763     2.5322     0.0322
 1945.5000   127.0510     7.9721    11.3069   -20.8194     9.3419     0.0710   121.5888     2.5227     0.0343
 1946.0000   125.1650     7.9721    11.3053   -20.8210     9.3421     0.0782   119.4157     2.5139     0.0359
 1946.5000   122.2800     7.9721    11.3037   -20.8225     9.3422     0.0746   120.3118     2.5265     0.0366
 1947.0000   121.9548     7.9721    11.3022   -20.8241     9.3424     0.0689   121.5532     2.5360     0.0354
 1947.5000   125.2059     7.8173    11.3006   -20.8256     9.3325     0.0703   121.4733     2.5319     0.0304
 1948.0000   129.0437     7.8173    11.1828   -20.8272     9.3128     0.0716   121.2289     2.5288     0.0232
 1948.5000   132.5862     7.6584    10.8534   -20.6895     9.3000     0.0710   119.9863     2.5319     0.0221
 1949.0000   134.2155     7.4964    10.5239   -20.5216     9.2978     0.0708   118.9809     2.5318     0.0232
 1949.5000   135.8448     7.3344    10.2771   -20.5231     9.3133     0.0644   119.2967     2.5326     0.0261
 1950.0000   136.5741     7.1981    10.1116   -20.5247     9.3134     0.0754   120.6328     2.5375     0.0296
 1950.5000   136.5818     7.1651     9.8471   -20.5262     9.3136     0.0731   121.8390     2.5270     0.0321
 1951.0000   136.5895     7.0836    10.0537   -20.5278     9.3137     0.0719   123.6477     2.5270     0.0296
 1951.5000   135.4618     7.1981    10.5440   -20.5293     9.2921     0.0760   123.0467     2.5256     0.0271
 1952.0000   135.0617     7.2528    10.9748   -20.5309     9.2842     0.0737   121.8433     2.5211     0.0261
 1952.5000   133.5274     7.3529    10.9733   -20.5327     9.2844     0.0684   123.0949     2.5313     0.0270
 1953.0000   131.9916     7.4221    10.9718   -20.5342     9.2845     0.0560   124.3225     2.5453     0.0303
 1953.5000   130.4557     7.5077    10.9703   -20.5357     9.2846     0.0467   129.4906     2.5557     0.0380
 1954.0000   128.9198     7.5913    10.9688   -20.5371     9.2848     0.0536   131.7529     2.5355     0.0416
 1954.5000   128.8645     7.6625    10.9673   -20.5386     9.2865     0.0741   132.2092     2.5088     0.0425
 1955.0000   127.2503     7.6625    10.9657   -20.2314     9.3448     0.0831   129.5534     2.5103     0.0371
 1955.5000   125.8554     7.7678    10.9642   -20.2330     9.3486     0.0776   125.7937     2.5171     0.0284
 1956.0000   125.8642     7.8173    11.0291   -20.2346     9.3749     0.0779   123.2690     2.5146     0.0230
 1956.5000   125.8719     7.8173    11.3140   -20.2361     9.3751     0.0808   121.3008     2.5108     0.0335
 1957.0000   125.8796     7.8173    11.4764   -20.2377     9.3752     0.0797   119.7320     2.5172     0.0323
 1957.5000   125.8873     7.9721    11.5810   -20.2392     9.3754     0.0772   118.5115     2.5155     0.0284
 1958.0000   125.8951     7.9721    11.5794   -20.2407     9.3755     0.0760   118.6124     2.5086     0.0241
 1958.5000   125.9028     7.9721    11.5779   -20.2423     9.3757     0.0730   120.8237     2.5159     0.0204
 1959.0000   125.1415     7.9721    11.4940   -20.2438     9.3758     0.0725   125.2541     2.5323     0.0169
 1959.5000   125.2226     7.9721    11.4190   -20.2454     9.3760     0.0757   128.0434     2.5306     0.0155
 1960.0000   125.9259     7.9721    11.4174   -20.3909     9.3592     0.0762   127.8919     2.5216     0.0133
 1960.5000   125.9336     7.9721    11.3091   -20.5571     9.3648     0.0695   125.4837     2.5231     0.0150
 1961.0000   124.8586     7.9721    11.2586   -20.5586     9.3764     0.0689   125.4851     2.5321     0.0217
 1961.5000   124.4059     7.9721    11.2567   -20.5602     9.3766     0.0689   126.0889     2.5382     0.0299
 1962.0000   124.4150     7.9721    11.2552   -20.7603     9.3767     0.0689   125.4880     2.5367     0.0335
 1962.5000   124.4224     7.9721    11.2537   -20.8719     9.3769     0.0687   124.2595     2.5388     0.0349
 1963.0000   124.4297     8.0310    11.2523   -20.8735     9.3770     0.0634   123.5752     2.5443     0.0328
 1963.5000   122.8938     8.1269    11.2508   -20.8750     9.3772     0.0623   122.2306     2.5344     0.0279
 1964.0000   122.9012     8.2002    11.2575   -20.8768     9.3773     0.0765   119.8870     2.5218     0.0217
 1964.5000   122.8203     8.2817    11.4199   -20.8783     9.3775     0.0824   116.6009     2.5097     0.0164
 1965.0000   121.2063     8.2817    11.5579   -20.8798     9.3776     0.0856   117.9167     2.5008     0.0139
 1965.5000   119.5922     8.3767    11.5889   -20.8812     9.3778     0.0848   120.4765     2.5015     0.0110
 1966.0000   117.9785     8.4365    11.7513   -20.8827     9.3779     0.0819   121.5120     2.5137     0.0160
 1966.5000   116.3643     8.5459    11.9137   -20.8843     9.3781     0.0771   122.6611     2.5280     0.0296
 1967.0000   114.7505     8.5913    12.0761   -20.8858     9.3782     0.0676   121.3984     2.5406     0.0433
 1967.5000   113.1366     8.5913    12.1729   -20.8873     9.3784     0.0551   117.9293     2.5542     0.0492
 1968.0000   112.1605     8.9009    12.3188   -20.8889     9.3785     0.0497   118.4538     2.5547     0.0542
 1968.5000   111.4520     8.9009    12.4813   -20.8904     9.3787     0.0602   120.2325     2.5405     0.0542
 1969.0000   109.8379     9.2105    12.5698   -20.8920     9.3788     0.0709   119.8826     2.5209     0.0532
 1969.5000   108.2241     9.2105    12.7322   -20.8935     9.3790     0.0787   118.1882     2.5027     0.0492
 1970.0000   106.6101     9.5304    12.8946   -20.8951     9.3627     0.0841   117.2189     2.4982     0.0425
 1970.5000   104.9961     9.8421    13.0570   -20.8966     9.3494     0.0820   118.8873     2.5162     0.0355
 1971.0000   104.4907     9.9845    13.0966   -20.8981     9.3108     0.0719   121.2984     2.5387     0.0303
 1971.5000   103.3112     9.8029    13.4063   -20.8997     9.2900     0.0659   121.2998     2.5493     0.0268
 1972.0000   102.9630     9.6409    13.4048   -20.9012     9.2901     0.0539   120.6989     2.5568     0.0212
 1972.5000   107.6013     9.4375    13.4033   -20.9028     9.2903     0.0740   124.3249     2.5202     0.0163
 1973.0000   110.6950     9.2105    13.0903   -20.9043     9.2905     0.0886   125.5210     2.5000     0.0126
 1973.5000   112.2456     9.0991    12.9172   -20.9059     9.2906     0.0958   122.4473     2.4849     0.0091
 1974.0000   113.8684     8.9009    12.6038   -20.6903     9.2908     0.0943   121.9094     2.4892     0.0064
 1974.5000   117.1193     8.7605    12.4140   -20.6003     9.2909     0.0897   122.5133     2.5007     0.0154
 1975.0000   119.9846     8.5913    12.1495   -20.6022     9.2910     0.0887   120.7081     2.5155     0.0200
 1975.5000   119.9923     8.5913    12.1480   -20.6036     9.2912     0.0838   118.3629     2.5245     0.0213
 1976.0000   119.6503     8.5913    12.1952   -20.6051     9.2913     0.0776   117.9315     2.5155     0.0202
 1976.5000   117.6080     8.6904    12.3576   -20.6066     9.2915     0.0812   121.4108     2.5114     0.0168
 1977.0000   114.3728     8.9587    12.5200   -20.6081     9.2916     0.0829   126.1977     2.5145     0.0168
 1977.5000   110.5512     9.2827    12.6824   -20.6096     9.2918     0.0817   128.8428     2.5087     0.0168
 1978.0000   106.3577     9.4861    12.9262   -20.6111     9.2919     0.0765   128.8253     2.5126     0.0200
 1978.5000   103.1223     9.8297    13.1629   -20.5816     9.2921     0.0707   127.4865     2.5296     0.0233
 1979.0000   100.7073     9.8297    13.3253   -20.3053     9.2922     0.0657   126.3605     2.5428     0.0236
 1979.5000    98.1945    10.1393    13.5937   -20.3071     9.2779     0.0645   126.5557     2.5153     0.0211
 1980.0000    95.9361    10.2941    13.8058   -20.3086     9.2627     0.0766   124.9800     2.5048     0.0182
 1980.5000    93.2664    10.4489    13.9682   -20.3102     9.2628     0.0850   121.9844     2.5093     0.0161
