~VERSION INFORMATION
 VERS.                2.0:   CWLS LOG ASCII STANDARD - VERSION 2.0
 WRAP.                 NO:   ONE LINE PER DEPTH STEP
~WELL INFORMATION
#MNEM.UNIT      DATA TYPE    INFORMATION
#----------   ------------   ------------------------------
 STRT.F           16.0000:   START DEPTH
 STOP.F          634.0000:   STOP DEPTH
 STEP.F            0.5000:   STEP LENGTH
 NULL.          -999.2500:   NO VALUE
 COMP. LAWRENCE/ALLISON INC:   COMPANY
 WELL.    14-15 SX #11-11:   WELL
 FLD .             TEAPOT:   FIELD
 LOC .      S11 T38N R78W:   LOCATION
 CNTY.            NATRONA:   COUNTY
 STAT.            WYOMING:   STATE
 CTRY. UNITED STATES OF AMERICA:   COUNTRY
 SRVC.      Dresser Atlas:   SERVICE COMPANY
 DATE.        06-JAN-1985:   LOGDATE
 API .       490251101700:   API NUMBER
~CURVE INFORMATION
#MNEM.UNIT       API CODE    CURVE DESCRIPTION
#----------   ------------   ------------------------------
 DEPT.F                  :   
 SPR .MV     11 010 01 00:   SPONTANEOUS POTENTIAL FROM RES.
 RD  .OHMM   11 220 10 00:   RESISTIVITY DEEP
 RS  .OHMM   11 220 09 00:   RESISTIVITY SHALLOW
 RMLL.OHMM   20 270 04 00:   RESISTIVITY MICROLATEROLOG
 AC  .US/F   60 520 00 00:   ACCOUSTIC SONIC
 CNC .DEC    42 890 03 00:   COMPENSATED NEUTRON POROSITY SANDSTONE
 PORD.DEC    45 890 12 00:   POROSITY DENSITY SANDSTONE
 GRD .GAPI   45 310 01 00:   GAMMA RAY FROM DENSITY LOG
 CALD.IN     45 280 60 00:   CALIPER FROM DENSITY
 CORR.G/C3   45 356 01 00:   DENSITY CORRECTION
 DEN .G/C3   45 350 01 00:   COMPENSATED BULK DENSTIY
~PARAMETER INFORMATION
#MNEM.UNIT          VALUE    DESCRIPTION
#----------   ------------   ------------------------------
 PD  .                 GL:   PERMANENT DATUM
 EPD .F            5196.8:   ELEVATION PERMANENT DATUM
 LMF .                 KB:   LOG MEASURED FROM
 DMF .                 KB:   DRILLING MEASURED FROM
 EKB .F            5196.8:   KELLING BUSHING
 EGL .F            5196.8:   GROUND LEVEL
 DATE.        06-JAN-1985:   RUN DATE
 RUN .                  1:   RUN NUMBER
 DD  .F               650:   DEPTH DRILLER
 DL  .F               636:   DEPTH LOGGER
 BLI .F               634:   BOTTOM LOG INTERVAL
 CS  .IN            8.625:   CASING SIZE
 CBD .F                20:   CASING BOTTOM DRILLER
 CBL .F                22:   CASING BOTTOM LOGGER
 BS  .IN             6.25:   BIT SIZE
 BSD .F               650:   BIT SIZE AT DEPTH
 DFT .        KCL POLYMER:   DRILLING FLUID TYPE
 RMS .OHMM           .105:   RESISTIVITY MUD SAMPLE
 MST .F                72:   MUD SAMPLE TEMPERATURE
 RMF .OHMM            .08:   RESISTIVITY MUD FILTRATE SAMPLE
 MFST.F                72:   MUD FILTRATE SAMPLE TEMPERATURE
 RMC .OHMM            .13:   RESISTIVITY MUD CAKE
 MCST.F                72:   MUD CAKE SAMPLE TEMPERATURE
 MFSS.               CALC:   MUD FILTRATE SAMPLE SOURCE
 MCSS.               CALC:   MUD CAKE SAMPLE SOURCE
 TCS .HRS               3:   TIME CURCULATED STOPPED
 LUN .               6307:   LOGGING UNIT NUMBER
 LUL .               GLTE:   LOGGING UNIT LOCATION
 ENGI.               MACK:   RECORDING ENGINEER
 WITN.               PAGE:   WITNESSED BY
 CLNT.            A2DTECH:   CLIENT CODE
 ORIG.           5" PRINT:   ORIGIN OF DATA
 UWI .       490251101700:   UNIQUE WELL ID
 DICO. A2D Technologies, Inc.:   DIGITIZING COMPANY
 R1  . POROSITY WITH SANDSTONE:   REMARKS 1
~OTHER INFORMATION
~A   DEPT      SPR         RD         RS       RMLL         AC        CNC       PORD        GRD       CALD       CORR        DEN   
# ...
  595.5000   -74.4036     6.4329     6.4775  -999.2500    96.3454     0.2864     0.0994   115.6579     6.5347     0.1099     2.5039
  596.0000   -74.5622     7.4022     6.9403  -999.2500    95.6682     0.2758     0.0973   115.2143     6.5343     0.1039     2.5183
  596.5000   -74.5696     8.5566     8.4836  -999.2500    94.8406     0.2765     0.0991   116.1390     6.5340     0.0950     2.5199
  597.0000   -74.7281     9.1043     9.1530  -999.2500    94.5393     0.2802     0.1001   116.9090     6.5337     0.0935     2.5161
  597.5000   -74.7356     9.6253     9.6719  -999.2500    94.3377     0.2831     0.1034   116.0149     6.5334     0.0996     2.5116
  598.0000   -74.7432     9.8848    10.0794  -999.2500    94.1895     0.2810     0.1082   114.6635     6.5331     0.1012     2.5071
  598.5000   -74.7508    10.0066    10.2878  -999.2500    94.0509     0.2804     0.1104   115.7395     6.5328     0.0711     2.4995
  599.0000   -74.7598    10.1429    10.3559  -999.2500    92.8517     0.2861     0.1095   118.9301     6.5325     0.0289     2.4980
  599.5000   -74.7672    10.2810    10.4243  -999.2500    92.3276     0.2873     0.1074   118.4898     6.5322     0.0305     2.5026
  600.0000   -74.6473    10.3632    10.5663  -999.2500    93.4323     0.2834     0.1074   113.1541     6.5295     0.0429     2.5034
  600.5000   -74.7308    10.5620    10.5592  -999.2500    95.0396     0.2753     0.1092   107.4618     6.5290     0.0821     2.5012
  601.0000   -74.6275    10.5584    10.4802  -999.2500    95.4169     0.2768     0.1092   108.0717     6.5285     0.1007     2.4997
  601.5000   -74.6300    10.4819    10.3300  -999.2500    94.5170     0.2760     0.1083   109.2857     6.5279     0.1078     2.4997
  602.0000   -74.4814    10.3339    10.1819  -999.2500    94.2180     0.2706     0.1095   110.4997     6.5274     0.1033     2.4998
  602.5000   -74.4839    10.2590    10.0359  -999.2500    94.1448     0.2664     0.1101   112.9241     6.5269     0.1004     2.4998
  603.0000   -74.4864    10.2555    10.0301  -999.2500    94.1466     0.2688     0.1116   115.0458     6.5264     0.1005     2.4976
  603.5000   -74.4889    10.2520    10.0244  -999.2500    93.9981     0.2727     0.1128   117.3189     6.5259     0.0915     2.4953
  604.0000   -74.4919    10.2485    10.0187  -999.2500    93.8496     0.2730     0.1131   119.7432     6.5254     0.0463     2.4931
  604.5000   -74.4944    10.2450    10.0129  -999.2500    93.7763     0.2692     0.1098   120.2008     6.5249     0.0403     2.4969
  605.0000   -74.4969    10.2414    10.0072  -999.2500    93.7029     0.2641     0.1089   118.6917     6.5244     0.0706     2.5000
  605.5000   -74.4994    10.2379    10.1414  -999.2500    93.6296     0.2565     0.1098   117.9381     6.5239     0.0812     2.5000
  606.0000   -74.5018    10.3774    10.2770  -999.2500    94.2334     0.2520     0.1101   117.6402     6.5234     0.0828     2.4963
  606.5000   -74.5043    10.4460    10.2711  -999.2500    95.2879     0.2551     0.1095   112.3489     6.5078     0.0844     2.4971
  607.0000   -74.5068    10.5151    10.3368  -999.2500    95.8913     0.2648     0.1074   108.2680     6.5073     0.0890     2.5002
  607.5000   -74.5093    10.4388    10.3308  -999.2500    96.2691     0.2705     0.1047   108.7256     6.5068     0.0966     2.5047
  608.0000   -74.5117    10.3535    10.2503  -999.2500    96.6469     0.2799     0.1017   112.9653     6.5053     0.1088     2.5094
  608.5000   -74.6647    10.2038     9.9672  -999.2500    97.0999     0.2895     0.0989   118.2641     6.4907     0.1103     2.5141
  609.0000   -74.5166     9.9331     9.7472  -999.2500    97.7032     0.2908     0.0968   118.2778     6.4901     0.1074     2.5185
  609.5000   -74.5192     9.5913     9.4067  -999.2500    98.3818     0.2823     0.0959   116.6074     6.4896     0.1043     2.5200
  610.0000   -74.5217     9.1972     8.9658  -999.2500    99.3611     0.2839     0.0974   110.7110     6.4891     0.0947     2.5201
  610.5000   -74.5242     8.8193     8.6553  -999.2500   100.4907     0.2935     0.0986   111.0326     6.4886     0.0774     2.5209
  611.0000   -74.5267     8.3985     8.2404  -999.2500   101.6204     0.2960     0.0986   114.3491     6.4881     0.0775     2.5194
  611.5000   -74.5297     7.9425     7.8454  -999.2500   103.0508     0.2909     0.0983   121.5695     6.4725     0.0791     2.5187
  612.0000   -74.5322     7.6162     7.3664  -999.2500   106.5113     0.2840     0.1023   122.9803     6.4720     0.0882     2.5172
  612.5000   -74.5347     7.3032     7.0133  -999.2500   114.4831     0.3039     0.1083   120.4372     6.4715     0.1110     2.5150
  613.0000   -74.5371     7.0032     6.6310  -999.2500   118.8459     0.3304     0.1146   113.7602     6.4710     0.1216     2.5097
  613.5000   -74.5396     6.4865     6.0140  -999.2500   123.2352     0.3576     0.1312   114.3691     6.4553     0.1232     2.4976
  614.0000   -74.5421     5.7233     5.3793  -999.2500   131.0654     0.4025     0.1689   118.4576     6.4397     0.1082     2.4598
  614.5000   -74.5446     4.6790     4.5835  -999.2500   134.1146     0.4282     0.2084   124.0589     6.4392     0.0916     2.3728
  615.0000   -74.5470     3.4954     3.4953  -999.2500   128.1518     0.4472     0.2488   127.3909     6.4236     0.0887     2.3070
  615.5000   -74.5495     2.9176     2.7594  -999.2500   118.4045     0.4339     0.2741   130.3185     6.4231     0.0918     2.2670
  616.0000   -74.5520     2.3688     2.2869  -999.2500   103.7447     0.3637     0.2723   136.8181     6.4226     0.1160     2.2185
  616.5000   -74.5545     2.2714     2.2389  -999.2500    99.6112     0.3246     0.2352  -999.2500     6.4372     0.1206     2.2556
  617.0000   -74.5569     2.7625     2.7357  -999.2500    98.6356     0.3038     0.1734  -999.2500     6.4366     0.0860     2.3049
  617.5000   -74.5594     3.6661     3.5586  -999.2500    98.1864     0.2898     0.1267  -999.2500     6.4210     0.0785     2.4200
  618.0000   -74.5619     5.3922     5.4673  -999.2500    97.7371     0.2857     0.1116  -999.2500     6.4205     0.0786     2.4806
  618.5000   -74.5645     6.8032     6.6815  -999.2500    97.1374     0.2869     0.1086  -999.2500     6.4200     0.0834     2.4972
  619.0000   -74.5675     7.5791     7.2583  -999.2500    96.6882     0.2921     0.1068  -999.2500     6.4195     0.0878     2.5048
  619.5000   -74.5699     8.1206     7.3544  -999.2500    96.6144     0.2924     0.1053  -999.2500     6.4191     0.0864     2.5079
  620.0000   -74.5724     8.0060     7.4528  -999.2500    95.7896    -0.0017     0.1038  -999.2500     6.4186     0.0864     2.5087
  620.5000   -74.5749     8.0032     7.7280  -999.2500    90.2276  -999.2500     0.1026  -999.2500     6.4181     0.0850     2.5095
  621.0000   -74.5774     8.1129     8.0892  -999.2500    88.2870  -999.2500     0.1016  -999.2500     6.4024     0.0851     2.5126
  621.5000   -74.5798     8.4541     8.3120  -999.2500  -999.2500  -999.2500     0.0970  -999.2500     6.3564     0.0882     2.5224
  622.0000   -74.5823     8.7494     8.5422  -999.2500  -999.2500  -999.2500     0.0920  -999.2500     6.3257     0.0958     2.5316
  622.5000   -74.5848     8.9924     8.5967  -999.2500  -999.2500  -999.2500     0.0914  -999.2500     6.3252     0.1125     2.5369
  623.0000   -74.5873     9.2832     8.5913  -999.2500  -999.2500  -999.2500     0.0956  -999.2500     6.3096     0.1276     2.5328
  623.5000   -74.5898  -999.2500  -999.2500  -999.2500  -999.2500  -999.2500     0.0965  -999.2500     6.3091     0.1322     2.5218
  624.0000   -74.5922  -999.2500  -999.2500  -999.2500  -999.2500  -999.2500     0.0920  -999.2500     6.3086     0.1263     2.5226
  624.5000   -74.5947  -999.2500  -999.2500  -999.2500  -999.2500  -999.2500     0.0893  -999.2500     6.3081     0.1279     2.5295
  625.0000   -74.5972  -999.2500  -999.2500  -999.2500  -999.2500  -999.2500     0.0914  -999.2500     6.3076     0.1325     2.5333
  625.5000   -74.5997  -999.2500  -999.2500  -999.2500  -999.2500  -999.2500     0.0923  -999.2500     6.3071     0.1280     2.5288
