~VERSION INFORMATION
 VERS.                2.0:   CWLS LOG ASCII STANDARD - VERSION 2.0
 WRAP.                 NO:   ONE LINE PER DEPTH STEP
~WELL INFORMATION
#MNEM.UNIT      DATA TYPE    INFORMATION
#----------   ------------   ------------------------------
 STRT.F          283.5000:   START DEPTH
 STOP.F         3026.0000:   STOP DEPTH
 STEP.F            0.5000:   STEP LENGTH
 NULL.          -999.2500:   NO VALUE
 COMP. DEPARTMENT OF ENERGY:   COMPANY
 WELL. RES 3 TEAPOT DOM "AX" #62-29:   WELL
 FLD .        TEAPOT DOME:   FIELD
 LOC .      S29 T39N R78W:   LOCATION
 CNTY.            NATRONA:   COUNTY
 STAT.            WYOMING:   STATE
 CTRY. UNITED STATES OF AMERICA:   COUNTRY
 SRVC.       Schlumberger:   SERVICE COMPANY
 DATE.        27-JUL-1971:   LOGDATE
 API .       490250659800:   API NUMBER
~CURVE INFORMATION
#MNEM.UNIT       API CODE    CURVE DESCRIPTION
#----------   ------------   ------------------------------
 DEPT.F                  :   
 GRD .GAPI   45 310 01 00:   GAMMA RAY FROM DENSITY LOG
 CALD.IN     45 280 60 00:   CALIPER FROM DENSITY LOG
 RHOB.G/C3   45 350 01 00:   BULK DENSITY
 DPHI.DEC    45 890 12 00:   DENSITY POROSITY SANDSTONE
 CORR.G/C3   45 356 01 00:   DENSITY CORRECTION
 SPR .MV     05 010 01 00:   SPONTANEOUS POTENTIAL FROM RES.
 ASN .OHMM   05 041 16 00:   AMPLIFIED SHORT NORMAL 16"
 ILD .OHMM   05 120 46 00:   INDUCTION LOG DEEP
 CILD.MMHO   05 110 46 00:   CONDUCTIVITY INDUCTION LOG DEEP
~PARAMETER INFORMATION
#MNEM.UNIT          VALUE    DESCRIPTION
#----------   ------------   ------------------------------
 PD  .                 GL:   PERMANENT DATUM
 EPD .F              4998:   ELEVATION PERMANENT DATUM
 LMF .                 KB:   LOG MEASURED FROM
 DAPD.F                11:   FEET ABOVE PERMANENT DATUM
 DMF .                 KB:   DRILLING MEASURED FROM
 EKB .F              5009:   KELLING BUSHING
 EGL .F              4998:   GROUND LEVEL
 DATE.            7-27-71:   RUN DATE
 RUN .                  1:   RUN NUMBER
 DD  .F              3023:   DEPTH DRILLER
 DL  .F              3024:   DEPTH LOGGER
 BLI .F              3023:   BOTTOM LOG INTERVAL
 TLI .F               286:   TOP LOG INTERVAL
 CS  .IN            10.75:   CASING SIZE
 CBD .F               287:   CASING BOTTOM DRILLER
 CBL .F               286:   CASING BOTTOM LOGGER
 BS  .IN                9:   BIT SIZE
 BSD .F              3023:   BIT SIZE AT DEPTH
 DFT .      FRESH GEL MUD:   DRILLING FLUID TYPE
 DFD .                 10:   DRILLING FLUID DENSITY
 DFV .                 90:   DRILLING FLUID VISCOSITY
 DFPH.                7.6:   DRILLING FLUID PH
 DFL .                5.8:   DRILLING FLUID LOSS
 MSS .          FLOW LINE:   MUD SAMPLE SOURCE
 RMS .OHMM           1.74:   RESISTIVITY MUD SAMPLE
 MST .F                75:   MUD SAMPLE TEMPERATURE
 RMF .OHMM            1.5:   RESISTIVITY MUD FILTRATE SAMPLE
 MFST.F                75:   MUD FILTRATE SAMPLE TEMPERATURE
 MFSS.                  C:   MUD FILTRATE SAMPLE SOURCE
 RMB .OHMM           1.12:   RESISTIVITY MUD AT BHT
 BHT .F               116:   BOTTOM HOLE TEMPERATURE
 TCS .HRS               5:   TIME CURCULATED STOPPED
 MRT .F               116:   MAXIMUM RECORDED TEMPERATURE
 LUN .               7041:   LOGGING UNIT NUMBER
 LUL .               CSPR:   LOGGING UNIT LOCATION
 ENGI.             KNOBEL:   RECORDING ENGINEER
 WITN.                MAY:   WITNESSED BY
 CLNT.            A2DTECH:   CLIENT CODE
 ORIG.     1", 2.5" PRINT:   ORIGIN OF DATA
 UWI .       490250659800:   UNIQUE WELL ID
 DICO. A2D Technologies, Inc.:   DIGITIZING COMPANY
~OTHER INFORMATION
~A   DEPT      GRD       CALD       RHOB       DPHI       CORR        SPR        ASN        ILD       CILD   
# ...
 1670.5000   193.3600     9.4722     2.4937     0.0962     0.0380   -47.8301    13.7387    10.0748    97.1873
 1671.0000   195.3323     9.4235     2.5073     0.0889     0.0469   -48.1638    14.4499    10.8852    80.4823
 1671.5000   197.4937     9.4040     2.5120     0.0834     0.0581   -48.5114    15.0423    11.7393    77.8920
 1672.0000   203.1024     9.4056     2.5070     0.0842     0.0538   -48.8808    15.6776    12.5091    75.4782
 1672.5000   211.1317     9.4073     2.5020     0.0897     0.0430   -49.2129    16.1703    13.0506    71.7268
 1673.0000   212.2807     9.4100     2.5036     0.0921     0.0402   -49.3739    16.7088    13.4126    69.2014
 1673.5000   217.0940     9.4131     2.4833     0.1026     0.0366   -49.2799    17.3075    13.7526    65.6758
 1674.0000   229.9666     9.4159     2.4745     0.1087     0.0329   -49.0096    17.6828    14.1423    62.8622
 1674.5000   245.5429     9.4188     2.4680     0.1127     0.0288   -48.7461    18.0246    14.5275    60.2873
 1675.0000   252.8148     9.4217     2.4815     0.1119     0.0340   -48.6340    18.4699    14.7852    60.8139
 1675.5000   229.0064     9.4246     2.4691     0.1189     0.0481   -48.7206    18.8997    14.7801    61.3854
 1676.0000   206.2061     9.4275     2.4376     0.1293     0.0382   -48.9633    18.9399    14.4648    61.6396
 1676.5000   182.9032     9.4304     2.4479     0.1207     0.0354   -49.2314    18.6122    13.9505    62.4354
 1677.0000   174.8086     9.4333     2.4718     0.1127     0.0444   -49.3521    18.1478    13.3932    64.7763
 1677.5000   169.8911     9.4361     2.5245     0.0933     0.0593   -49.2380    17.6276    12.8509    68.3306
 1678.0000   173.0564     9.4390     2.5188     0.0802     0.0654   -48.9525    17.1562    12.3309    71.3965
 1678.5000   180.3358     9.4419     2.5198     0.0770     0.0590   -48.6150    16.6414    11.8993    74.9041
 1679.0000   171.1362     9.4450     2.5230     0.0762     0.0527   -48.2923    16.1666    11.6155    78.1457
 1679.5000   159.3712     9.4513     2.5154     0.0848     0.0483   -48.0188    15.6540    11.4502    78.2578
 1680.0000   147.9912     9.4577     2.4995     0.0937     0.0306   -47.8440    15.1591    11.3818    78.1977
 1680.5000   143.6552     9.4642     2.4966     0.0976     0.0373   -47.7922    15.1375    11.4824    78.2013
 1681.0000   142.2889     9.4710     2.5322     0.0869     0.0471   -47.8126    15.3903    11.8069    76.3951
 1681.5000   142.0267     9.4772     2.5303     0.0776     0.0577   -47.8297    15.5924    12.2762    73.8149
 1682.0000   140.4485     9.4834     2.5316     0.0707     0.0521   -47.8198    15.7542    12.7470    71.5107
 1682.5000   136.4042     9.4744     2.5076     0.0845     0.0401   -47.8072    15.9746    13.1133    68.9604
 1683.0000   129.8592     9.4642     2.4924     0.1000     0.0279   -47.8129    16.1873    13.2956    66.3366
 1683.5000   127.0335     9.4541     2.4992     0.0984     0.0294   -47.8274    16.2686    13.2366    67.4901
 1684.0000   127.2834     9.4433     2.5093     0.0891     0.0363   -47.8238    16.2348    12.9712    68.7228
 1684.5000   127.2262     9.4330     2.5186     0.0809     0.0434   -47.8018    16.0601    12.6241    70.2970
 1685.0000   123.9424     9.4245     2.5240     0.0778     0.0456   -47.8040    15.6875    12.2913    72.2772
 1685.5000   119.2471     9.4079     2.5285     0.0758     0.0428   -47.8441    15.2453    11.9621    75.0165
 1686.0000   119.0976     9.4372     2.5430     0.0648     0.0474   -47.8433    14.8332    11.5876    77.7558
 1686.5000   124.2768     9.4579     2.5461     0.0640     0.0522   -47.7169    14.3410    11.1888    80.4950
 1687.0000   130.4710     9.4725     2.5319     0.0705     0.0470   -47.5179    13.8187    10.8589    83.2343
 1687.5000   133.6016     9.4831     2.5260     0.0770     0.0426   -47.3996    13.5474    10.6631    85.9736
 1688.0000   137.0916     9.4834     2.5348     0.0727     0.0407   -47.4277    13.5415    10.5699    88.7129
 1688.5000   137.9573     9.4798     2.5446     0.0642     0.0464   -47.5195    13.5346    10.4916    90.0990
 1689.0000   136.2594     9.4762     2.5389     0.0687     0.0526   -47.5789    13.4441    10.3759    90.5901
 1689.5000   137.4593     9.4728     2.5243     0.0739     0.0495   -47.6062    13.3572    10.2386    90.9188
 1690.0000   138.3964     9.4692     2.5018     0.0945     0.0346   -47.6509    13.2541    10.1245    91.2475
 1690.5000   137.4528     9.4657     2.5096     0.0845     0.0395   -47.7241    13.0890    10.0469    91.5762
 1691.0000   136.5611     9.4622     2.5316     0.0739     0.0483   -47.7868    12.9067     9.9644    91.9050
 1691.5000   136.0979     9.4587     2.5371     0.0687     0.0584   -47.7913    12.7396     9.8231    92.0792
 1692.0000   136.1553     9.4551     2.5456     0.0644     0.0568   -47.7206    12.5755     9.6240    95.3003
 1692.5000   137.4200     9.4517     2.5401     0.0679     0.0489   -47.6044    12.4064     9.4154    97.4918
 1693.0000   138.8368     9.4482     2.5263     0.0731     0.0420   -47.4909    12.2280     9.2163    99.6832
 1693.5000   140.1060     9.4447     2.5180     0.0796     0.0348   -47.3957    12.0570     9.0026   101.8746
 1694.0000   139.2440     9.4500     2.5152     0.0803     0.0366   -47.2958    11.9044     8.7885   104.0660
 1694.5000   137.7695     9.4695     2.5202     0.0751     0.0465   -47.1797    11.7233     8.6451   106.2574
 1695.0000   137.7731     9.4889     2.5379     0.0690     0.0575   -47.0789    11.5216     8.6010   107.9208
 1695.5000   137.3774     9.5089     2.5422     0.0630     0.0719   -47.0358    11.4395     8.6004   107.9208
 1696.0000   136.1306     9.5236     2.5312     0.0717     0.0673   -47.0526    11.5416     8.6030   107.9208
 1696.5000   134.6925     9.5282     2.5280     0.0748     0.0619   -47.0914    11.6960     8.6541   107.9208
 1697.0000   135.3186     9.5343     2.5352     0.0692     0.0754   -47.1214    11.8033     8.7997   107.9208
 1697.5000   137.7005     9.5400     2.5249     0.0785     0.0488   -47.1444    11.8999     8.9946   107.9208
 1698.0000   139.7879     9.5457     2.4932     0.0908     0.0301   -47.1727    12.0058     9.1608   107.9208
 1698.5000   141.9649     9.5516     2.4994     0.0889     0.0341   -47.2020    12.1249     9.2953   105.1069
 1699.0000   139.6868     9.5572     2.4906     0.1032     0.0261   -47.2249    12.2392     9.4525   101.6554
 1699.5000   136.8118     9.5626     2.5117     0.0921     0.0292   -47.2523    12.3511     9.6365    98.2040
 1700.0000   133.4055     9.5619     2.5066     0.0937     0.0154   -47.2899    12.4664     9.7769    94.0594
 1700.5000   133.2270     9.5611     2.5015     0.1008     0.0136   -47.3163    12.5597     9.8145    94.0594
 1701.0000   133.1524     9.5599     2.5101     0.0884     0.0168   -47.3243    12.5931     9.7676    94.0594
 1701.5000   134.8652     9.5590     2.5167     0.0834     0.0223   -47.3544    12.5609     9.6963    95.3597
 1702.0000   137.5127     9.5580     2.5195     0.0800     0.0229   -47.4214    12.4929     9.6338    97.0033
 1702.5000   140.3721     9.5569     2.5127     0.0826     0.0210   -47.4420    12.4209     9.5739    98.6469
 1703.0000   141.2298     9.5559     2.5130     0.0850     0.0194   -47.3254    12.3553     9.5082   100.2904
 1703.5000   140.0817     9.5549     2.5139     0.0831     0.0247   -47.1217    12.2927     9.4427   101.9340
 1704.0000   137.8528     9.5539     2.5150     0.0818     0.0314   -46.9785    12.2303     9.3802   103.9604
 1704.5000   137.1562     9.5529     2.5201     0.0801     0.0394   -46.9542    12.1660     9.3139   103.9604
 1705.0000   138.2696     9.5519     2.5352     0.0711     0.0481   -46.9701    12.0985     9.2488   103.9604
 1705.5000   135.6866     9.5509     2.5456     0.0644     0.0556   -46.9498    12.0328     9.2113   103.9920
 1706.0000   133.8454     9.5499     2.5419     0.0653     0.0601   -46.9085    11.9865     9.2210   103.9294
 1706.5000   135.6770     9.5488     2.5369     0.0652     0.0482   -46.8852    11.9746     9.2579   103.2689
