~VERSION INFORMATION
 VERS.                2.0:   CWLS LOG ASCII STANDARD - VERSION 2.0
 WRAP.                 NO:   ONE LINE PER DEPTH STEP
~WELL INFORMATION
#MNEM.UNIT      DATA TYPE    INFORMATION
#----------   ------------   ------------------------------
 STRT.F           89.0000:   START DEPTH
 STOP.F         1360.0000:   STOP DEPTH
 STEP.F            0.5000:   STEP LENGTH
 NULL.          -999.2500:   NO VALUE
 COMP.           U S NAVY:   COMPANY
 WELL.     NPR 3 #85 S-11:   WELL
 FLD .             TEAPOT:   FIELD
 LOC .      S11 T38N R78W:   LOCATION
 CNTY.            NATRONA:   COUNTY
 STAT.            WYOMING:   STATE
 CTRY. UNITED STATES OF AMERICA:   COUNTRY
 SRVC.       Schlumberger:   SERVICE COMPANY
 DATE.        15-AUG-1966:   LOGDATE
 API .       490250959000:   API NUMBER
~CURVE INFORMATION
#MNEM.UNIT       API CODE    CURVE DESCRIPTION
#----------   ------------   ------------------------------
 DEPT.F                  :   
 SPR .MV     05 010 01 00:   SPONTANEOUS POTENTIAL FROM RES.
 CILD.MMHO   05 110 46 00:   CONDUCTIVITY INDUCTION LOG DEEP
 ASN .OHMM   05 041 16 00:   AMPLIFIED SHORT NORMAL 16"
 ILD .OHMM   05 120 46 00:   INDUCTION LOG DEEP
 GR  .GAPI   30 310 01 00:   GAMMA RAY
~PARAMETER INFORMATION
#MNEM.UNIT          VALUE    DESCRIPTION
#----------   ------------   ------------------------------
 PD  .                 GL:   PERMANENT DATUM
 EPD .F              5288:   ELEVATION PERMANENT DATUM
 LMF .                 KB:   LOG MEASURED FROM
 DAPD.F                 5:   FEET ABOVE PERMANENT DATUM
 DMF .                 KB:   DRILLING MEASURED FROM
 EKB .F            5286.9:   KELLING BUSHING
 EGL .F            5281.9:   GROUND LEVEL
 DATE.        15-AUG-1966:   RUN DATE
 RUN .                  1:   RUN NUMBER
 DD  .F              1360:   DEPTH DRILLER
 DL  .F              1361:   DEPTH LOGGER
 BLI .F              1360:   BOTTOM LOG INTERVAL
 TLI .F                88:   TOP LOG INTERVAL
 CS  .IN            8.625:   CASING SIZE
 CBD .F                12:   CASING BOTTOM DRILLER
 BS  .IN            7.875:   BIT SIZE
 BSD .F              1360:   BIT SIZE AT DEPTH
 DFT .          CHEM- GEL:   DRILLING FLUID TYPE
 DFD .                9.6:   DRILLING FLUID DENSITY
 DFV .                 60:   DRILLING FLUID VISCOSITY
 DFPH.                7.2:   DRILLING FLUID PH
 DFL .                6.4:   DRILLING FLUID LOSS
 MSS .         CIRCULATED:   MUD SAMPLE SOURCE
 RMS .OHMM           1.41:   RESISTIVITY MUD SAMPLE
 MST .F                72:   MUD SAMPLE TEMPERATURE
 RMF .OHMM           0.75:   RESISTIVITY MUD FILTRATE SAMPLE
 MFST.F                73:   MUD FILTRATE SAMPLE TEMPERATURE
 MFSS.               MEAS:   MUD FILTRATE SAMPLE SOURCE
 TCS .HRS             2.5:   TIME CURCULATED STOPPED
 LUN .               3527:   LOGGING UNIT NUMBER
 LUL .              CSPR.:   LOGGING UNIT LOCATION
 ENGI.               HAUG:   RECORDING ENGINEER
 WITN.             TUTTLE:   WITNESSED BY
 CLNT.            A2DTECH:   CLIENT CODE
 ORIG.       2", 5" PRINT:   ORIGIN OF DATA
 UWI .       490250959000:   UNIQUE WELL ID
 DICO. A2D Technologies, Inc.:   DIGITIZING COMPANY
~OTHER INFORMATION
~A   DEPT      SPR       CILD          ASN        ILD       GR   
# ...
  821.0000   -39.5885   199.5869     6.9260     4.9822    88.2451
  821.5000   -39.5957   196.6926     6.9860     5.1310    90.0095
  822.0000   -39.6017   193.7001     7.1062     5.1295    94.7251
  822.5000   -39.6077   191.4540     7.2875     5.2033    95.5986
  823.0000   -39.6136   189.2079     7.3779     5.2068    89.6526
  823.5000   -39.6196   186.9617     7.3914     5.2857    83.7734
  824.0000   -39.4727   184.7156     7.4063     5.3495    81.3977
  824.5000   -39.4802   180.9769     7.4513     5.4233    75.2491
  825.0000   -39.4861   177.9845     7.5263     5.4214    73.3517
  825.5000   -39.4921   175.7383     7.6615     5.4956    74.5948
  826.0000   -39.4980   174.2384     7.8117     5.4938    79.3025
  826.5000   -39.5040   172.7386     7.9018     5.4923    81.1781
  827.0000   -39.5099   170.4924     7.9768     5.6414    80.3789
  827.5000   -39.5159   168.2463     8.0218     5.6399    80.9958
  828.0000   -39.5219   166.7463     8.0668     5.6385    78.6233
  828.5000   -39.5280   165.1470     8.1117     5.6370    77.9846
  829.0000   -39.5352   166.7299     8.1567     5.5602    78.9130
  829.5000   -39.5412   169.7076     8.2016     5.4834    75.7538
  830.0000   -39.5471   172.6853     8.2015     5.4066    73.3813
  830.5000   -39.4003   175.6649     8.1111     5.4051    66.2887
  831.0000   -39.4078   179.3871     8.0200     5.4036    59.1960
  831.5000   -39.2609   183.1111     7.9136     5.4018    66.4211
  832.0000   -39.1171   184.5981     7.7420     5.4003    75.3769
  832.5000   -39.1230   186.8296     7.6894     5.3988    80.7139
  833.0000   -39.1290   184.5816     7.6893     5.3974    83.2189
  833.5000   -39.1349   177.8578     7.7493     5.4716    76.5982
  834.0000   -39.1409   174.1192     8.1401     5.4697    79.8898
  834.5000   -39.1468   177.0969     8.5610     5.4682    77.6743
  835.0000   -39.1528   179.3284     9.2526     5.4667    80.2420
  835.5000   -39.1589   180.0673     9.6434     5.4653    86.0973
  836.0000   -39.1649   179.2138     9.5982     5.5395    80.3088
  836.5000   -39.3234   175.5732     9.2973     5.4623    82.8138
  837.0000   -39.4807   170.3419     8.5453     5.3102    80.2839
  837.5000   -39.4866   172.5734     8.0038     5.1581    76.8100
  838.0000   -39.4926   181.5213     7.5675     5.1567    73.9655
  838.5000   -39.3458   187.4841     7.5373     5.1551    76.3131
  839.0000   -39.2019   188.2249     7.5522     5.1533    80.5487
  839.5000   -39.2079   186.7231     7.5832     5.1518    83.9977
  840.0000   -39.0610   185.9695     7.6291     5.1504    89.6494
  840.5000   -38.9157   184.4697     7.6570     5.1489    86.8080
  841.0000   -38.9231   183.7160     7.5064     5.1474    91.1978
  841.5000   -38.9291   182.2162     7.4311     5.2969    84.1052
  842.0000   -38.9350   181.4626     7.4610     5.3707    86.7675
  842.5000   -39.0923   179.2164     7.5210     5.4445    85.1816
  843.0000   -39.2496   178.4130     7.6562     5.4427    81.7109
  843.5000   -39.1042   176.1171     7.8365     5.4412    81.3806
  844.0000   -38.9589   174.7150     7.9868     5.4397    79.6374
  844.5000   -38.9663   173.9613     8.1069     5.4382    81.8277
  845.0000   -38.9722   173.9540     8.0767     5.4367    81.9834
  845.5000   -38.8254   176.1855     7.8510     5.4353    84.0055
  846.0000   -38.8329   179.1632     7.7004     5.4337    88.7174
  846.5000   -38.8388   182.8872     7.5349     5.3566    87.1906
  847.0000   -38.8448   187.3575     7.3543     5.1292    82.5521
  847.5000   -38.8507   193.3203     7.1727     5.0525    82.3823
  848.0000   -38.7039   197.0443     7.0368     4.8251    84.8872
  848.5000   -38.7113   197.7850     7.0080     4.8236    82.3542
  849.0000   -38.7173   197.0296     7.0379     4.8221    78.8803
  849.5000   -38.7232   197.7687     7.0528     4.7457    77.2945
  850.0000   -38.7292   197.7612     7.0526     4.8195    78.4921
  850.5000   -38.7202   199.2963     7.0675     4.8202    81.2067
  851.0000   -38.6689   202.4231     7.0222     4.8222    83.7148
  851.5000   -38.6177   205.9463     6.9770     4.8242    80.8734
  852.0000   -38.5664   207.4333     6.9167     4.8263    77.0880
  852.5000   -38.5151   207.4241     6.8208     4.8283    75.1907
  853.0000   -38.3294   205.9243     6.6872     4.8303    78.8001
  853.5000   -38.1870   203.6781     6.6714     4.8324    83.8256
  854.0000   -38.1982   200.6857     6.7609     4.8344    86.8943
  854.5000   -38.2070   197.6933     6.9256     4.8364    83.3350
  855.0000   -38.2159   193.9546     7.0917     4.8419    81.1230
  855.5000   -38.2248   191.3653     7.2294     4.9039    82.5297
  856.0000   -38.2337   187.5156     7.3646     4.9718    83.6469
  856.5000   -38.2426   183.6659     7.5089     4.9659    87.1629
  857.0000   -38.2515   180.1646     7.5234     4.9600    84.7453
  857.5000   -38.2604   176.4552     7.5224     4.9541    81.7035
  858.0000   -38.2693   175.7310     7.5518     4.9481    86.8863
  858.5000   -38.2784   175.7537     7.6413     4.9422    87.3491
  859.0000   -38.2874   176.5268     7.6858     4.8610    85.1370
  859.5000   -38.2982   178.7876     7.6699     4.8551    76.6315
  860.0000   -38.3071   181.7947     7.6240     4.8492    77.0942
  860.5000   -38.3160   184.8018     7.5330     4.8433    74.0955
  861.0000   -38.3249   187.8089     7.4571     4.7621    78.1770
  861.5000   -38.3338   189.3235     7.3812     4.7561    78.3250
  862.0000   -38.3426   192.3306     7.2750     4.7500    72.1796
  862.5000   -38.3515   195.3377     7.2130     4.8196    71.3316
  863.0000   -38.3604   196.8522     7.1511     4.8123    73.7346
  863.5000   -38.2178   196.8742     7.1224     4.8063    73.5606
  864.0000   -38.2269   196.8963     7.1217     4.8757    75.4525
  864.5000   -38.2360   194.6795     7.1209     4.8698    74.4700
  865.0000   -38.2451   192.4627     7.1503     4.8639    72.9104
  865.5000   -38.2558   188.7041     7.3751     4.8580    75.4185
  866.0000   -38.2647   186.4377     7.7503     4.9289    74.9349
  866.5000   -38.2736   180.5940     7.9902     4.9970    80.4324
  867.0000   -38.2825   176.1384     8.1548     5.1415    78.3777
  867.5000   -38.1379   170.9365     8.1693     5.2109    73.1763
  868.0000   -38.1490   166.4809     8.1834     5.2049    76.7858
  868.5000   -38.0044   162.7716     8.2128     5.2743    80.7099
  869.0000   -38.0155   164.2861     8.2571     5.3423    83.5350
  869.5000   -37.8729   167.2932     8.3325     5.3363    84.3124
  870.0000   -37.8820   174.7780     8.3268     5.3304    85.4044
  870.5000   -37.8911   179.2776     8.1645     5.2492    77.8406
  871.0000   -37.9002   182.2847     7.9232     5.0927    76.3462
  871.5000   -37.7574   186.0381     7.5766     4.9362    76.8782
  872.0000   -37.9198   189.0452     7.4255     4.8550    78.2847
  872.5000   -37.9287   192.0522     7.2743     4.6985    82.5809
  873.0000   -37.7841   195.1093     7.1232     4.5420    85.3608
  873.5000   -37.7952   199.6590     7.0172     4.5361    86.8010
  874.0000   -37.8041   202.5716     7.0014     4.5301    88.0001
  874.5000   -37.8130   201.8473     7.0159     4.5241    86.4198
  875.0000   -37.8219   200.3713     7.0601     4.5181    88.2985
  875.5000   -37.6793   196.6675     7.1346     4.5862    84.9828
  876.0000   -37.6884   193.7044     7.2692     4.6571    86.8615
  876.5000   -37.6974   189.9951     7.4364     4.8003    89.3720
  877.0000   -37.7065   185.5395     7.6921     4.9450    88.8883
  877.5000   -37.5637   181.8302     7.8110     5.0159    88.5667
  878.0000   -37.7261   178.1209     7.8826     5.1591    93.9069
  878.5000   -37.5815   175.1578     7.9420     5.2300    87.1297
  879.0000   -37.5926   172.9410     8.0014     5.2993    86.8057
  879.5000   -37.6015   171.4701     8.0909     5.2920    88.3698
  880.0000   -37.6104   170.0000     8.1505     5.2860    87.1018
  880.5000   -37.6193   168.4799     8.1947     5.2801    86.7778
  881.0000   -37.6282   166.9601     8.2390     5.2741    90.2804
  881.5000   -37.6371   165.5940     8.2686     5.2678    96.5853
