~VERSION INFORMATION
 VERS.                2.0:   CWLS LOG ASCII STANDARD - VERSION 2.0
 WRAP.                 NO:   ONE LINE PER DEPTH STEP
~WELL INFORMATION
#MNEM.UNIT      DATA TYPE    INFORMATION
#----------   ------------   ------------------------------
 STRT.F           12.0000:   START DEPTH
 STOP.F          448.0000:   STOP DEPTH
 STEP.F            0.5000:   STEP LENGTH
 NULL.          -999.2500:   NO VALUE
 COMP. LAWRENCE/ALLISON INC:   COMPANY
 WELL. LI2 -52-61 SX10 #10-10:   WELL
 FLD .             TEAPOT:   FIELD
 LOC .      S10 T38N R78W:   LOCATION
 CNTY.            NATRONA:   COUNTY
 STAT.            WYOMING:   STATE
 CTRY. UNITED STATES OF AMERICA:   COUNTRY
 SRVC.      Dresser Atlas:   SERVICE COMPANY
 DATE.        13-JAN-1985:   LOGDATE
 API .       490251100400:   API NUMBER
~CURVE INFORMATION
#MNEM.UNIT       API CODE    CURVE DESCRIPTION
#----------   ------------   ------------------------------
 DEPT.F                  :   
 AC  .US/F   60 520 00 00:   ACCOUSTIC
 SPR .MV     11 010 01 00:   SPONTANEOUS POTENTIAL FROM RES.
 RD  .OHMM   11 220 10 00:   RESISTIVITY DEEP
 RS  .OHMM   11 220 09 00:   RESISTIVITY SHALLOW
 RMLL.OHMM   11 270 04 00:   MICRO LATEROLOG
 GRD .GAPI   45 310 01 00:   GAMMA RAY FROM DENSITY LOG
 CALD.IN     45 280 60 00:   CALIPER FROM DENSITY LOG
 CORR.G/C3   45 356 01 00:   DENSITY CORRECTION
 DEN .G/C3   45 350 01 00:   COMPENSATED BULK DENSTIY
 PORD.DEC    45 890 12 00:   POROSITY DENSITY SANDSTONE
 CNC .DEC    42 890 03 00:   NEUTRON POROSITY SANDSTONE
~PARAMETER INFORMATION
#MNEM.UNIT          VALUE    DESCRIPTION
#----------   ------------   ------------------------------
 PD  .                 GL:   PERMANENT DATUM
 EPD .F              5156:   ELEVATION PERMANENT DATUM
 LMF .                 GL:   LOG MEASURED FROM
 DMF .                 GL:   DRILLING MEASURED FROM
 EGL .F              5156:   GROUND LEVEL
 DATE.        13-JAN-1985:   RUN DATE
 RUN .                  1:   RUN NUMBER
 DD  .F               450:   DEPTH DRILLER
 DL  .F               450:   DEPTH LOGGER
 BLI .F               448:   BOTTOM LOG INTERVAL
 TLI .F                20:   TOP LOG INTERVAL
 CS  .IN            8.625:   CASING SIZE
 CBD .F                20:   CASING BOTTOM DRILLER
 CBL .F                20:   CASING BOTTOM LOGGER
 BS  .IN            7.875:   BIT SIZE
 BSD .F               450:   BIT SIZE AT DEPTH
 DFT .            KCL-H2O:   DRILLING FLUID TYPE
 MSS .               TANK:   MUD SAMPLE SOURCE
 RMS .OHMM           0.16:   RESISTIVITY MUD SAMPLE
 MST .F                20:   MUD SAMPLE TEMPERATURE
 RMF .OHMM           0.12:   RESISTIVITY MUD FILTRATE SAMPLE
 MFST.F                20:   MUD FILTRATE SAMPLE TEMPERATURE
 RMC .OHMM            0.2:   RESISTIVITY MUD CAKE
 MCST.F                20:   MUD CAKE SAMPLE TEMPERATURE
 MFSS.               CALC:   MUD FILTRATE SAMPLE SOURCE
 MCSS.               CALC:   MUD CAKE SAMPLE SOURCE
 BHT .F               100:   BOTTOM HOLE TEMPERATURE
 TCS .HRS               2:   TIME CURCULATED STOPPED
 MRT .F               100:   MAXIMUM RECORDED TEMPERATURE
 LUN .               6270:   LOGGING UNIT NUMBER
 LUL .                 FM:   LOGGING UNIT LOCATION
 ENGI.          E. GOVETT:   RECORDING ENGINEER
 WITN.             GROOMS:   WITNESSED BY
 CLNT.            A2DTECH:   CLIENT CODE
 ORIG.        2" 5" PRINT:   ORIGIN OF DATA
 UWI .       490251100400:   UNIQUE WELL ID
 DICO. A2D Technologies, Inc.:   DIGITIZING COMPANY
 R1  . POROSITY WITH SANDSTONE:   REMARKS 1
~OTHER INFORMATION
~A   DEPT       AC        SPR         RD         RS       RMLL         GRD      CALD       CORR        DEN       PORD        CNC   
# ...
  134.0000   104.6702   -50.3068    24.4584    10.5166     8.9821   109.2629     8.0241     0.0271     2.4489     0.1394     0.2796
  134.5000   104.2236   -50.1605    24.7912    10.7348     9.0412   108.6543     8.0232     0.0301     2.4520     0.1382     0.2935
  135.0000   103.9244   -50.1659    25.1260    10.8061     9.0367   110.1492     8.0224     0.0316     2.4578     0.1361     0.3056
  135.5000   103.8505   -50.1702    25.2914    10.8780     9.0330   110.7436     8.0217     0.0285     2.4593     0.1336     0.3080
  136.0000   103.7143   -50.0239    25.4578    10.8735     9.0286   111.0372     8.0362     0.0209     2.4578     0.1312     0.3020
  136.5000   103.5705   -49.8776    25.4443    10.7945     9.4754   111.0300     8.0353     0.0088     2.4570     0.1325     0.2718
  137.0000   103.4254   -49.7313    25.6143    10.7908    10.0137   111.1716     8.0345    -0.0034     2.4570     0.1338     0.2670
  137.5000   103.2803   -49.7367    25.7828    10.9376    10.2923   111.1645     8.0337    -0.0141     2.4622     0.1323     0.2745
  138.0000   103.1353   -49.5904    25.7700    11.0112     9.7149   111.1574     8.0330    -0.0170     2.4675     0.1287     0.2848
  138.5000   103.0640   -49.4441    25.7478    11.1618     9.2641   109.1954     8.0474    -0.0035     2.4676     0.1266     0.2957
  139.0000   102.9203   -49.4495    25.5685    11.3135     9.3260   104.0738     8.0314     0.0085     2.4635     0.1275     0.3121
  139.5000   102.7739   -49.4538    25.3812    11.3887     9.5179   106.4727     8.0307     0.0206     2.4568     0.1302     0.3187
  140.0000   102.6288   -49.4581    25.1952    11.3840     9.5806   109.0220     8.0300     0.0130     2.4530     0.1339     0.3130
  140.5000   102.4850   -49.4624    25.0106    11.3802     9.6527   110.5186     8.0293    -0.0007     2.4507     0.1366     0.2906
  141.0000   102.6405   -49.4859    24.8271    11.3764     9.7748   111.2832     8.0286    -0.0037     2.4522     0.1370     0.2843
  141.5000   103.0965   -49.6227    24.6430    11.2938     9.7700   109.9011     8.0277     0.0083     2.4612     0.1338     0.2831
  142.0000   103.5525   -49.6274    24.6332    11.2117     9.4981   107.9391     8.0422     0.0190     2.4627     0.1294     0.2843
  142.5000   103.8582   -49.6313    24.2832    11.0523     9.1062   107.0298     8.0413     0.0143     2.4582     0.1310     0.2834
  143.0000   103.9385   -49.7862    23.9382    10.9721     9.0394   107.9550     8.0406     0.0037     2.4581     0.1325     0.2829
  143.5000   103.9437   -49.7907    23.5978    10.8924     9.0350   109.8709     8.0398     0.0127     2.4628     0.1313     0.2868
  144.0000   103.9489   -49.7959    23.2604    10.8133     9.1579   111.6683     8.0390     0.0217     2.4664     0.1280     0.2914
  144.5000   103.8789   -49.8002    22.9299    10.7347     9.7457   112.1141     8.0383     0.0156     2.4603     0.1277     0.2929
  145.0000   103.8843   -49.9551    22.4474    10.7303     9.8099   110.3008     8.0376     0.0125     2.4565     0.1314     0.2938
  145.5000   103.8896   -49.9594    22.1285    10.6524     9.8050   107.5851     8.0519     0.0170     2.4580     0.1335     0.2941
  146.0000   104.0461   -50.1145    21.8039    10.5751     9.5321   106.6757     8.0660     0.0245     2.4564     0.1326     0.2926
  146.5000   104.5020   -50.1197    21.2049    10.2102     8.7045   108.1724     8.0653     0.0290     2.4466     0.1346     0.2848
  147.0000   105.6342   -50.2746    20.3300     9.7625     8.1730   109.0676     8.0796     0.0290     2.4352     0.1416     0.2809
  147.5000   106.6161   -50.2790    19.4911     8.9394     7.8358   108.4572     8.0940     0.0229     2.4360     0.1454     0.2818
  148.0000   107.7483   -50.4339    18.4287     8.6309     7.4079   106.9463     8.0950     0.0062     2.4390     0.1433     0.2897
  148.5000   108.5799   -50.8901    17.5297     8.2754     6.9074   106.0369     8.1076    -0.0089     2.4427     0.1406     0.3010
  149.0000   109.3364   -51.3472    15.6899     7.8248     6.4406   106.1802     8.1067    -0.0150     2.4427     0.1421     0.3119
  149.5000   110.3183   -51.6527    14.3276     7.4367     6.0054   107.5564     8.1060    -0.0120     2.4366     0.1449     0.3224
  150.0000   111.8089   -51.9986    13.3816     7.0331     5.4840   108.7682     8.1053     0.0030     2.4267     0.1485     0.3351
  150.5000   113.5393   -52.2594    12.3338     6.2745     5.2059   109.3498     8.0881     0.0217     2.4229     0.1561     0.3454
  151.0000   115.2998   -52.7203    11.1432     5.5181     4.4477   108.8526     8.0733     0.0331     2.4093     0.1640     0.3578
  151.5000   118.0495   -53.0258     9.3748     4.9352     3.5589   107.1897     8.0724     0.0149     2.3896     0.1707     0.3712
  152.0000   122.9703   -53.3314     7.7024     4.1750     2.9485   106.2787     8.0716     0.0073     2.3699     0.1855     0.3941
  152.5000   129.2873   -53.6546     6.6076     3.3406     2.4258   105.9693     8.0707     0.0390     2.3450     0.2004     0.3990
  153.0000   131.3218   -54.0942     6.0768     3.2030     2.2464   104.1560     8.0696     0.0510     2.2913     0.2243     0.3836
  153.5000   131.3277   -54.5503     5.9916     3.2243     2.3446    95.5759     8.0687     0.0524     2.2596     0.2386     0.3700
  154.0000   129.6056   -54.7053     6.6948     3.3139     3.3838    91.9582     8.0679     0.0433     2.2338     0.2648     0.3588
  154.5000   126.0803   -55.0108     7.6406     3.5024     4.0533    95.8570     8.0823     0.0191     2.2512     0.2630     0.3703
  155.0000   123.3815   -55.3164     8.2156     4.1373     3.7274   105.4724     8.0661    -0.0097     2.2980     0.2419     0.3727
  155.5000   121.4340   -55.3208     8.7738     4.6877     3.5493   115.5388     8.0653     0.0190     2.3395     0.2207     0.3610
  156.0000   118.5849   -55.3262     9.1453     4.9543     4.5259   118.3895     8.0644     0.0401     2.3492     0.1990     0.3467
  156.5000   115.7359   -55.1799    10.6548     5.4973     6.4512   115.6718     8.0633     0.0370     2.3552     0.1963     0.3193
  157.0000   112.3609   -55.0336    12.2420     6.6450     7.4738   112.3548     8.0624     0.0232     2.3771     0.1836     0.3019
  157.5000   109.5869   -54.8863    15.2901     7.5648     7.8332   113.4437     8.0616     0.0157     2.4224     0.1722     0.2906
  158.0000   108.9918   -54.5904    16.0488     8.2206     7.4578   114.2923     8.0607     0.0111     2.4405     0.1477     0.2861
  158.5000   109.6018   -54.2937    15.7121     8.5095     7.2004   114.2814     8.0598     0.0065     2.4389     0.1423     0.2849
  159.0000   110.1367   -54.1474    15.3835     8.3302     7.0986   114.8741     8.0589     0.0049     2.4381     0.1429     0.2907
  159.5000   110.4478   -53.8506    15.1668     8.1554     6.9496   116.5196     8.0579     0.0049     2.4426     0.1429     0.3046
  160.0000   110.1439   -53.5537    15.2696     8.0401     7.1433   118.9169     8.0570     0.0063     2.4525     0.1398     0.3052
  160.5000   109.7742   -53.1062    15.6952     8.3886     7.3424   120.5623     8.0561     0.0171     2.4501     0.1360     0.2889
  161.0000   109.3293   -52.8094    16.0219     8.7334     7.4947   121.7566     8.0553     0.0334     2.4561     0.1364     0.2895
  161.5000   109.1099   -52.8148    16.2551     8.9146     7.6496   115.7306     8.0544     0.0500     2.4621     0.1331     0.2923
  162.0000   109.0392   -52.8193    16.4652     8.9746     7.4891   113.4663     8.0535     0.0423     2.4651     0.1294     0.3001
  162.5000   110.5492   -52.8246    14.3218     8.1384     6.2915   116.1643     8.0526     0.0257     2.4651     0.1280     0.3146
  163.0000   112.5837   -52.8290    12.8098     6.6958     5.2854   120.3661     8.0516     0.0211     2.4567     0.1310     0.3388
  163.5000   115.8203   -52.8333    12.1132     6.1982     4.7584   123.5153     8.0507     0.0225     2.4283     0.1452     0.3682
  164.0000   116.7277   -52.8377    11.3750     6.0698     5.3928   124.4090     8.0498     0.0225     2.3962     0.1592     0.3703
