~VERSION INFORMATION
 VERS.                2.0:   CWLS LOG ASCII STANDARD - VERSION 2.0
 WRAP.                 NO:   ONE LINE PER DEPTH STEP
~WELL INFORMATION
#MNEM.UNIT      DATA TYPE    INFORMATION
#----------   ------------   ------------------------------
 STRT.F           34.0000:   START DEPTH
 STOP.F         1014.5000:   STOP DEPTH
 STEP.F            0.5000:   STEP LENGTH
 NULL.          -999.2500:   NO VALUE
 COMP. FENIX & SCISSON INC:   COMPANY
 WELL.       NPR-3 #54-14:   WELL
 FLD .             TEAPOT:   FIELD
 LOC .      S14 T38N R78W:   LOCATION
 CNTY.            NATRONA:   COUNTY
 STAT.            WYOMING:   STATE
 CTRY. UNITED STATES OF AMERICA:   COUNTRY
 SRVC.            Unknown:   SERVICE COMPANY
 DATE.        20-APR-1978:   LOGDATE
 API .       490251062100:   API NUMBER
~CURVE INFORMATION
#MNEM.UNIT       API CODE    CURVE DESCRIPTION
#----------   ------------   ------------------------------
 DEPT.F                  :   
 SPR .MV     05 010 01 00:   SPONTANEOUS POTENTIAL FROM RES.
 SN  .OHMM   05 040 16 00:   SHORT NORMAL 16"
 ILD .OHMM   05 120 46 00:   INDUCTION LOG DEEP
 CALD.IN     45 280 60 00:   CALIPER
 GRD .GAPI   45 310 01 00:   GAMMA RAY FROM DENSITY LOG
 RHOB.G/C3   45 350 01 00:   BULK DENSITY
 DPOR.DEC    45 890 12 00:   DENSITY POROSITY SANDSTONE
 CORR.G/C3   45 356 01 00:   DENSITY CORRECTION
~PARAMETER INFORMATION
#MNEM.UNIT          VALUE    DESCRIPTION
#----------   ------------   ------------------------------
 PD  .                 GL:   PERMANENT DATUM
 EPD .F              5268:   ELEVATION PERMANENT DATUM
 LMF .                 KB:   LOG MEASURED FROM
 DAPD.F                 4:   FEET ABOVE PERMANENT DATUM
 DMF .                 KB:   DRILLING MEASURED FROM
 EKB .F              5272:   KELLING BUSHING
 EGL .F              5268:   GROUND LEVEL
 DATE.          4-20-1978:   RUN DATE
 RUN .                  1:   RUN NUMBER
 DD  .F              1030:   DEPTH DRILLER
 DL  .F              1021:   DEPTH LOGGER
 BLI .F              1014:   BOTTOM LOG INTERVAL
 TLI .F                50:   TOP LOG INTERVAL
 CS  .IN            8.625:   CASING SIZE
 CBD .F                40:   CASING BOTTOM DRILLER
 BS  .IN            7.875:   BIT SIZE
 BSD .F              1030:   BIT SIZE AT DEPTH
 DFT .                KCL:   DRILLING FLUID TYPE
 DFD .                8.6:   DRILLING FLUID DENSITY
 DFV .                 33:   DRILLING FLUID VISCOSITY
 DFPH.                 10:   DRILLING FLUID PH
 DFL .                  8:   DRILLING FLUID LOSS
 MSS .          FLOW LINE:   MUD SAMPLE SOURCE
 RMS .OHMM            .34:   RESISTIVITY MUD SAMPLE
 MST .F                64:   MUD SAMPLE TEMPERATURE
 RMF .OHMM            .36:   RESISTIVITY MUD FILTRATE SAMPLE
 MFST.F                60:   MUD FILTRATE SAMPLE TEMPERATURE
 RMC .OHMM            .48:   RESISTIVITY MUD CAKE
 MCST.F                68:   MUD CAKE SAMPLE TEMPERATURE
 MFSS.               MEAS:   MUD FILTRATE SAMPLE SOURCE
 MCSS.               MEAS:   MUD CAKE SAMPLE SOURCE
 RMB .OHMM            .29:   RESISTIVITY MUD AT BHT
 BHT .F                74:   BOTTOM HOLE TEMPERATURE
 TCS .HRS               6:   TIME CURCULATED STOPPED
 MRT .F                74:   MAXIMUM RECORDED TEMPERATURE
 LUN .               2958:   LOGGING UNIT NUMBER
 LUL .               CASP:   LOGGING UNIT LOCATION
 ENGI.             MILLER:   RECORDING ENGINEER
 WITN.           MCGINELY:   WITNESSED BY
 CLNT.            A2DTECH:   CLIENT CODE
 ORIG.       2", 5" PRINT:   ORIGIN OF DATA
 UWI .       490251062100:   UNIQUE WELL ID
 DICO. A2D Technologies, Inc.:   DIGITIZING COMPANY
~OTHER INFORMATION
~A   DEPT      SPR         SN        ILD       CALD         GRD      RHOB       DPOR       CORR   
# ...
  155.5000   -32.7153     7.2858     8.0809     7.5406   109.9261     2.4202     0.1446     0.0052
  156.0000   -32.7546     7.2573     8.0866     7.6332   107.3208     2.4262     0.1380     0.0081
  156.5000   -32.7939     7.2290     8.0922     7.7252   105.9390     2.4355     0.1314     0.0110
  157.0000   -32.8332     7.2007     8.0979     7.8172   101.7068     2.4527     0.1249     0.0136
  157.5000   -32.8726     7.1726     8.1036     7.9092    97.1507     2.4699     0.1183     0.0084
  158.0000   -32.9119     7.1446     8.1093     8.0006    92.6329     2.4866     0.1104    -0.0010
  158.5000   -32.9512     7.1167     8.1150     8.0603    95.9523     2.4749     0.1184     0.0042
  159.0000   -32.9906     7.0889     8.1207     8.0682   100.2441     2.4545     0.1315     0.0122
  159.5000   -33.0299     7.0612     8.1299     8.0752   101.9513     2.4453     0.1323     0.0202
  160.0000   -33.0692     7.0336     8.1062     8.0521   103.1817     2.4422     0.1334     0.0234
  160.5000   -33.1085     7.0008     8.0549     8.0286   102.4466     2.4393     0.1340     0.0232
  161.0000   -33.1479     6.9539     8.0039     8.0052   100.8265     2.4363     0.1325     0.0222
  161.5000   -33.1670     6.9074     7.9533     7.9821   100.2271     2.4409     0.1308     0.0212
  162.0000   -33.1674     6.8612     7.9030     7.9570   100.1356     2.4479     0.1302     0.0202
  162.5000   -33.1674     6.8154     7.8530     7.8822    98.7990     2.4505     0.1308     0.0193
  163.0000   -33.1673     6.7698     7.8033     7.8018    97.5675     2.4472     0.1314     0.0186
  163.5000   -33.1673     6.7245     7.7629     7.7214    98.4007     2.4437     0.1295     0.0180
  164.0000   -33.1673     6.6795     7.6637     7.6411    99.2747     2.4488     0.1273     0.0174
  164.5000   -33.1673     6.6349     7.5643     7.5606   100.6489     2.4580     0.1261     0.0156
  165.0000   -33.1673     6.5905     7.4663     7.4805   102.8037     2.4516     0.1284     0.0137
  165.5000   -33.1673     6.5464     7.3695     7.4180   104.9456     2.4497     0.1283     0.0118
  166.0000   -33.1673     6.5145     7.2740     7.4137   106.9316     2.4555     0.1269     0.0099
  166.5000   -33.1673     6.5082     7.1797     7.4085   106.1907     2.4501     0.1302     0.0081
  167.0000   -33.1673     6.5023     7.0786     7.4032   104.1955     2.4434     0.1364     0.0062
  167.5000   -33.1673     6.4964     7.0786     7.4039   103.7126     2.4378     0.1368     0.0043
  168.0000   -33.1673     6.4906     7.1611     7.4100   104.2482     2.4359     0.1380     0.0024
  168.5000   -33.1673     6.4847     7.2351     7.4161   104.3429     2.4290     0.1442     0.0005
  169.0000   -33.1673     6.4788     7.3098     7.4222   102.5111     2.4210     0.1456    -0.0014
  169.5000   -33.1673     6.4730     7.3853     7.4284    99.0935     2.4168     0.1442    -0.0025
  170.0000   -33.1673     6.4672     7.4616     7.4347    95.7294     2.4215     0.1453    -0.0013
  170.5000   -33.1673     6.4611     7.5386     7.4397    94.0860     2.4232     0.1475     0.0005
  171.0000   -33.1673     6.4555     7.6256     7.4204    96.4519     2.4167     0.1496     0.0024
  171.5000   -33.1673     6.3669     7.6181     7.3962    99.2132     2.4085     0.1535     0.0043
  172.0000   -33.1673     6.2367     7.5507     7.2931   100.9179     2.4002     0.1595     0.0062
  172.5000   -33.1673     6.1091     7.2749     7.1907   102.4265     2.3937     0.1610     0.0115
  173.0000   -33.1673     5.9842     7.0555     7.1418   100.8442     2.3891     0.1623     0.0253
  173.5000   -33.1673     5.8618     6.8401     7.1846    98.7623     2.3848     0.1636     0.0390
  174.0000   -33.1673     5.7419     6.6314     7.2991    97.3183     2.3955     0.1572     0.0439
  174.5000   -33.1672     5.6244     6.4291     7.4236    97.1779     2.4094     0.1466     0.0484
  175.0000   -33.1678     5.5094     6.2330     7.5479    98.6861     2.4186     0.1435     0.0567
  175.5000   -33.1961     5.3967     6.0428     7.6727   101.2067     2.4248     0.1404     0.0658
  176.0000   -33.2678     5.2863     5.8585     7.7417   103.7405     2.4297     0.1385     0.0718
  176.5000   -33.3388     5.2203     5.6798     7.7798   104.8889     2.4308     0.1407     0.0772
  177.0000   -33.4100     5.1724     5.5687     7.8174   105.7567     2.4279     0.1404     0.0825
  177.5000   -33.4812     5.1724     5.5687     7.8549   107.5348     2.4332     0.1329     0.0879
  178.0000   -33.5523     5.2170     5.6361     7.8926   109.9691     2.4502     0.1255     0.0871
  178.5000   -33.6235     5.3077     5.6987     7.9302   111.3328     2.4673     0.1160     0.0657
  179.0000   -33.6946     5.3999     5.7620     7.9679   106.9977     2.4699     0.1246     0.0418
  179.5000   -33.7658     5.4937     5.8261     8.0055   103.4000     2.4460     0.1364     0.0177
  180.0000   -33.8371     5.5891     5.8908     8.0373   102.8478     2.4250     0.1484     0.0089
  180.5000   -33.9082     5.6862     5.9563     8.0365   103.1293     2.4111     0.1477     0.0109
  181.0000   -33.9653     5.7781     5.9994     8.0363   101.9836     2.4180     0.1453     0.0158
  181.5000   -33.9555     5.8316     6.0093     8.0268    99.6165     2.4249     0.1429     0.0212
  182.0000   -33.9465     5.8263     6.0192     8.0037    97.2755     2.4287     0.1405     0.0266
  182.5000   -33.9378     5.8180     6.0291     7.9809    96.2838     2.4318     0.1380     0.0295
  183.0000   -33.9290     5.8098     6.0390     7.9580   100.0543     2.4350     0.1354     0.0295
  183.5000   -33.9203     5.8015     6.0490     7.9351   105.2638     2.4383     0.1349     0.0295
  184.0000   -33.9115     5.7933     6.0590     7.9122   106.2754     2.4388     0.1345     0.0295
  184.5000   -33.9028     5.7851     6.0690     7.8893   105.7764     2.4385     0.1342     0.0295
  185.0000   -33.8940     5.7785     6.0790     7.8664   104.6260     2.4381     0.1338     0.0285
  185.5000   -33.8853     5.8017     6.0891     7.8435    99.1792     2.4420     0.1336     0.0257
  186.0000   -33.8765     5.8222     6.0989     7.8205    93.2662     2.4467     0.1343     0.0229
  186.5000   -33.8678     5.8427     6.1187     7.7983    91.9808     2.4402     0.1356     0.0202
  187.0000   -33.8590     5.8633     6.1746     7.7886    94.7388     2.4331     0.1368     0.0175
  187.5000   -33.8503     5.8840     6.2309     7.7795    97.8856     2.4354     0.1343     0.0175
  188.0000   -33.8415     5.9048     6.2879     7.7702   100.5550     2.4529     0.1276     0.0175
  188.5000   -33.8328     5.9256     6.3454     7.7616    96.0091     2.4715     0.1184     0.0162
  189.0000   -33.8240     5.9403     6.4030     7.7251    92.5308     2.4880     0.1099     0.0134
  189.5000   -33.8153     5.9403     6.4547     7.6785    92.1745     2.4790     0.1196     0.0107
  190.0000   -33.8065     5.9403     6.4547     7.6299    96.7381     2.4611     0.1303     0.0080
  190.5000   -33.7978     5.9403     6.4547     7.6072    96.9928     2.4433     0.1409     0.0052
  191.0000   -33.7890     5.8387     6.3954     7.5910    98.4797     2.4254     0.1516     0.0035
  191.5000   -33.7803     5.7082     6.2709     7.5750   102.7174     2.4074     0.1543     0.0038
  192.0000   -33.7715     5.5805     6.1459     7.5590   100.6823     2.4042     0.1508     0.0042
  192.5000   -33.7628     5.4557     6.0234     7.5429    97.3315     2.4149     0.1476     0.0045
  193.0000   -33.7540     5.3337     5.9034     7.5268    95.4317     2.4113     0.1515     0.0049
  193.5000   -33.7453     5.2687     5.7858     7.5108    97.0090     2.4066     0.1540     0.0053
  194.0000   -33.7365     5.2203     5.6705     7.4947    99.4244     2.4071     0.1507     0.0054
  194.5000   -33.7278     5.2203     5.5684     7.4754    99.6235     2.4140     0.1491     0.0052
  195.0000   -33.7190     5.2177     5.5676     7.4290    98.5518     2.4120     0.1515     0.0050
  195.5000   -33.7103     5.2148     5.5600     7.3824    97.3721     2.4059     0.1536     0.0049
