~VERSION INFORMATION
 VERS.                2.0:   CWLS LOG ASCII STANDARD - VERSION 2.0
 WRAP.                 NO:   ONE LINE PER DEPTH STEP
~WELL INFORMATION
#MNEM.UNIT      DATA TYPE    INFORMATION
#----------   ------------   ------------------------------
 STRT.F           36.0000:   START DEPTH
 STOP.F          592.0000:   STOP DEPTH
 STEP.F            0.5000:   STEP LENGTH
 NULL.          -999.2500:   NO VALUE
 COMP. FENIX & SCISSON INC:   COMPANY
 WELL.           S #35-10:   WELL
 FLD .              NPR-3:   FIELD
 LOC .      S10 T38N R78W:   LOCATION
 CNTY.            NATRONA:   COUNTY
 STAT.            WYOMING:   STATE
 CTRY. UNITED STATES OF AMERICA:   COUNTRY
 SRVC.              Welex:   SERVICE COMPANY
 DATE.        07-MAR-1977:   LOGDATE
 API .       490251029000:   API NUMBER
~CURVE INFORMATION
#MNEM.UNIT       API CODE    CURVE DESCRIPTION
#----------   ------------   ------------------------------
 DEPT.F                  :   
 SPR .MV     07 010 01 00:   SPONTANEOUS POTENTIAL
 ILM .OHMM   07 120 44 00:   INDUCTION LOG MEDIUM
 ILD .OHMM   07 120 46 00:   INDUCTION LOG DEEP
 SGRD.OHMM   07 220 05 00:   SHALLOW GUARD RESISTIVITY
 CALD.IN     45 280 60 00:   CALIPER FROM DENSITY LOG
 RHOB.G/C3   45 350 01 00:   BULK DENSITY
 CORR.G/C3   45 356 01 00:   DENSITY CORRECTION
 DPHI.DEC    45 890 12 00:   DENSITY POROSITY SANDSTONE
 GRD .GAPI   45 310 01 00:   GAMMA RAY FROM DENSITY LOG
~PARAMETER INFORMATION
#MNEM.UNIT          VALUE    DESCRIPTION
#----------   ------------   ------------------------------
 PD  .                 GL:   PERMANENT DATUM
 EPD .F              5234:   ELEVATION PERMANENT DATUM
 LMF .                 GL:   LOG MEASURED FROM
 DMF .                 GL:   DRILLING MEASURED FROM
 EGL .F              5234:   GROUND LEVEL
 DATE.             3-7-77:   RUN DATE
 RUN .                  1:   RUN NUMBER
 DD  .F               600:   DEPTH DRILLER
 DL  .F               593:   DEPTH LOGGER
 BLI .F               591:   BOTTOM LOG INTERVAL
 TLI .F                35:   TOP LOG INTERVAL
 CS  .IN            8.625:   CASING SIZE
 CBD .F                42:   CASING BOTTOM DRILLER
 CBL .F                42:   CASING BOTTOM LOGGER
 BS  .IN            7.875:   BIT SIZE
 BSD .F               600:   BIT SIZE AT DEPTH
 DFT .            KCL MUD:   DRILLING FLUID TYPE
 MSS .          FLOW LINE:   MUD SAMPLE SOURCE
 RMS .OHMM            .40:   RESISTIVITY MUD SAMPLE
 MST .F                58:   MUD SAMPLE TEMPERATURE
 RMF .OHMM            .33:   RESISTIVITY MUD FILTRATE SAMPLE
 MFST.F                58:   MUD FILTRATE SAMPLE TEMPERATURE
 RMC .OHMM            .44:   RESISTIVITY MUD CAKE
 MCST.F                58:   MUD CAKE SAMPLE TEMPERATURE
 MFSS.           FANN KIT:   MUD FILTRATE SAMPLE SOURCE
 MCSS.           FANN KIT:   MUD CAKE SAMPLE SOURCE
 RMB .OHMM            .31:   RESISTIVITY MUD AT BHT
 BHT .F                62:   BOTTOM HOLE TEMPERATURE
 TCS .HRS               3:   TIME CURCULATED STOPPED
 MRT .F                62:   MAXIMUM RECORDED TEMPERATURE
 LUN .               8611:   LOGGING UNIT NUMBER
 LUL .           GILLETTE:   LOGGING UNIT LOCATION
 ENGI.            C. DOAK:   RECORDING ENGINEER
 WITN.      L. STUEBINGER:   WITNESSED BY
 CLNT.            A2DTECH:   CLIENT CODE
 ORIG.        2" 5" PRINT:   ORIGIN OF DATA
 UWI .       490251029000:   UNIQUE WELL ID
 DICO. A2D Technologies, Inc.:   DIGITIZING COMPANY
~OTHER INFORMATION
~A   DEPT      SPR        ILM        ILD       SGRD         CALD       RHOB      CORR        DPHI       GRD  
# ...
  364.5000   -53.6128     8.7549     6.5117     9.9140     7.8787     2.4747     0.0338     0.1026   138.3247
  365.0000   -53.8614     8.9039     6.6202     9.5728     7.8787     2.4813     0.0363     0.0989   136.6940
  365.5000   -54.1099     8.9624     6.2671     9.2974     7.8799     2.4875     0.0399     0.0958   135.9335
  366.0000   -54.3586     8.5371     6.0947    12.0203     7.8818     2.4886     0.0375     0.0949   139.0258
  366.5000   -54.6060     8.1768     5.8354    10.7099     7.8837     2.4887     0.0349     0.0949   141.3018
  367.0000   -54.8554     7.1682     5.5872     9.0148     7.8855     2.4864     0.0323     0.0958   141.9414
  367.5000   -54.8196     6.3456     5.3496     7.5880     7.8874     2.4832     0.0318     0.0989   142.0532
  368.0000   -54.5455     5.6164     5.1221     4.0719     7.8893     2.4701     0.0318     0.1018   140.6539
  368.5000   -54.2680     6.0729     5.0747     4.1855     7.8911     2.4459     0.0297     0.1147   137.8712
  369.0000   -53.9902     6.5902     5.0734     7.8967     7.8930     2.4148     0.0227     0.1271   135.6094
  369.5000   -53.7129     6.9961     5.1521     9.5093     7.8949     2.3884     0.0193     0.1416   136.0465
  370.0000   -53.4356     6.9961     5.2765     9.9140     7.8967     2.4006     0.0182     0.1364   138.4029
  370.5000   -53.1583     6.9953     5.4104     9.0290     7.8986     2.4200     0.0183     0.1283   140.8779
  371.0000   -52.8809     7.1298     5.6760     6.8689     7.9005     2.4395     0.0228     0.1202   144.7361
  371.5000   -52.6037     7.3848     5.9734     8.4611     7.9024     2.4557     0.0274     0.1121   146.5516
  372.0000   -52.3400     7.6484     6.2286     9.6195     7.9042     2.4657     0.0319     0.1079   141.6536
  372.5000   -52.1285     7.9214     6.4529    10.0054     7.9061     2.4759     0.0364     0.1046   137.2464
  373.0000   -51.9167     8.2039     6.6857    10.1161     7.9080     2.4859     0.0362     0.0944   131.5213
  373.5000   -51.7049     8.4966     6.9263    10.2473     7.9098     2.4911     0.0330     0.0933   129.4519
  374.0000   -51.4932     8.7004     7.1228    10.3806     7.9117     2.4862     0.0300     0.0952   129.6478
  374.5000   -51.2812     8.8109     7.2396    10.5149     7.9135     2.4882     0.0311     0.0948   130.9733
  375.0000   -51.0849     8.9253     7.3597    10.5724     7.9155     2.4937     0.0336     0.0915   133.3828
  375.5000   -50.8980     9.0408     7.4815    10.4338     7.9180     2.4992     0.0359     0.0891   135.7229
  376.0000   -50.7112     9.1284     7.5982    10.3356     7.9405     2.4936     0.0349     0.0920   137.5957
  376.5000   -50.5283     9.0745     7.7286    10.2845     7.9431     2.4888     0.0297     0.0942   136.7834
  377.0000   -50.4425     9.0317     7.8822    10.6007     7.9467     2.4907     0.0258     0.0934   136.3618
  377.5000   -50.6043     8.9892     7.9548    10.7673     7.9506     2.4924     0.0270     0.0921   137.0655
  378.0000   -50.7613     8.9468     7.9548    10.3848     7.9544     2.4926     0.0278     0.0914   136.7601
  378.5000   -50.9191     8.9046     7.9549    10.1082     7.9583     2.4814     0.0245     0.0986   135.5252
  379.0000   -51.0766     8.8806     7.9548    10.0054     7.9621     2.4698     0.0210     0.1060   133.2127
  379.5000   -51.2342     8.9953     7.9548    10.3467     7.9660     2.4648     0.0224     0.1105   130.8390
  380.0000   -51.3917     9.0767     7.9548    10.5346     7.9698     2.4731     0.0288     0.1017   130.2689
  380.5000   -51.5556     9.1587     7.9548    10.7260     7.9737     2.4823     0.0353     0.0961   134.7662
  381.0000   -51.5546     9.2125     8.0252    10.9667     7.9777     2.4894     0.0370     0.0953   136.2466
  381.5000   -51.5065     9.1434     8.1014    10.7754     7.9744     2.4876     0.0331     0.0958   135.6671
  382.0000   -51.4568     9.0537     8.1783    10.4495     7.9699     2.4860     0.0293     0.0967   132.4357
  382.5000   -51.4094     8.9645     8.2559    10.1335     7.9653     2.4843     0.0255     0.0975   128.7157
  383.0000   -51.2737     8.8772     8.3343     9.8271     7.9608     2.4827     0.0239     0.0984   129.1491
  383.5000   -51.0989     8.7995     8.4135     9.6449     7.9563     2.4811     0.0239     0.0993   133.4333
  384.0000   -50.9221     9.1215     8.4824    10.7021     7.9518     2.4796     0.0264     0.0988   135.6550
  384.5000   -50.7457     9.4227     8.2651    11.5929     7.9473     2.4846     0.0342     0.0968   134.6249
  385.0000   -50.5703     9.7338     8.0404    12.0423     7.9428     2.4942     0.0420     0.0920   133.5044
  385.5000   -50.3903     9.5502     7.7654    12.2429     7.9383     2.5031     0.0497     0.0875   132.4644
  386.0000   -50.0719     9.2991     7.3297    11.8209     7.9338     2.5010     0.0574     0.0855   133.1285
  386.5000   -49.7529     8.7349     6.9282    12.2443     7.9292     2.4932     0.0651     0.0899   136.1082
  387.0000   -49.4349     8.0677     6.5309    12.6042     7.9247     2.4853     0.0729     0.0975   137.4671
  387.5000   -49.1169     7.4515     6.1564     7.9617     7.9202     2.4685     0.0807     0.1074   131.0349
  388.0000   -48.8012     6.8713     5.9312     4.7522     7.9179     2.4405     0.0885     0.1169   124.0927
  388.5000   -48.5873     6.5455     6.0084     3.4839     7.9169     2.4075     0.0893     0.1457   123.3808
  389.0000   -48.5405     8.8033     6.1529     8.1993     7.9160     2.3431     0.0811     0.1790   124.6468
  389.5000   -48.4916     9.7111     6.5080    13.6676     7.9151     2.2995     0.0608     0.2072   125.1477
  390.0000   -48.4426    10.3833     6.8800    13.7935     7.9141     2.3015     0.0329     0.1802   125.3062
  390.5000   -48.3338    11.0561     7.2733    13.7100     7.9131     2.5123     0.0435     0.0957   123.7581
  391.0000   -48.0878    11.6695     7.6140    13.5428     7.9122     2.5105     0.0494     0.0831   121.2976
  391.5000   -47.8441    12.3169     8.0580    13.7405     7.9112     2.5078     0.0464     0.0840   123.1297
  392.0000   -47.6003    12.7284     8.5325    14.0026     7.9103     2.5045     0.0474     0.0859   125.1329
  392.5000   -47.3615    12.9716     9.0352    14.1831     7.9093     2.5036     0.0520     0.0845   124.9095
  393.0000   -47.1223    13.2188     9.3750    13.8966     7.9084     2.5143     0.0565     0.0804   118.2583
  393.5000   -46.8848    13.4697     9.6660    13.7030     7.9074     2.5197     0.0618     0.0763   111.3762
  394.0000   -46.3925    13.7279     9.9658    13.5124     7.9065     2.5179     0.0676     0.0771   104.4527
  394.5000   -45.8014    14.0361    10.2838    13.3246     7.9055     2.5134     0.0663     0.0802    97.5042
  395.0000   -45.2119    14.4852    10.8432    13.1751     7.9046     2.5088     0.0652     0.0834    87.0141
  395.5000   -44.6092    15.3423    11.4510    13.2966     7.9036     2.5020     0.0641     0.0871    81.5882
  396.0000   -43.5825    16.6866    12.4291    16.9195     7.9027     2.4905     0.0650     0.0957    77.6379
  396.5000   -42.5553    20.4600    13.9573    24.5851     7.9017     2.4721     0.0692     0.1043    77.5554
  397.0000   -41.5299    25.5642    15.6734    23.3540     7.9008     2.4449     0.0732     0.1117    80.2129
  397.5000   -40.4779    30.9224    17.6005    22.2763     7.9001     2.4333     0.0759     0.1288    81.7141
  398.0000   -39.8338    26.9076    19.5465    21.2288     7.9005     2.4175     0.0825     0.1452    81.1164
  398.5000   -39.0877    16.8235    21.2587    22.6368     7.8434     2.3812     0.0890     0.1584    80.0956
  399.0000   -38.3424    18.5654    23.1593    21.1758     7.7769     2.3892     0.0955     0.1542    79.6731
  399.5000   -37.5944    19.2033    25.2298    19.0199     7.7107     2.3981     0.1019     0.1487    82.0574
  400.0000   -36.8465    17.1870    25.6051    17.9975     7.6442     2.4016     0.1030     0.1565    86.2313
  400.5000   -36.0983    15.3987    25.7541    19.5842     7.5653     2.3600     0.0979     0.1684    90.4477
