~VERSION INFORMATION
 VERS.                2.0:   CWLS LOG ASCII STANDARD - VERSION 2.0
 WRAP.                 NO:   ONE LINE PER DEPTH STEP
~WELL INFORMATION
#MNEM.UNIT      DATA TYPE    INFORMATION
#----------   ------------   ------------------------------
 STRT.F           20.0000:   START DEPTH
 STOP.F          672.0000:   STOP DEPTH
 STEP.F            0.5000:   STEP LENGTH
 NULL.          -999.2500:   NO VALUE
 COMP.              FENIX:   COMPANY
 WELL.    NPR ##3 23-S-11:   WELL
 FLD .        TEAPOT DOME:   FIELD
 LOC .      S11 T38N R78W:   LOCATION
 CNTY.            NATRONA:   COUNTY
 STAT.            WYOMING:   STATE
 CTRY. UNITED STATES OF AMERICA:   COUNTRY
 SRVC.           BIRDWELL:   SERVICE COMPANY
 DATE.        05-FEB-1978:   LOGDATE
 API .       490251057300:   API NUMBER
~CURVE INFORMATION
#MNEM.UNIT       API CODE    CURVE DESCRIPTION
#----------   ------------   ------------------------------
 DEPT.F                  :   
 ILD .OHMM   05 120 46 00:   INDUCTION LOG DEEP
 SN  .OHMM   05 040 16 00:   SHORT NORMAL 16"
 SPR .MV     05 010 01 00:   SPONTANEOUS POTENTIAL FROM RES.
 CALD.IN     45 280 60 00:   CALIPER FROM DENSITY LOG
 CORR.G/C3   45 356 01 00:   DENSITY CORRECTION
 DPHI.DEC    45 890 10 00:   DENSITY POROSITY LIMESTONE
 GRD .GAPI   45 310 01 00:   GAMMA RAY FROM DENSITY LOG
 RHOB.G/C3   45 350 01 00:   BULK DENSITY
~PARAMETER INFORMATION
#MNEM.UNIT          VALUE    DESCRIPTION
#----------   ------------   ------------------------------
 PD  .                 GL:   PERMANENT DATUM
 EPD .F              5175:   ELEVATION PERMANENT DATUM
 LMF .                 KB:   LOG MEASURED FROM
 DMF .                 KB:   DRILLING MEASURED FROM
 EKB .F              5178:   KELLING BUSHING
 EGL .F              5175:   GROUND LEVEL
 DATE.        05-FEB-1978:   RUN DATE
 RUN .                  1:   RUN NUMBER
 DD  .F               670:   DEPTH DRILLER
 DL  .F               675:   DEPTH LOGGER
 BLI .F               670:   BOTTOM LOG INTERVAL
 TLI .F                40:   TOP LOG INTERVAL
 CS  .IN            8.625:   CASING SIZE
 CBD .F                39:   CASING BOTTOM DRILLER
 CBL .F                40:   CASING BOTTOM LOGGER
 BS  .IN            7.875:   BIT SIZE
 BSD .F               670:   BIT SIZE AT DEPTH
 DFT .                KCL:   DRILLING FLUID TYPE
 DFD .                8.4:   DRILLING FLUID DENSITY
 DFV .                 32:   DRILLING FLUID VISCOSITY
 DFPH.                  8:   DRILLING FLUID PH
 DFL .                8.8:   DRILLING FLUID LOSS
 MSS .           FLOWLINE:   MUD SAMPLE SOURCE
 RMS .OHMM           0.58:   RESISTIVITY MUD SAMPLE
 MST .F                62:   MUD SAMPLE TEMPERATURE
 RMF .OHMM           0.58:   RESISTIVITY MUD FILTRATE SAMPLE
 MFST.F                62:   MUD FILTRATE SAMPLE TEMPERATURE
 RMC .OHMM            0.9:   RESISTIVITY MUD CAKE
 MCST.F                66:   MUD CAKE SAMPLE TEMPERATURE
 MFSS.               MEAS:   MUD FILTRATE SAMPLE SOURCE
 RMB .OHMM           0.55:   RESISTIVITY MUD AT BHT
 BHT .F                72:   BOTTOM HOLE TEMPERATURE
 TCS .HRS               1:   TIME CURCULATED STOPPED
 MRT .F                72:   MAXIMUM RECORDED TEMPERATURE
 LUN .               2958:   LOGGING UNIT NUMBER
 LUL .               CASP:   LOGGING UNIT LOCATION
 ENGI.            POINTER:   RECORDING ENGINEER
 WITN.         HARRINGTON:   WITNESSED BY
 CLNT.            A2DTECH:   CLIENT CODE
 ORIG.           5" PRINT:   ORIGIN OF DATA
 UWI .       490251057300:   UNIQUE WELL ID
 DICO. A2D Technologies, Inc.:   DIGITIZING COMPANY
~OTHER INFORMATION
~A   DEPT      ILD         SN        SPR       CALD       CORR       DPHI         GRD      RHOB   
# ...
   60.5000     9.4389     7.6256    -8.9703     8.9997     0.1376     0.4257    48.7952     1.9040
   61.0000     9.1135     7.5721    -8.6698     8.6072     0.2095     0.4115    47.8916     1.9476
   61.5000     8.8606     7.7840    -8.5233     9.6918     0.2450     0.3698    47.4398     2.0084
   62.0000     8.5552     8.0050    -8.5965    10.0078     0.2500     0.3749    47.2892     2.0377
   62.5000     8.3177     8.1691    -8.6890    10.2635     0.1878     0.3986    47.4398     2.0197
   63.0000     8.0309     8.2821    -8.8476    10.4440     0.1720     0.4083    47.5904     2.0040
   63.5000     7.9172     8.3968    -9.4645    10.5792     0.1735     0.4056    47.5904     2.0016
   64.0000     8.1359     8.3957   -10.3850    10.6542     0.1728     0.4026    47.8916     2.0017
   64.5000     8.7166     8.2788   -11.6104    10.7141     0.1675     0.4033    49.2470     2.0017
   65.0000     9.5352     8.1071   -13.4456    10.6536     0.1308     0.4359    52.1084     1.9807
   65.5000    10.5033     8.2957   -14.8235     9.8099     0.0641     0.4549    59.0361     1.8597
   66.0000    11.3356     9.1197   -15.2867     9.3126    -0.0486     0.4661    61.1446     1.8274
   66.5000    12.2236     9.9104   -15.4451     8.5894    -0.0843     0.4347    60.0904     1.8094
   67.0000    12.8265    10.6213   -15.9097     8.3783     0.0116     0.4002    58.8855     1.8906
   67.5000    13.2738    11.3832   -16.6778     8.1972     0.0716     0.2986    58.7349     2.0634
   68.0000    13.6417    12.0315   -17.9032     8.1066     0.0693     0.2112    60.8434     2.2737
   68.5000    13.9229    12.6288   -18.9762     8.0611     0.0454     0.2172    66.7169     2.2970
   69.0000    14.2012    13.1640   -19.7443     8.0307     0.0161     0.2226    70.4819     2.2775
   69.5000    14.4052    13.5328   -19.7502     7.9701     0.0131     0.2314    70.6325     2.2708
   70.0000    14.6081    13.9115   -19.6037     7.9698     0.0244     0.2172    69.8795     2.2790
   70.5000    14.7944    14.0069   -19.6098     7.9394     0.0251     0.1796    66.9353     2.3429
   71.0000    14.7885    14.1360   -19.4630     7.9241     0.0214     0.1784    61.7470     2.3444
   71.5000    14.7831    14.2974   -19.4704     7.9087     0.0139     0.1857    60.2359     2.3407
   72.0000    14.7766    14.3950   -19.4763     7.9084     0.0124     0.1892    60.8434     2.3369
   72.5000    14.7708    14.5981   -19.6346     7.9232     0.0139     0.1898    63.8554     2.3339
   73.0000    14.7646    14.6938   -20.5552     7.9078     0.0116     0.1895    65.0602     2.3332
   73.5000    14.7585    14.6918   -21.6281     7.9075     0.0064     0.1892    65.0602     2.3324
   74.0000    14.7524    14.6895   -21.9390     7.9072     0.0011     0.1896    65.6627     2.3339
   74.5000    14.7455    14.6875   -22.0987     7.9220    -0.0004     0.1917    66.2651     2.3355
   75.0000    14.7396    14.6856   -22.2571     7.9066     0.0049     0.1860    67.0181     2.3377
   75.5000    14.6318    14.6836   -22.2630     7.9063     0.0199     0.1712    68.0723     2.3603
   76.0000    14.6260    14.5800   -22.7262     7.9060     0.0124     0.1591    67.5602     2.3760
   76.5000    14.6199    14.4768   -22.8845     7.9208     0.0131     0.1538    63.7048     2.4039
   77.0000    14.6139    14.3747   -23.3478     7.9356     0.0271     0.1622    62.1988     2.3926
   77.5000    14.5059    14.3730   -23.5061     7.9352     0.0356     0.1484    62.5000     2.3851
   78.0000    14.5001    14.3496   -23.6646     7.9500     0.0326     0.1448    66.1647     2.4076
   78.5000    14.3946    14.2696   -24.1291     7.9346     0.0213     0.1628    68.3735     2.3890
   79.0000    14.2884    14.3669   -24.4399     7.9193     0.0206     0.1755    66.8675     2.3596
   79.5000    14.2832    14.3651   -24.7507     7.9190     0.0236     0.1809    66.1145     2.3483
   80.0000    14.2772    14.3631   -25.3663     7.9186     0.0259     0.1821    65.6627     2.3491
   80.5000    14.1727    14.3611   -25.8296     7.9334     0.0274     0.1815    67.1687     2.3491
   81.0000    14.2019    14.3589   -26.4452     7.9331     0.0281     0.1809    67.6205     2.3491
   81.5000    14.2594    14.4110   -27.2337     7.9328     0.0266     0.1809    67.1687     2.3491
   82.0000    14.2841    14.4551   -27.8304     7.9325     0.0199     0.1803    65.9639     2.3491
   82.5000    14.4466    14.5870   -27.6824     7.9473     0.0176     0.1809    66.2651     2.3476
   83.0000    14.5080    14.6531   -27.6898     7.9470     0.0191     0.1818    63.8554     2.3469
   83.5000    14.5350    14.6510   -27.6957     7.9467     0.0236     0.1821    61.1446     2.3461
   84.0000    14.6305    14.7512   -27.8541     7.9463     0.0251     0.1821    58.7349     2.3454
   84.5000    14.6394    14.7487   -28.1648     7.9310     0.0236     0.1796    58.4337     2.3469
   85.0000    14.8215    14.7468   -28.4756     7.9307     0.0176     0.1776    59.9398     2.3484
   85.5000    14.9202    14.8476   -29.0915     7.9304     0.0139     0.1845    60.8434     2.3499
   86.0000    15.0166    14.8455   -29.7084     7.9451     0.0146     0.1869    61.7470     2.3439
   86.5000    15.1149    14.9469   -30.3241     7.9448     0.0296     0.1875    61.4207     2.3401
   87.0000    15.0029    14.9444   -30.9397     7.9446     0.0409     0.1881    58.4337     2.3417
   87.5000    14.8354    14.9424   -31.4029     7.9443     0.0386     0.1764    58.5843     2.3567
   88.0000    14.5815    14.7344   -32.0186     7.9439     0.0326     0.1653    59.0361     2.3687
   88.5000    14.4436    14.6306   -32.3294     7.9436     0.0341     0.1749    59.9398     2.3395
   89.0000    14.1704    14.3271   -32.6504     7.9433     0.0326     0.1899    61.4458     2.3357
   89.5000    13.9778    14.2261   -32.9524     7.9431     0.0304     0.1818    62.0482     2.3387
   90.0000    13.6763    13.9246   -33.4156     7.9428     0.0281     0.1800    62.6506     2.3387
   90.5000    13.3881    13.7240   -34.0313     7.9424     0.0281     0.1927    63.2530     2.3297
   91.0000    13.1984    13.5262   -34.6469     7.9421     0.0311     0.1942    64.7590     2.3289
   91.5000    12.9214    13.3312   -34.9577     7.9268     0.0341     0.1936    62.9518     2.3297
   92.0000    12.7100    13.0801   -35.2685     7.9265     0.0319     0.1915    60.9940     2.3312
   92.5000    12.4802    12.8088   -35.8841     7.9111     0.0274     0.1888    59.0361     2.3320
   93.0000    12.2943    12.7185   -36.5000     7.8958     0.0259     0.1876    58.7349     2.3327
   93.5000    12.1964    12.5296   -37.1169     7.8955     0.0259     0.1912    59.3373     2.3273
   94.0000    12.0302    12.3665   -37.8850     7.9102     0.0259     0.1930    61.4458     2.3297
   94.5000    11.9357    12.3649   -38.8056     7.9250     0.0244     0.1900    67.4699     2.3373
   95.0000    11.8521    12.3634   -39.7261     7.9247     0.0244     0.1834    67.6205     2.3433
   95.5000    11.7687    12.2761   -40.7991     7.9395     0.0251     0.1792    67.0181     2.3478
   96.0000    11.6825    12.1895   -41.7196     7.9400     0.0236     0.1779    66.7169     2.3478
   96.5000    11.5961    12.1036   -42.6504     7.9539     0.0191     0.1768    66.8675     2.3523
   97.0000    11.5114    11.9120   -43.2573     7.9536     0.0161     0.1801    67.0181     2.3508
   97.5000    11.1919    11.4464   -43.8729     7.9533     0.0139     0.1822    67.4699     2.3501
   98.0000    10.6573    11.0545   -44.9459     7.9530     0.0131     0.1812    70.3313     2.3538
   98.5000    10.0084    10.4560   -46.3238     7.9527     0.0124     0.1768    71.6867     2.3592
   99.0000     9.1342     9.6191   -47.5492     7.9524     0.0124     0.1756    75.7530     2.3614
   99.5000     8.0091     8.6669   -49.2319     7.9370     0.0131     0.1744    84.7139     2.3689
  100.0000     7.4931     7.9732   -50.9146     7.9217     0.0146     0.1521    85.8434     2.3794
  100.5000     7.1309     7.5359   -51.9698     7.9063     0.0176     0.1500    85.8434     2.3944
