~VERSION INFORMATION
 VERS.                2.0:   CWLS LOG ASCII STANDARD - VERSION 2.0
 WRAP.                 NO:   ONE LINE PER DEPTH STEP
~WELL INFORMATION
#MNEM.UNIT      DATA TYPE    INFORMATION
#----------   ------------   ------------------------------
 STRT.F           14.0000:   START DEPTH
 STOP.F          500.0000:   STOP DEPTH
 STEP.F            0.1000:   STEP LENGTH
 NULL.          -999.2500:   NO VALUE
 COMP. LAWRENCE/ALLISON INC:   COMPANY
 WELL.    72-46 SX #10-10:   WELL
 FLD .             TEAPOT:   FIELD
 LOC .      S10 T38N R78W:   LOCATION
 CNTY.            NATRONA:   COUNTY
 STAT.            WYOMING:   STATE
 CTRY. UNITED STATES OF AMERICA:   COUNTRY
 SRVC.           Gearhart:   SERVICE COMPANY
 DATE.        22-MAY-1988:   LOGDATE
 API .       490251122600:   API NUMBER
~CURVE INFORMATION
#MNEM.UNIT       API CODE    CURVE DESCRIPTION
#----------   ------------   ------------------------------
 DEPT.F                  :   
 GRR .GAPI   07 310 01 00:   GAMMA RAY
 RILD.OHMM   07 120 46 00:   INDUCTION LOG DEEP RESISTIVITY
 RILM.OHMM   07 120 44 00:   INDUCTION LOG MEDIUM RESISTIVITY
~PARAMETER INFORMATION
#MNEM.UNIT          VALUE    DESCRIPTION
#----------   ------------   ------------------------------
 PD  .                 GL:   PERMANENT DATUM
 EPD .F              5173:   ELEVATION PERMANENT DATUM
 LMF .                 KB:   LOG MEASURED FROM
 DAPD.F              10.2:   FEET ABOVE PERMANENT DATUM
 DMF .                 KB:   DRILLING MEASURED FROM
 EKB .F            5183.2:   KELLING BUSHING
 EGL .F              5173:   GROUND LEVEL
 DATE.        22-MAY-1988:   RUN DATE
 RUN .                  1:   RUN NUMBER
 DD  .F               505:   DEPTH DRILLER
 DL  .F               504:   DEPTH LOGGER
 BLI .F               500:   BOTTOM LOG INTERVAL
 TLI .F                50:   TOP LOG INTERVAL
 CS  .IN            9.625:   CASING SIZE
 CBD .F                52:   CASING BOTTOM DRILLER
 CBL .F                50:   CASING BOTTOM LOGGER
 BS  .IN             8.75:   BIT SIZE
 BSD .F               505:   BIT SIZE AT DEPTH
 DFT .                AIR:   DRILLING FLUID TYPE
 TLAB.HRS            1339:   TIME LOGGER AT BOTTOM
 LUN .               7597:   LOGGING UNIT NUMBER
 LUL .           GILLETTE:   LOGGING UNIT LOCATION
 ENGI.          HUCKFELDT:   RECORDING ENGINEER
 WITN.             STRONG:   WITNESSED BY
 CLNT.            A2DTECH:   CLIENT CODE
 ORIG.           5" PRINT:   ORIGIN OF DATA
 UWI .       490251122600:   UNIQUE WELL ID
 DICO. A2D Technologies, Inc.:   DIGITIZING COMPANY
~OTHER INFORMATION
~A   DEPT       GRR      RILD       RILM   
# ...
  196.0000   118.1369     7.3616     7.9696
  196.1000   118.3900     7.3079     7.9237
  196.2000   118.6803     7.2218     7.8779
  196.3000   119.2179     7.0788     7.8327
  196.4000   119.4537     7.0107     7.7877
  196.5000   119.5282     6.9304     7.7683
  196.6000   119.6554     6.8350     7.7522
  196.7000   119.9782     6.7104     7.7076
  196.8000   120.4505     6.5549     7.6602
  196.9000   120.4541     6.4448     7.6191
  197.0000   120.4567     6.3069     7.5753
  197.1000   120.6164     6.1829     7.4882
  197.2000   120.7671     6.0770     7.3845
  197.3000   120.7702     5.9771     7.3385
  197.4000   120.7733     5.9026     7.2434
  197.5000   120.7763     5.8107     7.1713
  197.6000   120.5901     5.7341     7.0625
  197.7000   120.4779     5.6375     6.9591
  197.8000   120.4007     5.5174     6.8702
  197.9000   120.1276     5.4180     6.7529
  198.0000   119.5742     5.2050     6.6606
  198.1000   119.3553     5.0817     6.5688
  198.2000   119.1083     4.9553     6.4562
  198.3000   118.8613     4.8426     6.3318
  198.4000   118.6142     4.7323     6.1874
  198.5000   118.3673     4.6222     6.0399
  198.6000   118.1203     4.5449     5.9087
  198.7000   118.0730     4.4477     5.7743
  198.8000   118.0761     4.3601     5.6427
  198.9000   117.9881     4.2855     5.4943
  199.0000   117.7773     4.2092     5.3073
  199.1000   117.7810     4.1045     5.1075
  199.2000   118.0161     4.0409     4.9281
  199.3000   118.0914     3.9407     4.7702
  199.4000   118.2179     3.8393     4.6225
  199.5000   118.4018     3.7463     4.4652
  199.6000   118.4344     3.6398     4.3121
  199.7000   119.0172     3.5198     4.1130
  199.8000   119.2299     3.4532     3.9601
  199.9000   119.4831     3.3629     3.7689
  200.0000   119.7064     3.2977     3.6127
  200.1000   119.8859     3.2791     3.5141
  200.2000   120.0654     3.2604     3.4155
  200.3000   120.2449     3.2417     3.3169
  200.4000   120.4244     3.2230     3.2184
  200.5000   120.6039     3.2045     3.1280
  200.6000   120.7834     3.1863     3.0892
  200.7000   120.4722     3.1681     3.0412
  200.8000   119.6436     3.1481     2.9894
  200.9000   118.6179     3.1320     2.9464
  201.0000   117.2240     3.1141     2.9043
  201.1000   116.3365     3.0963     2.8391
  201.2000   115.5043     3.0830     2.7822
  201.3000   114.7541     3.0825     2.7432
  201.4000   114.0042     3.0617     2.6965
  201.5000   113.2545     3.0474     2.6564
  201.6000   112.3682     3.0405     2.6261
  201.7000   111.7541     3.0338     2.5948
  201.8000   111.0039     3.0194     2.5666
  201.9000   110.2536     3.0195     2.5481
  202.0000   109.5484     3.0195     2.5411
  202.1000   109.0314     3.0196     2.5411
  202.2000   108.7919     3.0288     2.5411
  202.3000   108.7318     3.0408     2.5412
  202.4000   108.7342     3.0425     2.5539
  202.5000   108.7367     3.0622     2.5591
  202.6000   108.7391     3.0933     2.5719
  202.7000   108.7418     3.1291     2.5983
  202.8000   109.1937     3.1653     2.6133
  202.9000   109.5266     3.2062     2.6434
  203.0000   110.0153     3.2618     2.6861
  203.1000   110.7062     3.3299     2.7327
  203.2000   111.2311     3.3608     2.7802
  203.3000   112.4095     3.4228     2.8305
  203.4000   113.0349     3.4872     2.9022
  203.5000   113.9441     3.5306     2.9792
  203.6000   115.0505     3.5958     3.0784
  203.7000   116.3076     3.6744     3.1862
  203.8000   117.5964     3.7442     3.3076
  203.9000   118.5757     3.8205     3.4623
  204.0000   119.9633     3.9092     3.6546
  204.1000   121.3336     3.9981     3.8145
  204.2000   122.5066     4.0773     3.9884
  204.3000   123.4526     4.1591     4.1517
  204.4000   124.0039     4.2558     4.3170
  204.5000   124.2334     4.3657     4.4752
  204.6000   124.4867     4.4869     4.6248
  204.7000   124.6198     4.5911     4.7667
  204.8000   124.6222     4.6980     4.8907
  204.9000   124.6246     4.8073     5.0042
  205.0000   124.6275     4.9029     5.1201
  205.1000   124.6295     5.0087     5.2553
  205.2000   124.4752     5.1460     5.3609
  205.3000   124.3300     5.2424     5.4855
  205.4000   124.2829     5.3835     5.6129
  205.5000   124.0305     5.4953     5.7430
  205.6000   123.7861     5.5908     5.8769
  205.7000   123.3444     5.6879     5.9785
  205.8000   122.9848     5.7866     6.1098
  205.9000   122.6505     5.9032     6.2517
  206.0000   122.1838     5.9898     6.3841
  206.1000   121.9144     6.0719     6.4901
  206.2000   121.6869     6.1421     6.5721
  206.3000   121.7908     6.2131     6.6757
  206.4000   122.0441     6.2862     6.7380
  206.5000   122.3662     6.3575     6.7769
  206.6000   122.8855     6.4028     6.8259
  206.7000   123.7556     6.4397     6.9032
  206.8000   124.1830     6.4894     6.9503
  206.9000   124.8463     6.5599     6.9831
  207.0000   125.4958     6.6014     7.0234
  207.1000   126.0516     6.6358     7.0639
  207.2000   126.8116     6.6741     7.0978
  207.3000   127.3124     6.7310     7.0979
  207.4000   127.8165     6.7986     7.1368
  207.5000   128.3206     6.8378     7.1479
  207.6000   128.7363     6.8842     7.1691
  207.7000   128.9895     6.9170     7.1981
  207.8000   129.2617     6.9569     7.1982
  207.9000   129.0317     6.9971     7.1984
  208.0000   128.7834     7.0374     7.2341
  208.1000   128.5350     7.0796     7.2490
  208.2000   128.2150     7.1189     7.2491
  208.3000   127.7337     7.1293     7.2492
  208.4000   127.4500     7.1513     7.2493
  208.5000   127.0218     7.1794     7.2907
  208.6000   126.6842     7.1713     7.3003
  208.7000   126.3279     7.0802     7.3004
  208.8000   125.8829     7.0089     7.3147
  208.9000   125.6338     6.9555     7.3518
  209.0000   125.1343     6.8979     7.3519
  209.1000   124.8333     6.8193     7.3520
  209.2000   124.5848     6.7405     7.3521
  209.3000   124.2453     6.6035     7.3522
  209.4000   123.7836     6.5428     7.3523
  209.5000   123.5192     6.4682     7.3524
  209.6000   123.2868     6.3809     7.3525
  209.7000   123.2195     6.2719     7.2844
  209.8000   123.0944     6.1589     7.2014
  209.9000   122.8460     6.0598     7.1193
  210.0000   122.5977     5.9565     7.0382
  210.1000   122.3163     5.8720     6.9535
  210.2000   122.3184     5.8050     6.8418
  210.3000   122.1569     5.7415     6.7531
  210.4000   122.0189     5.7044     6.6569
  210.5000   122.0213     5.6481     6.5434
  210.6000   122.0237     5.6045     6.4289
  210.7000   122.0262     5.5587     6.2626
  210.8000   122.2291     5.4953     6.1712
  210.9000   122.4824     5.4326     6.0661
  211.0000   122.8290     5.4016     5.9627
  211.1000   123.2934     5.3708     5.8677
  211.2000   123.5606     5.3227     5.7999
  211.3000   124.0367     5.2835     5.7348
  211.4000   124.5410     5.2750     5.6447
  211.5000   125.0452     5.2105     5.5659
  211.6000   125.5492     5.1830     5.5025
  211.7000   126.0535     5.1534     5.4398
  211.8000   126.6195     5.1095     5.3716
  211.9000   127.0615     5.0592     5.3166
  212.0000   127.5657     5.0303     5.2766
  212.1000   128.0698     4.9973     5.2326
  212.2000   128.5738     4.9974     5.1802
  212.3000   129.0782     4.9793     5.1515
  212.4000   129.6784     4.9509     5.1516
  212.5000   130.0861     4.9226     5.1277
  212.6000   130.2916     4.8941     5.1158
  212.7000   130.1025     4.8942     5.1159
  212.8000   129.5612     4.8943     5.1160
  212.9000   128.7770     4.8788     5.1161
  213.0000   128.3003     4.8698     5.1162
  213.1000   127.6150     4.8944     5.1163
  213.2000   126.9973     4.8945     5.1163
  213.3000   126.4195     4.8946     5.1164
  213.4000   125.6697     4.8947     5.1165
  213.5000   124.8344     4.9082     5.1165
  213.6000   124.6141     4.9365     5.1166
  213.7000   124.0279     4.9650     5.1354
  213.8000   123.5084     4.9985     5.1526
  213.9000   123.1984     4.9986     5.1587
  214.0000   122.6993     5.0163     5.1888
  214.1000   122.1094     5.0336     5.1889
