~VERSION INFORMATION
 VERS.                2.0:   CWLS LOG ASCII STANDARD - VERSION 2.0
 WRAP.                 NO:   ONE LINE PER DEPTH STEP
~WELL INFORMATION
#MNEM.UNIT      DATA TYPE    INFORMATION
#----------   ------------   ------------------------------
 STRT.F           34.5000:   START DEPTH
 STOP.F          665.5000:   STOP DEPTH
 STEP.F            0.5000:   STEP LENGTH
 NULL.          -999.2500:   NO VALUE
 COMP. FENIX & SCISSON INC:   COMPANY
 WELL.    NPR-3 SX #14-14:   WELL
 FLD .        TEAPOT DOME:   FIELD
 LOC .      S14 T38N R78W:   LOCATION
 CNTY.            NATRONA:   COUNTY
 STAT.            WYOMING:   STATE
 CTRY. UNITED STATES OF AMERICA:   COUNTRY
 SRVC.            Unknown:   SERVICE COMPANY
 DATE.        01-JUN-1978:   LOGDATE
 API .       490251063100:   API NUMBER
~CURVE INFORMATION
#MNEM.UNIT       API CODE    CURVE DESCRIPTION
#----------   ------------   ------------------------------
 DEPT.F                  :   
 SPR .MV     05 010 01 00:   SPONTANEOUS POTENTIAL FROM RES.
 SN  .OHMM   05 040 16 00:   SHORT NORMAL 16"
 IL  .OHMM   05 120 00 00:   INDUCTION LOG
 GRD .GAPI   45 310 01 00:   GAMMA RAY FROM DENSITY LOG
 RHOB.G/C3   45 350 01 00:   BULK DENSITY
 DPHI.DEC    45 890 12 00:   DENSITY POROSITY SANDSTONE
 CORR.G/C3   45 356 01 00:   DENSITY CORRECTION
 CALD.IN     45 280 60 00:   CALIPER FROM DENSITY LOG
~PARAMETER INFORMATION
#MNEM.UNIT          VALUE    DESCRIPTION
#----------   ------------   ------------------------------
 PD  .                 GL:   PERMANENT DATUM
 EPD .F              5212:   ELEVATION PERMANENT DATUM
 LMF .                 KB:   LOG MEASURED FROM
 DAPD.F                 4:   FEET ABOVE PERMANENT DATUM
 DMF .                 KB:   DRILLING MEASURED FROM
 EKB .F              5216:   KELLING BUSHING
 EGL .F              5212:   GROUND LEVEL
 DATE.           6-1-1978:   RUN DATE
 RUN .                  1:   RUN NUMBER
 DD  .F               670:   DEPTH DRILLER
 DL  .F               670:   DEPTH LOGGER
 BLI .F               664:   BOTTOM LOG INTERVAL
 TLI .F                40:   TOP LOG INTERVAL
 CS  .IN            8.625:   CASING SIZE
 CBD .F                40:   CASING BOTTOM DRILLER
 BS  .IN            7.875:   BIT SIZE
 BSD .F               670:   BIT SIZE AT DEPTH
 DFT .                KCL:   DRILLING FLUID TYPE
 DFD .                8.7:   DRILLING FLUID DENSITY
 DFV .                 32:   DRILLING FLUID VISCOSITY
 DFPH.                 10:   DRILLING FLUID PH
 RMS .OHMM            .30:   RESISTIVITY MUD SAMPLE
 MST .F                66:   MUD SAMPLE TEMPERATURE
 BHT .F                75:   BOTTOM HOLE TEMPERATURE
 TCS .HRS               2:   TIME CURCULATED STOPPED
 MRT .F                75:   MAXIMUM RECORDED TEMPERATURE
 LUN .               2958:   LOGGING UNIT NUMBER
 LUL .              CSPR.:   LOGGING UNIT LOCATION
 ENGI.             MILLER:   RECORDING ENGINEER
 WITN.           MCGINLEY:   WITNESSED BY
 CLNT.            A2DTECH:   CLIENT CODE
 ORIG.      2" , 5" PRINT:   ORIGIN OF DATA
 UWI .       490251063100:   UNIQUE WELL ID
 DICO. A2D Technologies, Inc.:   DIGITIZING COMPANY
~OTHER INFORMATION
~A   DEPT      SPR         SN         IL         GRD      RHOB       DPHI       CORR       CALD   
# ...
  277.5000   -28.9154     8.8137     8.7837    82.3312     2.5027     0.1080     0.0231     7.6885
  278.0000   -28.9180     8.7952     8.7899    82.3447     2.4974     0.1074     0.0225     7.6885
  278.5000   -28.9206     8.7775     8.7960    82.2147     2.4937     0.1107     0.0220     7.6885
  279.0000   -28.9232     8.7597     8.8021    82.0920     2.4900     0.1140     0.0214     7.6885
  279.5000   -28.9257     8.7419     8.8083    81.9688     2.4862     0.1163     0.0208     7.6885
  280.0000   -28.9283     8.7241     8.8144    81.8506     2.4825     0.1174     0.0217     7.6885
  280.5000   -28.9309     8.7064     8.8206    81.7610     2.4789     0.1186     0.0232     7.6885
  281.0000   -28.9334     8.6887     8.8267    82.9024     2.4800     0.1151     0.0247     7.6885
  281.5000   -28.9360     8.6711     8.8329    85.0738     2.4848     0.1112     0.0263     7.6883
  282.0000   -28.9386     8.6535     8.8391    85.1857     2.4959     0.1074     0.0251     7.6868
  282.5000   -28.9411     8.6359     8.8452    83.7007     2.4989     0.1069     0.0232     7.6853
  283.0000   -28.9437     8.6184     8.8514    82.2166     2.4956     0.1092     0.0212     7.6838
  283.5000   -28.9463     8.6009     8.8576    81.1020     2.4921     0.1136     0.0192     7.6823
  284.0000   -28.9488     8.5834     8.8638    80.4987     2.4888     0.1178     0.0202     7.6808
  284.5000   -28.9514     8.5660     8.8699    79.8933     2.4870     0.1100     0.0226     7.6793
  285.0000   -28.9540     8.5486     8.8761    79.6986     2.4894     0.1024     0.0251     7.6778
  285.5000   -28.9566     8.5313     8.8823    80.8019     2.4945     0.0986     0.0276     7.6764
  286.0000   -28.9591     8.5139     8.8848    82.2144     2.4996     0.0963     0.0301     7.6749
  286.5000   -28.9617     8.4966     8.8775    83.0004     2.5058     0.0939     0.0325     7.6734
  287.0000   -28.9643     8.4794     8.8723    81.8579     2.5175     0.0880     0.0344     7.6719
  287.5000   -28.9668     8.4622     8.8670    80.9533     2.5293     0.0803     0.0328     7.6704
  288.0000   -28.9694     8.4450     8.8618    82.9072     2.5411     0.0728     0.0313     7.6686
  288.5000   -28.9720     8.4279     8.8565    85.0926     2.5473     0.0869     0.0298     7.6800
  289.0000   -28.9745     8.4108     8.8513    87.0696     2.5343     0.1009     0.0283     7.6938
  289.5000   -28.9771     8.3937     8.8461    86.5659     2.5212     0.1082     0.0269     7.7076
  290.0000   -28.9797     8.3766     8.8408    86.0120     2.5081     0.1082     0.0202     7.7214
  290.5000   -28.9822     8.3596     8.8356    85.5308     2.4950     0.1163     0.0129     7.7269
  291.0000   -28.9848     8.3427     8.8304    85.6238     2.4820     0.1257     0.0065     7.7248
  291.5000   -28.9874     8.3257     8.8251    85.7073     2.4705     0.1193     0.0066     7.7225
  292.0000   -28.9899     8.3088     8.8199    85.7902     2.4715     0.1125     0.0121     7.7203
  292.5000   -28.9925     8.2920     8.8147    85.8696     2.4788     0.1057     0.0215     7.7180
  293.0000   -28.9951     8.2751     8.8095    85.8047     2.4913     0.0989     0.0311     7.7158
  293.5000   -28.9977     8.2543     8.8043    85.1105     2.5037     0.0943     0.0332     7.7135
  294.0000   -29.0002     8.2683     8.7991    84.4396     2.5162     0.0991     0.0312     7.7113
  294.5000   -29.0028     8.2887     8.7939    84.0910     2.5168     0.1077     0.0292     7.7090
  295.0000   -29.0054     8.3091     8.7887    84.7695     2.5035     0.1146     0.0272     7.7068
  295.5000   -29.0079     8.3296     8.7835    85.3820     2.4965     0.1046     0.0250     7.7045
  296.0000   -29.0105     8.3501     8.7783    85.6056     2.4926     0.1157     0.0253     7.7023
  296.5000   -29.0131     8.3707     8.7731    85.8465     2.4855     0.1176     0.0263     7.7000
  297.0000   -29.0156     8.3913     8.7679    86.1264     2.4809     0.1137     0.0273     7.6978
  297.5000   -29.0182     8.4119     8.7627    84.4812     2.4857     0.1099     0.0282     7.6955
  298.0000   -29.0208     8.4327     8.7575    82.3872     2.4935     0.1060     0.0292     7.6933
  298.5000   -29.0233     8.4535     8.7523    80.5827     2.5014     0.1022     0.0303     7.6910
  299.0000   -29.0259     8.4745     8.7472    79.8502     2.5094     0.0979     0.0280     7.6887
  299.5000   -29.0285     8.4845     8.7420    79.1076     2.5115     0.1029     0.0242     7.6908
  300.0000   -29.0310     8.4413     8.7368    78.3541     2.5032     0.1087     0.0203     7.6936
  300.5000   -29.0336     8.4118     8.7317    78.0181     2.4950     0.1146     0.0165     7.6964
  301.0000   -29.0362     8.3824     8.7264    79.9546     2.4869     0.1174     0.0147     7.6991
  301.5000   -29.0387     8.3531     8.7106    81.3608     2.4789     0.1161     0.0177     7.7018
  302.0000   -29.0415     8.3239     8.6727    81.8306     2.4865     0.1112     0.0211     7.7046
  302.5000   -29.0352     8.2948     8.6354    82.3552     2.4969     0.1101     0.0225     7.7073
  303.0000   -29.0236     8.2658     8.5982    83.4395     2.4964     0.1131     0.0196     7.7101
  303.5000   -29.0120     8.2369     8.5612    84.3266     2.4897     0.1162     0.0166     7.7128
  304.0000   -29.0003     8.2081     8.5243    84.0622     2.4829     0.1192     0.0195     7.7156
  304.5000   -28.9886     8.1794     8.4876    83.8207     2.4789     0.1186     0.0232     7.7183
  305.0000   -28.9770     8.1509     8.4511    83.5853     2.4791     0.1137     0.0269     7.7210
  305.5000   -28.9653     8.1224     8.4147    83.3194     2.4873     0.1089     0.0306     7.7238
  306.0000   -28.9537     8.0940     8.3785    82.4550     2.4971     0.1041     0.0321     7.7265
  306.5000   -28.9420     8.0657     8.3425    81.6162     2.5068     0.0992     0.0310     7.7293
  307.0000   -28.9304     8.0375     8.3065    82.0000     2.5094     0.0981     0.0299     7.7320
  307.5000   -28.9187     8.0094     8.2708    84.5834     2.4973     0.1103     0.0288     7.7348
  308.0000   -28.9071     7.9814     8.2350    87.0357     2.4927     0.1107     0.0287     7.7375
  308.5000   -28.8954     7.9535     8.1996    88.9355     2.4967     0.1162     0.0290     7.7403
  309.0000   -28.8838     7.9257     8.1778    89.1061     2.4936     0.1100     0.0292     7.7430
  309.5000   -28.8721     7.8980     8.2891    88.2783     2.4905     0.1066     0.0294     7.7458
  310.0000   -28.8604     7.8818     8.3840    86.8106     2.4927     0.1086     0.0297     7.7478
  310.5000   -28.8488     7.9893     8.4801    85.3253     2.4961     0.1086     0.0299     7.7462
  311.0000   -28.8371     8.0666     8.5772    84.4892     2.4990     0.1086     0.0301     7.7446
  311.5000   -28.8255     8.1446     8.6755    84.1680     2.4976     0.1082     0.0303     7.7430
  312.0000   -28.8138     8.2232     8.7749    84.3314     2.4960     0.1064     0.0305     7.7414
  312.5000   -28.8022     8.3026     8.8755    84.5072     2.4970     0.1042     0.0295     7.7399
  313.0000   -28.7905     8.3827     8.8891    83.5412     2.4982     0.1057     0.0285     7.7383
  313.5000   -28.7789     8.4644     8.8929    82.0499     2.4988     0.1079     0.0275     7.7367
  314.0000   -28.7672     8.4909     8.8967    80.5374     2.4959     0.1085     0.0265     7.7352
  314.5000   -28.7556     8.4995     8.9006    78.9581     2.4931     0.1083     0.0255     7.7336
  315.0000   -28.7439     8.5076     8.9045    78.6008     2.4933     0.1083     0.0245     7.7320
  315.5000   -28.7322     8.5158     8.9084    79.5042     2.4937     0.1093     0.0235     7.7305
  316.0000   -28.7206     8.5240     8.9123    81.2490     2.4938     0.1103     0.0225     7.7289
  316.5000   -28.7089     8.5323     8.9162    83.6508     2.4924     0.1114     0.0215     7.7264
  317.0000   -28.6973     8.5405     8.9201    84.3555     2.4892     0.1122     0.0205     7.7231
  317.5000   -28.6856     8.5487     8.9240    84.3255     2.4862     0.1102     0.0195     7.7199
