~VERSION INFORMATION
 VERS.                2.0:   CWLS LOG ASCII STANDARD - VERSION 2.0
 WRAP.                 NO:   ONE LINE PER DEPTH STEP
~WELL INFORMATION
#MNEM.UNIT      DATA TYPE    INFORMATION
#----------   ------------   ------------------------------
 STRT.F            2.0000:   START DEPTH
 STOP.F          467.0000:   STOP DEPTH
 STEP.F            0.5000:   STEP LENGTH
 NULL.          -999.2500:   NO VALUE
 COMP. LAWRENCE/ALLISON INC:   COMPANY
 WELL.      57-36 SX #3-3:   WELL
 FLD .             TEAPOT:   FIELD
 LOC .       S3 T38N R78W:   LOCATION
 CNTY.            NATRONA:   COUNTY
 STAT.            WYOMING:   STATE
 CTRY. UNITED STATES OF AMERICA:   COUNTRY
 SRVC.      NL McCullough:   SERVICE COMPANY
 DATE.        13-SEP-1988:   LOGDATE
 API .       490251120900:   API NUMBER
~CURVE INFORMATION
#MNEM.UNIT       API CODE    CURVE DESCRIPTION
#----------   ------------   ------------------------------
 DEPT.F                  :   
 GRR .GAPI   07 310 01 00:   GAMMA RAY
 ILD .OHMM   07 120 46 00:   INDUCTION LOG DEEP
 ILM .OHMM   07 120 44 00:   INDUCTION LOG MEDIUM
~PARAMETER INFORMATION
#MNEM.UNIT          VALUE    DESCRIPTION
#----------   ------------   ------------------------------
 PD  .                 GL:   PERMANENT DATUM
 EPD .F              5186:   ELEVATION PERMANENT DATUM
 LMF .                 KB:   LOG MEASURED FROM
 DMF .                 KB:   DRILLING MEASURED FROM
 EKB .F              5191:   KELLING BUSHING
 EGL .F              5186:   GROUND LEVEL
 DATE.        13-SEP-1988:   RUN DATE
 RUN .                  1:   RUN NUMBER
 DD  .F               409:   DEPTH DRILLER
 DL  .F               409:   DEPTH LOGGER
 BLI .F               404:   BOTTOM LOG INTERVAL
 BSD .F               409:   BIT SIZE AT DEPTH
 DFT .              WATER:   DRILLING FLUID TYPE
 ENGI.          BANGERTER:   RECORDING ENGINEER
 WITN.            SCHULTE:   WITNESSED BY
 CLNT.            A2DTECH:   CLIENT CODE
 ORIG.           5" PRINT:   ORIGIN OF DATA
 UWI .       490251120900:   UNIQUE WELL ID
 DICO. A2D Technologies, Inc.:   DIGITIZING COMPANY
~OTHER INFORMATION
~A    DEPT      GRR       ILD        ILM   
# ...
  184.0000   107.6043     3.5815     3.0985
  184.5000   113.4205     4.0078     3.6420
  185.0000   118.0153     4.5165     4.3718
  185.5000   120.4727     5.1926     5.1569
  186.0000   117.7429     5.6560     5.5521
  186.5000   117.4485     5.9834     5.9150
  187.0000   117.1615     6.2854     6.2137
  187.5000   116.8672     6.5564     6.4366
  188.0000   117.4962     6.7438     6.7617
  188.5000   118.2239     6.8397     6.8582
  189.0000   120.5826     6.8402     6.7635
  189.5000   121.8186     6.7451     6.6237
  190.0000   121.8333     6.6050     6.4863
  190.5000   121.8479     6.3774     6.3077
  191.0000   121.2519     6.1146     6.1339
  191.5000   122.3359     5.8148     5.9579
  192.0000   125.8650     5.5427     5.7198
  192.5000   129.5438     5.3894     5.4846
  193.0000   130.7798     5.3520     5.2962
  193.5000   131.0962     5.3149     5.1502
  194.0000   129.2824     5.3528     5.1509
  194.5000   126.7023     5.3973     5.1879
  195.0000   122.5979     5.5450     5.2992
  195.5000   119.5591     5.7841     5.4127
  196.0000   119.8791     6.0336     5.7262
  196.5000   122.3365     6.4731     6.0578
  197.0000   123.5725     6.8478     6.4537
  197.5000   123.8931     7.2527     6.8918
  198.0000   124.2162     7.5567     7.3768
  198.5000   124.2308     7.8826     7.6952
  199.0000   124.5508     8.0511     7.9712
  199.5000   123.3441     8.1655     8.1993
  200.0000   121.5267     8.3400     8.3751
  200.5000   119.5257     8.3165     8.3174
  201.0000   119.1194     8.2929     8.2603
  201.5000   120.0576     8.2253     8.1463
  202.0000   120.9914     8.2260     8.0340
  202.5000   121.3145     8.0550     7.9231
  203.0000   121.3322     7.8323     7.8065
  203.5000   122.2659     7.7236     7.5986
  204.0000   122.9150     7.5595     7.4413
  204.5000   124.4432     7.3026     7.2872
  205.0000   125.3770     7.1007     7.0864
  205.5000   126.0054     6.8561     6.8429
  206.0000   126.0231     6.6664     6.6078
  206.5000   126.0409     6.3026     6.3332
  207.0000   126.3640     6.0429     6.0758
  207.5000   127.2977     5.8758     5.8260
  208.0000   128.6188     5.8351     5.5864
  208.5000   130.0857     5.8767     5.2451
  209.0000   131.3248     5.9603     4.9943
  209.5000   131.6479     6.0877     5.1372
  210.0000   130.7496     6.2178     5.5116
  210.5000   128.0192     6.3954     5.8418
  211.0000   126.5099     6.5781     6.2558
  211.5000   127.4850     6.8650     6.5718
  212.0000   129.9089     7.1077     6.9038
  212.5000   131.4533     7.2596     7.1013
  213.0000   131.7764     7.3749     7.3046
  213.5000   130.5728     7.4992     7.5665
  214.0000   129.9754     7.6809     7.6782
  214.5000   131.2189     7.8450     7.8392
  215.0000   132.4580     7.9566     7.8955
  215.5000   132.7811     8.0773     7.9522
  216.0000   129.1391     8.1273     7.9616
  216.5000   128.5417     8.1851     8.0104
  217.0000   128.8692     8.1857     8.0679
  217.5000   129.4977     8.2054     8.0691
  218.0000   129.2101     8.2600     8.1270
  218.5000   128.3115     8.3617     8.1856
  219.0000   128.3298     8.3623     8.1868
  219.5000   129.5730     8.3630     8.1879
  220.0000   131.7281     8.3050     8.1890
  220.5000   130.5245     8.3056     8.1900
  221.0000   128.0995     8.2479     8.1912
  221.5000   125.3691     8.3067     8.1923
  222.0000   125.0402     8.2491     8.1361
  222.5000   125.7099     8.2497     8.1375
  223.0000   127.2957     8.2426     8.1959
  223.5000   129.4139     8.1357     8.1971
  224.0000   131.5691     8.0229     8.1405
  224.5000   129.1441     7.9671     8.0849
  225.0000   127.3297     7.8016     8.0295
  225.5000   126.1216     7.6394     7.9186
  226.0000   127.3652     7.4806     7.7007
  226.5000   130.1721     7.2738     7.5412
  227.0000   134.1226     7.0728     7.3851
  227.5000   136.8885     6.9258     7.1815
  228.0000   138.7383     6.7343     6.9348
  228.5000   137.8400     6.5023     6.6965
  229.0000   134.4989     6.3226     6.5548
  229.5000   130.5472     6.1911     6.3771
  230.0000   128.7328     6.0624     6.2016
  230.5000   128.8326     5.9783     6.1158
  231.0000   129.9941     5.8952     5.9474
  231.5000   130.3172     5.8544     5.8653
  232.0000   130.0296     5.8549     5.7843
  232.5000   128.8259     5.9800     5.7851
  233.0000   126.0955     6.1508     5.8321
  233.5000   124.5863     6.3712     6.1643
  234.0000   123.6883     6.6056     6.3407
  234.5000   124.0158     6.9815     6.5681
  235.0000   124.9495     7.1810     6.8516
  235.5000   125.8833     7.2831     7.0379
  236.0000   127.1224     7.3349     7.1483
  236.5000   128.0562     7.3354     7.0496
  237.0000   128.3792     7.2846     7.0015
  237.5000   126.5649     7.1834     6.9532
  238.0000   125.9719     6.9783     6.8572
  238.5000   125.9941     6.6037     6.5755
  239.0000   126.6225     6.2432     6.2172
  239.5000   127.8616     5.9440     5.7965
  240.0000   129.7114     5.9027     5.4043
  240.5000   131.2559     5.9867     5.2553
  241.0000   131.3139     6.0718     5.4824
  241.5000   128.8082     6.2016     5.7999
  242.0000   126.1182     6.3789     6.1357
  242.5000   124.9146     6.6074     6.4911
  243.0000   124.6269     6.9409     6.9641
  243.5000   124.3438     7.2913     7.4193
  244.0000   122.8348     7.6593     7.7977
  244.5000   121.6311     7.8230     8.0173
  245.0000   121.3435     8.0465     8.1891
  245.5000   122.3186     8.2262     8.2479
  246.0000   125.6582     8.3942     8.4246
  246.5000   124.1492     8.5136     8.4851
  247.0000   122.9456     8.5301     8.6062
  247.5000   122.0473     8.6352     8.6074
  248.0000   121.4543     8.6358     8.6086
  248.5000   120.5560     8.6364     8.6100
  249.0000   119.0067     8.6370     8.6112
  249.5000   117.8478     8.6377     8.6124
  250.0000   117.9830     8.6990     8.4712
  250.5000   119.4943     8.6792     8.3190
  251.0000   120.9527     8.6608     8.3798
  251.5000   122.8031     8.6419     8.3234
  252.0000   120.9922     8.7040     8.3257
  252.5000   119.7841     8.7668     8.4462
  253.0000   119.4963     8.8298     8.6283
  253.5000   121.9610     8.9559     8.7526
  254.0000   124.4214     9.1479     8.8167
  254.5000   124.0326     9.2786     8.7573
  255.0000   119.8808     9.2799     8.6376
  255.5000   116.2343     9.2161     8.3425
  256.0000   113.5038     9.0255     7.8338
  256.5000   112.6046     8.5935     7.3047
  257.0000   113.2336     8.0116     6.7636
  257.5000   114.5750     7.3597     6.3024
  258.0000   116.9373     6.9147     5.7992
  258.5000   119.3976     6.9157     5.6007
  259.0000   118.1938     7.0145     5.6417
  259.5000   115.7687     7.2153     5.8448
  260.0000   113.3435     7.5801     6.3602
  260.5000   112.7504     8.2679     7.2481
  261.0000   113.3831     8.9749     8.4272
  261.5000   114.6220     9.6973     9.3655
  262.0000   114.9450    10.2593     9.9790
  262.5000   115.2679    10.6275    10.2660
  263.0000   115.2855    10.9329    10.4149
  263.5000   114.6931    11.3246    10.5647
  264.0000   114.7114    11.8138    10.7170
  264.5000   114.7298    12.4985    10.8714
  265.0000   114.7510    13.1302    11.1058
  265.5000   113.8526    13.7940    11.5056
  266.0000   110.2060    14.6127    12.3785
  266.5000   103.2007    15.7685    13.8179
  267.0000    94.0580    17.0377    15.1423
  267.5000    79.7253    19.3370    17.9258
  268.0000    64.7846    21.6404    20.3458
  268.5000    62.9657    23.7131    22.4530
  269.0000    63.9038    26.7258    24.6067
  269.5000    66.0587    28.4740    25.6722
  270.0000    70.3512    29.4960    26.7838
  270.5000    74.2370    30.3407    27.9436
  271.0000    78.3297    30.9911    29.1536
  271.5000    77.7365    31.6719    30.4318
  272.0000    74.0900    32.7927    31.5131
  272.5000    69.8328    33.4957    32.4192
  273.0000    65.5756    33.9743    33.3514
  273.5000    64.9825    34.4596    34.0704
  274.0000    67.7526    34.7072    34.5614
  274.5000    69.7527    34.4321    34.6084
