~VERSION INFORMATION
 VERS.                2.0:   CWLS LOG ASCII STANDARD - VERSION 2.0
 WRAP.                 NO:   ONE LINE PER DEPTH STEP
~WELL INFORMATION
#MNEM.UNIT      DATA TYPE    INFORMATION
#----------   ------------   ------------------------------
 STRT.F           20.0000:   START DEPTH
 STOP.F         1363.5000:   STOP DEPTH
 STEP.F            0.5000:   STEP LENGTH
 NULL.          -999.2500:   NO VALUE
 COMP.   FLUOR DANIEL INC:   COMPANY
 WELL.   NPR 3 "S" #83-14:   WELL
 FLD .             TEAPOT:   FIELD
 LOC .      S14 T38N R78W:   LOCATION
 CNTY.            NATRONA:   COUNTY
 STAT.            WYOMING:   STATE
 CTRY. UNITED STATES OF AMERICA:   COUNTRY
 SRVC. Schlumberger Well Surveying Corp:   SERVICE COMPANY
 DATE.        22-AUG-1966:   LOGDATE
 API .       490250971000:   API NUMBER
~CURVE INFORMATION
#MNEM.UNIT       API CODE    CURVE DESCRIPTION
#----------   ------------   ------------------------------
 DEPT.F                  :   
 SPR .MV     05 010 01 00:   SPONTANEOUS POTENTIAL FROM RES.
 ASN .OHMM   05 041 16 00:   AMPLIFIED SHORT NORMAL 16"
 CILD.MMHO   05 110 00 00:   CONDUCTIVITY INDUCTION LOG
 ILD .OHMM   05 120 46 00:   INDUCTION LOG DEEP
 CALD.IN     45 280 60 00:   CALIPER
 GRD .GAPI   45 310 01 00:   GAMMA RAY FROM DENSITY LOG
 CORR.G/C3   45 356 01 00:   DENSITY CORRECTION
 RHOB.G/C3   45 350 01 00:   BULK DENSITY
 DPOR.DEC    45 890 12 00:   DENSITY POROSITY SANDSTONE
~PARAMETER INFORMATION
#MNEM.UNIT          VALUE    DESCRIPTION
#----------   ------------   ------------------------------
 PD  .                 GL:   PERMANENT DATUM
 EPD .F              5300:   ELEVATION PERMANENT DATUM
 LMF .                 KB:   LOG MEASURED FROM
 DAPD.F                 5:   FEET ABOVE PERMANENT DATUM
 DMF .                 KB:   DRILLING MEASURED FROM
 EKB .F              5305:   KELLING BUSHING
 EGL .F              5300:   GROUND LEVEL
 DATE.          8-22-1966:   RUN DATE
 RUN .                  1:   RUN NUMBER
 DD  .F              1365:   DEPTH DRILLER
 DL  .F              1363:   DEPTH LOGGER
 BLI .F              1362:   BOTTOM LOG INTERVAL
 TLI .F                20:   TOP LOG INTERVAL
 CS  .IN            8.625:   CASING SIZE
 CBD .F                15:   CASING BOTTOM DRILLER
 CBL .F                20:   CASING BOTTOM LOGGER
 BS  .IN            7.875:   BIT SIZE
 BSD .F              1365:   BIT SIZE AT DEPTH
 DFT .           GEL-CHEM:   DRILLING FLUID TYPE
 DFD .                 10:   DRILLING FLUID DENSITY
 DFV .                 55:   DRILLING FLUID VISCOSITY
 DFL .                  8:   DRILLING FLUID LOSS
 MSS .          FLOW LINE:   MUD SAMPLE SOURCE
 RMS .OHMM           1.86:   RESISTIVITY MUD SAMPLE
 MST .F                73:   MUD SAMPLE TEMPERATURE
 RMF .OHMM           1.13:   RESISTIVITY MUD FILTRATE SAMPLE
 MFST.F                70:   MUD FILTRATE SAMPLE TEMPERATURE
 MFSS.                  M:   MUD FILTRATE SAMPLE SOURCE
 RMB .OHMM           1.32:   RESISTIVITY MUD AT BHT
 BHT .F               102:   BOTTOM HOLE TEMPERATURE
 TCS .HRS               1:   TIME CURCULATED STOPPED
 MRT .F               102:   MAXIMUM RECORDED TEMPERATURE
 LUN .               3527:   LOGGING UNIT NUMBER
 LUL .               CSPR:   LOGGING UNIT LOCATION
 ENGI.          TOLLEFSON:   RECORDING ENGINEER
 WITN.         MAY/TUTTLE:   WITNESSED BY
 CLNT.            A2DTECH:   CLIENT CODE
 ORIG.       2", 5" PRINT:   ORIGIN OF DATA
 UWI .       490250971000:   UNIQUE WELL ID
 DICO. A2D Technologies, Inc.:   DIGITIZING COMPANY
~OTHER INFORMATION
~A   DEPT       SPR       ASN         CILD      ILD         CALD       GRD       CORR        RHOB     DPOR   
   20.0000    33.5671  -999.2500     0.5010  -999.2500     8.2390    74.8193    -0.2160     1.9026  -999.2500
   20.5000     6.6493  -999.2500     0.5010  -999.2500     8.2483    70.0000    -0.0052     1.8904  -999.2500
   21.0000   -10.3024  -999.2500     0.5010  -999.2500     8.2814    71.3178    -0.1462     1.8616  -999.2500
   21.5000   -21.0176  -999.2500     0.5010  -999.2500     8.3193    72.9694    -0.0052     1.8616  -999.2500
   22.0000   -29.5109  -999.2500     0.5010  -999.2500     8.7688    74.8193    -0.0435     1.8606  -999.2500
   22.5000   -36.3610  -999.2500     0.5010  -999.2500     9.2960    74.8193    -0.1444     1.8547  -999.2500
   23.0000   -41.0566  -999.2500     0.4898  -999.2500     9.8233    73.0211    -0.2010     1.8437  -999.2500
   23.5000   -45.6387  -999.2500     0.0004  -999.2500    10.1036    71.9855    -0.2008     1.8457  -999.2500
   24.0000   -47.5075  -999.2500    32.0084  -999.2500    10.6237    73.5189    -0.1308     1.8396  -999.2500
   24.5000   -50.2779  -999.2500    15.4310  -999.2500    11.1382    77.1623    -0.0584     1.8512  -999.2500
   25.0000   -53.1503  -999.2500    31.8749  -999.2500    11.6121    82.0313     0.0447     1.8925  -999.2500
   25.5000   -55.5913  -999.2500    41.0510  -999.2500    11.6463    81.2587    -0.1091     1.9042  -999.2500
   26.0000   -57.3085  -999.2500    50.2271  -999.2500    11.1574    77.9983    -0.0752     1.9088  -999.2500
   26.5000   -58.4325  -999.2500    56.6132  -999.2500    10.2379    76.0294    -0.0191     1.9090  -999.2500
   27.0000   -59.5592  -999.2500    64.5625  -999.2500     9.5312    77.9277     0.0267     1.9115  -999.2500
   27.5000   -60.6276  -999.2500    75.6513  -999.2500     9.3519    82.1546    -0.1051     1.9157  -999.2500
   28.0000   -60.8129  -999.2500   115.9895  -999.2500     9.3720    85.9598     0.0820     1.9248  -999.2500
   28.5000   -60.0948  -999.2500   171.3351  -999.2500     9.3859    86.7721     0.0109     1.9223  -999.2500
   29.0000   -59.7136  -999.2500   211.9238  -999.2500     9.4120    85.7135    -0.0872     1.9220  -999.2500
   29.5000   -60.2695  -999.2500   215.1478  -999.2500     9.3911    84.9767     0.0957     1.9306  -999.2500
   30.0000   -61.4537  -999.2500   212.8807  -999.2500     9.1957    84.2899     0.0127     2.0266     0.2871
   30.5000   -62.0140  -999.2500   196.8643  -999.2500     8.5364    85.6117     0.0127     2.0663     0.2894
   31.0000   -62.0295  -999.2500   181.8637  -999.2500     8.0450    87.6075     0.0402     2.1120     0.2918
   31.5000   -62.0146  -999.2500   180.3545  -999.2500     8.1236    88.4601     0.0577     2.1602     0.2942
   32.0000   -61.5500  -999.2500   178.8577  -999.2500     8.1482    87.6993     0.0524     2.1865     0.2885
   32.5000   -61.8849  -999.2500   173.9782  -999.2500     8.2767    86.4812     0.0415     2.1962     0.2828
   33.0000   -62.2093  -999.2500   168.3534  -999.2500     8.4517    87.1045     0.0306     2.2052     0.2770
   33.5000   -62.2266  -999.2500   162.7286  -999.2500     8.6206    92.8519     0.0207     2.1973     0.2746
   34.0000   -62.3102     0.2024   164.0402     0.6003     8.8142    91.7959     0.0267     2.1901     0.2792
   34.5000   -62.7116     0.5799   168.8529     0.4242     8.8233    89.5183     0.0220     2.1822     0.2869
   35.0000   -63.1567     1.5025   173.6655     0.3500     8.6687    88.2240     0.0146     2.1742     0.2894
   35.5000   -63.8648     1.4471   178.4671     0.6822     8.6123    90.5862     0.0087     2.1663     0.2802
   36.0000   -63.9856     9.9947   184.7657     1.8424     8.6877    93.3005     0.0177     2.1605     0.2982
   36.5000   -63.5496    25.8500   194.6066     5.0773     8.8125    93.8290     0.0301     2.1605     0.2959
   37.0000   -63.9173    31.4282   204.4422     8.5238     8.9306    90.4204     0.0424     2.1809     0.2875
   37.5000   -64.2223    37.1694   214.2738     4.9605     8.9455    88.1855     0.0392     2.2067     0.2781
   38.0000   -64.0847    47.2500   221.9439     4.9199     8.7779    89.5243     0.0340     2.2331     0.2678
   38.5000   -63.6611    43.4815   224.8090     4.8482     8.6195    91.7183     0.0629     2.2603     0.2558
   39.0000   -63.0570    45.6220   227.0315     4.7840     8.6148    90.9536     0.0832     2.2767     0.2438
   39.5000   -63.2489    47.9100   227.1634     4.7174     8.6894    89.1243     0.0714     2.2657     0.2313
   40.0000   -63.5045    49.8619   227.4023     4.6530     8.7715    87.0789     0.0553     2.2427     0.2367
   40.5000   -63.7711    49.9374   227.6424     4.6867     8.8547    84.6404     0.0368     2.2213     0.2476
   41.0000   -63.5918    50.0129   227.8830     4.7260     8.9263    85.2020     0.0291     2.2015     0.2585
   41.5000   -63.2643    50.0501   228.7297     4.7648     8.8004    88.9756     0.0297     2.1995     0.2734
   42.0000   -63.0393    50.0601   226.9650     4.8034     8.6472    93.7413     0.0314     2.2116     0.2672
   42.5000   -63.4566    50.1580   225.2004     4.8421     8.4874    95.6738     0.0482     2.2329     0.2569
   43.0000   -63.5468    46.5140   223.4358     4.8807     8.4080    94.7971     0.0620     2.2584     0.2435
   43.5000   -63.4266    42.2500   221.6711     4.9194     8.4012    92.7096     0.0498     2.2479     0.2500
   44.0000   -63.3673    34.7569   219.9399     4.9580     8.4043    91.9497     0.0252     2.2154     0.2662
   44.5000   -63.3123    26.9945   216.7036     4.9967     8.4108    92.6829     0.0288     2.2214     0.2624
   45.0000   -63.2529    20.0227   212.8028     5.0354     8.4159    93.4727     0.0322     2.2577     0.2486
   45.5000   -62.9881    13.8268   208.9020     5.0740     8.4217    93.8238     0.0192     2.2861     0.2346
   46.0000   -62.1773    10.0300   205.9118     5.1127     8.4275    95.3709     0.0220     2.3025     0.2188
   46.5000   -61.3809     2.9779   205.3245     5.1515     8.4330    91.9723     0.0352     2.3202     0.2097
   47.0000   -60.8457     2.5300   204.4422     5.1902     8.4390    82.6444     0.0475     2.3384     0.2033
   47.5000   -61.1596     2.4500   203.5599     5.2278     8.4332    83.3107     0.0634     2.3563     0.2021
   48.0000   -61.4639     2.3784   202.9058     5.2053     8.4238    82.0917     0.0579     2.3526     0.2009
   48.5000   -61.5851     2.3291   207.8392     5.1041     8.4150    79.4998     0.0280     2.3490     0.1920
   49.0000   -61.4274     2.2792   213.4445     5.0037     8.4059    78.3329     0.0409     2.3439     0.1833
   49.5000   -61.2677     2.2933   219.0499     4.9032     8.3969    85.2180     0.0377     2.3649     0.1744
   50.0000   -61.6672     2.3436   221.9439     4.8498     8.3879    91.8514     0.0189     2.4157     0.1623
   50.5000   -62.4020     2.3945   222.2545     4.8500     8.3789    90.9572     0.0244     2.4131     0.1678
   51.0000   -61.9757     2.4470   222.5848     4.8502     8.3700    88.9013     0.0333     2.3724     0.1764
   51.5000   -61.3518     2.6841   222.9569     4.8502     8.3609    85.8048     0.0345     2.3378     0.1850
   52.0000   -60.7089     3.3024   227.3333     4.8311     8.3520    83.0501     0.0263     2.3080     0.1937
   52.5000   -61.1795     4.4608   230.9805     4.7262     8.3428    81.3607     0.0212     2.3002     0.2023
   53.0000   -61.8683     6.7534   233.9972     4.6232     8.3387    81.9840     0.0110     2.3072     0.2096
   53.5000   -62.5561     9.9344   241.4515     4.5204     8.3414    85.5694     0.0154     2.3288     0.1999
   54.0000   -62.4247    10.2801   249.1016     4.4176     8.3451    89.2299     0.0276     2.3519     0.1881
   54.5000   -62.3523    10.3864   258.9489     4.3148     8.3487    90.7363     0.0292     2.3731     0.1762
   55.0000   -62.7542     9.4036   268.8035     4.2120     8.3523    89.2219     0.0419     2.3864     0.1694
   55.5000   -62.6575     8.8000   278.6501     4.1091     8.3559    87.0418     0.0542     2.3329     0.1766
   56.0000   -62.3808     8.1673   288.5083     4.0062     8.3595    85.2291     0.0368     2.3412     0.1843
