~VERSION INFORMATION
 VERS.                2.0:   CWLS LOG ASCII STANDARD - VERSION 2.0
 WRAP.                 NO:   ONE LINE PER DEPTH STEP
~WELL INFORMATION
#MNEM.UNIT      DATA TYPE    INFORMATION
#----------   ------------   ------------------------------
 STRT.F            0.0000:   START DEPTH
 STOP.F          717.5000:   STOP DEPTH
 STEP.F            0.5000:   STEP LENGTH
 NULL.          -999.2500:   NO VALUE
 COMP. LAWRENCE/ALLISON INC:   COMPANY
 WELL. NPR 3 #27-64-SX-11-WP:   WELL
 FLD .             TEAPOT:   FIELD
 LOC .      S11 T38N R78W:   LOCATION
 CNTY.            NATRONA:   COUNTY
 STAT.            WYOMING:   STATE
 CTRY. UNITED STATES OF AMERICA:   COUNTRY
 SRVC.      Dresser Atlas:   SERVICE COMPANY
 DATE.        15-SEP-1984:   LOGDATE
 API .       490251097500:   API NUMBER
~CURVE INFORMATION
#MNEM.UNIT       API CODE    CURVE DESCRIPTION
#----------   ------------   ------------------------------
 DEPT.F                  :   
 CALD.IN     45 280 60 00:   CALIPER FROM DENSITY LOG
 CNC .DEC    42 890 03 00:   COMPENSATED NEUTRON POROSITY SANDSTONE
 CORR.G/C3   45 356 01 00:   DENSITY CORRECTION
 DEN .G/C3   45 350 01 00:   BULK DENSTIY
 PORD.DEC    45 890 12 00:   POROSITY DENSITY SANDSTONE
 GRR .GAPI   07 310 01 00:   GAMMA RAY FROM RESISTIVITY
 RFOC.OHMM   07 220 01 00:   RESISTIVITY FOCUSED LOG
 RILD.OHMM   07 120 46 00:   RESISTIVITY INDUCTION LOG DEEP
 RILM.OHMM   07 120 44 00:   RESITIVITY INDUCTION LOG MEDIUM
 SPR .MV     07 010 01 00:   SPONTANEOUS POTENTIAL FROM RES.
~PARAMETER INFORMATION
#MNEM.UNIT          VALUE    DESCRIPTION
#----------   ------------   ------------------------------
 PD  .                 GL:   PERMANENT DATUM
 EPD .F              5198:   ELEVATION PERMANENT DATUM
 LMF .                 GL:   LOG MEASURED FROM
 DMF .                 GL:   DRILLING MEASURED FROM
 EGL .F              5198:   GROUND LEVEL
 DATE.        15-SEP-1984:   RUN DATE
 RUN .                  1:   RUN NUMBER
 DD  .F               736:   DEPTH DRILLER
 DL  .F               722:   DEPTH LOGGER
 BLI .F               704:   BOTTOM LOG INTERVAL
 TLI .F                42:   TOP LOG INTERVAL
 CS  .IN            8.625:   CASING SIZE
 CBD .F                42:   CASING BOTTOM DRILLER
 CBL .F                42:   CASING BOTTOM LOGGER
 BS  .IN            7.875:   BIT SIZE
 BSD .F               736:   BIT SIZE AT DEPTH
 DFT .          KCL WATER:   DRILLING FLUID TYPE
 MSS .           FLOWLINE:   MUD SAMPLE SOURCE
 RMS .OHMM           0.22:   RESISTIVITY MUD SAMPLE
 MST .F                70:   MUD SAMPLE TEMPERATURE
 RMB .OHMM           0.17:   RESISTIVITY MUD AT BHT
 BHT .F                90:   BOTTOM HOLE TEMPERATURE
 TCS .HRS               5:   TIME CURCULATED STOPPED
 MRT .F                90:   MAXIMUM RECORDED TEMPERATURE
 LUN .               6274:   LOGGING UNIT NUMBER
 LUL .               GLTE:   LOGGING UNIT LOCATION
 ENGI.             RAUTIO:   RECORDING ENGINEER
 WITN.            JOHNSON:   WITNESSED BY
 CLNT.            A2DTECH:   CLIENT CODE
 ORIG.         2.5" PRINT:   ORIGIN OF DATA
 UWI .       490251097500:   UNIQUE WELL ID
 DICO. A2D Technologies, Inc.:   DIGITIZING COMPANY
~OTHER INFORMATION
~A    DEPT    CALD        CNC       CORR        DEN       PORD         GRR      RFOC       RILD       RILM        SPR   
# ...
  301.5000     8.1325     0.2924     0.0271     2.4814     0.1172    91.3778     8.9404     8.7545     8.8854   -15.7382
  302.0000     8.1329     0.2859     0.0359     2.4922     0.1120    90.9349     9.0587     8.9284     9.1239   -15.4597
  302.5000     8.1333     0.2860     0.0269     2.4956     0.1103    92.0662     9.3048     9.1185     9.2578   -15.3550
  303.0000     8.1336     0.2866     0.0208     2.4891     0.1127    94.9822     9.4709     9.2375     9.4063   -14.9083
  303.5000     8.1340     0.2809     0.0274     2.4875     0.1139    96.9684     9.6810     9.3885     9.7437   -14.9287
  304.0000     8.1344     0.2653     0.0325     2.4919     0.1121    99.0390     9.8094     9.6713     9.8710   -14.3543
  304.5000     8.1347     0.2523     0.0167     2.4977     0.1092   100.7502    10.0755    10.0034    10.1398   -14.2860
  305.0000     8.1351     0.2570     0.0144     2.4992     0.1074   101.3018    10.1010    10.2738    10.4098   -13.9448
  305.5000     8.1355     0.2682     0.0244     2.5005     0.1069   101.8484    10.3417    10.5716    10.6121   -13.8210
  306.0000     8.1358     0.2732     0.0278     2.4910     0.1109   101.2189    10.6212    10.8901    10.9744   -13.2489
  306.5000     8.1362     0.2644     0.0095     2.4851     0.1160    96.3118    10.9101    11.2791    11.1170   -12.9211
  307.0000     8.1365     0.2484     0.0139     2.4805     0.1195    91.0484    11.3812    11.4271    11.2840   -12.6919
  307.5000     8.1369     0.2443     0.0227     2.4779     0.1195    88.0472    11.9460    11.7417    11.5651   -12.4186
  308.0000     8.1373     0.2509     0.0315     2.4863     0.1168    85.3806    12.8358    12.0524    11.8722   -12.1420
  308.5000     8.1376     0.2568     0.0344     2.5046     0.1078    83.2959    13.5519    12.1230    12.0264   -11.8650
  309.0000     8.1380     0.2438     0.0253     2.5236     0.0965    79.6140    14.3159    12.1974    12.1826   -11.8067
  309.5000     8.1384     0.2338     0.0044     2.5324     0.0877    77.2045    15.2073    12.1871    12.1715   -11.6080
  310.0000     8.1387     0.2321    -0.0105     2.5353     0.0897    75.3867    15.7293    12.0116    12.0779   -11.6298
  310.5000     8.1391     0.2359    -0.0166     2.5270     0.0968    77.6834    14.2771    12.0017    11.8200   -11.3513
  311.0000     8.1395     0.2381    -0.0041     2.5122     0.1051    80.6667    13.1403    11.9902    11.8106   -11.0728
  311.5000     8.1398     0.2381     0.0105     2.4944     0.1119    82.3382    12.4300    11.8182    11.6120   -10.7943
  312.0000     8.1402     0.2381     0.0052     2.4795     0.1193    83.4790    12.2522    11.6484    11.4710   -10.5244
  312.5000     8.1406     0.2395    -0.0032     2.4728     0.1256    83.5552    12.0753    11.6389    11.4591   -10.5417
  313.0000     8.1409     0.2435     0.0006     2.4651     0.1300    84.2307    12.0679    11.4710    11.4499   -10.5591
  313.5000     8.1413     0.2527     0.0092     2.4597     0.1318    85.1124    12.0554    11.3045    11.4404   -10.2806
  314.0000     8.1416     0.2631     0.0154     2.4574     0.1301    86.2458    11.8877    11.2961    11.4302   -10.1696
  314.5000     8.1420     0.2697     0.0210     2.4737     0.1224    86.2012    11.8796    11.2870    11.2646   -10.0251
  315.0000     8.1423     0.2750     0.0239     2.4825     0.1183    85.9665    11.8703    11.2777    11.1002   -10.0454
  315.5000     8.1425     0.2733     0.0178     2.4839     0.1166    85.7879    11.8630    11.2669    10.9404   -10.0636
  316.0000     8.1427     0.2692     0.0058     2.4690     0.1225    84.8706    11.8314    11.1054    10.7819    -9.7842
  316.5000     8.1430     0.2633     0.0057     2.4540     0.1362    83.6446    11.6855    11.0829    10.7723    -9.8062
  317.0000     8.1432     0.2543     0.0116     2.4465     0.1404    82.1736    11.5168    10.9367    10.6147    -9.5296
  317.5000     8.1434     0.2465     0.0204     2.4464     0.1404    79.4970    11.5097    10.6995    10.4619    -9.5490
  318.0000     8.1436     0.2405     0.0169     2.4466     0.1404    78.1700    11.3395    10.4780    10.2968    -9.2705
  318.5000     8.1439     0.2392     0.0045     2.4478     0.1397    78.7219    10.9913    10.3277    10.1614    -9.1696
  319.0000     8.1441     0.2426    -0.0020     2.4472     0.1393    79.5326    10.6537    10.2888    10.1523    -9.0148
  319.5000     8.1443     0.2446    -0.0077     2.4372     0.1435    84.9132    10.4263    10.1704    10.1424    -9.0353
  320.0000     8.1446     0.2408    -0.0129     2.4289     0.1482    85.6410    10.2778    10.1608    10.1343    -8.4610
  320.5000     8.1448     0.2384    -0.0119     2.4364     0.1495    84.4445    10.1314    10.1533    10.2659    -8.1006
  321.0000     8.1450     0.2376    -0.0029     2.4443     0.1442    83.8102    10.4070    10.1617    10.3974    -7.4635
  321.5000     8.1453     0.2388     0.0032     2.4472     0.1407    82.4626    10.6881    10.2782    10.3867    -7.0424
  322.0000     8.1455     0.2436     0.0014     2.4397     0.1384    81.1006    10.8283    10.2668    10.5217    -6.7633
  322.5000     8.1457     0.2519    -0.0254     2.4292     0.1408    80.7024    10.9706    10.4016    10.5127    -6.4399
  323.0000     8.1460     0.2644    -0.0404     2.4232     0.1479    80.6598    10.9221    10.5366    10.5033    -6.2068
  323.5000     8.1462     0.2697    -0.0167     2.4201     0.1533    81.2574    10.6588    10.5278    10.4922    -5.6411
  324.0000     8.1464     0.2683     0.0099     2.4233     0.1532    82.1144    10.2209    10.5192    10.4838    -5.6584
  324.5000     8.1467     0.2405     0.0217     2.4542     0.1428    84.0710    10.0753    10.5093    10.4753    -5.3708
  325.0000     8.1469     0.2250     0.0007     2.4819     0.1307    82.8349     9.9318    10.5016    10.4660    -5.1014
  325.5000     8.1471     0.2225     0.0040     2.4928     0.1187    81.0172    10.4539    10.4933    10.3891    -4.8269
  326.0000     8.1474     0.2260     0.0098     2.4877     0.1150    79.1953    11.0675    10.4323    10.3039    -4.5503
  326.5000     8.1476     0.2367     0.0123     2.4708     0.1198    77.9645    11.6849    10.3319    10.1555    -4.5704
  327.0000     8.1478     0.2528     0.0054     2.4555     0.1317    76.7260    12.1887    10.1837    10.0086    -3.9605
  327.5000     8.1481     0.2621    -0.0008     2.4491     0.1358    76.0917    12.3292    10.0318     9.9487    -3.2224
  328.0000     8.1483     0.2582    -0.0029     2.4431     0.1400    75.4556    11.6605     9.8927     9.7191    -2.2604
  328.5000     8.1485     0.2523    -0.0060     2.4385     0.1436    75.4083    10.7313     9.8184     9.7113    -1.6879
  329.0000     8.1488     0.2601    -0.0062     2.4340     0.1461    76.5720    10.1517     9.6084     9.7034    -1.7071
  329.5000     8.1490     0.2761    -0.0003     2.4339     0.1479    80.0419     9.8464     9.6013     9.6585    -1.7263
  330.0000     8.1492     0.2885     0.0085     2.4427     0.1472    84.7330     9.7289     9.5936     9.4892    -1.3215
  330.5000     8.1495     0.2909     0.0113     2.4456     0.1408    83.2800     9.5886     9.5857     9.4148    -0.8802
  331.0000     8.1570     0.2921     0.0142     2.4455     0.1379    81.7870     9.7151     9.5765     9.4072    -0.6006
  331.5000     8.1759     0.2890     0.0170     2.4454     0.1384    79.8501     9.7089     9.5700     9.3990    -0.2978
  332.0000     8.1878     0.2843     0.0169     2.4483     0.1391    79.8075     9.7022     9.5621     9.3907    -0.0447
  332.5000     8.2019     0.2834     0.0168     2.4500     0.1374    82.1318     9.6956     9.5543     9.3809     0.1325
  333.0000     8.2003     0.2891     0.0137     2.4515     0.1345    82.8500     9.6882     9.4793     9.2458     0.4028
  333.5000     8.1987     0.2917     0.0076     2.4540     0.1334    82.6055     9.6822     9.4078     9.2381     0.6731
  334.0000     8.1970     0.2929     0.0010     2.4488     0.1322    80.7992     9.8099     9.4009     9.1922     0.9434
  334.5000     8.1954     0.2877    -0.0045     2.4456     0.1334    79.5732     9.8026     9.3688     9.0961     1.2138
