~VERSION INFORMATION
 VERS.                2.0:   CWLS LOG ASCII STANDARD - VERSION 2.0
 WRAP.                 NO:   ONE LINE PER DEPTH STEP
~WELL INFORMATION
#MNEM.UNIT      DATA TYPE    INFORMATION
#----------   ------------   ------------------------------
 STRT.F            8.5000:   START DEPTH
 STOP.F          509.0000:   STOP DEPTH
 STEP.F            0.5000:   STEP LENGTH
 NULL.          -999.2500:   NO VALUE
 COMP. LAWRENCE-ALLISON &AS:   COMPANY
 WELL. NPR 3 #68-26SX3LP2:   WELL
 FLD .             TEAPOT:   FIELD
 LOC .       S3 T38N R78W:   LOCATION
 CNTY.            NATRONA:   COUNTY
 STAT.            WYOMING:   STATE
 CTRY. UNITED STATES OF AMERICA:   COUNTRY
 SRVC.      Dresser Atlas:   SERVICE COMPANY
 DATE.        12-DEC-1984:   LOGDATE
 API .       490251099600:   API NUMBER
~CURVE INFORMATION
#MNEM.UNIT       API CODE    CURVE DESCRIPTION
#----------   ------------   ------------------------------
 DEPT.F                  :   
 CNC .DEC    42 890 03 00:   NEUTRON POROSITY SANDSTONE
 CALD.IN     45 280 60 00:   CALIPER FROM DENSITY LOG
 CORR.G/C3   45 356 01 00:   DENSITY CORRECTION
 GRD .GAPI   45 310 01 00:   GAMMA RAY FROM DENSITY LOG
 PORD.DEC    45 890 12 00:   POROSITY DENSITY SANDSTONE
 RHOB.G/C3   45 350 01 00:   BULK DENSITY
 DT  .US/F   60 520 00 00:   INTERVAL TRANSIT TIME
 SPR .MV     11 010 01 00:   SPONTANEOUS POTENTIAL FROM RES.
 RS  .OHMM   11 220 09 00:   RESISTIVITY SHALLOW
 RD  .OHMM   11 220 10 00:   RESISTIVITY DEEP
~PARAMETER INFORMATION
#MNEM.UNIT          VALUE    DESCRIPTION
#----------   ------------   ------------------------------
 PD  .                 GL:   PERMANENT DATUM
 EPD .F              5158:   ELEVATION PERMANENT DATUM
 LMF .                 GL:   LOG MEASURED FROM
 DMF .                 GL:   DRILLING MEASURED FROM
 EGL .F              5158:   GROUND LEVEL
 DATE.        12-DEC-1984:   RUN DATE
 RUN .                  1:   RUN NUMBER
 DD  .F               510:   DEPTH DRILLER
 DL  .F               510:   DEPTH LOGGER
 BLI .F               501:   BOTTOM LOG INTERVAL
 TLI .F                20:   TOP LOG INTERVAL
 CS  .IN            8.625:   CASING SIZE
 CBD .F                20:   CASING BOTTOM DRILLER
 CBL .F                20:   CASING BOTTOM LOGGER
 BS  .IN            7.875:   BIT SIZE
 BSD .F               510:   BIT SIZE AT DEPTH
 DFT .          KCL/WATER:   DRILLING FLUID TYPE
 MSS .            MUDTANK:   MUD SAMPLE SOURCE
 RMS .OHMM           0.21:   RESISTIVITY MUD SAMPLE
 MST .F                70:   MUD SAMPLE TEMPERATURE
 RMF .OHMM           0.16:   RESISTIVITY MUD FILTRATE SAMPLE
 MFST.F                70:   MUD FILTRATE SAMPLE TEMPERATURE
 RMC .OHMM           0.26:   RESISTIVITY MUD CAKE
 MCST.F                70:   MUD CAKE SAMPLE TEMPERATURE
 MFSS.               CALC:   MUD FILTRATE SAMPLE SOURCE
 MCSS.               CALC:   MUD CAKE SAMPLE SOURCE
 RMB .OHMM           0.17:   RESISTIVITY MUD AT BHT
 BHT .F                85:   BOTTOM HOLE TEMPERATURE
 TCS .HRS               6:   TIME CURCULATED STOPPED
 MRT .F               100:   MAXIMUM RECORDED TEMPERATURE
 LUN .               6270:   LOGGING UNIT NUMBER
 LUL .                 FM:   LOGGING UNIT LOCATION
 ENGI.           E.GOVETT:   RECORDING ENGINEER
 WITN.              LUERS:   WITNESSED BY
 CLNT.            A2DTECH:   CLIENT CODE
 ORIG.           5" PRINT:   ORIGIN OF DATA
 UWI .       490251099600:   UNIQUE WELL ID
 DICO. A2D Technologies, Inc.:   DIGITIZING COMPANY
~OTHER INFORMATION
~A    DEPT     CNC       CALD       CORR        GRD       PORD       RHOB          DT       SPR         RS         RD   
    8.5000  -999.2500  -999.2500  -999.2500  -999.2500  -999.2500  -999.2500   232.7822  -999.2500  -999.2500  -999.2500
    9.0000  -999.2500  -999.2500  -999.2500  -999.2500  -999.2500  -999.2500   233.3699  -999.2500  -999.2500  -999.2500
    9.5000  -999.2500  -999.2500  -999.2500  -999.2500  -999.2500  -999.2500   234.6337  -999.2500  -999.2500  -999.2500
   10.0000     0.0311  -999.2500  -999.2500   153.2047  -999.2500  -999.2500   234.4701  -999.2500  -999.2500  -999.2500
   10.5000     0.0309  -999.2500  -999.2500   153.0747  -999.2500  -999.2500   233.4800  -999.2500  -999.2500  -999.2500
   11.0000     0.0308  -999.2500  -999.2500   153.0935  -999.2500  -999.2500   232.6402  -999.2500  -999.2500  -999.2500
   11.5000     0.0308  -999.2500  -999.2500   151.6803  -999.2500  -999.2500   233.3944  -999.2500  -999.2500  -999.2500
   12.0000     0.0311  -999.2500  -999.2500   148.9799  -999.2500  -999.2500   235.0177  -999.2500  -999.2500  -999.2500
   12.5000     0.0310  -999.2500  -999.2500   146.4759  -999.2500  -999.2500   234.0521  -999.2500  -999.2500  -999.2500
   13.0000     0.0310  -999.2500  -999.2500   146.0445  -999.2500  -999.2500   232.9590  -999.2500  -999.2500  -999.2500
   13.5000     0.0307  -999.2500  -999.2500   147.8478  -999.2500  -999.2500   232.6452  -999.2500  -999.2500  -999.2500
   14.0000     0.0307  -999.2500  -999.2500   149.6465  -999.2500  -999.2500   232.4064  -999.2500  -999.2500  -999.2500
   14.5000     0.0309  -999.2500  -999.2500   150.4067  -999.2500  -999.2500   232.3179  -999.2500  -999.2500  -999.2500
   15.0000     0.0312  -999.2500  -999.2500   148.4962  -999.2500  -999.2500   232.4581  -999.2500  -999.2500  -999.2500
   15.5000     0.0312  -999.2500  -999.2500   142.7281  -999.2500  -999.2500   232.8171  -999.2500  -999.2500  -999.2500
   16.0000     0.0312  -999.2500  -999.2500   139.6307  -999.2500  -999.2500   233.1076  -999.2500  -999.2500  -999.2500
   16.5000     0.0311  -999.2500  -999.2500   139.1993  -999.2500  -999.2500   232.5650  -999.2500  -999.2500  -999.2500
   17.0000     0.0317  -999.2500  -999.2500   143.2281  -999.2500  -999.2500   232.2511  -999.2500  -999.2500  -999.2500
   17.5000     0.0326  -999.2500  -999.2500   158.2316  -999.2500  -999.2500   232.2377  -999.2500  -999.2500  -999.2500
   18.0000     0.0329  -999.2500  -999.2500   176.6475  -999.2500  -999.2500   232.2243  -999.2500  -999.2500  -999.2500
   18.5000     0.0377  -999.2500  -999.2500   184.5293  -999.2500  -999.2500   232.1846  -999.2500  -999.2500  -999.2500
   19.0000     0.0413  -999.2500  -999.2500   191.6693  -999.2500  -999.2500   232.0473  -999.2500  -999.2500  -999.2500
   19.5000     0.0437  -999.2500  -999.2500   196.7538  -999.2500  -999.2500   231.4329  -999.2500  -999.2500  -999.2500
   20.0000     0.0448     7.6657     0.0079   198.3824     0.2736     2.2146   223.9815   -39.9406  1011.2707 24808.6719
   20.5000     0.0457     7.6163    -0.0070   190.7326     0.2742     2.2163   214.9524   -42.8983   922.1615 24823.7871
   21.0000     0.0472     7.6329    -0.0158   188.6313     0.2706     2.2328   212.2343   -44.2239   909.8376 21927.9062
   21.5000     0.0475     7.6495    -0.0202   191.1718     0.2534     2.2614   210.4929   -44.8066   904.0436 17335.6426
   22.0000     0.0468     7.6661    -0.0200   194.0091     0.2381     2.2802   212.9637   -44.9435  1106.0308 16413.8477
   22.5000     0.0468     7.6827    -0.0214   188.9829     0.2321     2.2976   222.1713   -45.2290  1597.7944 14803.4229
   23.0000     0.0474     7.6992    -0.0197   176.8351     0.2219     2.3120   222.9246   -45.3689  1632.2457 12896.6309
   23.5000     0.0477     7.7307    -0.0121   175.8102     0.2104     2.3271   222.6074   -45.3543  1377.0081 10182.5186
   24.0000     0.0476     7.7472     0.0001   178.3553     0.2020     2.3384   222.5845   -45.6427   773.5547  6986.9883
   24.5000     0.0473     7.7787     0.0152   180.4508     0.1919     2.3506   222.4304   -45.0337   117.4446   982.9669
   25.0000     0.0476     7.8101     0.0214   181.3593     0.1850     2.3620   222.2668   -44.4277    35.4304   462.3638
   25.5000     0.0473     7.8267     0.0170   181.5260     0.1824     2.3682   222.2534   -44.2674    21.9754   267.7037
   26.0000     0.0463     7.8433     0.0157   180.0606     0.1812     2.3726   222.2400   -44.4043    16.2084   167.2660
   26.5000     0.0442     7.8158     0.0176   176.0729     0.1782     2.3772   222.1515   -44.8384    15.4493   161.6473
   27.0000     0.0435     7.8027     0.0250   174.0141     0.1742     2.3833   222.0630   -45.2696    15.1375   165.1664
   27.5000     0.0442     7.7893     0.0327   172.9938     0.1760     2.3766   221.9745   -45.5580    14.9393   167.5719
   28.0000     0.0465     7.7911     0.0433   174.0507     0.1886     2.3549   222.0363   -45.8406    14.7416   171.1938
   28.5000     0.0474     7.7780     0.0240   175.1076     0.1979     2.3445   222.4737   -46.4233    14.4461   173.6872
   29.0000     0.0477     7.7649    -0.0014   174.9775     0.1988     2.3476   224.1132   -46.8573    14.2473   178.7759
   29.5000     0.0464     7.7671    -0.0178   175.0130     0.1855     2.3664   232.6648   -46.9972    14.1642   182.9825
   30.0000     0.0437     7.7836    -0.0131   177.0673     0.1705     2.3913  -999.2500   -46.9826    14.6736   209.8120
   30.5000     0.0434     7.8002     0.0020   181.7135     0.1600     2.4147  -999.2500   -46.6737    15.7351   234.5391
   31.0000     0.0451     7.7867     0.0112   183.8089     0.1536     2.4208  -999.2500   -46.3649    16.9907   253.2576
   31.5000     0.0457     7.7889     0.0113   183.6743     0.1547     2.4201  -999.2500   -46.0560    17.5993   264.1630
   32.0000     0.0466     7.7906     0.0175   183.4005     0.1566     2.4171  -999.2500   -45.7472    17.8546   275.5381
   32.5000     0.0466     7.7924     0.0236   181.9351     0.1578     2.4111  -999.2500   -45.7355    18.3665   283.4498
   33.0000     0.0453     7.7941     0.0223   180.3213     0.1611     2.4049  -999.2500   -45.8816    18.6329   293.6150
   33.5000     0.0444     7.7959     0.0148   179.3010     0.1683     2.3927  -999.2500   -46.1776    18.7726   299.9614
   34.0000     0.0447     7.8125    -0.0017   179.4677     0.1757     2.3823  -999.2500   -46.7377    19.0468   308.6324
   34.5000     0.0447     7.7994    -0.0073   180.9697     0.1793     2.3696  -999.2500   -47.0232    19.4703   321.8671
   35.0000     0.0446     7.8032     0.0109   184.1037     0.1838     2.3607  -999.2500   -48.0516    20.0160   326.5993
   35.5000     0.0449     7.8182     0.0276   187.0894     0.1871     2.3592   239.9436   -49.3772    20.1662   331.3560
   36.0000     0.0449     7.8046     0.0337   190.5201     0.1892     2.3624   239.1755   -49.6656    20.4587   340.8705
   36.5000     0.0448     7.7623     0.0309   186.8292     0.1871     2.3669   232.7760   -49.6510    20.8998   350.6581
   37.0000     0.0460     7.7339     0.0280   185.8086     0.1831     2.3715   229.3817   -49.6394    21.4989   368.2994
   37.5000     0.0469     7.7361     0.0282   186.5691     0.1807     2.3761   228.3916   -49.6277    22.1152   389.5164
   38.0000     0.0484     7.7226     0.0313   188.3828     0.1797     2.3807   227.3264   -49.6166    22.5921   417.7009
   38.5000     0.0493     7.7095     0.0374   189.7348     0.1765     2.3838   219.2740   -49.6043    22.6043   454.1718
   39.0000     0.0498     7.6820     0.0406   189.6983     0.1758     2.3794   209.8692   -49.7415    22.6166   470.4595
   39.5000     0.0507     7.6541     0.0242   187.3887     0.1839     2.3550   200.1307   -50.0267    22.6289   487.3343
   40.0000     0.0507     7.6113     0.0049   184.2913     0.1962     2.3465   194.2249   -50.1636    22.6520   503.2126
   40.5000     0.0495     7.5973    -0.0055   183.4194     0.1938     2.3624   191.8212   -50.1516    22.9726   556.6245
   41.0000     0.0476     7.6595    -0.0083   183.7344     0.1815     2.3843   188.7092   -50.1374    23.1449   580.5932
   41.5000     0.0472     7.6908    -0.0052   184.7913     0.1730     2.3964   184.9305   -50.1257    23.3185   597.2643
