~VERSION INFORMATION
 VERS.                2.0:   CWLS LOG ASCII STANDARD - VERSION 2.0
 WRAP.                 NO:   ONE LINE PER DEPTH STEP
~WELL INFORMATION
#MNEM.UNIT      DATA TYPE    INFORMATION
#----------   ------------   ------------------------------
 STRT.F           32.0000:   START DEPTH
 STOP.F          502.0000:   STOP DEPTH
 STEP.F            0.5000:   STEP LENGTH
 NULL.          -999.2500:   NO VALUE
 COMP.    FENIX & SCISSON:   COMPANY
 WELL. NPR # #3 65-36-SX-3-FP:   WELL
 FLD .             TEAPOT:   FIELD
 LOC .       S3 T38N R78W:   LOCATION
 CNTY.            NATRONA:   COUNTY
 STAT.            WYOMING:   STATE
 CTRY. UNITED STATES OF AMERICA:   COUNTRY
 SRVC.              Welex:   SERVICE COMPANY
 DATE.        15-JUN-1980:   LOGDATE
 API .       490251082600:   API NUMBER
~CURVE INFORMATION
#MNEM.UNIT       API CODE    CURVE DESCRIPTION
#----------   ------------   ------------------------------
 DEPT.F                  :   
 CALD.IN     45 280 60 00:   CALIPER FROM DENSITY LOG
 CORR.G/C3   45 356 01 00:   DENSITY CORRECTION
 DPHI.DEC    45 890 12 00:   DENSITY POROSITY SANDSTONE
 GRD .GAPI   45 310 01 00:   GAMMA RAY FROM DENSITY LOG
 RHOB.G/C3   45 350 01 00:   BULK DENSITY
 NPHI.DEC    42 890 03 00:   NEUTRON POROSITY SANDSTONE
 ILD .OHMM   07 120 46 00:   INDUCTION LOG DEEP
 ILM .OHMM   07 120 44 00:   INDUCTION LOG MEDIUM
 SGRD.OHMM   07 220 05 00:   SHALLOW GUARD RESISTIVITY
 SPR .MV     07 010 01 00:   SPONTANEOUS POTENTIAL FROM RES.
~PARAMETER INFORMATION
#MNEM.UNIT          VALUE    DESCRIPTION
#----------   ------------   ------------------------------
 PD  .                 GL:   PERMANENT DATUM
 EPD .F              5159:   ELEVATION PERMANENT DATUM
 LMF .                 KB:   LOG MEASURED FROM
 DAPD.F                 5:   FEET ABOVE PERMANENT DATUM
 DMF .                 KB:   DRILLING MEASURED FROM
 EKB .F              5164:   KELLING BUSHING
 EGL .F              5159:   GROUND LEVEL
 DATE.            6-15-80:   RUN DATE
 RUN .                  1:   RUN NUMBER
 DD  .F               505:   DEPTH DRILLER
 DL  .F               504:   DEPTH LOGGER
 BLI .F               502:   BOTTOM LOG INTERVAL
 TLI .F                30:   TOP LOG INTERVAL
 BS  .IN            9.875:   BIT SIZE
 BSD .F               505:   BIT SIZE AT DEPTH
 DFT .             2% KCL:   DRILLING FLUID TYPE
 DFD .                9.4:   DRILLING FLUID DENSITY
 DFV .                 51:   DRILLING FLUID VISCOSITY
 DFPH.                 12:   DRILLING FLUID PH
 DFL .                5.6:   DRILLING FLUID LOSS
 MSS .           FLOWLINE:   MUD SAMPLE SOURCE
 RMS .OHMM            .36:   RESISTIVITY MUD SAMPLE
 MST .F                65:   MUD SAMPLE TEMPERATURE
 RMF .OHMM            .29:   RESISTIVITY MUD FILTRATE SAMPLE
 MFST.F                65:   MUD FILTRATE SAMPLE TEMPERATURE
 RMC .OHMM            .42:   RESISTIVITY MUD CAKE
 MCST.F                65:   MUD CAKE SAMPLE TEMPERATURE
 MFSS.           MEASURED:   MUD FILTRATE SAMPLE SOURCE
 MCSS.           MEASURED:   MUD CAKE SAMPLE SOURCE
 RMB .OHMM            .32:   RESISTIVITY MUD AT BHT
 BHT .F                74:   BOTTOM HOLE TEMPERATURE
 TCS .HRS               2:   TIME CURCULATED STOPPED
 MRT .F                74:   MAXIMUM RECORDED TEMPERATURE
 LUN .               1892:   LOGGING UNIT NUMBER
 LUL .             CASPER:   LOGGING UNIT LOCATION
 ENGI.               REIN:   RECORDING ENGINEER
 WITN.              AMEND:   WITNESSED BY
 CLNT.            A2DTECH:   CLIENT CODE
 ORIG.       2", 5" PRINT:   ORIGIN OF DATA
 UWI .       490251082600:   UNIQUE WELL ID
 DICO. A2D Technologies, Inc.:   DIGITIZING COMPANY
~OTHER INFORMATION
~A   DEPT     CALD       CORR       DPHI        GRD       RHOB       NPHI         ILD         ILM       SGRD      SPR   
# ...
  333.5000     9.9925     0.0806     0.1422    83.5137     2.4052     0.2655    13.7824    15.2478    16.9867   -43.0743
  334.0000     9.9788     0.0913     0.1391    82.9046     2.4157     0.2699    13.5903    15.0341    16.8656   -43.2149
  334.5000     9.9356     0.0642     0.1436    83.9738     2.4023     0.2756    13.4943    15.0279    16.9789   -43.6420
  335.0000     9.9366     0.0659     0.1438    84.7201     2.3987     0.2776    13.3990    14.9198    17.0908   -44.2123
  335.5000     9.9376     0.0690     0.1408    83.5489     2.4002     0.2779    13.3964    14.5093    17.2045   -44.4955
  336.0000     9.9534     0.0873     0.1365    82.6727     2.4152     0.2781    13.4857    14.5045    17.4377   -44.7794
  336.5000     9.9692     0.0753     0.1434    81.9440     2.4018     0.2778    13.4831    14.4997    17.5548   -44.7765
  337.0000     9.9850     0.0543     0.1529    81.8014     2.3772     0.2744    13.5744    14.4939    17.7939   -44.4867
  337.5000     9.9565     0.0393     0.1609    82.1091     2.3608     0.2717    13.4778    14.4891    17.7881   -43.9109
  338.0000     9.9427     0.0348     0.1612    82.5605     2.3586     0.2683    13.3826    14.0904    17.7670   -43.3351
  338.5000     9.9438     0.0319     0.1602    83.0197     2.3624     0.2688    13.2754    13.9891    17.5342   -43.0458
  339.0000     9.8836     0.0578     0.1536    83.7581     2.3909     0.2709    13.1935    13.9833    17.2896   -43.1858
  339.5000     9.8573     0.0775     0.1397    83.1298     2.4089     0.2729    13.0103    14.1728    16.8149   -43.3270
  340.0000     9.8586     0.0958     0.1325    82.5956     2.4247     0.2763    12.7415    14.2674    16.3533   -43.6108
  340.5000     9.8744     0.0959     0.1190    83.2183     2.4465     0.2851    12.6381    14.0663    15.9033   -44.1805
  341.0000     9.8902     0.0975     0.1174    83.4985     2.4541     0.2851    12.3043    13.6792    15.4667   -44.4643
  341.5000     9.9354     0.1097     0.1141    83.2119     2.4662     0.2844    12.0501    13.5805    15.1461   -44.7481
  342.0000     9.9660     0.1219     0.1080    82.1905     2.4783     0.2813    11.6396    13.5753    15.0381   -45.0313
  342.5000     9.9965     0.1281     0.1014    81.1668     2.4866     0.2754    11.3207    13.5708    15.2516   -45.1719
  343.0000    10.0123     0.1282     0.0995    80.2906     2.4902     0.2665    11.0101    13.5664    16.2133   -45.1853
  343.5000    10.0133     0.1268     0.0995    80.1497     2.4828     0.2629    10.8572    13.6558    16.3223   -45.3097
  344.0000    10.0143     0.1285     0.0994    81.1932     2.4837     0.2593    10.4873    13.7446    15.6558   -45.3063
  344.5000    10.0152     0.1286     0.1018    82.3819     2.4859     0.2601    10.4133    13.7401    15.2260   -45.4475
  345.0000    10.0164     0.1257     0.1068    84.7506     2.4778     0.2634    10.4832    13.6793    15.0126   -46.0220
  345.5000    10.0321     0.1092     0.1121    86.3818     2.4606     0.2678    10.5531    13.7312    14.9055   -46.7302
  346.0000    10.0477     0.0836     0.1181    86.2409     2.4434     0.2710    10.5511    13.7264    14.9016   -47.5870
  346.5000    10.0194     0.0687     0.1237    87.2843     2.4382     0.2755    10.6225    13.7211    15.0008   -48.1581
  347.0000    10.0205     0.0627     0.1291    88.3256     2.4300     0.2745    10.6934    13.8115    14.9969   -48.5845
  347.5000    10.0215     0.0568     0.1278    89.8093     2.4271     0.2703    10.7652    13.6180    15.0967   -48.7251
  348.0000    10.0225     0.0751     0.1176    88.9331     2.4534     0.2666    10.8376    13.6133    15.1961   -48.7217
  348.5000    10.0085     0.0994     0.1143    87.1720     2.4661     0.2615    10.9859    13.6079    15.4031   -48.4324
  349.0000     9.9948     0.0980     0.1193    84.9662     2.4550     0.2581    11.2127    13.6035    15.6130   -47.5701
  349.5000     9.9814     0.0936     0.1198    85.2722     2.4491     0.2563    11.2968    13.7878    15.9477   -46.6929
  350.0000     9.9676     0.0876     0.1248    86.5899     2.4421     0.2556    11.5461    13.7847    15.9357   -46.5967
  350.5000     9.9686     0.0836     0.1314    88.2728     2.4300     0.2550    11.7747    13.7829    15.5996   -46.6383
  351.0000     9.9696     0.0788     0.1302    89.2844     2.4215     0.2550    11.9225    13.6866    15.3820   -46.6800
  351.5000     9.9707     0.0776     0.1287    85.4645     2.4283     0.2562    11.9205    13.6857    15.2723   -46.7111
  352.0000     9.9717     0.0733     0.1394    84.4439     2.4246     0.2591    11.7558    13.6848    15.3740   -47.2720
  352.5000     9.9728     0.0508     0.1394    83.4234     2.3963     0.2645    11.4342    13.6837    15.3690   -47.8440
  353.0000     9.9738     0.0480     0.1393    82.9929     2.4031     0.2687    11.2761    13.6828    15.1546   -48.2721
  353.5000     9.9896     0.0467     0.1393    84.3322     2.4016     0.2741    11.1203    13.6819    14.7325   -48.2708
  354.0000    10.0054     0.0514     0.1365    85.8191     2.4107     0.2786    10.9666    13.6811    14.3331   -48.2691
  354.5000    10.0064     0.0637     0.1227    85.8310     2.4422     0.2803    10.5933    13.6799    14.2309   -48.2678
  355.0000    10.0075     0.0866     0.1157    85.2529     2.4594     0.2794    10.3751    13.6791    14.1295   -48.4097
  355.5000    10.0233     0.1004     0.1103    83.6424     2.4677     0.2773    10.2317    13.6782    14.1258   -48.4117
  356.0000    10.0243     0.0990     0.1112    82.2419     2.4760     0.2758    10.0903    13.6773    14.1212   -48.6935
  356.5000    10.0253     0.0947     0.1144    81.8934     2.4649     0.2749    10.0193    13.6762    14.3136   -48.8351
  357.0000    10.0264     0.0904     0.1147    82.6745     2.4537     0.2749     9.9492    13.8654    14.3098   -49.0624
  357.5000    10.0274     0.0936     0.1125    83.4022     2.4747     0.2754     9.9479    14.2519    14.5081   -49.1189
  358.0000    10.0285     0.1089     0.1032    83.8505     2.4867     0.2757    10.0154    14.7507    14.8030   -49.1172
  358.5000    10.0295     0.1197     0.0959    84.1534     2.4905     0.2757    10.2231    15.5859    15.1094   -49.1159
  359.0000    10.0306     0.1259     0.0947    85.0503     2.4966     0.2754    10.5075    16.0206    15.5269   -48.8280
  359.5000    10.0166     0.1442     0.0949    86.2422     2.4981     0.2757    10.9499    16.6961    15.9590   -48.1017
  360.0000    10.0179     0.1504     0.0979    86.2930     2.4877     0.2711    11.4108    17.5204    16.6253   -46.3894
  360.5000    10.0039     0.1250     0.1128    83.6111     2.4594     0.2678    12.3929    18.8992    17.8073   -45.6718
  361.0000     9.9874     0.1095     0.1302    83.1806     2.4175     0.2696    13.1845    19.8323    19.0732   -44.9541
  361.5000     9.9742     0.1025     0.1427    82.4521     2.3944     0.2675    14.1237    20.3858    23.7817   -44.3787
  362.0000     9.9628     0.1014     0.1556    80.2546     2.3663     0.2684    15.6603    20.6672    27.4697   -43.9482
  362.5000     9.9559     0.1046     0.1723    77.4641     2.3457     0.2708    17.7265    20.8088    29.8311   -43.5170
  363.0000     9.9424     0.0941     0.1867    76.0011     2.3117     0.2707    20.2047    20.9514    31.5143   -43.3724
  363.5000     9.9364     0.0884     0.1881    75.4231     2.3055     0.2716    21.2009    21.2409    32.6111   -43.2278
  364.0000     9.9227     0.1067     0.1779    75.2845     2.3265     0.2728    22.0934    21.8330    33.0552   -43.2261
  364.5000     9.9238     0.1009     0.1821    75.4469     2.3221     0.2755    23.0227    22.9106    33.5055   -43.2249
  365.0000     9.9248     0.1026     0.1801    75.6063     2.3237     0.2806    23.5007    23.7125    34.1945   -43.2235
  365.5000     9.9407     0.1164     0.1739    76.0607     2.3364     0.2844    23.4977    24.2069    34.6603   -43.2221
  366.0000     9.9355     0.1105     0.1825    76.9576     2.3215     0.2856    23.3333    24.7108    34.8910   -43.3640
  366.5000     9.9277     0.1092     0.1825    77.8545     2.3208     0.2850    23.1475    24.7091    34.6400   -43.3623
