~VERSION INFORMATION
 VERS.                2.0:   CWLS LOG ASCII STANDARD - VERSION 2.0
 WRAP.                 NO:   ONE LINE PER DEPTH STEP
~WELL INFORMATION
#MNEM.UNIT      DATA TYPE    INFORMATION
#----------   ------------   ------------------------------
 STRT.F           30.0000:   START DEPTH
 STOP.F          480.0000:   STOP DEPTH
 STEP.F            0.5000:   STEP LENGTH
 NULL.          -999.2500:   NO VALUE
 COMP. FENIX & SCISSON INC:   COMPANY
 WELL.   51-SX-10 #NPR-10:   WELL
 FLD .             TEAPOT:   FIELD
 LOC .      S10 T38N R78W:   LOCATION
 CNTY.            NATRONA:   COUNTY
 STAT.            WYOMING:   STATE
 CTRY. UNITED STATES OF AMERICA:   COUNTRY
 SRVC.              Welex:   SERVICE COMPANY
 DATE.        13-MAR-1977:   LOGDATE
 API .       490251031000:   API NUMBER
~CURVE INFORMATION
#MNEM.UNIT       API CODE    CURVE DESCRIPTION
#----------   ------------   ------------------------------
 DEPT.F                  :   
 SGRD.OHMM   07 220 05 00:   SHALLOW GUARD RESISTIVITY
 ILD .OHMM   07 120 46 00:   INDUCTION LOG DEEP
 ILM .OHMM   07 120 44 00:   INDUCTION LOG MEDIUM
 SPR .MV     07 010 01 00:   SPONTANEOUS POTENTIAL
 RHOB.G/C3   45 350 01 00:   BULK DENSITY
 DPOR.DEC    45 890 12 00:   DENSITY POROSITY SANDSTONE
 CORR.G/C3   45 356 01 00:   DENSITY CORRECTION
 GRD .GAPI   45 310 01 00:   GAMMA RAY FROM DENSITY LOG
 CALD.IN     45 280 60 00:   CALIPER FROM DENSITY LOG
~PARAMETER INFORMATION
#MNEM.UNIT          VALUE    DESCRIPTION
#----------   ------------   ------------------------------
 PD  .                 GL:   PERMANENT DATUM
 EPD .F              5216:   ELEVATION PERMANENT DATUM
 LMF .                 GL:   LOG MEASURED FROM
 DMF .                 GL:   DRILLING MEASURED FROM
 EGL .F              5216:   GROUND LEVEL
 DATE.            3-13-77:   RUN DATE
 RUN .                  1:   RUN NUMBER
 DD  .F               490:   DEPTH DRILLER
 DL  .F               485:   DEPTH LOGGER
 BLI .F               483:   BOTTOM LOG INTERVAL
 TLI .F                35:   TOP LOG INTERVAL
 CS  .IN            8.625:   CASING SIZE
 CBD .F                40:   CASING BOTTOM DRILLER
 CBL .F                36:   CASING BOTTOM LOGGER
 BS  .IN            7.875:   BIT SIZE
 BSD .F               490:   BIT SIZE AT DEPTH
 DFT .            KCL MUD:   DRILLING FLUID TYPE
 DFD .                8.9:   DRILLING FLUID DENSITY
 DFV .                 34:   DRILLING FLUID VISCOSITY
 MSS .            MUD PIT:   MUD SAMPLE SOURCE
 RMS .OHMM            .43:   RESISTIVITY MUD SAMPLE
 MST .F                60:   MUD SAMPLE TEMPERATURE
 RMF .OHMM            .37:   RESISTIVITY MUD FILTRATE SAMPLE
 MFST.F                60:   MUD FILTRATE SAMPLE TEMPERATURE
 RMC .OHMM            .47:   RESISTIVITY MUD CAKE
 MCST.F                60:   MUD CAKE SAMPLE TEMPERATURE
 MFSS.           FANN KIT:   MUD FILTRATE SAMPLE SOURCE
 MCSS.           FANN KIT:   MUD CAKE SAMPLE SOURCE
 RMB .OHMM            .40:   RESISTIVITY MUD AT BHT
 BHT .F                63:   BOTTOM HOLE TEMPERATURE
 TCS .HRS             1.5:   TIME CURCULATED STOPPED
 MRT .F                63:   MAXIMUM RECORDED TEMPERATURE
 LUN .               8611:   LOGGING UNIT NUMBER
 LUL .             CASPER:   LOGGING UNIT LOCATION
 ENGI.               DOAK:   RECORDING ENGINEER
 WITN.         STUEBINGER:   WITNESSED BY
 CLNT.            A2DTECH:   CLIENT CODE
 ORIG.       2", 5" PRINT:   ORIGIN OF DATA
 UWI .       490251031000:   UNIQUE WELL ID
 DICO. A2D Technologies, Inc.:   DIGITIZING COMPANY
~OTHER INFORMATION
~A   DEPT     SGRD        ILD        ILM        SPR       RHOB       DPOR        CORR       GRD       CALD   
# ...
  176.0000    10.2435     6.0619     7.2441   -39.6919     2.4393     0.1196     0.0777   127.0997     7.9189
  176.5000     9.8347     5.8107     6.9910   -39.9023     2.4440     0.1183     0.0791   126.7339     7.9180
  177.0000     9.5056     5.5699     6.6326   -40.1141     2.4455     0.1174     0.0807   123.5148     7.9172
  177.5000     9.1875     5.3390     6.2925   -40.2175     2.4425     0.1193     0.0811   120.3586     7.9164
  178.0000     8.8800     5.1165     5.9696   -40.2203     2.4242     0.1236     0.0780   117.7147     7.9155
  178.5000     7.4996     4.9868     5.5626   -40.1802     2.4064     0.1304     0.0747   115.8212     7.9147
  179.0000     5.7482     4.9868     5.1834   -40.1257     2.3992     0.1366     0.0713   114.7435     7.9139
  179.5000     4.6258     4.9868     5.0331   -40.0718     2.4023     0.1370     0.0680   114.6771     7.9130
  180.0000     6.4887     5.1001     5.5095   -40.0043     2.4164     0.1267     0.0650   115.5714     7.9122
  180.5000     9.8723     5.2195     6.0410   -39.7375     2.4421     0.1142     0.0675   116.8864     7.9114
  181.0000     9.8155     5.4349     6.4814   -39.4768     2.4623     0.1099     0.0698   118.1926     7.9105
  181.5000     9.8188     5.7330     6.8439   -39.2178     2.4682     0.1051     0.0721   119.4900     7.9097
  182.0000    10.1148     6.0468     7.2517   -38.9591     2.4752     0.1003     0.0744   120.5782     7.9089
  182.5000    10.7302     6.3802     7.4778   -38.7004     2.4856     0.0955     0.0767   120.6730     7.9080
  183.0000    11.1307     6.6176     7.7110   -38.4416     2.4962     0.0902     0.0790   120.0535     7.9072
  183.5000    10.8352     6.8320     7.8939   -38.1829     2.4869     0.0953     0.0811   119.4079     7.9064
  184.0000    10.5311     7.0371     8.0635   -37.9239     2.4762     0.1010     0.0810   118.7611     7.9055
  184.5000    10.7998     7.1637     8.2084   -37.6650     2.4680     0.1051     0.0810   118.6007     7.9047
  185.0000    11.1613     7.2925     8.3680   -37.4100     2.4665     0.1088     0.0810   122.7194     7.9039
  185.5000    11.5528     7.4237     8.5372   -37.2220     2.4648     0.1106     0.0810   126.8629     7.9030
  186.0000    11.5477     7.5572     8.7099   -37.2261     2.4631     0.1057     0.0810   128.4968     7.9022
  186.5000    11.5496     7.6931     8.8860   -37.2255     2.4762     0.1011     0.0810   128.4763     7.9014
  187.0000    11.5492     7.8382     9.0094   -37.2256     2.4880     0.0966     0.0810   127.8640     7.9005
  187.5000    11.5491     7.8661     9.0583   -37.2256     2.4935     0.0920     0.0810   128.0449     7.8997
  188.0000    11.5494     7.9033     9.1075   -37.2256     2.4989     0.0875     0.0810   129.2941     7.8989
  188.5000    11.5455     7.9407     9.1570   -37.2256     2.5043     0.0830     0.0810   129.6104     7.8980
  189.0000    11.6788     7.9783     9.2068   -37.2256     2.5097     0.0798     0.0810   127.1057     7.8972
  189.5000    11.9203     8.0161     9.2567   -37.2255     2.5146     0.0796     0.0810   124.3052     7.8964
  190.0000    12.0291     8.0541     9.3075   -37.2249     2.5137     0.0787     0.0810   121.4908     7.8955
  190.5000    12.0969     8.0924     9.3450   -37.2216     2.5165     0.0765     0.0810   118.6738     7.8947
  191.0000    12.8977     8.1327     9.3782   -37.3582     2.5197     0.0772     0.0816   115.8684     7.8939
  191.5000    12.6684     8.1242     9.4115   -37.5060     2.5145     0.0807     0.0825   115.6185     7.8931
  192.0000    12.2068     8.1143     9.4449   -37.6544     2.5105     0.0838     0.0834   117.2222     7.8922
  192.5000    12.3120     8.1048     9.4784   -37.8017     2.5108     0.0821     0.0842   120.2300     7.8914
  193.0000    12.4342     8.0953     9.5145   -37.9498     2.5110     0.0810     0.0850   123.8058     7.8906
  193.5000    12.2400     8.0857     9.4684   -38.0242     2.5113     0.0810     0.0853   127.0945     7.8897
  194.0000    12.0342     8.0761     9.3816   -38.0569     2.5128     0.0810     0.0856   127.2720     7.8889
  194.5000    11.8323     8.0664     9.2956   -38.0876     2.5180     0.0776     0.0859   126.3311     7.8881
  195.0000    11.6431     8.0431     9.2104   -38.1177     2.5227     0.0754     0.0862   125.4047     7.8872
  195.5000    11.5492     7.9209     9.1259   -38.1476     2.5215     0.0765     0.0865   124.4742     7.8864
  196.0000    11.9835     7.8002     9.0422   -38.1782     2.5169     0.0774     0.0868   123.5445     7.8856
  196.5000    11.5007     7.6814     8.9595   -38.2124     2.5022     0.0922     0.0851   122.7099     7.8847
  197.0000    11.1307     7.5644     8.8777   -38.4311     2.4879     0.0995     0.0812   122.7426     7.8839
  197.5000    11.5173     7.4208     8.7971   -38.8442     2.4733     0.1043     0.0796   122.7910     7.8831
  198.0000    11.7644     7.2185     8.5120   -39.2709     2.4650     0.1087     0.0781   122.8343     7.8822
  198.5000    11.0392     7.0210     8.0511   -39.9897     2.4562     0.1124     0.0766   122.8679     7.8814
  199.0000    10.5153     6.7651     7.6154   -40.6966     2.4472     0.1162     0.0750   122.3527     7.8806
  199.5000    10.0162     6.3679     7.2034   -41.3994     2.4382     0.1199     0.0761   121.2415     7.8797
  200.0000     9.5408     5.9960     6.8136   -42.1025     2.4292     0.1236     0.0774   120.1364     7.8789
  200.5000     9.0880     5.6458     6.4449   -42.8286     2.4198     0.1273     0.0786   118.9762     7.8781
  201.0000     8.6567     5.3160     6.0094   -43.4039     2.4150     0.1303     0.0814   118.9698     7.8772
  201.5000     8.2084     4.8717     5.5086   -43.9622     2.4115     0.1321     0.0847   119.2958     7.8764
  202.0000     7.6454     4.4141     5.0074   -44.5161     2.4079     0.1378     0.0881   119.1984     7.8756
  202.5000     7.0689     3.9995     4.5344   -45.0620     2.3990     0.1471     0.0911   119.0898     7.8747
  203.0000     6.5359     3.6238     4.1027   -45.3819     2.3778     0.1575     0.0910   119.9924     7.8739
  203.5000     6.0430     3.2834     3.7125   -45.7139     2.3567     0.1746     0.0876   121.2202     7.8731
  204.0000     5.4027     2.9750     3.3595   -46.0168     2.3357     0.1867     0.0839   119.6039     7.8722
  204.5000     4.4905     2.7799     3.0400   -46.0092     2.3145     0.1998     0.0802   117.7003     7.8714
  205.0000     3.7323     2.6924     2.8215   -46.0089     2.2962     0.2110     0.0765   115.7581     7.8706
  205.5000     3.3435     2.6297     2.7372   -45.7615     2.2978     0.2096     0.0736   116.5110     7.8708
  206.0000     3.1147     2.5888     2.8042   -45.2897     2.3067     0.2026     0.0738   119.9578     7.8735
  206.5000     3.8154     2.7137     2.9369   -44.8178     2.3312     0.1887     0.0750   123.4410     7.8761
  207.0000     6.3979     2.8469     3.0758   -44.3453     2.3555     0.1748     0.0771   126.8969     7.8788
  207.5000     5.5248     3.1177     3.2214   -43.8728     2.3799     0.1609     0.0794   130.1167     7.8814
  208.0000     3.6776     3.4153     3.5277   -43.4004     2.4022     0.1470     0.0816   131.0581     7.8840
  208.5000     4.9428     3.7409     3.9271   -42.9331     2.4234     0.1331     0.0838   132.0526     7.8867
  209.0000     8.9193     4.0975     4.3718   -42.5759     2.4444     0.1192     0.0860   130.5531     7.8893
  209.5000     9.3138     4.4879     4.8668   -42.4774     2.4653     0.1071     0.0883   128.8588     7.8919
  210.0000     9.6027     4.9156     5.4179   -42.3731     2.4791     0.1031     0.0906   127.3199     7.8946
  210.5000     9.3767     5.1965     5.7029   -42.2696     2.4802     0.0990     0.0903   129.3857     7.8972
  211.0000     9.2114     5.4257     5.8862   -42.1666     2.4815     0.0986     0.0895   132.7844     7.8998
  211.5000     9.0490     5.6649     6.0754   -42.0620     2.4825     0.0993     0.0886   135.6175     7.9025
  212.0000     8.8896     5.7879     6.2809   -42.0877     2.4802     0.1001     0.0878   137.7020     7.9051
