~VERSION INFORMATION
 VERS.                2.0:   CWLS LOG ASCII STANDARD - VERSION 2.0
 WRAP.                 NO:   ONE LINE PER DEPTH STEP
~WELL INFORMATION
#MNEM.UNIT      DATA TYPE    INFORMATION
#----------   ------------   ------------------------------
 STRT.F            0.0000:   START DEPTH
 STOP.F          860.0000:   STOP DEPTH
 STEP.F            0.5000:   STEP LENGTH
 NULL.          -999.2500:   NO VALUE
 COMP.          U.S. NAVY:   COMPANY
 WELL. NPR #3 TEAPOT DOME #28S-35:   WELL
 FLD .             TEAPOT:   FIELD
 LOC .      S35 T39N R78W:   LOCATION
 CNTY.            NATRONA:   COUNTY
 STAT.            WYOMING:   STATE
 CTRY. UNITED STATES OF AMERICA:   COUNTRY
 SRVC.       Schlumberger:   SERVICE COMPANY
 DATE.        10-NOV-1958:   LOGDATE
 API .       490250649800:   API NUMBER
~CURVE INFORMATION
#MNEM.UNIT       API CODE    CURVE DESCRIPTION
#----------   ------------   ------------------------------
 DEPT.F                  :   
 SPR .MV     01 010 01 00:   SPONTANEOUS POTENTIAL FROM RES.
 ASN .OHMM   01 041 16 00:   AMPLIFIED SHORT NORMAL 16"
 LT18.OHMM   01 070 18 00:   LATERAL 18'
 LN  .OHMM   01 060 64 00:   LONG NORMAL 64"
 GRN .CPS    35 310 30 00:   GAMMA RAY
 NEUT.CPS    35 330 30 00:   NEUTRON
 MCAL.IN     15 280 01 00:   CALIPER FROM MICRO LOG
~PARAMETER INFORMATION
#MNEM.UNIT          VALUE    DESCRIPTION
#----------   ------------   ------------------------------
 LMF .                 KB:   LOG MEASURED FROM
 DMF .                 KB:   DRILLING MEASURED FROM
 EKB .F              5113:   KELLING BUSHING
 EGL .F              5103:   GROUND LEVEL
 DATE.         11-10-1958:   RUN DATE
 RUN .                  1:   RUN NUMBER
 DD  .F               860:   DEPTH DRILLER
 DL  .F               861:   DEPTH LOGGER
 BLI .F               860:   BOTTOM LOG INTERVAL
 TLI .F                90:   TOP LOG INTERVAL
 CBD .F                34:   CASING BOTTOM DRILLER
 BS  .IN             6.75:   BIT SIZE
 BSD .F               860:   BIT SIZE AT DEPTH
 DFT .          OIL ADDED:   DRILLING FLUID TYPE
 DFD .                 10:   DRILLING FLUID DENSITY
 DFV .                 20:   DRILLING FLUID VISCOSITY
 DFPH.                7.5:   DRILLING FLUID PH
 DFL .                4.2:   DRILLING FLUID LOSS
 RMS .OHMM              2:   RESISTIVITY MUD SAMPLE
 MST .F                62:   MUD SAMPLE TEMPERATURE
 RMF .OHMM            1.4:   RESISTIVITY MUD FILTRATE SAMPLE
 MFST.F                72:   MUD FILTRATE SAMPLE TEMPERATURE
 RMC .OHMM            1.9:   RESISTIVITY MUD CAKE
 MCST.F                72:   MUD CAKE SAMPLE TEMPERATURE
 MFSS.                  M:   MUD FILTRATE SAMPLE SOURCE
 MCSS.                  M:   MUD CAKE SAMPLE SOURCE
 RMB .OHMM            1.7:   RESISTIVITY MUD AT BHT
 BHT .F                72:   BOTTOM HOLE TEMPERATURE
 TCS .HRS               1:   TIME CURCULATED STOPPED
 MRT .F                72:   MAXIMUM RECORDED TEMPERATURE
 LUN .               2754:   LOGGING UNIT NUMBER
 LUL .                 NC:   LOGGING UNIT LOCATION
 ENGI.             QUINBY:   RECORDING ENGINEER
 WITN.             MARTIN:   WITNESSED BY
 CLNT.            A2DTECH:   CLIENT CODE
 ORIG.     1", 2.5" PRINT:   ORIGIN OF DATA
 UWI .       490250649800:   UNIQUE WELL ID
 DICO. A2D Technologies, Inc.:   DIGITIZING COMPANY
~OTHER INFORMATION
~A    DEPT     SPR        ASN       LT18         LN          GRN     NEUT       MCAL   
# ...
  182.0000    -7.3859     3.3735     5.9703     4.6685     5.8509   391.2191     6.9546
  182.5000    -7.3845     3.0764     5.8345     4.8098     6.0639   383.5372     6.9424
  183.0000    -7.3831     2.8603     5.5433     4.9376     5.9422   390.4631     6.9265
  183.5000    -7.3818     2.8604     4.9987     5.0721     5.8269   384.3385     6.9261
  184.0000    -7.3804     2.8605     3.9945     5.0707     5.8805   386.0123     6.9381
  184.5000    -7.3791     2.8337     2.8889     5.0693     6.0294   388.9476     6.9925
  185.0000    -7.3777     2.9149     3.2635     4.9003     6.0385   394.3471     7.0195
  185.5000    -7.3763     3.1582     3.9520     4.6222     5.9403   407.2782     6.9806
  186.0000    -7.5217     3.6449     4.4649     4.0724     5.8580   403.7397     6.9240
  186.5000    -7.6454     3.9964     4.8358     3.9769     5.8580   397.1470     6.9236
  187.0000    -7.9158     4.0505     4.9770     3.9755     5.7756   400.5511     6.8959
  187.5000    -7.9142     4.0236     5.0676     3.9742     5.5491   412.3834     6.9092
  188.0000    -7.9128     4.0580     5.0703     4.0344     5.4873   424.8473     6.9089
  188.5000    -7.6397     4.1590     5.0730     4.1740     5.8580   430.1548     6.9220
  189.0000    -7.6384     4.1592     4.9405     4.3134     5.8786   415.9281     6.9216
  189.5000    -7.6371     4.1901     4.9432     4.2998     5.8786   397.4355     6.9212
  190.0000    -7.9076     4.2405     4.9460     4.1030     5.8991   378.5055     6.9354
  190.5000    -7.9061     4.1814     4.9486     3.9658     6.3111   365.5397     6.9477
  191.0000    -7.9048     4.1268     4.9514     3.9645     6.4345   370.6745     6.9622
  191.5000    -8.1753     4.0387     4.9540     3.9631     6.4566   379.0765     6.9742
  192.0000    -8.4457     3.9294     4.9573     3.9618     6.5169   366.1012     6.9738
  192.5000    -8.4442     3.8201     4.9600     3.9605     6.3933   372.9762     6.9734
  193.0000    -8.7146     3.7107     4.9626     4.0950     6.4139   384.4320     6.9730
  193.5000    -9.2568     3.6014     4.8302     4.0937     6.1070   416.5016     6.9726
  194.0000    -9.5272     3.4551     4.8328     4.2283     5.8991   425.8905     6.9721
  194.5000    -9.5258     3.2535     4.5652     4.3627     6.2164   421.0899     6.9717
  195.0000    -9.5245     3.0459     4.2976     4.4973     6.3923   434.8362     6.9712
  195.5000    -9.5231     2.9717     3.8949     4.4959     6.4902   436.3669     6.9708
  196.0000    -9.5217     3.1160     3.3570     4.2229     6.6218   430.2320     6.9704
  196.5000    -9.5204     3.2556     3.0894     4.2215     6.8930   428.7397     6.9700
  197.0000    -9.5190     3.3524     3.3624     4.2201     6.8911   433.6097     6.9696
  197.5000    -9.7895     3.5860     3.7704     4.1984     6.5899   439.4358     6.9692
  198.0000    -9.8478     4.0715     3.9082     4.0815     6.4952   432.0083     6.9688
  198.5000   -10.1259     4.3289     4.1812     4.0498     6.4757   408.7000     6.9684
  199.0000   -10.0571     4.4322     4.3190     3.9429     6.1462   395.1656     6.9680
  199.5000   -10.0557     4.4864     4.4568     3.9416     6.2286   398.5800     6.9676
  200.0000    -9.7806     4.5948     4.5946     3.9404     6.4757   399.7539     6.9811
  200.5000    -9.7670     4.6504     4.7365     3.9457     6.5992   394.6315     6.9974
  201.0000    -9.7527     4.7059     4.7433     3.9511     6.5373   395.2730     7.0137
  201.5000    -9.7378     4.7344     4.7500     4.0181     6.6401   399.7545     7.0300
  202.0000    -9.7228     4.7359     4.8919     3.9619     6.6361   380.7128     7.0449
  202.5000    -9.7079     4.6563     4.8986     3.9674     6.5020   371.2383     7.0437
  203.0000    -9.6929     4.5226     4.7698     4.0507     6.2461   381.6731     7.0426
  203.5000    -9.4062     4.2808     4.7770     4.3869     6.0325   394.9886     7.0415
  204.0000    -9.3913     3.9850     4.7567     4.5281     5.9151   408.8957     7.0404
  204.5000    -9.3763     3.7162     4.4594     4.6693     6.0630   402.7219     7.0394
  205.0000    -9.3614     3.3663     4.0541     4.8105     5.8837   414.1071     7.0382
  205.5000    -9.3465     3.2327     3.6487     4.8158     5.7745   428.7665     7.0099
  206.0000    -9.3315     3.3693     3.3233     4.4135     5.8320   423.7587     7.0087
  206.5000    -9.3166     3.4279     3.2871     4.2826     6.0876   415.0240     7.0077
  207.0000    -9.3016     3.3182     3.2015     4.2883     6.1448   424.1856     7.0063
  207.5000    -9.5599     3.3467     3.5304     4.2937     6.0624   428.0030     6.9780
  208.0000    -9.5435     3.7265     3.8108     4.2990     5.9903   415.7874     6.9769
  208.5000    -9.4669     4.0523     4.0912     4.0308     5.8935   387.5389     6.9485
  209.0000    -9.2418     4.1889     4.2365     3.9020     5.7338   381.2200     6.9474
  209.5000    -9.2269     4.2715     4.5169     3.9076     5.6042   396.7006     6.9464
  210.0000    -9.2844     4.3811     4.7973     3.9131     5.8915   408.9162     6.9453
  210.5000    -9.4708     4.4636     4.9425     3.9185     5.8961   404.3353     6.9442
  211.0000    -9.7277     4.4651     5.1487     3.9239     6.0416   397.4641     6.9431
  211.5000    -9.7106     4.3815     5.1554     3.9294     6.2167   396.7006     6.9421
  212.0000    -9.6956     4.2177     5.1635     3.9348     6.0564   387.5389     6.9410
  212.5000    -9.7713     4.0326     5.1702     3.8035     6.0201   389.0659     6.9399
  213.0000    -9.9401     3.8684     5.1768     3.9457     5.7317   394.4102     6.9388
  213.5000    -9.9225     3.6793     5.0473     3.9511     5.7934   409.6796     6.9377
  214.0000   -10.1821     3.5443     4.9199     4.0924     5.8962   399.7545     6.9366
  214.5000   -10.1644     3.4093     4.6563     4.0308     6.0609   390.7681     6.9355
  215.0000   -10.1494     3.2563     4.3927     3.8315     6.0196   378.9757     6.9619
  215.5000   -10.1345     3.2351     3.9940     3.7011     5.7106   368.4179     6.9700
  216.0000   -10.0036     3.2313     3.5953     3.7076     6.0194   358.9548     6.9871
  216.5000    -9.8328     3.1126     3.3317     3.7129     6.2252   353.3632     6.9740
  217.0000    -9.8179     2.9963     3.4735     3.5815     6.0604   349.2054     6.9574
  217.5000    -9.8030     3.0858     3.7504     3.5877     5.7720   349.0217     6.9563
  218.0000    -9.7880     3.2155     4.0274     3.4565     5.5660   353.4271     6.9552
  218.5000    -9.7731     3.0667     4.0340     3.3266     5.7718   350.6499     6.9539
  219.0000    -9.7582     2.9241     4.1758     3.0602     6.0188   371.7894     6.9528
  219.5000    -9.7432     2.7891     3.9122     3.0655     6.4511   384.5378     6.9517
  220.0000    -9.7283     2.6630     3.7838     3.3426     6.4757   391.0000     6.9780
  220.5000    -9.8619     2.5285     3.5169     3.4838     6.2862   397.0362     6.9769
  221.0000    -9.9701     2.3670     3.2566     3.6250     6.1625   404.8925     7.0305
  221.5000    -9.9552     2.2594     3.1182     3.6303     6.0595   407.3892     7.0841
  222.0000    -9.9402     2.2273     2.8645     3.4998     6.3726   394.4102     7.1377
  222.5000    -9.9223     2.3056     2.7361     3.3692     6.5329   398.9910     7.1639
  223.0000    -9.9075     2.4431     2.5878     3.2156     6.1958   407.3892     7.1082
  223.5000    -9.8926     2.5145     2.4791     3.1081     6.0385   408.9162     6.9968
  224.0000    -9.8778     2.5831     2.9189     3.1142     6.3983   411.2066     6.9694
  224.5000    -9.8629     2.7458     3.3345     3.2555     6.5384   407.3892     6.9683
  225.0000    -9.8481     3.1419     3.6486     3.2156     6.6010   393.6467     6.9672
  225.5000    -9.8332     3.5091     3.9932     3.0797     6.6842   397.4641     6.9661
  226.0000    -9.5466     3.5638     4.0406     3.0000     6.5912   392.1198     6.9650
  226.5000    -9.8057     3.5504     4.1419     3.0054     6.3467   388.5005     6.9640
  227.0000    -9.7887     3.5397     4.1487     3.1467     6.4908   389.9541     6.9628
