~VERSION INFORMATION
 VERS.                2.0:   CWLS LOG ASCII STANDARD - VERSION 2.0
 WRAP.                 NO:   ONE LINE PER DEPTH STEP
~WELL INFORMATION
#MNEM.UNIT      DATA TYPE    INFORMATION
#----------   ------------   ------------------------------
 STRT.F           38.5000:   START DEPTH
 STOP.F          606.0000:   STOP DEPTH
 STEP.F            0.5000:   STEP LENGTH
 NULL.          -999.2500:   NO VALUE
 COMP. FENIX & SCISSON INC:   COMPANY
 WELL.      NPR-X3 #185-2:   WELL
 FLD .             TEAPOT:   FIELD
 LOC .       S2 T38N R78W:   LOCATION
 CNTY.            NATRONA:   COUNTY
 STAT.            WYOMING:   STATE
 CTRY. UNITED STATES OF AMERICA:   COUNTRY
 SRVC.            Unknown:   SERVICE COMPANY
 DATE.        30-JAN-1978:   LOGDATE
 API .       490251056200:   API NUMBER
~CURVE INFORMATION
#MNEM.UNIT       API CODE    CURVE DESCRIPTION
#----------   ------------   ------------------------------
 DEPT.F                  :   
 CALD.IN     45 280 60 00:   CALIPER
 GRD .GAPI   45 310 01 00:   GAMMA RAY FROM DENSITY LOG
 CORR.G/C3   45 356 01 00:   DENSITY CORRECTION
 RHOB.G/C3   45 350 01 00:   BULK DENSITY
 DPHI.DEC    45 890 12 00:   DENSITY POROSITY SANDSTONE
 SPR .MV     05 010 01 00:   SPONTANEOUS POTENTIAL FROM RES.
 SN  .OHMM   05 040 16 00:   SHORT NORMAL 16"
 ILD .OHMM   05 120 46 00:   INDUCTION LOG DEEP
~PARAMETER INFORMATION
#MNEM.UNIT          VALUE    DESCRIPTION
#----------   ------------   ------------------------------
 PD  .                 GL:   PERMANENT DATUM
 EPD .F              5134:   ELEVATION PERMANENT DATUM
 LMF .                 KB:   LOG MEASURED FROM
 DAPD.F                 4:   FEET ABOVE PERMANENT DATUM
 DMF .                 KB:   DRILLING MEASURED FROM
 EKB .F              5138:   KELLING BUSHING
 EGL .F              5134:   GROUND LEVEL
 DATE.            1-30-78:   RUN DATE
 RUN .                  1:   RUN NUMBER
 DD  .F               600:   DEPTH DRILLER
 DL  .F               604:   DEPTH LOGGER
 BLI .F               598:   BOTTOM LOG INTERVAL
 TLI .F                40:   TOP LOG INTERVAL
 CS  .IN            8.625:   CASING SIZE
 CBD .F                40:   CASING BOTTOM DRILLER
 CBL .F                41:   CASING BOTTOM LOGGER
 BS  .IN            7.875:   BIT SIZE
 BSD .F               600:   BIT SIZE AT DEPTH
 DFT .                KCL:   DRILLING FLUID TYPE
 DFD .                8.6:   DRILLING FLUID DENSITY
 DFV .                 34:   DRILLING FLUID VISCOSITY
 DFPH.                 10:   DRILLING FLUID PH
 DFL .                  7:   DRILLING FLUID LOSS
 MSS .                PIT:   MUD SAMPLE SOURCE
 RMS .OHMM            .65:   RESISTIVITY MUD SAMPLE
 MST .F                70:   MUD SAMPLE TEMPERATURE
 RMF .OHMM            1.2:   RESISTIVITY MUD FILTRATE SAMPLE
 MFST.F                64:   MUD FILTRATE SAMPLE TEMPERATURE
 MFSS.               MEAS:   MUD FILTRATE SAMPLE SOURCE
 RMB .OHMM            .64:   RESISTIVITY MUD AT BHT
 BHT .F                71:   BOTTOM HOLE TEMPERATURE
 TCS .HRS               3:   TIME CURCULATED STOPPED
 MRT .F                71:   MAXIMUM RECORDED TEMPERATURE
 LUN .               2958:   LOGGING UNIT NUMBER
 LUL .                CAS:   LOGGING UNIT LOCATION
 ENGI.           REYNOLDS:   RECORDING ENGINEER
 WITN.         HARRINGTON:   WITNESSED BY
 CLNT.            A2DTECH:   CLIENT CODE
 ORIG.        2" 5" PRINT:   ORIGIN OF DATA
 UWI .       490251056200:   UNIQUE WELL ID
 DICO. A2D Technologies, Inc.:   DIGITIZING COMPANY
~OTHER INFORMATION
~A   DEPT     CALD        GRD        CORR      RHOB       DPHI        SPR         SN        ILD   
# ...
  241.0000     8.1584   100.1835     0.0577     2.4608     0.1189   -65.5130     8.3048     7.6646
  241.5000     8.1584    98.6611     0.0574     2.4618     0.1199   -65.6708     8.3847     7.6726
  242.0000     8.1584    99.5783     0.0529     2.4587     0.1219   -65.8412     8.4371     7.6804
  242.5000     8.1584    99.6321     0.0484     2.4553     0.1229   -65.7924     8.3895     7.6881
  243.0000     8.1584    99.2055     0.0433     2.4520     0.1234   -65.6770     8.3485     7.6962
  243.5000     8.1584   102.0379     0.0403     2.4509     0.1243   -65.6437     8.3079     7.6453
  244.0000     8.1584   104.1743     0.0422     2.4533     0.1241   -65.6114     8.2676     7.5960
  244.5000     8.1584   103.7797     0.0435     2.4595     0.1214   -65.5785     8.2274     7.5470
  245.0000     8.1584   104.4226     0.0379     2.4588     0.1207   -65.5455     8.1875     7.4979
  245.5000     8.1584   104.7697     0.0336     2.4602     0.1174   -65.5137     8.1476     7.4798
  246.0000     8.1584   102.9761     0.0399     2.4631     0.1212   -65.4457     8.0950     7.4700
  246.5000     8.1584   102.6700     0.0545     2.4575     0.1244   -65.3723     8.0340     7.4605
  247.0000     8.1584   102.7385     0.0571     2.4525     0.1212   -65.3131     7.9735     7.4509
  247.5000     8.1584   101.6265     0.0561     2.4592     0.1185   -65.3748     7.9135     7.4413
  248.0000     8.1584   102.8262     0.0597     2.4626     0.1208   -65.4348     7.8540     7.4318
  248.5000     8.1584    98.5068     0.0664     2.4596     0.1220   -65.4889     7.7949     7.4223
  249.0000     8.1584    99.6114     0.0602     2.4565     0.1204   -65.8101     7.7362     7.3518
  249.5000     8.1584   100.9797     0.0476     2.4509     0.1168   -66.1866     7.6787     7.2437
  250.0000     8.1584   105.8510     0.0504     2.4471     0.1168   -66.3010     7.6248     7.1372
  250.5000     8.1584   107.1549     0.0462     2.4589     0.1205   -66.2944     7.4969     6.9495
  251.0000     8.1584   105.2963     0.0286     2.4607     0.1190   -66.2653     7.3797     6.6905
  251.5000     8.1584   103.0195     0.0258     2.4659     0.1267   -66.2369     7.2651     6.4411
  252.0000     8.1584   102.3763     0.0288     2.4516     0.1361   -66.2086     7.0248     6.2010
  252.5000     8.1584   102.5329     0.0340     2.4333     0.1424   -66.1805     6.7028     6.0407
  253.0000     8.1584   103.9131     0.0357     2.4251     0.1428   -66.1532     6.3955     5.9403
  253.5000     8.1584   105.9767     0.0356     2.4209     0.1408   -66.1240     6.1175     5.8416
  254.0000     8.1584   109.5190     0.0420     2.4358     0.1339   -66.0279     5.9923     5.7895
  254.5000     8.1584   109.9626     0.0490     2.4405     0.1328   -65.6930     5.9513     5.8582
  255.0000     8.1584   107.5844     0.0564     2.4444     0.1268   -65.3689     6.2762     6.0250
  255.5000     8.1584   102.7959     0.0498     2.4534     0.1220   -65.0416     6.5940     6.2848
  256.0000     8.1584   100.4414     0.0397     2.4632     0.1197   -64.7307     6.9279     6.5559
  256.5000     8.1584   100.6388     0.0359     2.4707     0.1198   -65.0748     7.2836     6.8387
  257.0000     8.1584   101.3018     0.0392     2.4646     0.1223   -65.4607     7.3141     7.0209
  257.5000     8.1584   100.3882     0.0468     2.4546     0.1248   -65.8486     7.3423     6.9567
  258.0000     8.1584    98.8767     0.0498     2.4518     0.1241   -65.8151     7.3716     6.9195
  258.5000     8.1584    97.6217     0.0501     2.4560     0.1193   -65.7062     7.4014     6.8835
  259.0000     8.1584    99.6883     0.0557     2.4608     0.1206   -65.5962     7.4313     6.8477
  259.5000     8.1584    99.9727     0.0614     2.4608     0.1219   -65.4871     7.4610     6.8122
  260.0000     8.1584    99.9312     0.0675     2.4582     0.1217   -65.3793     7.4869     6.7765
  260.5000     8.1584    99.4803     0.0738     2.4569     0.1205   -65.3072     7.3632     6.7566
  261.0000     8.1584    99.0357     0.0803     2.4598     0.1191   -65.3083     7.2561     6.7249
  261.5000     8.1584    98.5696     0.0864     2.4629     0.1177   -65.3081     7.1511     6.6934
  262.0000     8.1584    98.4548     0.0917     2.4660     0.1164   -65.3082     7.0525     6.6620
  262.5000     8.1584    99.3122     0.0868     2.4691     0.1151   -65.3082     6.9558     6.6308
  263.0000     8.1584   100.3337     0.0804     2.4718     0.1145   -65.3082     6.8605     6.5998
  263.5000     8.1584   101.3443     0.0740     2.4704     0.1188   -65.3082     6.7151     6.4200
  264.0000     8.1584   100.9266     0.0712     2.4631     0.1201   -65.3082     6.5491     6.0938
  264.5000     8.1584    98.5503     0.0704     2.4554     0.1335   -65.3106     6.3872     5.7842
  265.0000     8.1584    99.5938     0.0695     2.4439     0.1381   -65.2970     6.0946     5.4792
  265.5000     8.1584   100.8895     0.0762     2.4276     0.1411   -65.5266     5.7717     5.2055
  266.0000     8.1584   101.9406     0.0856     2.4228     0.1490   -65.1832     5.4660     4.9352
  266.5000     8.1584   101.4627     0.0954     2.4167     0.1601   -64.7552     5.1762     4.6790
  267.0000     8.1584   100.3497     0.0968     2.3959     0.1623   -65.6752     4.8628     4.4360
  267.5000     8.1584    99.2437     0.0897     2.3891     0.1495   -65.5575     4.8971     4.2760
  268.0000     8.1584    99.4122     0.0895     2.4253     0.1383   -65.4097     4.9378     4.4094
  268.5000     8.1584   102.2260     0.0868     2.4485     0.1257   -65.2633     4.9788     4.5182
  269.0000     8.1584   102.8000     0.0836     2.4689     0.1201   -65.1186     5.0446     4.5182
  269.5000     8.1584   100.3220     0.0803     2.4673     0.1198   -64.9720     5.5169     4.9345
  270.0000     8.1584    98.1431     0.0780     2.4645     0.1188   -65.0003     6.1478     5.5573
  270.5000     8.1584   100.2215     0.0760     2.4609     0.1173   -65.1523     6.7527     6.2617
  271.0000     8.1584   100.5912     0.0699     2.4646     0.1134   -65.3238     6.9945     6.8301
  271.5000     8.1584   101.3267     0.0606     2.4713     0.1089   -65.9055     7.2451     6.8961
  272.0000     8.1584   102.3297     0.0512     2.4780     0.1149   -66.0716     7.3749     6.9611
  272.5000     8.1584   101.8194     0.0466     2.4695     0.1189   -66.0316     7.4838     7.0209
  273.0000     8.1584   102.5931     0.0391     2.4601     0.1181   -65.9872     7.5944     7.0519
  273.5000     8.1584   103.7958     0.0253     2.4632     0.1203   -65.9427     7.7066     7.0869
  274.0000     8.1584   106.4693     0.0249     2.4643     0.1245   -65.8592     7.8204     7.1219
  274.5000     8.1584   106.6579     0.0331     2.4541     0.1320   -65.5491     7.9359     7.1706
  275.0000     8.1584   107.8285     0.0420     2.4438     0.1318   -65.2390     8.0282     7.2836
  275.5000     8.1584   108.5975     0.0604     2.4405     0.1293   -64.9297     8.1039     7.3984
  276.0000     8.1584   107.5359     0.0793     2.4418     0.1264   -64.6178     8.1803     7.4870
  276.5000     8.1584   110.0539     0.0854     2.4515     0.1227   -64.4917     8.2575     7.4791
  277.0000     8.1584   113.8334     0.0860     2.4618     0.1090   -64.4565     8.3353     7.4728
  277.5000     8.1584   113.5323     0.0903     2.4710     0.1084   -64.4230     8.4139     7.4664
  278.0000     8.1584   117.4158     0.0947     2.4746     0.1080   -64.3892     8.4932     7.4600
  278.5000     8.1584   120.2936     0.1003     2.4790     0.1076   -64.3551     8.5733     7.4536
  279.0000     8.1585   121.4377     0.1081     2.4816     0.1071   -64.3185     8.6542     7.4473
  279.5000     8.1592   129.0266     0.1159     2.4794     0.1070   -64.4021     8.7520     7.4409
  280.0000     8.1216   133.9188     0.1236     2.4796     0.1070   -64.5147     8.7520     7.4346
  280.5000     8.0697   134.7506     0.1294     2.4815     0.1049   -64.6281     8.7520     7.4283
  281.0000     8.0596   130.5083     0.1292     2.4826     0.1017   -64.7410     8.7520     7.4216
