~VERSION INFORMATION
 VERS.                2.0:   CWLS LOG ASCII STANDARD - VERSION 2.0
 WRAP.                 NO:   ONE LINE PER DEPTH STEP
~WELL INFORMATION
#MNEM.UNIT      DATA TYPE    INFORMATION
#----------   ------------   ------------------------------
 STRT.F           40.0000:   START DEPTH
 STOP.F          468.0000:   STOP DEPTH
 STEP.F            0.5000:   STEP LENGTH
 NULL.          -999.2500:   NO VALUE
 COMP. BROWN JOHN E&C INC:   COMPANY
 WELL. NAVAL PETROLEUM RESERVE 3 SX-1 #73-2-10:   WELL
 FLD .             TEAPOT:   FIELD
 LOC .      S10 T38N R78W:   LOCATION
 CNTY.            NATRONA:   COUNTY
 STAT.            WYOMING:   STATE
 CTRY. UNITED STATES OF AMERICA:   COUNTRY
 SRVC.     Atlas Wireline:   SERVICE COMPANY
 DATE.        05-MAY-1991:   LOGDATE
 API .       490251134000:   API NUMBER
~CURVE INFORMATION
#MNEM.UNIT       API CODE    CURVE DESCRIPTION
#----------   ------------   ------------------------------
 DEPT.F                  :   
 RILD.OHMM   07 120 46 00:   INDUCTION LOG DEEP RESISTIVITY
 RILM.OHMM   07 120 44 00:   INDUCTION LOG MEDIUM RESISTIVITY
 GRD .GAPI   45 310 01 00:   GAMMA RAY FROM DENSITY LOG
 CALD.IN     45 280 60 00:   CALIPER FROM DENSITY LOG
 CORR.G/C3   45 356 01 00:   DENSITY CORRECTION
 PORD.DEC    45 890 12 00:   POROSITY DENSITY SANDSTONE
 DEN .G/C3   45 350 01 00:   COMPENSATED BULK DENSTIY
~PARAMETER INFORMATION
#MNEM.UNIT          VALUE    DESCRIPTION
#----------   ------------   ------------------------------
 PD  .                 GL:   PERMANENT DATUM
 EPD .F              5178:   ELEVATION PERMANENT DATUM
 LMF .                 KB:   LOG MEASURED FROM
 DAPD.F                 5:   FEET ABOVE PERMANENT DATUM
 DMF .                 KB:   DRILLING MEASURED FROM
 EKB .F              5183:   KELLING BUSHING
 EGL .F              5178:   GROUND LEVEL
 DATE.        05-MAY-1991:   RUN DATE
 RUN .                  1:   RUN NUMBER
 DD  .F               470:   DEPTH DRILLER
 DL  .F               470:   DEPTH LOGGER
 BLI .F               468:   BOTTOM LOG INTERVAL
 TLI .F                 0:   TOP LOG INTERVAL
 CS  .IN            8.625:   CASING SIZE
 CBD .F                45:   CASING BOTTOM DRILLER
 CBL .F                45:   CASING BOTTOM LOGGER
 BS  .IN            7.875:   BIT SIZE
 BSD .F               470:   BIT SIZE AT DEPTH
 DFT .                AIR:   DRILLING FLUID TYPE
 LUN .            HL-6272:   LOGGING UNIT NUMBER
 LUL .             CASPER:   LOGGING UNIT LOCATION
 ENGI.            KINNETT:   RECORDING ENGINEER
 WITN.             STRONG:   WITNESSED BY
 CLNT.            A2DTECH:   CLIENT CODE
 ORIG.           5" PRINT:   ORIGIN OF DATA
 UWI .       490251134000:   UNIQUE WELL ID
 DICO. A2D Technologies, Inc.:   DIGITIZING COMPANY
~OTHER INFORMATION
~A   DEPT     RILD       RILM          GRD     CALD       CORR       PORD        DEN   
# ...
   85.5000    11.7969    12.3349    46.3252     8.5232    -0.0031     0.1027     2.4872
   86.0000    11.7120    12.0822    44.2781     8.5231    -0.0015     0.1096     2.4782
   86.5000    11.4737    11.7511    42.4705     8.5229     0.0000     0.1129     2.4706
   87.0000    11.3943    11.5120    42.7263     8.5228     0.0015     0.1138     2.4677
   87.5000    11.1593    11.3547    43.8920     8.5226     0.0030     0.1132     2.4677
   88.0000    11.0053    11.1996    45.2467     8.5074     0.0045     0.1102     2.4715
   88.5000    10.8535    11.1236    46.6500     8.5072     0.0061     0.1084     2.4752
   89.0000    10.6297    11.0485    48.2209     8.5222     0.0061     0.1105     2.4735
   89.5000    10.5561    11.0500    48.6467     8.5069     0.0061     0.1150     2.4643
   90.0000    10.4830    11.0515    47.7472     8.5219     0.0076     0.1192     2.4541
   90.5000    10.4105    11.0530    45.7116     8.5368     0.0091     0.1210     2.4496
   91.0000    10.4830    11.0545    44.1299     8.5366     0.0122     0.1189     2.4519
   91.5000    10.5561    11.0560    44.1366     8.5365     0.0152     0.1159     2.4602
   92.0000    10.7038    11.2122    43.9165     8.5363     0.0136     0.1144     2.4654
   92.5000    10.8535    11.3706    43.6963     8.5362     0.0060     0.1159     2.4632
   93.0000    11.1593    11.5312    42.3415     8.5360    -0.0001     0.1165     2.4594
   93.5000    11.2371    11.7756    38.0366     8.5359    -0.0028     0.1144     2.4624
   94.0000    11.1593    11.8593    34.6395     8.5357     0.0002     0.1099     2.4729
   94.5000    10.9292    11.6167    33.5116     8.5356     0.0062     0.1015     2.4962
   95.0000    10.7038    11.5375    33.0628     8.5354     0.0228     0.0907     2.5083
   95.5000    10.4830    11.3015    34.6598     8.5504     0.0243     0.0787     2.5195
   96.0000    10.3384    11.0700    37.6166     8.5502     0.0183     0.0799     2.5233
   96.5000    10.1958    10.8431    40.5735     8.5350     0.0123     0.0982     2.4989
   97.0000     9.9855    10.6206    41.9418     8.5348     0.0078     0.1084     2.4867
   97.5000     9.7119    10.4034    42.8563     8.5347     0.0078     0.1135     2.4665
   98.0000     9.5779    10.3324    43.7708     8.5345     0.0093     0.1150     2.4617
   98.5000     9.4458    10.1913    44.2314     8.5344     0.0139     0.1144     2.4684
   99.0000     9.3804    10.0523    44.4651     8.5342     0.0169     0.1132     2.4699
   99.5000     9.2510     9.9150    44.2432     8.5341     0.0169     0.1129     2.4692
  100.0000     9.1870     9.7796    44.4786     8.5339     0.0139     0.1129     2.4677
  100.5000     9.1844     9.6411    44.7637     8.5338     0.0104     0.1144     2.4647
  101.0000     9.1819     9.5142    45.3956     8.5336     0.0093     0.1153     2.4617
  101.5000     9.1793     9.5158    47.8963     8.5184     0.0093     0.1159     2.4594
  102.0000     9.1132     9.5171    49.2613     8.5182     0.0093     0.1159     2.4602
  102.5000     9.0472     9.5017    46.9977     8.5181     0.0108     0.1153     2.4624
  103.0000     8.9821     9.4997    47.2291     8.5179     0.0122     0.1138     2.4647
  103.5000     8.9796     9.4977    47.9144     8.5178     0.0092     0.1150     2.4654
  104.0000     8.9771     9.4958    48.5997     8.5176     0.0046     0.1177     2.4571
  104.5000     8.9747     9.4938    48.3773     8.5175     0.0016     0.1198     2.4511
  105.0000     8.9722     9.4918    46.1126     8.5173     0.0001     0.1213     2.4466
  105.5000     8.9697     9.4898    42.0324     8.5172     0.0016     0.1204     2.4489
  106.0000     9.0304     9.4879    39.9934     8.5170     0.0016     0.1186     2.4541
  106.5000     9.0273     9.4855    42.0414     8.5169     0.0045     0.1167     2.4586
  107.0000     9.0883     9.4836    42.2729     8.5167     0.0060     0.1143     2.4647
  107.5000     9.0852     9.4816    42.2774     8.5166     0.0044     0.1114     2.4707
  108.0000     9.0827     9.4797    43.8704     8.5164     0.0029     0.1099     2.4752
  108.5000     9.0174     9.4777    47.0519     8.5163    -0.0001     0.1159     2.4714
  109.0000     8.9525     9.4757    50.9142     8.5161    -0.0032     0.1219     2.4579
  109.5000     8.8265     9.3431    52.2792     8.5160    -0.0017     0.1258     2.4442
  110.0000     8.7024     9.0223    47.7463     8.5144    -0.0002     0.1300     2.4330
  110.5000     8.4616     8.6523    45.9343     8.5087     0.0028     0.1312     2.4339
  111.0000     8.2275     8.2399    47.3015     8.5030     0.0042     0.1303     2.4376
  111.5000     7.9445     7.7929    49.8022     8.4974     0.0057     0.1279     2.4400
  112.0000     7.6690     7.6307    51.3952     8.4917     0.0087     0.1267     2.4421
  112.5000     7.5065     7.6291    51.3998     8.4861     0.0132     0.1264     2.4406
  113.0000     7.3539     7.6811    52.5389     8.5149     0.0161     0.1273     2.4376
  113.5000     7.2419     7.6791    53.6781     8.5299     0.0161     0.1297     2.4346
  114.0000     7.1979     7.7311    52.3211     8.5297     0.0131     0.1303     2.4316
  114.5000     7.2966     7.7833    45.0639     8.5295     0.0100     0.1294     2.4286
  115.0000     7.3459     7.8360    43.9326     8.5294     0.0055     0.1264     2.4398
  115.5000     7.5503     7.8895    44.1652     8.5292     0.0025     0.1243     2.4421
  116.0000     7.6008     7.9976    43.0351     8.5291     0.0024     0.1231     2.4436
  116.5000     7.7587     8.0517    42.5846     8.5289     0.0024     0.1246     2.4451
  117.0000     7.8112     8.1140    43.7249     8.5288     0.0039     0.1243     2.4459
  117.5000     7.9183     8.1610    47.8141     8.5286     0.0053     0.1228     2.4466
  118.0000     7.9713     8.2162    51.2226     8.5285     0.0053     0.1210     2.4496
  118.5000     7.9686     8.2141    52.1348     8.5283     0.0068     0.1198     2.4519
  119.0000     7.9664     8.2124    51.0047     8.5282     0.0098     0.1186     2.4549
  119.5000     7.9642     8.2107    51.4631     8.5130     0.0097     0.1171     2.4586
  120.0000     7.9620     8.2090    53.0561     8.5128     0.0082     0.1162     2.4617
  120.5000     7.9598     8.2073    55.1030     8.4976     0.0066     0.1168     2.4594
  121.0000     8.0132     8.2632    55.5614     8.4823     0.0051     0.1165     2.4586
  121.5000     8.0667     8.3191    55.3389     8.4822     0.0081     0.1153     2.4594
  122.0000     8.1208     8.3170    55.1165     8.4820     0.0096     0.1138     2.4617
  122.5000     8.1751     8.3736    54.6671     8.4819     0.0098     0.1117     2.4677
  123.0000     8.1728     8.3715    54.2179     8.4817     0.0110     0.1093     2.4722
  123.5000     8.1706     8.3698    53.7686     8.4967     0.0110     0.1078     2.4744
  124.0000     8.1683     8.4264    53.0923     8.4965     0.0110     0.1072     2.4736
  124.5000     8.1660     8.4246    50.1468     8.4964     0.0124     0.1096     2.4713
  125.0000     8.1072     8.4229    49.6974     8.5113     0.0139     0.1105     2.4699
  125.5000     8.1045     8.4211    53.7991     8.5112     0.0139     0.1099     2.4699
  126.0000     8.0462     8.4781    57.8940     8.5110     0.0108     0.1111     2.4692
  126.5000     8.0440     8.5354    59.2420     8.5108     0.0078     0.1129     2.4662
  127.0000     8.0418     8.6530    58.2306     8.5107     0.0063     0.1144     2.4632
  127.5000     8.0396     8.6512    47.7384     8.5105     0.0062     0.1144     2.4624
  128.0000     8.0374     8.7098    37.6610     8.5104     0.0062     0.1120     2.4692
  128.5000     8.0352     8.7079    38.2192     8.4801     0.0062     0.1096     2.4767
  129.0000     8.0330     8.7061    44.8052     8.4649     0.0062     0.1108     2.4744
  129.5000     8.0308     8.7039    52.5980     8.4647     0.0076     0.1174     2.4564
  130.0000     8.0286     8.7021    55.1891     8.4947     0.0076     0.1225     2.4474
  130.5000     8.0264     8.6401    54.2526     8.4946     0.0106     0.1252     2.4391
