~VERSION INFORMATION
 VERS.                2.0:   CWLS LOG ASCII STANDARD - VERSION 2.0
 WRAP.                 NO:   ONE LINE PER DEPTH STEP
~WELL INFORMATION
#MNEM.UNIT      DATA TYPE    INFORMATION
#----------   ------------   ------------------------------
 STRT.F           40.0000:   START DEPTH
 STOP.F          876.5000:   STOP DEPTH
 STEP.F            0.5000:   STEP LENGTH
 NULL.          -999.2500:   NO VALUE
 COMP. FENIX & SCISSON INC:   COMPANY
 WELL.     NPR 3 #41-S-14:   WELL
 FLD .             TEAPOT:   FIELD
 LOC .      S14 T38N R78W:   LOCATION
 CNTY.            NATRONA:   COUNTY
 STAT.            WYOMING:   STATE
 CTRY. UNITED STATES OF AMERICA:   COUNTRY
 SRVC.            Unknown:   SERVICE COMPANY
 DATE.        12-MAR-1978:   LOGDATE
 API .       490251060200:   API NUMBER
~CURVE INFORMATION
#MNEM.UNIT       API CODE    CURVE DESCRIPTION
#----------   ------------   ------------------------------
 DEPT.F                  :   
 CALD.IN     45 280 60 00:   CALIPER FROM DENSITY LOG
 GRD .GAPI   45 310 01 00:   GAMMA RAY FROM DENSITY LOG
 RHOB.G/C3   45 350 01 00:   BULK DENSITY
 DPHI.DEC    45 890 12 00:   DENSITY POROSITY SANDSTONE
 CORR.G/C3   45 356 01 00:   DENSITY CORRECTION
 SPR .MV     05 010 01 00:   SPONTANEOUS POTENTIAL FROM RES.
 IL  .OHMM   05 120 00 00:   INDUCTION LOG
 SN  .OHMM   05 040 16 00:   SHORT NORMAL 16"
~PARAMETER INFORMATION
#MNEM.UNIT          VALUE    DESCRIPTION
#----------   ------------   ------------------------------
 PD  .                 GL:   PERMANENT DATUM
 EPD .F              5211:   ELEVATION PERMANENT DATUM
 LMF .                 KB:   LOG MEASURED FROM
 DMF .                 KB:   DRILLING MEASURED FROM
 EKB .F              5215:   KELLING BUSHING
 EGL .F              5211:   GROUND LEVEL
 DATE.            3-12-78:   RUN DATE
 RUN .                  1:   RUN NUMBER
 DD  .F               870:   DEPTH DRILLER
 DL  .F               872:   DEPTH LOGGER
 BLI .F               866:   BOTTOM LOG INTERVAL
 TLI .F                50:   TOP LOG INTERVAL
 CS  .IN            8.625:   CASING SIZE
 CBD .F                40:   CASING BOTTOM DRILLER
 CBL .F                40:   CASING BOTTOM LOGGER
 BS  .IN            7.875:   BIT SIZE
 BSD .F               870:   BIT SIZE AT DEPTH
 DFT .                KCL:   DRILLING FLUID TYPE
 DFD .                8.6:   DRILLING FLUID DENSITY
 DFV .                 33:   DRILLING FLUID VISCOSITY
 DFPH.                 10:   DRILLING FLUID PH
 DFL .               12.1:   DRILLING FLUID LOSS
 MSS .           FLOWLINE:   MUD SAMPLE SOURCE
 RMS .OHMM            .32:   RESISTIVITY MUD SAMPLE
 MST .F                54:   MUD SAMPLE TEMPERATURE
 RMF .OHMM            .36:   RESISTIVITY MUD FILTRATE SAMPLE
 MFST.F                55:   MUD FILTRATE SAMPLE TEMPERATURE
 RMC .OHMM             .5:   RESISTIVITY MUD CAKE
 MCST.F                56:   MUD CAKE SAMPLE TEMPERATURE
 MFSS.           MEASURED:   MUD FILTRATE SAMPLE SOURCE
 MCSS.           MEASURED:   MUD CAKE SAMPLE SOURCE
 RMB .OHMM            .24:   RESISTIVITY MUD AT BHT
 BHT .F                72:   BOTTOM HOLE TEMPERATURE
 TCS .HRS               4:   TIME CURCULATED STOPPED
 MRT .F                72:   MAXIMUM RECORDED TEMPERATURE
 LUN .               2958:   LOGGING UNIT NUMBER
 LUL .               CASP:   LOGGING UNIT LOCATION
 ENGI.             MILLER:   RECORDING ENGINEER
 WITN.         HARRINGTON:   WITNESSED BY
 CLNT.            A2DTECH:   CLIENT CODE
 ORIG.        2" 5" PRINT:   ORIGIN OF DATA
 UWI .       490251060200:   UNIQUE WELL ID
 DICO. A2D Technologies, Inc.:   DIGITIZING COMPANY
~OTHER INFORMATION
~A   DEPT     CALD         GRD      RHOB       DPHI       CORR        SPR         IL         SN   
# ...
  850.0000     8.3829    94.0967     2.4875     0.0868     0.0122   -55.2293     9.8204    11.0011
  850.5000     8.3829    94.7966     2.4850     0.0888     0.0142   -54.9379     9.9777    11.1023
  851.0000     8.3829    97.5558     2.4867     0.0862     0.0161   -54.6452    10.1228    11.2044
  851.5000     8.3829    99.4459     2.4886     0.0832     0.0180   -54.3926    10.2703    11.3074
  852.0000     8.3829    96.2077     2.4890     0.0857     0.0201   -54.6419    10.3802    11.3840
  852.5000     8.3829    92.6140     2.4850     0.0884     0.0191   -54.8933    10.4280    11.3840
  853.0000     8.3829    89.5347     2.4874     0.0849     0.0170   -55.1407    10.4839    11.3840
  853.5000     8.3829    87.5031     2.4930     0.0810     0.0170   -55.1831    10.5403    11.3840
  854.0000     8.3830    84.1921     2.4926     0.0827     0.0207   -54.8218    10.5972    11.3840
  854.5000     8.3830    83.5711     2.4897     0.0844     0.0223   -54.2727    10.6544    11.3840
  855.0000     8.3825    87.6357     2.4868     0.0860     0.0210   -54.1482    10.7118    11.3840
  855.5000     8.3727    91.5417     2.4838     0.0877     0.0197   -54.1077    10.7702    11.3840
  856.0000     8.3631    91.5846     2.4811     0.0891     0.0184   -54.0696    10.7702    11.3837
  856.5000     8.3535    90.3044     2.4788     0.0909     0.0106   -54.0311    10.7702    11.3833
  857.0000     8.3436    88.2192     2.4745     0.0937     0.0131   -53.9922    10.6574    11.4345
  857.5000     8.3209    86.0189     2.4682     0.1007     0.0159   -53.9534    10.4758    11.4871
  858.0000     8.2754    88.4810     2.4507     0.1076     0.0225   -53.9146    10.5271    11.5396
  858.5000     8.2417    90.5177     2.4524     0.1056     0.0334   -53.8757    10.5961    11.5963
  859.0000     8.1967    88.7673     2.4540     0.1063     0.0443   -53.8373    10.6712    11.5963
  859.5000     8.1524    88.4220     2.4582     0.0998     0.0553   -53.7986    10.5227    11.5963
  860.0000     8.1078    87.3075     2.4740     0.0952     0.0669   -53.8415    10.2840    11.5963
  860.5000     8.0832    87.3289     2.4721     0.0965     0.0716   -53.9507    10.3040    11.5963
  861.0000     8.0786    87.9342     2.4676     0.1003     0.0771   -54.0613    10.3445    11.5963
  861.5000     8.0741    88.5943     2.4592     0.1041     0.0822   -54.1749    10.3851    11.5963
  862.0000     8.0695    90.6218     2.4522     0.1079     0.0751   -54.1803    10.4259    11.5963
  862.5000     8.0653    92.5736     2.4622     0.1006     0.0686   -54.1791    10.4668    11.5963
  863.0000     8.0527    94.4828     2.4539     0.0991     0.0833   -54.1805    10.5078    11.5963
  863.5000     8.0213    96.0294     2.4462     0.1012     0.0834   -54.1825    10.5727    11.5963
  864.0000     7.8703    92.5826     2.4638     0.1083     0.0795   -54.6074    10.5141    11.5963
  864.5000     7.4339    89.1284     2.4525     0.1094     0.0752   -55.4943    10.3788    11.5963
  865.0000     7.0351    89.6314     2.4314     0.1203     0.0811   -57.4779    10.2434    11.5963
  865.5000     6.8822    90.1129     2.4018     0.1336     0.0894   -59.9847     9.6400    11.0148
  866.0000     6.7388    88.7570     2.3609     0.1477     0.1128   -56.7919  -999.2500  -999.2500
  866.5000  -999.2500  -999.2500     2.3702     0.1445     0.1423  -999.2500  -999.2500  -999.2500
  867.0000  -999.2500  -999.2500     2.3870     0.1405     0.1444  -999.2500  -999.2500  -999.2500
  867.5000  -999.2500  -999.2500     2.4012     0.1389     0.1476  -999.2500  -999.2500  -999.2500
  868.0000  -999.2500  -999.2500     2.3969     0.1401     0.1509  -999.2500  -999.2500  -999.2500
  868.5000  -999.2500  -999.2500     2.3928     0.1408     0.1541  -999.2500  -999.2500  -999.2500
  869.0000  -999.2500  -999.2500     2.3888     0.1400     0.1569  -999.2500  -999.2500  -999.2500
  869.5000  -999.2500  -999.2500     2.3847     0.1389     0.1576  -999.2500  -999.2500  -999.2500
  870.0000  -999.2500  -999.2500     2.3911     0.1382     0.1585  -999.2500  -999.2500  -999.2500
  870.5000  -999.2500  -999.2500     2.4026     0.1384     0.1593  -999.2500  -999.2500  -999.2500
  871.0000  -999.2500  -999.2500     2.4170     0.1279     0.1603  -999.2500  -999.2500  -999.2500
  871.5000  -999.2500  -999.2500     2.4087     0.1329     0.1725  -999.2500  -999.2500  -999.2500
  872.0000  -999.2500  -999.2500     2.3921     0.1436     0.2016  -999.2500  -999.2500  -999.2500
  872.5000  -999.2500  -999.2500     2.3760     0.1406     0.2253  -999.2500  -999.2500  -999.2500
  873.0000  -999.2500  -999.2500     2.3853     0.1369     0.2268  -999.2500  -999.2500  -999.2500
  873.5000  -999.2500  -999.2500     2.3971     0.1331     0.2272  -999.2500  -999.2500  -999.2500
  874.0000  -999.2500  -999.2500     2.4090     0.1308     0.2279  -999.2500  -999.2500  -999.2500
  874.5000  -999.2500  -999.2500     2.4090     0.1282     0.2285  -999.2500  -999.2500  -999.2500
  875.0000  -999.2500  -999.2500     2.4090     0.1292     0.2290  -999.2500  -999.2500  -999.2500
  875.5000  -999.2500  -999.2500     2.4114     0.1312     0.2296  -999.2500  -999.2500  -999.2500
  876.0000  -999.2500  -999.2500     2.4167     0.1277     0.2302  -999.2500  -999.2500  -999.2500
  876.5000  -999.2500  -999.2500     2.4125     0.1296     0.2307  -999.2500  -999.2500  -999.2500
