~VERSION INFORMATION
 VERS.                2.0:   CWLS LOG ASCII STANDARD - VERSION 2.0
 WRAP.                 NO:   ONE LINE PER DEPTH STEP
~WELL INFORMATION
#MNEM.UNIT      DATA TYPE    INFORMATION
#----------   ------------   ------------------------------
 STRT.F           42.0000:   START DEPTH
 STOP.F          533.0000:   STOP DEPTH
 STEP.F            0.5000:   STEP LENGTH
 NULL.          -999.2500:   NO VALUE
 COMP.    FENIX & SCISSON:   COMPANY
 WELL.      NPR-3 #38S3-3:   WELL
 FLD .             TEAPOT:   FIELD
 LOC .       S3 T38N R78W:   LOCATION
 CNTY.            NATRONA:   COUNTY
 STAT.            WYOMING:   STATE
 CTRY. UNITED STATES OF AMERICA:   COUNTRY
 SRVC.           BIRDWELL:   SERVICE COMPANY
 DATE.        29-JUN-1978:   LOGDATE
 API .       490251066300:   API NUMBER
~CURVE INFORMATION
#MNEM.UNIT       API CODE    CURVE DESCRIPTION
#----------   ------------   ------------------------------
 DEPT.F                  :   
 ILD .OHMM   05 120 46 00:   INDUCTION LOG DEEP
 SN  .OHMM   05 040 16 00:   SHORT NORMAL 16"
 SPR .MV     05 010 01 00:   SPONTANEOUS POTENTIAL FROM RES.
 CALD.IN     45 280 60 00:   CALIPER FROM DENSITY LOG
 CORR.G/C3   45 356 01 00:   DENSITY CORRECTION
 DPHI.DEC    45 890 12 00:   DENSITY POROSITY SANDSTONE
 GRD .GAPI   45 310 01 00:   GAMMA RAY FROM DENSITY LOG
 RHOB.G/C3   45 350 01 00:   BULK DENSITY
~PARAMETER INFORMATION
#MNEM.UNIT          VALUE    DESCRIPTION
#----------   ------------   ------------------------------
 PD  .                 GL:   PERMANENT DATUM
 EPD .F              5238:   ELEVATION PERMANENT DATUM
 LMF .                 KB:   LOG MEASURED FROM
 DAPD.F                 4:   FEET ABOVE PERMANENT DATUM
 DMF .                 KB:   DRILLING MEASURED FROM
 EKB .F              5242:   KELLING BUSHING
 EGL .F              5238:   GROUND LEVEL
 DATE.        29-JUN-1978:   RUN DATE
 RUN .                  1:   RUN NUMBER
 DD  .F               530:   DEPTH DRILLER
 DL  .F               540:   DEPTH LOGGER
 BLI .F               533:   BOTTOM LOG INTERVAL
 TLI .F                40:   TOP LOG INTERVAL
 CS  .IN            8.625:   CASING SIZE
 CBD .F                40:   CASING BOTTOM DRILLER
 BS  .IN            7.875:   BIT SIZE
 BSD .F               530:   BIT SIZE AT DEPTH
 DFT .                KCL:   DRILLING FLUID TYPE
 DFD .                8.7:   DRILLING FLUID DENSITY
 DFV .                 34:   DRILLING FLUID VISCOSITY
 DFPH.                9.5:   DRILLING FLUID PH
 MSS .           FLOWLINE:   MUD SAMPLE SOURCE
 RMS .OHMM            0.2:   RESISTIVITY MUD SAMPLE
 MST .F                82:   MUD SAMPLE TEMPERATURE
 RMF .OHMM           0.18:   RESISTIVITY MUD FILTRATE SAMPLE
 MFST.F                82:   MUD FILTRATE SAMPLE TEMPERATURE
 RMC .OHMM           0.14:   RESISTIVITY MUD CAKE
 MCST.F                82:   MUD CAKE SAMPLE TEMPERATURE
 MFSS.               MEAS:   MUD FILTRATE SAMPLE SOURCE
 TCS .HRS               1:   TIME CURCULATED STOPPED
 LUN .               2958:   LOGGING UNIT NUMBER
 LUL .             CASPER:   LOGGING UNIT LOCATION
 ENGI.             MILLER:   RECORDING ENGINEER
 WITN.         ZARGARNIAN:   WITNESSED BY
 CLNT.            A2DTECH:   CLIENT CODE
 ORIG.           5" PRINT:   ORIGIN OF DATA
 UWI .       490251066300:   UNIQUE WELL ID
 DICO. A2D Technologies, Inc.:   DIGITIZING COMPANY
~OTHER INFORMATION
~A   DEPT      ILD         SN        SPR       CALD       CORR       DPHI         GRD      RHOB   
# ...
  244.5000     5.3701     6.0483   -16.8750     7.2202     0.0289     0.1570    74.1249     2.4435
  245.0000     5.3346     5.9661   -16.8722     7.1602     0.0288     0.1597    73.5254     2.4383
  245.5000     5.2996     5.9671   -16.7183     7.1130     0.0288     0.1621    71.4289     2.4313
  246.0000     5.3380     6.0508   -16.5651     7.0700     0.0272     0.1606    69.4501     2.4278
  246.5000     5.3394     6.2211   -16.4119     7.0849     0.0272     0.1588    67.3854     2.4315
  247.0000     5.4150     6.4461   -16.2586     7.1147     0.0256     0.1585    66.4864     2.4315
  247.5000     5.6846     6.7604   -16.1048     7.1594     0.0253     0.1606    69.7792     2.4299
  248.0000     6.0094     6.9506   -16.1020     7.2191     0.0241     0.1618    81.7745     2.4285
  248.5000     6.2652     7.1462   -15.9488     7.2789     0.0225     0.1606    81.3045     2.4337
  249.0000     6.5771     7.2467   -15.9649     7.3214     0.0225     0.1523    80.5553     2.4450
  249.5000     6.8603     7.3484   -15.9424     7.3691     0.0224     0.1451    80.4049     2.4540
  250.0000     6.9612     7.3494   -15.9396     7.4032     0.0209     0.1412    80.5539     2.4571
  250.5000     7.0496     7.3948   -16.2891     7.4623     0.0223     0.1355    80.5530     2.4697
  251.0000     7.1513     7.4441   -16.3942     7.5027     0.0208     0.1307    79.3547     2.4764
  251.5000     7.1522     7.5601   -16.0945     7.5484     0.0207     0.1280    77.4079     2.4787
  252.0000     7.1039     7.6667   -15.7952     7.5922     0.0207     0.1262    76.3593     2.4697
  252.5000     7.0560     7.6682   -15.4962     7.6220     0.0206     0.1253    77.5560     2.4824
  253.0000     7.0084     7.7764   -15.3414     7.6518     0.0221     0.1254    78.1541     2.4846
  253.5000     7.0581     7.8367   -15.1985     7.6666     0.0231     0.1268    79.0516     2.4839
  254.0000     7.1079     7.8880   -15.2002     7.6365     0.0250     0.1301    81.1467     2.4914
  254.5000     7.1581     7.8896   -15.0509     7.6214     0.0279     0.1334    85.0380     2.4839
  255.0000     7.1590     7.8911   -14.9023     7.5913     0.0306     0.1333    87.4325     2.4764
  255.5000     7.1600     7.8927   -14.9038     7.5612     0.0338     0.1229    83.6893     2.4831
  256.0000     7.1612     7.7860   -14.9055     7.5161     0.0382     0.1106    78.8982     2.4974
  256.5000     7.1126     7.7879   -15.0573     7.5010     0.0411     0.1109    76.8015     2.5049
  257.0000     7.1138     7.7894   -15.2092     7.4560     0.0440     0.1131    77.6990     2.5019
  257.5000     7.1147     7.7910   -15.3610     7.4109     0.0455     0.1166    80.2432     2.4996
  258.0000     7.1157     7.7925   -15.5128     7.3658     0.0454     0.1187    81.7395     2.4996
  258.5000     7.1661     7.7875   -15.5146     7.3358     0.0439     0.1193    81.4867     2.5069
  259.0000     7.1671     7.6890   -15.6664     7.3656     0.0319     0.1172    77.9954     2.5213
  259.5000     7.1680     7.6904   -15.8182     7.3954     0.0289     0.1097    75.5995     2.5176
  260.0000     7.1196     7.6920   -16.1204     7.4252     0.0287     0.1049    74.8104     2.5041
  260.5000     7.0716     7.5881   -16.1218     7.4549     0.0258     0.1013    76.7117     2.4989
  261.0000     7.0187     7.5823   -16.1233     7.4848     0.0197     0.1004    79.3397     2.5446
  261.5000     6.9287     7.4870   -16.2754     7.5145    -0.0057     0.1073    80.6865     2.5356
  262.0000     6.8817     7.3857   -16.4269     7.5143    -0.0102     0.1130    78.1407     2.5356
  262.5000     6.7882     7.3364   -16.2780     7.5292     0.0017     0.1178    76.1564     2.4794
  263.0000     6.7893     7.2877   -16.2798     7.5290    -0.0058     0.1277    74.3966     2.4996
  263.5000     6.7417     7.1397   -16.2812     7.5439    -0.0238     0.1589    77.6893     2.4569
  264.0000     6.6521     7.0435   -16.2830     7.5459    -0.0179     0.1523    78.4373     2.4322
  264.5000     6.5618     6.9480   -16.4348     7.5585    -0.0045     0.1472    78.5946     2.4400
  265.0000     6.4726     6.8069   -16.5866     7.5584    -0.0001     0.1436    79.4834     2.4562
  265.5000     6.3845     6.7617   -16.7384     7.5582     0.0019     0.1406    80.5306     2.4494
  266.0000     6.2546     6.6247   -17.1910     7.5581     0.0043     0.1472    80.9792     2.4442
  266.5000     6.0784     6.5352   -17.6677     7.5579     0.0042     0.1520    80.3750     2.4457
  267.0000     5.9201     6.3584   -18.2469     7.5578     0.0027     0.1565    79.4804     2.4360
  267.5000     5.7598     6.1016   -18.5490     7.5576     0.0026     0.1652    79.3302     2.4180
  268.0000     5.6036     5.8551   -19.0016     7.5425     0.0011     0.1712    82.3233     2.4187
  268.5000     5.3770     5.5419   -19.4542     7.5274     0.0011     0.1816    86.3670     2.4135
  269.0000     5.0917     5.2451   -20.0571     7.5272     0.0010     0.1912    88.4594     2.3940
  269.5000     4.6959     4.9642   -20.6604     7.5421     0.0012     0.2092    86.8120     2.3678
  270.0000     4.3010     4.4459   -20.9626     7.5579     0.0024     0.2263    83.5179     2.3521
  270.5000     3.5799     4.0090   -21.4152     7.5867     0.0031     0.2419    80.0741     2.3401
  271.0000     3.0758     3.6914   -21.5670     7.6165     0.0038     0.2596    77.3786     2.3041
  271.5000     2.7928     3.4697   -21.5684     7.6163     0.0067     0.2728    79.0246     2.2831
  272.0000     2.6614     3.3991   -21.4198     7.6162     0.0126     0.2868    79.9223     2.2599
  272.5000     2.6252     3.4235   -21.2709     7.6160     0.0187     0.2751    79.0232     2.2434
  273.0000     2.6257     3.4718   -21.2723     7.6159     0.0334     0.2643    75.8786     2.2487
  273.5000     2.6810     3.5699   -21.2738     7.6157     0.0453     0.2452    72.7342     2.3353
  274.0000     2.7375     3.7216   -21.1248     7.6006     0.0482     0.1927    75.5778     2.3865
  274.5000     2.9335     3.9884   -20.9759     7.6004     0.0318     0.1870    77.3735     2.3775
  275.0000     3.2766     4.2449   -21.1281     7.5703     0.0377     0.1894    78.5702     2.3708
  275.5000     3.6853     4.5203   -20.0769     7.5702     0.0391     0.1816    82.1623     2.3953
  276.0000     3.9766     4.9434   -18.5745     7.5551     0.0376     0.1487    87.4011     2.4472
  276.5000     4.4416     5.3715   -18.5760     7.5250     0.0345     0.1373    88.7477     2.4704
  277.0000     4.7927     5.7170   -18.3459     7.4949     0.0270     0.1322    89.6872     2.4876
  277.5000     5.1007     5.8783   -18.2781     7.4498     0.0165     0.1313    91.4408     2.4846
  278.0000     5.3260     5.9224   -18.2797     7.4048     0.0075     0.1385    92.4880     2.4846
  278.5000     5.4667     5.9626   -18.2813     7.3447     0.0045     0.1427    92.4873     2.4816
  279.0000     5.4298     5.9638   -18.2828     7.3296     0.0059     0.1442    90.9386     2.4674
  279.5000     5.3932     5.9650   -18.2842     7.3295     0.0074     0.1445    87.6952     2.4584
  280.0000     5.3201     5.9662   -18.4364     7.3293     0.0043     0.1397    86.7963     2.4577
  280.5000     5.2842     5.9674   -18.5882     7.3591     0.0028     0.1445    86.9453     2.4584
  281.0000     5.2485     5.9688   -19.0408     7.4188     0.0029     0.1505    88.3178     2.4539
  281.5000     5.1772     5.9286   -19.1459     7.4786     0.0072     0.1577    88.8900     2.4434
  282.0000     5.1069     5.8085   -19.1940     7.4335     0.0131     0.1676    87.6915     2.4247
  282.5000     4.9686     5.7300   -19.3459     7.4184     0.0205     0.1736    87.3916     2.4217
  283.0000     4.9011     5.5684   -19.1972     7.4182     0.0280     0.1778    90.1303     2.4045
  283.5000     4.7682     5.4242   -19.1987     7.4331     0.0293     0.1772    93.0785     2.4202
  284.0000     4.7036     5.4254   -19.2001     7.4329     0.0263     0.1688    94.1258     2.4337
  284.5000     4.6397     5.4265   -19.2015     7.4010     0.0292     0.1634    89.4842     2.4390
