~VERSION INFORMATION
 VERS.                2.0:   CWLS LOG ASCII STANDARD - VERSION 2.0
 WRAP.                 NO:   ONE LINE PER DEPTH STEP
~WELL INFORMATION
#MNEM.UNIT      DATA TYPE    INFORMATION
#----------   ------------   ------------------------------
 STRT.F           20.0000:   START DEPTH
 STOP.F          478.0000:   STOP DEPTH
 STEP.F            0.5000:   STEP LENGTH
 NULL.          -999.2500:   NO VALUE
 COMP. FENIX & SCISSON INC:   COMPANY
 WELL.   56 31 SX #56-3FP:   WELL
 FLD .             TEAPOT:   FIELD
 LOC .       S3 T38N R78W:   LOCATION
 CNTY.            NATRONA:   COUNTY
 STAT.            WYOMING:   STATE
 CTRY. UNITED STATES OF AMERICA:   COUNTRY
 SRVC.              Welex:   SERVICE COMPANY
 DATE.        06-JUN-1980:   LOGDATE
 API .       490251082300:   API NUMBER
~CURVE INFORMATION
#MNEM.UNIT       API CODE    CURVE DESCRIPTION
#----------   ------------   ------------------------------
 DEPT.F                  :   
 RHOB.G/C3   45 350 01 00:   BULK DENSITY
 CORR.G/C3   45 356 01 00:   DENSITY CORRECTION
 GRD .GAPI   45 310 01 00:   GAMMA RAY FROM DENSITY LOG
 CALD.IN     45 280 60 00:   CALIPER
 DPHI.DEC    45 890 12 00:   DENSITY POROSITY SANDSTONE
 NPHI.DEC    42 890 03 00:   NEUTRON POROSITY SANDSTONE
 SPR .MV     07 010 01 00:   SPONTANEOUS POTENTIAL
 ILD .OHMM   07 120 46 00:   INDUCTION LOG DEEP
 ILM .OHMM   07 120 44 00:   INDUCTION LOG MEDIUM
 SGRD.OHMM   07 220 05 00:   SHALLOW GUARD RESISTIVITY
~PARAMETER INFORMATION
#MNEM.UNIT          VALUE    DESCRIPTION
#----------   ------------   ------------------------------
 PD  .                 GL:   PERMANENT DATUM
 EPD .F              5173:   ELEVATION PERMANENT DATUM
 LMF .                 KB:   LOG MEASURED FROM
 DAPD.F                 5:   FEET ABOVE PERMANENT DATUM
 DMF .                 KB:   DRILLING MEASURED FROM
 EKB .F              5178:   KELLING BUSHING
 EGL .F              5173:   GROUND LEVEL
 DATE.             6-6-80:   RUN DATE
 RUN .                  1:   RUN NUMBER
 DD  .F               450:   DEPTH DRILLER
 DL  .F               476:   DEPTH LOGGER
 BLI .F               474:   BOTTOM LOG INTERVAL
 TLI .F                30:   TOP LOG INTERVAL
 BS  .IN            9.875:   BIT SIZE
 BSD .F               450:   BIT SIZE AT DEPTH
 DFT .            KCL MUD:   DRILLING FLUID TYPE
 DFD .                9.5:   DRILLING FLUID DENSITY
 DFV .                 48:   DRILLING FLUID VISCOSITY
 DFPH.                7.5:   DRILLING FLUID PH
 DFL .                  7:   DRILLING FLUID LOSS
 MSS .           FLOWLINE:   MUD SAMPLE SOURCE
 RMS .OHMM           1.56:   RESISTIVITY MUD SAMPLE
 MST .F                62:   MUD SAMPLE TEMPERATURE
 RMF .OHMM           1.24:   RESISTIVITY MUD FILTRATE SAMPLE
 MFST.F                62:   MUD FILTRATE SAMPLE TEMPERATURE
 RMC .OHMM           1.87:   RESISTIVITY MUD CAKE
 MCST.F                62:   MUD CAKE SAMPLE TEMPERATURE
 MFSS.           MEASURED:   MUD FILTRATE SAMPLE SOURCE
 MCSS.           MEASURED:   MUD CAKE SAMPLE SOURCE
 RMB .OHMM           1.32:   RESISTIVITY MUD AT BHT
 BHT .F                73:   BOTTOM HOLE TEMPERATURE
 TCS .HRS               6:   TIME CURCULATED STOPPED
 MRT .F                73:   MAXIMUM RECORDED TEMPERATURE
 LUN .               1892:   LOGGING UNIT NUMBER
 LUL .             CASPER:   LOGGING UNIT LOCATION
 ENGI.               REIN:   RECORDING ENGINEER
 WITN.              AMEND:   WITNESSED BY
 CLNT.            A2DTECH:   CLIENT CODE
 ORIG.        2" 5" PRINT:   ORIGIN OF DATA
 UWI .       490251082300:   UNIQUE WELL ID
 DICO. A2D Technologies, Inc.:   DIGITIZING COMPANY
~OTHER INFORMATION
~A   DEPT     RHOB       CORR        GRD       CALD       DPHI       NPHI        SPR          ILD        ILM     SGRD   
# ...
  221.0000     2.4236     0.0533    89.5379     9.9505     0.1574     0.3289   -32.1342     3.7843     5.2468     5.4458
  221.5000     2.4254     0.0541    89.6480     9.9505     0.1587     0.3279   -31.9276     3.7907     5.2407     5.4392
  222.0000     2.4203     0.0486    89.7580     9.9505     0.1615     0.3269   -31.7210     3.7972     5.2346     5.4325
  222.5000     2.4242     0.0441    89.8680     9.9505     0.1557     0.3289   -31.5149     3.8056     5.2285     5.4258
  223.0000     2.4389     0.0517    89.9780     9.9505     0.1480     0.3265   -31.3107     3.7880     5.2224     5.4191
  223.5000     2.4537     0.0608    90.0880     9.9505     0.1399     0.3281   -31.2992     3.7598     5.2163     5.4124
  224.0000     2.4549     0.0629    90.1982     9.9505     0.1444     0.3238   -31.5086     3.7320     5.2103     5.4055
  224.5000     2.4385     0.0609    90.3087     9.9504     0.1522     0.3277   -31.7160     3.7044     5.2040     5.3984
  225.0000     2.4311     0.0524    90.4161     9.9490     0.1600     0.3327   -31.9244     3.6771     5.1193     5.3552
  225.5000     2.4143     0.0423    90.4497     9.9476     0.1686     0.3377   -32.1324     3.6324     5.0067     5.2318
  226.0000     2.4051     0.0400    90.2584     9.9462     0.1719     0.3389   -32.3408     3.5805     4.8966     4.9824
  226.5000     2.4036     0.0426    90.1077     9.9448     0.1686     0.3381   -32.5508     3.5293     4.7455     4.7455
  227.0000     2.4104     0.0452    90.3677     9.9434     0.1654     0.3419   -32.7646     3.4788     4.8173     3.6686
  227.5000     2.4170     0.0480    90.6345     9.9420     0.1663     0.3449   -32.7409     3.4291     4.9232     4.8335
  228.0000     2.4109     0.0416    90.4490     9.9406     0.1722     0.3446   -32.6994     3.3803     4.7387     4.7886
  228.5000     2.4055     0.0346    90.1139     9.9392     0.1706     0.3470   -32.6583     3.3314     4.5323     4.7041
  229.0000     2.4063     0.0371    89.7717     9.9378     0.1687     0.3512   -32.6161     3.2623     4.5813     4.6590
  229.5000     2.4073     0.0395    89.4296     9.9364     0.1817     0.3536   -32.5910     3.1821     4.6561     4.7867
  230.0000     2.3871     0.0335    89.0848     9.9350     0.1948     0.3510   -32.9511     3.1044     4.7021     4.8778
  230.5000     2.3548     0.0219    88.7288     9.9336     0.2078     0.3572   -33.3301     3.0286     4.5170     4.5281
  231.0000     2.3361     0.0143    88.8020     9.9322     0.2158     0.3612   -33.7047     2.9546     3.9176     4.1876
  231.5000     2.3233     0.0143    88.9065     9.9306     0.2168     0.3577   -34.1716     2.8885     3.4400     3.4508
  232.0000     2.3337     0.0232    89.0099     9.9357     0.2065     0.3521   -33.9855     2.8786     3.7111     2.5896
  232.5000     2.3522     0.0336    89.1129     9.9413     0.1962     0.3449   -33.6428     2.8697     4.0452     3.1258
  233.0000     2.3674     0.0190    89.2150     9.9469     0.1860     0.3356   -33.3034     2.8623     4.4094     4.2186
  233.5000     2.3817     0.0085    89.3071     9.9524     0.1762     0.3263   -32.9634     2.9574     4.6161     4.7893
  234.0000     2.3971     0.0153    89.1700     9.9580     0.1716     0.3170   -32.6236     3.0395     4.6900     4.7455
  234.5000     2.4040     0.0224    88.8936     9.9636     0.1653     0.3077   -32.2842     3.1239     4.7651     4.8088
  235.0000     2.4180     0.0308    88.6195     9.9692     0.1534     0.3048   -31.9442     3.2106     4.7987     4.8987
  235.5000     2.4398     0.0458    88.3443     9.9748     0.1506     0.3079   -31.6866     3.2997     4.8125     5.0146
  236.0000     2.4395     0.0498    88.0689     9.9803     0.1531     0.3117   -31.7066     3.3913     4.8263     5.0234
  236.5000     2.4311     0.0457    87.7928     9.9859     0.1575     0.3156   -31.9139     3.4855     4.8402     5.0320
  237.0000     2.4296     0.0415    87.5239     9.9915     0.1619     0.3193   -32.1231     3.6018     4.8541     5.0406
  237.5000     2.4167     0.0372    87.4155     9.9971     0.1686     0.3201   -32.3327     3.5510     4.8680     5.0492
  238.0000     2.4040     0.0329    87.7989    10.0027     0.1766     0.3126   -32.5419     3.4548     4.8781     5.0609
  238.5000     2.3954     0.0283    88.1618    10.0085     0.1841     0.3189   -32.7512     3.3612     4.7904     5.0118
  239.0000     2.3839     0.0257    88.5254    10.0099     0.1772     0.3158   -32.9605     3.2700     4.7110     4.9413
  239.5000     2.3999     0.0485    88.8901    10.0099     0.1664     0.3254   -33.1707     3.1814     4.3646     4.6480
  240.0000     2.4195     0.0731    89.2443    10.0099     0.1557     0.3317   -33.3801     3.0952     3.7712     4.1761
  240.5000     2.4393     0.0927    89.3533    10.0099     0.1435     0.3313   -33.5484     3.0113     3.8745     3.0587
  241.0000     2.4442     0.0766    88.7058    10.0099     0.1483     0.3286   -33.3769     2.9623     4.0794     2.4482
  241.5000     2.4388     0.0609    88.0914    10.0099     0.1533     0.3245   -33.2081     2.9423     4.2950     4.1033
  242.0000     2.4378     0.0453    87.4765    10.0099     0.1496     0.3196   -33.0406     2.9766     4.6165     5.0146
  242.5000     2.4221     0.0296    86.8635    10.0099     0.1622     0.3147   -32.8732     3.0317     4.0229     4.3749
  243.0000     2.4094     0.0141    86.2483    10.0099     0.1716     0.3134   -32.7057     3.0877     4.5089     4.7132
  243.5000     2.4003     0.0011    86.0079    10.0099     0.1719     0.3120   -32.5383     3.1541     4.9098     5.0964
  244.0000     2.4052     0.0097    86.2552    10.0099     0.1663     0.3117   -32.3709     3.2921     5.0438     5.3277
  244.5000     2.4140     0.0180    86.4968    10.0100     0.1631     0.3142   -32.2035     3.4362     5.1864     5.3843
  245.0000     2.4164     0.0167    86.7393    10.0107     0.1624     0.3167   -32.0361     3.5866     5.3047     5.4413
  245.5000     2.4184     0.0146    86.9813     9.9845     0.1618     0.3151   -31.8687     3.7436     5.3270     5.4990
  246.0000     2.4215     0.0126    87.2233     9.9563     0.1615     0.3130   -31.7013     3.9075     5.3500     5.5481
  246.5000     2.4184     0.0189    87.4657     9.9278     0.1618     0.3109   -31.5336     3.9890     5.3730     5.5616
  247.0000     2.4166     0.0262    87.7085     9.8983     0.1667     0.3104   -31.3651     3.9963     5.3962     5.5757
  247.5000     2.4189     0.0166    87.9455     9.8902     0.1744     0.3095   -31.2070     4.0037     5.4195     5.5899
  248.0000     2.3973     0.0122    88.0591     9.8886     0.1590     0.3063   -31.2554     4.0110     5.4430     5.6041
  248.5000     2.4218     0.0327    87.7968     9.8873     0.1399     0.3090   -31.3120     4.0184     5.4469     5.6184
  249.0000     2.4512     0.0537    87.5493     9.8859     0.1472     0.3062   -31.3677     4.0258     5.4468     5.6328
  249.5000     2.4530     0.0536    87.3027     9.8844     0.1553     0.3036   -31.4232     4.0332     5.4470     5.6508
  250.0000     2.4274     0.0249    87.0551     9.8830     0.1598     0.3047   -31.4786     4.0406     5.6850     5.6393
  250.5000     2.4231     0.0249    86.9742     9.8816     0.1521     0.3062   -31.5341     4.0480     6.0313     5.6231
  251.0000     2.4385     0.0347    87.0547     9.8802     0.1451     0.3062   -31.5895     4.0554     6.4271     5.5998
  251.5000     2.4518     0.0523    87.1368     9.8788     0.1403     0.3028   -31.6450     4.0634     6.2707     5.6610
  252.0000     2.4582     0.0560    87.2195     9.8774     0.1651     0.2992   -31.7004     4.0718     5.9857     5.8090
  252.5000     2.4214     0.0280    87.3041     9.8759     0.1817     0.2980   -31.7559     4.0802     5.7137     5.6974
  253.0000     2.3849    -0.0037    87.2382     9.8745     0.1742     0.2976   -31.8113     4.0887     5.4973     5.5521
  253.5000     2.3978     0.0079    87.0613     9.8731     0.1661     0.2956   -31.8668     4.0971     5.4470     5.4104
  254.0000     2.4070     0.0231    86.8849     9.8715     0.1628     0.2936   -31.9226     4.1056     5.7550     5.2989
