~VERSION INFORMATION
 VERS.                2.0:   CWLS LOG ASCII STANDARD - VERSION 2.0
 WRAP.                 NO:   ONE LINE PER DEPTH STEP
~WELL INFORMATION
#MNEM.UNIT      DATA TYPE    INFORMATION
#----------   ------------   ------------------------------
 STRT.F           34.0000:   START DEPTH
 STOP.F          638.0000:   STOP DEPTH
 STEP.F            0.5000:   STEP LENGTH
 NULL.          -999.2500:   NO VALUE
 COMP. FENIX & SCISSON INC:   COMPANY
 WELL. S N.P.R. #3 #33-34:   WELL
 FLD .             TEAPOT:   FIELD
 LOC .      S34 T39N R78W:   LOCATION
 CNTY.            NATRONA:   COUNTY
 STAT.            WYOMING:   STATE
 CTRY. UNITED STATES OF AMERICA:   COUNTRY
 SRVC.       Schlumberger:   SERVICE COMPANY
 DATE.        18-MAR-1977:   LOGDATE
 API .       490251030400:   API NUMBER
~CURVE INFORMATION
#MNEM.UNIT       API CODE    CURVE DESCRIPTION
#----------   ------------   ------------------------------
 DEPT.F                  :   
 LL8 .OHMM   07 220 08 00:   LATEROLOG-8 RES.
 ILD .OHMM   07 120 46 00:   INDUCTION LOG DEEP
 ILM .OHMM   07 120 44 00:   INDUCTION LOG MEDIUM
 SPR .MV     07 010 01 00:   SPONTANEOUS POTENTIAL
 GRD .GAPI   45 310 01 00:   GAMMA RAY FROM DENSITY LOG
 CALD.IN     45 280 60 00:   CALIPER FROM DENSITY LOG
 RHOB.G/C3   45 350 01 00:   BULK DENSITY
 CORR.G/C3   45 356 01 00:   DENSITY CORRECTION
 DPHI.DEC    45 890 12 00:   DENSITY POROSITY SANDSTONE
~PARAMETER INFORMATION
#MNEM.UNIT          VALUE    DESCRIPTION
#----------   ------------   ------------------------------
 PD  .                 GL:   PERMANENT DATUM
 EPD .F              5081:   ELEVATION PERMANENT DATUM
 LMF .                 KB:   LOG MEASURED FROM
 DAPD.F                 5:   FEET ABOVE PERMANENT DATUM
 DMF .                 KB:   DRILLING MEASURED FROM
 EKB .F              5086:   KELLING BUSHING
 EGL .F              5081:   GROUND LEVEL
 DATE.            3-18-77:   RUN DATE
 RUN .                  1:   RUN NUMBER
 DD  .F               631:   DEPTH DRILLER
 DL  .F               637:   DEPTH LOGGER
 BLI .F               631:   BOTTOM LOG INTERVAL
 TLI .F                45:   TOP LOG INTERVAL
 CS  .IN            8.625:   CASING SIZE
 CBD .F                40:   CASING BOTTOM DRILLER
 CBL .F                45:   CASING BOTTOM LOGGER
 BS  .IN            7.875:   BIT SIZE
 BSD .F               631:   BIT SIZE AT DEPTH
 DFT .            KCL MUD:   DRILLING FLUID TYPE
 DFD .                8.7:   DRILLING FLUID DENSITY
 DFV .                 31:   DRILLING FLUID VISCOSITY
 DFPH.                  8:   DRILLING FLUID PH
 DFL .                8.2:   DRILLING FLUID LOSS
 MSS .                PIT:   MUD SAMPLE SOURCE
 RMS .OHMM            .27:   RESISTIVITY MUD SAMPLE
 MST .F                60:   MUD SAMPLE TEMPERATURE
 RMF .OHMM            .25:   RESISTIVITY MUD FILTRATE SAMPLE
 MFST.F                60:   MUD FILTRATE SAMPLE TEMPERATURE
 MFSS.                  M:   MUD FILTRATE SAMPLE SOURCE
 TCS .HRS            0400:   TIME CURCULATED STOPPED
 TLAB.HRS            0530:   TIME LOGGER AT BOTTOM
 LUN .               7711:   LOGGING UNIT NUMBER
 LUL .               CSPR:   LOGGING UNIT LOCATION
 ENGI.             SAYLER:   RECORDING ENGINEER
 WITN.         STUEBINGER:   WITNESSED BY
 CLNT.            A2DTECH:   CLIENT CODE
 ORIG.        2" 5" PRINT:   ORIGIN OF DATA
 UWI .       490251030400:   UNIQUE WELL ID
 DICO. A2D Technologies, Inc.:   DIGITIZING COMPANY
~OTHER INFORMATION
~A   DEPT      LL8        ILD        ILM        SPR         GRD      CALD       RHOB       CORR       DPHI   
# ...
  399.0000     7.7719     7.0280     7.4503   -43.2701   104.8817     8.4301     2.4711     0.0227     0.1090
  399.5000     7.6654     7.0129     7.4162   -43.1678   105.8606     8.4330     2.4741     0.0202     0.1124
  400.0000     7.5604     6.9978     7.3821   -43.0654   106.8613     8.4359     2.4883     0.0229     0.1142
  400.5000     7.4568     6.9827     7.3482   -43.0652   107.8510     8.4388     2.4985     0.0318     0.1058
  401.0000     7.3729     6.9677     7.3145   -43.1668   108.4654     8.4417     2.4907     0.0244     0.1086
  401.5000     7.4412     6.9527     7.2809   -43.2683   108.7039     8.4446     2.4748     0.0147     0.1114
  402.0000     7.5102     6.9377     7.2475   -43.3706   108.6111     8.4475     2.4589     0.0110     0.1194
  402.5000     7.5672     6.9228     7.2315   -43.4726   108.4334     8.4504     2.4473     0.0111     0.1246
  403.0000     7.5324     6.9068     7.1653   -43.5743   108.0301     8.4532     2.4577     0.0134     0.1195
  403.5000     7.4978     6.5834     6.6739   -43.6776   107.6379     8.4556     2.4561     0.0105     0.1187
  404.0000     7.4633     6.2506     6.1801   -43.7835   107.5891     8.4566     2.4496     0.0113     0.1206
  404.5000     7.3656     5.9345     5.7228   -44.0159   108.4387     8.4576     2.4500     0.0150     0.1204
  405.0000     6.5749     5.6343     5.2993   -44.4137   109.2730     8.4586     2.4503     0.0146     0.1203
  405.5000     5.6033     5.3401     4.9616   -44.8085   110.1072     8.4597     2.4455     0.0136     0.1243
  406.0000     4.4437     5.2912     5.0119   -45.2060   110.9432     8.4607     2.4347     0.0125     0.1306
  406.5000     4.8154     5.4537     5.1052   -45.2007   111.7791     8.4617     2.4233     0.0114     0.1368
  407.0000     5.8989     5.5993     5.2002   -44.8373   112.5527     8.4627     2.4118     0.0171     0.1431
  407.5000     6.7209     5.7496     5.2971   -44.4723   110.8355     8.4637     2.4078     0.0207     0.1474
  408.0000     6.5966     5.9096     5.3957   -44.0944   108.4527     8.4648     2.4166     0.0134     0.1447
  408.5000     6.6535     5.7613     5.4893   -44.0025   106.7277     8.4658     2.4274     0.0135     0.1296
  409.0000     6.8078     5.5108     5.4893   -44.0309   107.2554     8.4668     2.4370     0.0135     0.1279
  409.5000     6.9068     5.2709     5.0893   -44.6215   108.2474     8.4678     2.4434     0.0135     0.1263
  410.0000     6.4535     5.0413     4.7082   -45.2024   109.0061     8.4688     2.4427     0.0135     0.1252
  410.5000     5.4248     4.8218     4.3557   -45.7774   109.1582     8.4698     2.4308     0.0140     0.1337
  411.0000     4.5601     4.6526     4.2833   -46.3507   109.3329     8.4709     2.4152     0.0148     0.1464
  411.5000     3.8332     4.6526     4.5293   -46.9275   110.3310     8.4719     2.3995     0.0179     0.1553
  412.0000     3.6304     4.6526     4.8671   -47.1786   111.4136     8.4729     2.3839     0.0253     0.1642
  412.5000     5.2697     4.7355     5.2294   -46.8983   111.7204     8.4739     2.3742     0.0327     0.1694
  413.0000     7.0998     4.8197     5.6176   -46.5941   109.2477     8.4749     2.3816     0.0283     0.1635
  413.5000     7.0998     5.0345     6.0344   -46.2891   106.6844     8.4760     2.4102     0.0168     0.1465
  414.0000     7.0341     5.4617     6.4765   -45.9849   105.7721     8.4770     2.4386     0.0166     0.1311
  414.5000     6.9705     5.9250     6.5964   -45.6807   104.8867     8.4780     2.4627     0.0259     0.1154
  415.0000     7.0166     6.4173     6.7170   -45.3725   104.0090     8.4790     2.4556     0.0184     0.1175
  415.5000     7.0915     6.5363     6.8398   -45.0654   103.7667     8.4800     2.4526     0.0153     0.1194
  416.0000     7.1673     6.6925     6.9649   -44.7805   105.1898     8.4811     2.4525     0.0171     0.1146
  416.5000     7.2440     6.8486     7.0922   -44.8015   106.5766     8.4821     2.4532     0.0086     0.1218
  417.0000     7.3217     6.9068     7.1711   -44.9428   107.5912     8.4831     2.4549     0.0101     0.1237
  417.5000     7.4529     6.5921     6.5492   -45.0889   106.4348     8.4841     2.4645     0.0115     0.1154
  418.0000     7.6562     6.2348     6.0078   -45.2354   104.8320     8.4851     2.4735     0.0128     0.1102
  418.5000     7.8549     5.8968     5.5099   -45.3821   105.3108     8.4862     2.4680     0.0142     0.1116
  419.0000     7.4336     5.5771     5.0542   -45.5293   106.2599     8.4872     2.4587     0.0156     0.1174
  419.5000     5.6927     5.2912     4.7389   -45.6745   107.2574     8.4882     2.4479     0.0175     0.1218
  420.0000     4.4172     5.2000     4.8713   -45.7976   108.2552     8.4892     2.4363     0.0250     0.1291
  420.5000     4.0536     5.1151     5.1816   -45.6482   108.6433     8.4902     2.4248     0.0325     0.1369
  421.0000     4.6603     5.0537     5.4924   -45.2509   107.5321     8.4913     2.4132     0.0403     0.1447
  421.5000     5.4884     5.1003     5.8219   -44.8579   105.9644     8.4923     2.4012     0.0297     0.1525
  422.0000     6.4602     5.3931     6.1712   -44.4643   103.9713     8.4933     2.3994     0.0167     0.1550
  422.5000     7.5033     5.7494     6.5414   -44.0706   101.4178     8.4943     2.4359     0.0126     0.1294
  423.0000     7.8587     6.1293     6.9333   -43.6770    99.1483     8.4956     2.4643     0.0087     0.1170
  423.5000     7.8534     6.5342     7.3485   -43.2836    99.9021     8.4974     2.4803     0.0052     0.1087
  424.0000     7.9676     6.9659     7.6021   -42.8893   100.9076     8.4992     2.4899     0.0017     0.1032
  424.5000     8.0290     7.4302     7.6685   -42.4912   100.9933     8.5010     2.4729    -0.0016     0.1064
  425.0000     8.0904     7.6020     7.7353   -42.4176   101.0574     8.5028     2.4634     0.0043     0.1119
  425.5000     8.1519     7.6548     7.8021   -42.4169   101.9933     8.5046     2.4746     0.0162     0.1133
  426.0000     8.2139     7.7087     7.8695   -42.4992   102.9238     8.5064     2.4885     0.0201     0.1018
  426.5000     8.2764     7.7639     7.9374   -42.7083   102.2749     8.5082     2.4835     0.0128     0.0978
  427.0000     8.3393     7.8197     8.0060   -42.9154    99.8042     8.5100     2.4794     0.0073     0.1032
  427.5000     8.4026     7.8761     8.0751   -43.1228    97.3269     8.5118     2.4834     0.0136     0.1062
  428.0000     8.4665     7.9328     8.1449   -43.3303    96.1017     8.5136     2.4889     0.0222     0.1003
  428.5000     8.5309     7.9899     8.2152   -43.5377    96.1194     8.5154     2.4945     0.0294     0.0949
  429.0000     8.5957     8.0474     8.2862   -43.7451    97.2150     8.5173     2.4963     0.0252     0.0965
  429.5000     8.6611     8.0744     8.3577   -43.9525    99.2005     8.5191     2.4911     0.0198     0.0969
  430.0000     8.7269     8.0489     8.3766   -44.1602   101.2082     8.5209     2.4932     0.0236     0.0950
  430.5000     8.7704     8.0299     8.3550   -44.3660   102.3456     8.5227     2.4972     0.0272     0.0929
  431.0000     8.6548     8.0109     8.3152   -44.4849   102.6037     8.5245     2.5049     0.0308     0.0875
  431.5000     8.5697     7.9920     8.2756   -44.5829   100.9927     8.5263     2.5102     0.0344     0.0822
  432.0000     8.4854     7.9731     8.2360   -44.6810    99.3801     8.5281     2.5132     0.0380     0.0801
  432.5000     8.4020     7.9543     8.1971   -44.7791    99.7680     8.5299     2.5187     0.0415     0.0786
  433.0000     8.3000     7.9274     8.1489   -44.8772   100.4166     8.5317     2.5186     0.0376     0.0847
  433.5000     8.4434     8.0097     8.2793   -44.9753   100.3922     8.5335     2.5005     0.0318     0.0933
  434.0000     8.7029     8.2387     8.4530   -45.0735    99.8341     8.5342     2.4803     0.0199     0.1026
  434.5000     8.9703     8.4761     8.6302   -45.1716    98.5349     8.5318     2.4673     0.0057     0.1099
  435.0000     9.2460     8.7747     8.8112   -45.2697    96.5231     8.5295     2.4717     0.0122     0.1094
