~VERSION INFORMATION
 VERS.                2.0:   CWLS LOG ASCII STANDARD - VERSION 2.0
 WRAP.                 NO:   ONE LINE PER DEPTH STEP
~WELL INFORMATION
#MNEM.UNIT      DATA TYPE    INFORMATION
#----------   ------------   ------------------------------
 STRT.F           48.0000:   START DEPTH
 STOP.F          524.0000:   STOP DEPTH
 STEP.F            0.5000:   STEP LENGTH
 NULL.          -999.2500:   NO VALUE
 COMP. LAWRENCE/ALLISON INC:   COMPANY
 WELL.      41-66 SX #3-3:   WELL
 FLD .             TEAPOT:   FIELD
 LOC .       S3 T38N R78W:   LOCATION
 CNTY.            NATRONA:   COUNTY
 STAT.            WYOMING:   STATE
 CTRY. UNITED STATES OF AMERICA:   COUNTRY
 SRVC.              Welex:   SERVICE COMPANY
 DATE.        22-AUG-1987:   LOGDATE
 API .       490251116200:   API NUMBER
~CURVE INFORMATION
#MNEM.UNIT       API CODE    CURVE DESCRIPTION
#----------   ------------   ------------------------------
 DEPT.F                  :   
 GRR .GAPI   07 310 01 00:   GAMMA RAY
 ILD .OHMM   07 120 46 00:   INDUCTION LOG DEEP
 ILM .OHMM   07 120 44 00:   INDUCTION LOG MEDIUM
~PARAMETER INFORMATION
#MNEM.UNIT          VALUE    DESCRIPTION
#----------   ------------   ------------------------------
 PD  .                 GL:   PERMANENT DATUM
 EPD .F              5123:   ELEVATION PERMANENT DATUM
 LMF .                 KB:   LOG MEASURED FROM
 DAPD.F                 8:   FEET ABOVE PERMANENT DATUM
 DMF .                 KB:   DRILLING MEASURED FROM
 EKB .F              5131:   KELLING BUSHING
 EDF .F              5130:   DRILLING FLOOR
 EGL .F              5123:   GROUND LEVEL
 DATE.        22-AUG-1987:   RUN DATE
 RUN .                  1:   RUN NUMBER
 DD  .F               542:   DEPTH DRILLER
 DL  .F               542:   DEPTH LOGGER
 BLI .F               524:   BOTTOM LOG INTERVAL
 TLI .F                47:   TOP LOG INTERVAL
 CBL .F                48:   CASING BOTTOM LOGGER
 BS  .IN            7.875:   BIT SIZE
 BSD .F               542:   BIT SIZE AT DEPTH
 DFT .                AIR:   DRILLING FLUID TYPE
 TLAB.HRS            0500:   TIME LOGGER AT BOTTOM
 MRT .F                85:   MAXIMUM RECORDED TEMPERATURE
 LUN .              51169:   LOGGING UNIT NUMBER
 LUL .           GILLETTE:   LOGGING UNIT LOCATION
 ENGI.             K.BUNL:   RECORDING ENGINEER
 WITN.             STRONG:   WITNESSED BY
 CLNT.            A2DTECH:   CLIENT CODE
 ORIG.           5" PRINT:   ORIGIN OF DATA
 UWI .       490251116200:   UNIQUE WELL ID
 DICO. A2D Technologies, Inc.:   DIGITIZING COMPANY
~OTHER INFORMATION
~A   DEPT      GRR          ILD       ILM  
   48.0000   108.3616     0.8023    15.6390
   48.5000   111.0756     0.8015     5.1201
   49.0000   114.7547     1.1801     3.4342
   49.5000   116.2059     1.8100     2.8710
   50.0000   117.1181     3.4151     3.0752
   50.5000   116.8290     4.4382     4.2493
   51.0000   116.2396     4.9110     6.1617
   51.5000   120.7581     5.8860     8.3052
   52.0000   122.8715     6.6169     8.0015
   52.5000   124.7047     6.7068     6.9237
   53.0000   126.5003     6.7045     6.8753
   53.5000   126.5116     6.7488     6.8744
   54.0000   125.3216     6.8404     6.8733
   54.5000   119.0293     6.8856     6.8724
   55.0000   112.4311     6.9785     6.8715
   55.5000   113.0458     6.8326     6.7297
   56.0000   114.2583     6.6904     6.4125
   56.5000   113.9719     6.5965     6.2806
   57.0000   112.4816     6.5943     6.1515
   57.5000   112.1922     6.5463     6.0666
   58.0000   111.9035     6.5441     6.0240
   58.5000   113.1187     6.5420     6.0232
   59.0000   113.1300     6.5399     5.9811
   59.5000   111.0391     6.5830     5.9803
   60.0000   107.7498     6.6260     6.0622
   60.5000   107.1576     6.6702     6.1033
   61.0000   111.0756     6.8542     6.2299
   61.5000   111.4194     7.0007     6.4472
   62.0000   114.4041     7.1883     6.6719
   62.5000   119.2202     7.2865     6.8104
   63.0000   114.7269     7.3854     6.9039
   63.5000   114.1403     7.4851     7.0468
   64.0000   109.9473     7.5345     7.1436
   64.5000   109.0577     7.5314     7.1424
   65.0000   109.1091     7.4257     7.1415
   65.5000   110.8847     7.3215     7.0916
   66.0000   113.8989     7.1685     6.9879
   66.5000   116.0123     7.0192     6.8027
   67.0000   116.0263     6.9207     6.6171
   67.5000   115.1366     6.8236     6.4810
   68.0000   114.2441     6.7273     6.3436
   68.5000   117.8859     6.7251     6.2599
   69.0000   120.5785     6.7229     6.1311
   69.5000   120.5897     6.7207     6.0883
   70.0000   118.7992     6.7650     6.1324
   70.5000   116.7111     6.8563     6.2996
   71.0000   110.1157     6.9494     6.4303
   71.5000   108.9229     6.9958     6.6089
   72.0000   110.4385     7.1888     6.7944
   72.5000   106.8461     7.3362     6.9810
   73.0000   105.9564     7.4358     7.0771
   73.5000   111.0756     7.5374     7.1251
   74.0000   112.2883     7.6920     7.1239
   74.5000   116.8065     7.7428     7.1228
   75.0000   119.2202     7.8472     7.1713
   75.5000   117.1293     7.8996     7.2697
   76.0000   115.0412     8.0062     7.4202
   76.5000   116.8542     8.1142     7.6261
   77.0000   115.3640     8.1685     7.6781
   77.5000   114.4743     8.2224     7.7301
   78.0000   114.7886     8.2190     7.7822
   78.5000   115.3976     8.2157     7.8350
   79.0000   109.1054     8.1565     7.8337
   79.5000   107.9154     8.0420     7.7790
   80.0000   115.4369     7.8746     7.7779
   80.5000   115.7485     7.7585     7.6703
   81.0000   116.3684     7.6018     7.3590
   81.5000   124.4824     7.5470     7.1583
   82.0000   125.0914     7.4411     7.0595
   82.5000   124.2042     7.3875     7.0585
   83.0000   126.9213     7.3337     7.0090
   83.5000   128.4340     7.3827     7.0081
   84.0000   127.5444     7.4314     7.0072
   84.5000   125.4535     7.4799     7.0547
   85.0000   121.8639     7.5286     7.0535
   85.5000   117.3706     7.5262     7.0044
   86.0000   116.1779     7.5237     7.0517
   86.5000   116.5566     7.5213     7.0531
   87.0000   119.5092     7.5182     7.0985
   87.5000   119.8208     7.5157     7.0974
   88.0000   118.9311     7.5660     7.0965
   88.5000   117.7439     7.5629     7.0955
   89.0000   115.3527     7.6128     7.0944
   89.5000   114.7606     7.7155     7.0935
   90.0000   119.2793     7.7664     7.0926
   90.5000   119.5934     7.8183     7.1406
   91.0000   120.2052     7.9238     7.2387
   91.5000   123.2195     8.0314     7.2375
   92.0000   122.6329     8.0281     7.3371
   92.5000   121.7432     8.0811     7.4376
   93.0000   121.1539     8.0784     7.4878
   93.5000   120.2483     8.1318     7.4868
   94.0000   118.7739     8.1848     7.4858
   94.5000   119.0882     8.2395     7.4849
   95.0000   120.9013     8.2361     7.5876
   95.5000   125.1195     8.2327     7.6916
   96.0000   129.0347     8.2878     7.7972
   96.5000   129.6465     8.3425     7.8500
   97.0000   129.6577     8.4551     7.9032
   97.5000   128.7680     8.5108     7.9568
   98.0000   128.1815     8.5663     8.0107
   98.5000   131.1957     8.5635     8.0094
   99.0000   130.5746     8.6201     8.0637
   99.5000   130.9206     8.6769     8.0624
  100.0000   131.5296     8.7342     8.0613
  100.5000   129.1413     8.7918     8.1147
  101.0000   127.3507     8.8500     8.1687
  101.5000   129.7672     9.0329     8.2872
  102.0000   130.0759     9.1567     8.4503
  102.5000   131.0310     9.3464     8.5652
  103.0000   135.8096     9.6039     8.7411
  103.5000   131.9170     9.7356     9.0443
  104.0000   128.0243    10.0050     9.1673
  104.5000   125.0353    10.0717     9.3562
  105.0000   121.1426    10.1388     9.5489
  105.5000   118.4484    10.1356     9.8123
  106.0000   119.6637    10.2738     9.9458
  106.5000   119.6776    10.4861    10.0125
  107.0000   122.9921    10.6292    10.0784
  107.5000   120.9013    10.8481    10.0752
  108.0000   114.6090    10.9205    10.0726
  108.5000   114.0196    10.9169    10.0700
  109.0000   113.4274    10.8390    10.0673
  109.5000   120.6487    10.7617    10.0641
  110.0000   122.7620    10.5383    10.1311
  110.5000   124.8782    10.3904    10.1284
  111.0000   124.5891    10.3163    10.1252
  111.5000   121.2773    10.1722    10.0531
  112.0000   117.1040    10.2511    10.0505
  112.5000   117.4184    10.1821     9.9105
  113.0000   118.0302     9.9751     9.6383
  113.5000   122.8490     9.8403     9.6358
  114.0000   126.1636     9.7737     9.6333
  114.5000   125.8745     9.7752     9.6308
  115.0000   122.8428     9.7765     9.4961
  115.5000   125.5994     9.7107     9.4285
  116.0000   127.1094     9.6453     9.3614
  116.5000   122.3186     9.6468     9.4887
  117.0000   121.4289     9.6481     9.5518
  117.5000   123.2447     9.6494     9.5487
  118.0000   125.0578     9.6509     9.5462
  118.5000   131.7317     9.6522     9.5432
  119.0000   140.3983     9.6534     9.5407
  119.5000   141.6080     9.6547     9.5382
  120.0000   134.7151     9.5897     9.4704
  120.5000   129.3237     9.5251     9.3379
  121.0000   125.7313     9.5266     9.2078
  121.5000   120.6347     9.4625     9.1423
  122.0000   124.2523     9.3987     9.1399
  122.5000   126.0681     9.3354     9.1370
  123.0000   127.2806     9.3370     9.0593
  123.5000   128.4930     9.3382     8.8734
  124.0000   124.3000     9.3394     8.8118
  124.5000   128.5182     9.3409     8.5717
  125.0000   131.8328     9.3421     8.5123
  125.5000   133.9461     9.1522     8.5118
  126.0000   142.0682     9.1534     8.5111
  126.5000   144.1816     9.0918     8.5695
  127.0000   138.4871     8.9073     8.6281
  127.5000   135.1552     8.5477     8.5681
  128.0000   131.0048     8.3740     8.3923
  128.5000   127.7128     8.0325     8.2201
  129.0000   124.9649     7.8729     7.8868
  129.5000   128.6389     7.7129     7.3107
  130.0000   131.3528     7.6609     7.1115
  130.5000   137.0698     7.6093     7.0622
  131.0000   140.7008     7.6105     7.0618
  131.5000   138.2962     7.7171     7.1101
  132.0000   134.1033     7.8252     7.2083
  132.5000   132.3127     7.9348     7.3078
  133.0000   125.4198     8.1098     7.5657
  133.5000   117.9235     8.4448     7.8818
  134.0000   112.8297     8.6819     8.0460
  134.5000   113.4415     8.7430     8.5012
  135.0000   116.1582     8.7442     8.3268
  135.5000   117.9712     8.7456     8.3261
  136.0000   123.9885     8.7467     8.2117
  136.5000   123.0988     8.7479     8.2679
  137.0000   121.9116     8.7490     8.3244
  137.5000   121.6226     8.7452     8.4393
  138.0000   119.5317     8.5723     8.4972
  138.5000   115.6390     8.5737     8.4965
