~VERSION INFORMATION
 VERS.                2.0:   CWLS LOG ASCII STANDARD - VERSION 2.0
 WRAP.                 NO:   ONE LINE PER DEPTH STEP
~WELL INFORMATION
#MNEM.UNIT      DATA TYPE    INFORMATION
#----------   ------------   ------------------------------
 STRT.F           37.5000:   START DEPTH
 STOP.F          525.5000:   STOP DEPTH
 STEP.F            0.5000:   STEP LENGTH
 NULL.          -999.2500:   NO VALUE
 COMP. LAWRENCE/ALLISON INC:   COMPANY
 WELL.    74-11 SX #10-10:   WELL
 FLD .             TEAPOT:   FIELD
 LOC .      S10 T38N R78W:   LOCATION
 CNTY.            NATRONA:   COUNTY
 STAT.            WYOMING:   STATE
 CTRY. UNITED STATES OF AMERICA:   COUNTRY
 SRVC.            Unknown:   SERVICE COMPANY
 DATE.        08-AUG-1984:   LOGDATE
 API .       490251097800:   API NUMBER
~CURVE INFORMATION
#MNEM.UNIT       API CODE    CURVE DESCRIPTION
#----------   ------------   ------------------------------
 DEPT.F                  :   
 CNC .DEC    42 890 03 00:   NEUTRON POROSITY SANDSTONE
 AC  .US/F   60 520 00 00:   ACCOUSTIC
 GRD .GAPI   45 310 01 00:   GAMMA RAY FROM DENSITY LOG
 CALD.IN     45 280 60 00:   CALIPER FROM DENSITY LOG
 CORR.G/C3   45 356 01 00:   DENSITY CORRECTION
 DPHI.DEC    45 890 12 00:   DENSITY POROSITY SANDSTONE
 DEN .G/C3   45 350 01 00:   COMPENSATED BULK DENSTIY
 RILD.OHMM   07 120 46 00:   RESISTIVITY INDUCTION LOG DEEP
 RILM.OHMM   07 120 44 00:   RESISTIVITY INDUCTION LOG MEDIUM
 RFOC.OHMM   07 220 04 00:   RESISTIVITY FOCUSED LOG
 SPR .MV     07 010 01 00:   SPONTANEOUS POTENTIAL FROM RES.
~PARAMETER INFORMATION
#MNEM.UNIT          VALUE    DESCRIPTION
#----------   ------------   ------------------------------
 PD  .                 GL:   PERMANENT DATUM
 EPD .F              5180:   ELEVATION PERMANENT DATUM
 LMF .                 GL:   LOG MEASURED FROM
 DMF .                 GL:   DRILLING MEASURED FROM
 EGL .F              5180:   GROUND LEVEL
 DATE.             8-8-84:   RUN DATE
 RUN .                  1:   RUN NUMBER
 DD  .F               525:   DEPTH DRILLER
 DL  .F               526:   DEPTH LOGGER
 BLI .F               525:   BOTTOM LOG INTERVAL
 TLI .F                42:   TOP LOG INTERVAL
 CS  .IN            9.625:   CASING SIZE
 CBD .F                42:   CASING BOTTOM DRILLER
 CBL .F                42:   CASING BOTTOM LOGGER
 BS  .IN            7.875:   BIT SIZE
 BSD .F               525:   BIT SIZE AT DEPTH
 DFT .          KCL WATER:   DRILLING FLUID TYPE
 MSS .           FLOWLINE:   MUD SAMPLE SOURCE
 RMS .OHMM           .141:   RESISTIVITY MUD SAMPLE
 MST .F                78:   MUD SAMPLE TEMPERATURE
 RMF .OHMM            .12:   RESISTIVITY MUD FILTRATE SAMPLE
 MFST.F                78:   MUD FILTRATE SAMPLE TEMPERATURE
 RMC .OHMM             .2:   RESISTIVITY MUD CAKE
 MCST.F                78:   MUD CAKE SAMPLE TEMPERATURE
 MFSS.               MEAS:   MUD FILTRATE SAMPLE SOURCE
 MCSS.               MEAS:   MUD CAKE SAMPLE SOURCE
 RMB .OHMM            .13:   RESISTIVITY MUD AT BHT
 BHT .F                89:   BOTTOM HOLE TEMPERATURE
 MRT .F                89:   MAXIMUM RECORDED TEMPERATURE
 LUN .               6307:   LOGGING UNIT NUMBER
 LUL .               GLTE:   LOGGING UNIT LOCATION
 ENGI.            JOHNSON:   RECORDING ENGINEER
 WITN.              FIVAS:   WITNESSED BY
 CLNT.            A2DTECH:   CLIENT CODE
 ORIG.           5" PRINT:   ORIGIN OF DATA
 UWI .       490251097800:   UNIQUE WELL ID
 DICO. A2D Technologies, Inc.:   DIGITIZING COMPANY
~OTHER INFORMATION
~A   DEPT      CNC         AC        GRD       CALD       CORR       DPHI        DEN       RILD       RILM       RFOC        SPR   
# ...
   68.0000     0.0479  -999.2500   175.0730     8.1070     0.0640     0.1260     2.4680     8.2177     8.7490  9845.4092   -62.7230
   68.5000     0.0479  -999.2500   176.1070     8.1070     0.0500     0.1290     2.4640     8.5160     9.0080  9845.4229   -63.2180
   69.0000     0.0478  -999.2500   175.8380     8.1080     0.0460     0.1320     2.4580     8.7658     9.2660  9845.4355   -63.6650
   69.5000     0.0482  -999.2500   173.2960     8.1080     0.0680     0.1340     2.4540     8.9592     9.5250  9845.4482   -63.9370
   70.0000     0.0496  -999.2500   170.7920     8.1090     0.0690     0.1360     2.4510     9.2204     9.7590  9845.4609   -64.2140
   70.5000     0.0499  -999.2500   171.4570     8.1090     0.0540     0.1390     2.4480     9.5550     9.9350  9845.4736   -64.5010
   71.0000     0.0498  -999.2500   177.7070     8.1100     0.0430     0.1410     2.4440     9.9036    10.1120  9845.4873   -64.5790
   71.5000     0.0504  -999.2500   181.7790     8.1100     0.0460     0.1390     2.4500    10.3342    10.2890  9845.5000   -64.5820
   72.0000     0.0510  -999.2500   176.6270     8.1110     0.0480     0.1330     2.4580    10.5622    10.4480  9845.5127   -64.5870
   72.5000     0.0513  -999.2500   171.4860     8.1120     0.0350     0.1270     2.4650    10.7952    10.7160  9845.5254   -64.2990
   73.0000     0.0518  -999.2500   167.4540     8.1120     0.0220     0.1310     2.4610    11.1120    10.9600  9845.5381   -63.9540
   73.5000     0.0527  -999.2500   169.7130     8.1130     0.0100     0.1340     2.4540    11.3571    11.2040  9845.5508   -63.5970
   74.0000     0.0539  -999.2500   171.8830     8.1130     0.0310     0.1350     2.4520    11.4482    11.4480  9845.5645   -62.6860
   74.5000     0.0536  -999.2500   171.1230     8.1140     0.0560     0.1350     2.4520    11.7008    11.6920  9845.5771   -59.9590
   75.0000     0.0532  -999.2500   165.7030     8.1140     0.0740     0.1340     2.4540    12.0441    11.9360  9845.5898   -57.2100
   75.5000     0.0513  -999.2500   162.5950     8.1150     0.0790     0.1340     2.4510    12.1407    12.1070  9845.6025   -57.3020
   76.0000     0.0503  -999.2500   163.6600     8.1160     0.0710     0.1400     2.4450    12.1538    12.0230  9845.6152   -59.1480
   76.5000     0.0513  -999.2500   162.7050     8.1160     0.0410     0.1450     2.4390    12.1691    11.9470  9845.6289   -61.8750
   77.0000     0.0555  -999.2500   160.5510     8.1170     0.0210     0.1470     2.4330    12.0939    11.8710  9845.6416   -64.4450
   77.5000     0.0570  -999.2500   159.2290     8.1170     0.0220     0.1490     2.4300    12.1113    11.7950  9845.6543   -68.2030
   78.0000     0.0564  -999.2500   161.7700     8.1180     0.0160     0.1520     2.4260    12.0386    11.7190  9845.6670   -71.7710
   78.5000     0.0554  -999.2500   162.4320     8.1180     0.0070     0.1540     2.4230    11.9729    11.6430  9845.6797   -70.8200
   79.0000     0.0538  -999.2500   161.0220     8.1190     0.0230     0.1510     2.4270    11.8190    11.5670  9845.6924   -70.8790
   79.5000     0.0516  -999.2500   162.8390     8.1200     0.0410     0.1450     2.4360    11.7524    11.4900  9845.7061   -71.9930
   80.0000     0.0496  -999.2500   164.8920     8.1200     0.0550     0.1390     2.4440    11.6014    11.4140  9845.7188   -73.8550
   80.5000     0.0503  -999.2500   163.2080     8.1210     0.0460     0.1410     2.4420    11.5338    11.3380  9845.7314   -75.6600
   81.0000     0.0505  -999.2500   159.4440     8.1210     0.0370     0.1420     2.4390    11.3092    11.2620  9845.7441   -76.3440
   81.5000     0.0511  -999.2500   156.3580     8.1220     0.0360     0.1440     2.4370    11.2454    11.1860  9845.7568   -77.0700
   82.0000     0.0520  -999.2500   157.5160     8.1220     0.0520     0.1460     2.4340    11.2596    11.1100  9845.7705   -77.8160
   82.5000     0.0532  -999.2500   159.2000     8.1230     0.0680     0.1480     2.4320    11.1920    11.0420  9845.7832   -78.7360
   83.0000     0.0510  -999.2500   160.8500     8.1230     0.0820     0.1470     2.4330    11.2859    11.0790  9845.7959   -81.6100
   83.5000     0.0500  -999.2500   162.4200     8.1240     0.0690     0.1440     2.4380    11.2981    11.1130  9845.8086   -84.8980
   84.0000     0.0546  -999.2500   166.1620     8.1250     0.0530     0.1410     2.4380    11.3102    11.1480  9845.8213   -88.2670
   84.5000     0.0573  -999.2500   168.1650     8.1250     0.0430     0.1360     2.4320    11.4030    11.1820  9845.8340   -90.4840
   85.0000     0.0595  -999.2500   162.9480     8.1260     0.0430     0.1320     2.4380    11.4153    11.2160  9845.8477   -93.1920
   85.5000     0.0573  -999.2500   157.7650     8.1260     0.0330     0.1340     2.4460    11.4276    11.2470  9845.8604   -99.1180
   86.0000     0.0554  -999.2500   154.6170     8.1270     0.0190     0.1340     2.4530    11.3591    11.1090  9845.8730  -103.7710
   86.5000     0.0544  -999.2500   159.4330     8.1270     0.0270     0.1340     2.4570    11.3754    10.9830  9845.8857  -109.0760
   87.0000     0.0531  -999.2500   164.1230     8.1280     0.0400     0.1350     2.4550    11.0750    10.8580  9845.8984  -117.0780
   87.5000     0.0521  -999.2500   168.9230     8.1290     0.0530     0.1370     2.4510    10.9367    10.7330  9845.9111  -116.5090
   88.0000     0.0527  -999.2500   171.4400     8.1290     0.0540     0.1400     2.4480    10.7256    10.6070  9845.9248  -113.4260
   88.5000     0.0554  -999.2500   171.1440     8.1300     0.0560     0.1430     2.4440    10.5148    10.5180  9845.9375  -107.2830
   89.0000     0.0563  -999.2500   170.7570     8.1300     0.0590     0.1450     2.4400    10.4536    10.4650  9845.9502  -101.1910
   89.5000     0.0554  -999.2500   170.2780     8.1310     0.0580     0.1450     2.4370    10.2519    10.4120  9845.9629  -100.2740
   90.0000     0.0532  -999.2500   167.9050     8.1310     0.0600     0.1420     2.4400    10.2648    10.3580  9845.9756  -103.5940
   90.5000     0.0522  -999.2500   165.5520     8.1320     0.0620     0.1380     2.4450    10.2759    10.3050  9845.9893  -105.3030
   91.0000     0.0518  -999.2500   165.6440     8.1320     0.0490     0.1440     2.4470    10.0739    10.2570  9846.0020  -106.0480
   91.5000     0.0515  -999.2500   167.5030     8.1330     0.0280     0.1510     2.4380    10.0171    10.2100  9846.0146  -106.8350
   92.0000     0.0524  -999.2500   166.7700     8.1340     0.0160     0.1570     2.4230    10.0297    10.1630  9846.0273  -111.9480
   92.5000     0.0523  -999.2500   165.0370     8.1340     0.0430     0.1550     2.4180     9.9678    10.0740  9846.0400  -118.3280
   93.0000     0.0526  -999.2500   164.9690     8.1350     0.0710     0.1530     2.4230     9.8432     9.9920  9846.0527  -124.6310
   93.5000     0.0525  -999.2500   167.9940     8.1350     0.0810     0.1500     2.4270     9.8556     9.9110  9846.0664  -126.6010
   94.0000     0.0528  -999.2500   170.7200     8.1360     0.0780     0.1490     2.4310     9.7982     9.8300  9846.0791  -122.1440
   94.5000     0.0525  -999.2500   170.8910     8.1360     0.0730     0.1500     2.4290     9.8106     9.7480  9846.0918  -115.2270
   95.0000     0.0502  -999.2500   170.9890     8.1370     0.0680     0.1520     2.4270     9.8211     9.6670  9846.1045  -111.6960
   95.5000     0.0490  -999.2500   171.0870     8.1370     0.0450     0.1530     2.4260     9.6299     9.5860  9846.1172  -114.8550
   96.0000     0.0486  -999.2500   171.1090     8.1370     0.0290     0.1510     2.4270     9.5755     9.5290  9846.1309  -120.6550
   96.5000     0.0489  -999.2500   168.4480     8.1370     0.0410     0.1500     2.4280     9.5859     9.5290  9846.1436  -125.4790
   97.0000     0.0484  -999.2500   164.4590     8.1370     0.0520     0.1520     2.4280     9.5962     9.5290  9846.1562  -130.7700
   97.5000     0.0466  -999.2500   160.4740     8.1370     0.0630     0.1580     2.4190     9.5386     9.5290  9846.1689  -128.9650
   98.0000     0.0459  -999.2500   156.7460     8.1370     0.0660     0.1610     2.4120     9.5524     9.5290  9846.1816  -125.0370
