~VERSION INFORMATION
 VERS.                2.0:   CWLS LOG ASCII STANDARD - VERSION 2.0
 WRAP.                 NO:   ONE LINE PER DEPTH STEP
~WELL INFORMATION
#MNEM.UNIT      DATA TYPE    INFORMATION
#----------   ------------   ------------------------------
 STRT.F            0.0000:   START DEPTH
 STOP.F         3139.0000:   STOP DEPTH
 STEP.F            0.5000:   STEP LENGTH
 NULL.          -999.2500:   NO VALUE
 COMP. BROWN JOHN E&C INC:   COMPANY
 WELL.       TX-10 #63-10:   WELL
 FLD .             TEAPOT:   FIELD
 LOC .      S10 T38N R78W:   LOCATION
 CNTY.            NATRONA:   COUNTY
 STAT.            WYOMING:   STATE
 CTRY. UNITED STATES OF AMERICA:   COUNTRY
 SRVC.       Schlumberger:   SERVICE COMPANY
 DATE.        05-OCT-1982:   LOGDATE
 API .       490251090100:   API NUMBER
~CURVE INFORMATION
#MNEM.UNIT       API CODE    CURVE DESCRIPTION
#----------   ------------   ------------------------------
 DEPT.F                  :   
 DPHI.DEC    45 890 12 00:   DENSITY POROSITY  SANDSTONE
 GRD .GAPI   45 310 01 00:   GAMMA RAY FROM DENSITY LOG
 NPHI.DEC    42 890 03 00:   NEUTRON POROSITY SANDSTONE
 CALD.IN     45 280 60 00:   CALIPER FROM DENSITY LOG
 CORR.G/C3   45 356 01 00:   DENSITY CORRECTION
 RHOB.G/C3   45 350 01 00:   BULK DENSITY
 ILD .OHMM   07 120 46 00:   INDUCTION LOG DEEP
 ILM .OHMM   07 120 44 00:   INDUCTION LOG MEDIUM
 SFLU.OHMM   07 220 01 00:   SPHERICALLY FOCUSED LOG UNAVERAGED RESISTIVITY
 SPR .MV     07 010 01 00:   SPONTANEOUS POTENTIAL
~PARAMETER INFORMATION
#MNEM.UNIT          VALUE    DESCRIPTION
#----------   ------------   ------------------------------
 PD  .                 GL:   PERMANENT DATUM
 EPD .F              5189:   ELEVATION PERMANENT DATUM
 LMF .                 KB:   LOG MEASURED FROM
 DAPD.F                10:   FEET ABOVE PERMANENT DATUM
 DMF .                 KB:   DRILLING MEASURED FROM
 EKB .F              5199:   KELLING BUSHING
 EGL .F              5189:   GROUND LEVEL
 DATE.        05-OCT-1982:   RUN DATE
 RUN .                  1:   RUN NUMBER
 DD  .F              3200:   DEPTH DRILLER
 DL  .F              3142:   DEPTH LOGGER
 BLI .F              3139:   BOTTOM LOG INTERVAL
 TLI .F               484:   TOP LOG INTERVAL
 CS  .IN            9.625:   CASING SIZE
 CBD .F               482:   CASING BOTTOM DRILLER
 CBL .F               484:   CASING BOTTOM LOGGER
 BS  .IN            7.875:   BIT SIZE
 BSD .F              3200:   BIT SIZE AT DEPTH
 DFT .        KCL/POLYMER:   DRILLING FLUID TYPE
 DFD .                8.6:   DRILLING FLUID DENSITY
 DFV .                 38:   DRILLING FLUID VISCOSITY
 DFPH.                8.5:   DRILLING FLUID PH
 DFL .                6.8:   DRILLING FLUID LOSS
 MSS .           MUD TANK:   MUD SAMPLE SOURCE
 RMS .OHMM            .40:   RESISTIVITY MUD SAMPLE
 MST .F                64:   MUD SAMPLE TEMPERATURE
 RMF .OHMM            .34:   RESISTIVITY MUD FILTRATE SAMPLE
 MFST.F                64:   MUD FILTRATE SAMPLE TEMPERATURE
 RMC .OHMM            .36:   RESISTIVITY MUD CAKE
 MCST.F                64:   MUD CAKE SAMPLE TEMPERATURE
 MFSS.               MEAS:   MUD FILTRATE SAMPLE SOURCE
 MCSS.               CALC:   MUD CAKE SAMPLE SOURCE
 RMB .OHMM             .2:   RESISTIVITY MUD AT BHT
 BHT .F               125:   BOTTOM HOLE TEMPERATURE
 TCS .HRS            2300:   TIME CURCULATED STOPPED
 TLAB.HRS            0500:   TIME LOGGER AT BOTTOM
 MRT .F               125:   MAXIMUM RECORDED TEMPERATURE
 LUN .               8043:   LOGGING UNIT NUMBER
 LUL .                GLT:   LOGGING UNIT LOCATION
 ENGI.            NEUFFER:   RECORDING ENGINEER
 WITN.             STRONG:   WITNESSED BY
 CLNT.            A2DTECH:   CLIENT CODE
 ORIG.           5" PRINT:   ORIGIN OF DATA
 UWI .       490251090100:   UNIQUE WELL ID
 DICO. A2D Technologies, Inc.:   DIGITIZING COMPANY
~OTHER INFORMATION
~A    DEPT    DPHI          GRD     NPHI       CALD       CORR       RHOB        ILD        ILM       SFLU        SPR   
# ...
 3115.5000     0.0910   154.3892     0.2655     7.5757     0.0510     2.5027     4.5120     4.5502     5.4982   -20.7535
 3116.0000     0.0928   158.2809     0.2781     7.5745     0.0479     2.5011     4.4174     4.4870     5.7702   -20.6069
 3116.5000     0.0960  -999.2500     0.2816     7.5735     0.0441     2.4958     4.3288     4.4863     6.0977   -20.4261
 3117.0000     0.1007  -999.2500     0.2748     7.5570     0.0418     2.4867     4.2990     4.4547     5.7692   -20.1673
 3117.5000     0.1078  -999.2500     0.2701     7.5257     0.0402     2.4747     4.3288     4.4847     5.4585   -20.0225
 3118.0000     0.1138  -999.2500     0.2680     7.5247     0.0387     2.4642     4.4194     4.5778     5.2727   -19.7258
 3118.5000     0.1187  -999.2500     0.2848     7.5388     0.0379     2.4536     4.6384     4.7708     5.3088   -19.4291
 3119.0000     0.1222  -999.2500     0.2984     7.5376     0.0378     2.4497     4.8958     5.0411     5.4223   -18.9822
 3119.5000     0.1252  -999.2500     0.2896     7.5366     0.0401     2.4483     5.3258     5.5658     5.7270   -18.6855
 3120.0000     0.1260  -999.2500     0.2783     7.5356     0.0438     2.4482     5.9074     6.1149     6.2438   -18.5407
 3120.5000     0.1219  -999.2500     0.2702     7.5346     0.0522     2.4519     6.3787     6.4614     7.0937   -18.8537
 3121.0000     0.1119  -999.2500     0.2618     7.5336     0.0628     2.4714     6.7829     6.6413     7.9223   -19.1641
 3121.5000     0.1013  -999.2500     0.2507     7.5171     0.0703     2.4841     6.9729     6.7793     8.3142   -19.3241
 3122.0000     0.0966  -999.2500     0.2370     7.5329     0.0566     2.4901     6.9729     6.9202     8.1976   -19.4833
 3122.5000     0.0957  -999.2500     0.2299     7.5419     0.0528     2.4930     6.9249     6.8711     7.8656   -19.5052
 3123.0000     0.0948  -999.2500     0.2417     7.5509     0.0490     2.4960     6.6898     6.6367     8.0297   -19.6516
 3123.5000     0.0940  -999.2500     0.2503     7.5599     0.0458     2.4989     6.3300     6.1926     8.3113   -19.6588
 3124.0000     0.0919  -999.2500     0.2526     7.5689     0.0428     2.5041     5.8263     5.6520     8.5435   -19.6660
 3124.5000     0.0887  -999.2500  -999.2500     7.5787     0.0420     2.5118     5.1450     5.1015     8.0022   -19.5213
 3125.0000     0.0895  -999.2500  -999.2500     7.5630     0.0420     2.5063     4.4759     4.5041     6.2593   -19.5303
 3125.5000     0.1164  -999.2500  -999.2500     7.5624     0.0411     2.4770     4.1244     4.1165     5.3761   -19.5375
 3126.0000     0.1364  -999.2500  -999.2500     7.5617     0.0336     2.4319     4.0119     3.9215     4.7143   -19.5448
 3126.5000     0.1432  -999.2500  -999.2500     7.5611     0.0198     2.4109     3.9843     3.8100     4.4914   -19.3982
 3127.0000     0.1290  -999.2500  -999.2500     7.5605     0.0251     2.4183     3.9296     3.8396     4.3989   -19.2553
 3127.5000     0.1261  -999.2500  -999.2500     7.5599     0.0373     2.4370     3.9257     3.8926     4.5846   -19.2643
 3128.0000     0.1284  -999.2500  -999.2500     7.5607     0.0403     2.4467     3.9296     3.9189     5.0848   -19.1196
 3128.5000     0.1296  -999.2500  -999.2500     7.5586     0.0303     2.4407     3.9569     3.9453     5.4482   -18.9730
 3129.0000     0.1279  -999.2500  -999.2500     7.5580     0.0265     2.4414     3.9843     4.0271     5.6004   -18.9820
 3129.5000     0.1223  -999.2500  -999.2500     7.5575     0.0280     2.4511     4.0678     4.0825     5.0835   -19.1482
 3130.0000     0.1134  -999.2500  -999.2500     7.5569     0.0336     2.4720     4.2990     4.2841     4.4886   -19.3023
 3130.5000     0.0959  -999.2500  -999.2500     7.5867     0.0408     2.4953     4.7356     4.5268     5.0129   -19.4605
 3131.0000     0.0837  -999.2500  -999.2500     7.5859     0.0423     2.5125     4.8683     4.7570     5.8759   -19.5014
 3131.5000     0.0802  -999.2500  -999.2500     7.5702     0.0423     2.5274     4.9020     5.1244     6.6612   -19.6279
 3132.0000     0.0775  -999.2500  -999.2500     7.5696     0.0407     2.5244     4.9360     5.4523     7.1783   -19.6353
 3132.5000     0.0843  -999.2500  -999.2500     7.5690     0.0377     2.5108     4.9703     5.6044     6.6522   -19.4904
 3133.0000     0.0914  -999.2500  -999.2500     7.5531     0.0369     2.4980     4.9703     5.6812     7.1770   -19.3475
 3133.5000     0.0970  -999.2500  -999.2500     7.5679     0.0346     2.4942     4.9703     5.6801     7.5320   -19.5067
 3134.0000     0.0990  -999.2500  -999.2500     7.5825     0.0315     2.4942     4.9703     5.6791     7.6362   -19.6659
 3134.5000     0.0999  -999.2500  -999.2500     7.5818     0.0284     2.4904     4.9703     5.6782     7.6354   -19.5211
 3135.0000     0.1020  -999.2500  -999.2500     7.5812     0.0299     2.4858     4.9703     5.6773     7.5824   -19.3764
 3135.5000     0.1011  -999.2500  -999.2500     7.5805     0.0268     2.4850     4.9703     5.6743     7.6343   -19.0815
 3136.0000     0.0911  -999.2500  -999.2500     7.5799     0.0283     2.5075     5.0047     5.5975     7.5810   -18.8298
 3136.5000     0.0796  -999.2500  -999.2500     7.5641     0.0404     2.5255  -999.2500  -999.2500  -999.2500  -999.2500
 3137.0000     0.0778  -999.2500  -999.2500     7.5332     0.0548     2.5292  -999.2500  -999.2500  -999.2500  -999.2500
 3137.5000     0.0873  -999.2500  -999.2500     7.4049     0.0533     2.5089  -999.2500  -999.2500  -999.2500  -999.2500
 3138.0000     0.0834  -999.2500  -999.2500     7.0615     0.0502     2.5028  -999.2500  -999.2500  -999.2500  -999.2500
 3138.5000     0.0749  -999.2500  -999.2500     7.0154     0.0541     2.5268  -999.2500  -999.2500  -999.2500  -999.2500
 3139.0000     0.0722  -999.2500  -999.2500     6.9997     0.0689     2.5380  -999.2500  -999.2500  -999.2500  -999.2500
