~VERSION INFORMATION
 VERS.                2.0:   CWLS LOG ASCII STANDARD - VERSION 2.0
 WRAP.                 NO:   ONE LINE PER DEPTH STEP
~WELL INFORMATION
#MNEM.UNIT      DATA TYPE    INFORMATION
#----------   ------------   ------------------------------
 STRT.F           67.0000:   START DEPTH
 STOP.F          812.0000:   STOP DEPTH
 STEP.F            0.5000:   STEP LENGTH
 NULL.          -999.2500:   NO VALUE
 COMP. U S NAVY-INTEX OIL:   COMPANY
 WELL.  N.P.R. #3 #48-S-2:   WELL
 FLD .             TEAPOT:   FIELD
 LOC .       S2 T38N R78W:   LOCATION
 CNTY.            NATRONA:   COUNTY
 STAT.            WYOMING:   STATE
 CTRY. UNITED STATES OF AMERICA:   COUNTRY
 SRVC.      NL McCullough:   SERVICE COMPANY
 DATE.        11-AUG-1961:   LOGDATE
 API .       490250639200:   API NUMBER
~CURVE INFORMATION
#MNEM.UNIT       API CODE    CURVE DESCRIPTION
#----------   ------------   ------------------------------
 DEPT.F                  :   
 GRN .MG/TON 35 310 01 00:   GAMMA RAY
 NEUT.CPS    35 330 30 00:   NEUTRON
~PARAMETER INFORMATION
#MNEM.UNIT          VALUE    DESCRIPTION
#----------   ------------   ------------------------------
 PD  .                 GL:   PERMANENT DATUM
 EPD .F              5168:   ELEVATION PERMANENT DATUM
 LMF .                 KB:   LOG MEASURED FROM
 DAPD.F                 6:   FEET ABOVE PERMANENT DATUM
 DMF .                 KB:   DRILLING MEASURED FROM
 EKB .F              5174:   KELLING BUSHING
 EGL .F              5168:   GROUND LEVEL
 DATE.          8-11-1961:   RUN DATE
 RUN .                  1:   RUN NUMBER
 DD  .F               810:   DEPTH DRILLER
 DL  .F            813.75:   DEPTH LOGGER
 BLI .F               812:   BOTTOM LOG INTERVAL
 TLI .F                80:   TOP LOG INTERVAL
 BSD .F               810:   BIT SIZE AT DEPTH
 DFT .       OIL EMULSION:   DRILLING FLUID TYPE
 TCS .HRS               1:   TIME CURCULATED STOPPED
 ENGI.            JACKSON:   RECORDING ENGINEER
 WITN.          JORGENSON:   WITNESSED BY
 CLNT.            A2DTECH:   CLIENT CODE
 ORIG.        2" 5" PRINT:   ORIGIN OF DATA
 UWI .       490250639200:   UNIQUE WELL ID
 DICO. A2D Technologies, Inc.:   DIGITIZING COMPANY
~OTHER INFORMATION
~A   DEPT        GRN     NEUT   
   67.0000     7.6305  -999.2500
   67.5000     7.5809  -999.2500
   68.0000     7.5188  -999.2500
   68.5000     7.5106  -999.2500
   69.0000     7.4996  -999.2500
   69.5000     7.4885  -999.2500
   70.0000     7.4775  -999.2500
   70.5000     7.4693  -999.2500
   71.0000     7.4693  -999.2500
   71.5000     7.3601  -999.2500
   72.0000     7.2510  -999.2500
   72.5000     7.2063  -999.2500
   73.0000     7.1468  -999.2500
   73.5000     7.0724  -999.2500
   74.0000     7.0674  -999.2500
   74.5000     6.9491  -999.2500
   75.0000     6.7839  -999.2500
   75.5000     6.6199  -999.2500
   76.0000     6.4547  -999.2500
   76.5000     6.2495  -999.2500
   77.0000     6.2358  -999.2500
   77.5000     6.2186  -999.2500
   78.0000     6.2006  -999.2500
   78.5000     6.1831  -999.2500
   79.0000     6.1948  -999.2500
   79.5000     6.0743   820.9915
   80.0000     5.8330   670.3609
   80.5000     5.8225   519.7303
   81.0000     5.8171   376.1239
   81.5000     5.8124   367.0430
   82.0000     5.8134   358.1418
   82.5000     5.8260   359.6071
   83.0000     5.8383   362.8205
   83.5000     5.8479   366.0340
   84.0000     5.8631   369.2474
   84.5000     5.8243   373.1269
   85.0000     5.7763   366.5035
   85.5000     5.7250   360.1399
   86.0000     5.6646   360.1399
   86.5000     5.9010   359.8054
   87.0000     5.9025   365.4146
   87.5000     5.9011   373.1269
   88.0000     5.9519   377.0080
   88.5000     6.0314   378.4540
   89.0000     6.0968   379.1209
   89.5000     6.1605   375.1848
   90.0000     6.2256   371.1289
   90.5000     6.2897   361.3786
   91.0000     6.3382   351.0956
   91.5000     6.2627   340.8125
   92.0000     6.1617   330.5295
   92.5000     6.0614   327.3893
   93.0000     5.9602   342.1712
   93.5000     5.8602   340.9890
   94.0000     5.7587   335.1648
   94.5000     5.6842   340.5138
   95.0000     5.6534   344.8976
   95.5000     5.6544   349.2027
   96.0000     5.7376   379.2692
   96.5000     5.8231   386.7041
   97.0000     5.9855   374.0967
   97.5000     6.2049   361.6430
   98.0000     6.4764   349.0515
   98.5000     6.3661   336.5739
   99.0000     6.2163   325.4402
   99.5000     6.0688   317.2807
  100.0000     5.8815   311.0843
  100.5000     5.9184   310.7100
  101.0000     5.9650   310.3034
  101.5000     6.0139   310.2049
  102.0000     6.0501   312.6555
  102.5000     5.9892   314.6514
  103.0000     5.9377   316.1956
  103.5000     5.8878   315.2352
  104.0000     6.0106   314.4488
  104.5000     5.9613   322.1901
  105.0000     5.9192   331.1840
  105.5000     5.8778   328.7905
  106.0000     5.8426   326.8072
  106.5000     5.9304   324.8086
  107.0000     6.0645   323.1918
  107.5000     6.1792   331.1447
  108.0000     6.1723   337.9205
  108.5000     6.1650   338.6400
  109.0000     6.1601   336.4380
  109.5000     6.2683   334.1662
  110.0000     6.2257   331.9750
  110.5000     6.1890   333.9765
  111.0000     6.1899   338.4039
  111.5000     6.1819   342.1222
  112.0000     6.2308   342.1835
  112.5000     6.3188   342.1208
  113.0000     6.4077   342.1936
  113.5000     6.3994   344.3285
  114.0000     6.3129   347.9837
  114.5000     6.2264   351.0966
  115.0000     6.1396   341.9562
  115.5000     6.0534   333.5239
  116.0000     6.0643   331.6647
  116.5000     6.1690   333.9973
  117.0000     6.2723   336.5206
  117.5000     6.3786   338.8492
  118.0000     6.3515   341.2039
  118.5000     6.3265   351.0345
  119.0000     6.2989   352.9475
  119.5000     6.2739   348.8855
  120.0000     6.5359   345.1966
  120.5000     6.4785   348.4584
  121.0000     6.4154   351.7081
  121.5000     6.3546   353.1175
  122.0000     6.3713   349.3619
  122.5000     6.4980   342.1644
  123.0000     6.6235   335.1822
  123.5000     6.7496   341.7434
  124.0000     6.8757   348.1482
  124.5000     6.9660   344.7969
  125.0000     7.0012   341.4826
  125.5000     6.9336   338.1653
  126.0000     6.6955   341.2079
  126.5000     6.4554   344.3047
  127.0000     6.1802   347.3503
  127.5000     6.1792   350.4510
  128.0000     6.1703   353.4948
  128.5000     6.1663   355.7894
  129.0000     6.1570   357.0779
  129.5000     6.1596   358.4431
  130.0000     6.1985   356.3500
  130.5000     6.3265   350.2502
  131.0000     6.3911   344.0604
  131.5000     6.2997   337.9748
  132.0000     6.2073   331.7822
  132.5000     6.2315   325.2374
  133.0000     6.4686   326.2943
  133.5000     6.3984   329.2397
  134.0000     6.3267   335.6565
  134.5000     6.3597   342.8303
  135.0000     6.4279   349.8456
  135.5000     6.4974   363.6743
  136.0000     6.5658   379.9876
  136.5000     6.5862   384.9331
  137.0000     6.4083   389.6987
  137.5000     6.2887   394.6459
  138.0000     6.2680   400.0423
  138.5000     6.2502   396.6718
  139.0000     6.2331   397.0789
  139.5000     6.2150   405.5469
  140.0000     6.1710   413.8504
  140.5000     6.1111   422.3083
  141.0000     6.0531   431.9831
  141.5000     5.9928   430.9974
  142.0000     6.0528   429.7118
  142.5000     6.1807   428.5062
  143.0000     6.3117   427.0200
  143.5000     6.4266   424.3242
  144.0000     6.2411   421.0250
  144.5000     6.2102   417.7015
  145.0000     6.2831   414.4148
  145.5000     6.3470   408.7799
  146.0000     6.1880   397.8116
  146.5000     6.0350   386.7338
  147.0000     5.8930   375.7815
  147.5000     5.8711   364.7046
  148.0000     5.8579   351.2135
  148.5000     5.8513   350.1943
  149.0000     5.8811   349.0171
  149.5000     5.9525   347.7134
  150.0000     6.0272   346.2130
  150.5000     6.0995   346.9014
  151.0000     6.0065   347.9349
  151.5000     5.9101   360.6269
  152.0000     5.8134   377.5433
  152.5000     5.8364   372.4447
  153.0000     5.8627   362.1510
  153.5000     5.8867   360.7379
  154.0000     5.9126   359.6170
  154.5000     5.9367   358.4555
  155.0000     5.9377   368.6181
  155.5000     5.9043   383.5027
  156.0000     5.8719   388.0936
  156.5000     5.8387   384.5406
  157.0000     5.8062   381.5756
  157.5000     5.7732   379.1084
  158.0000     5.7531   364.3144
  158.5000     5.8396   351.7256
  159.0000     5.9380   339.1385
  159.5000     6.0364   326.5630
  160.0000     6.1348   320.1152
  160.5000     6.2332   316.9442
  161.0000     6.3480   314.1966
  161.5000     6.2905   304.8185
  162.0000     6.2217   296.5686
  162.5000     6.1527   288.3488
  163.0000     6.0705   300.2500
  163.5000     5.9436   324.3561
  164.0000     5.7532   348.4477
  164.5000     5.7496   372.5335
  165.0000     5.7462   377.9149
  165.5000     5.7427   370.9383
  166.0000     5.7885   364.0013
  166.5000     5.8470   357.0101
  167.0000     5.9068   350.0873
  167.5000     5.9510   347.1144
  168.0000     5.9592   347.1571
  168.5000     5.9646   347.1224
  169.0000     5.9714   337.7533
  169.5000     5.9767   328.8937
  170.0000     5.9835   320.0872
  170.5000     5.9888   311.2400
  171.0000     5.8773   312.9592
  171.5000     5.7111   323.1949
  172.0000     5.5749   318.3814
  172.5000     5.5379   313.7793
  173.0000     5.5078   309.1915
  173.5000     5.4761   298.0929
  174.0000     5.5800   287.1001
  174.5000     5.7329   276.2926
  175.0000     5.6963   288.6949
  175.5000     5.6632   301.2512
  176.0000     5.6305   320.7190
  176.5000     5.5978   340.4466
  177.0000     5.5844   360.0156
  177.5000     5.7035   379.7368
  178.0000     5.8022   384.8716
  178.5000     5.7606   374.0055
  179.0000     5.7201   363.0318
  179.5000     5.6842   355.6353
  180.0000     5.7383   352.2853
  180.5000     5.7922   348.9995
  181.0000     5.8413   345.6636
  181.5000     5.7239   342.3644
  182.0000     5.8085   339.0438
  182.5000     5.8935   330.6435
  183.0000     5.9759   315.4196
  183.5000     6.0608   300.1815
  184.0000     6.0913   290.1836
  184.5000     6.1235   287.6145
  185.0000     6.0811   285.0841
  185.5000     5.9594   282.2409
  186.0000     5.8323   289.5303
  186.5000     5.7756   308.0488
  187.0000     5.7168   326.6153
  187.5000     5.6575   336.0244
  188.0000     5.5988   330.4152
