~VERSION INFORMATION
 VERS.                2.0:   CWLS LOG ASCII STANDARD - VERSION 2.0
 WRAP.                 NO:   ONE LINE PER DEPTH STEP
~WELL INFORMATION
#MNEM.UNIT      DATA TYPE    INFORMATION
#----------   ------------   ------------------------------
 STRT.F           65.0000:   START DEPTH
 STOP.F          860.0000:   STOP DEPTH
 STEP.F            0.5000:   STEP LENGTH
 NULL.          -999.2500:   NO VALUE
 COMP.          U.S. NAVY:   COMPANY
 WELL. NPR 3 TEAPOT DOM #71-S-34:   WELL
 FLD .             TEAPOT:   FIELD
 LOC .      S34 T39N R78W:   LOCATION
 CNTY.            NATRONA:   COUNTY
 STAT.            WYOMING:   STATE
 CTRY. UNITED STATES OF AMERICA:   COUNTRY
 SRVC. Schlumberger Well Surveying Corp:   SERVICE COMPANY
 DATE.        22-FEB-1961:   LOGDATE
 API .       490250657300:   API NUMBER
~CURVE INFORMATION
#MNEM.UNIT       API CODE    CURVE DESCRIPTION
#----------   ------------   ------------------------------
 DEPT.F                  :   
 GR  .GAPI   30 310 01 00:   GAMMA RAY
 ASN .OHMM   05 041 16 00:   AMPLIFIED SHORT NORMAL 16"
 CILD.MMHO   05 110 46 00:   CONDUCTIVITY INDUCTION LOG DEEP
 ILD .OHMM   05 120 46 00:   INDUCTION LOG DEEP
 SPR .MV     05 010 01 00:   SPONTANEOUS POTENTIAL FROM RES.
~PARAMETER INFORMATION
#MNEM.UNIT          VALUE    DESCRIPTION
#----------   ------------   ------------------------------
 LMF .                 KB:   LOG MEASURED FROM
 DMF .                 KB:   DRILLING MEASURED FROM
 EKB .F              5067:   KELLING BUSHING
 EGL .F              5063:   GROUND LEVEL
 DATE.        22-FEB-1961:   RUN DATE
 RUN .                  1:   RUN NUMBER
 DD  .F               861:   DEPTH DRILLER
 DL  .F               861:   DEPTH LOGGER
 BLI .F               860:   BOTTOM LOG INTERVAL
 TLI .F                80:   TOP LOG INTERVAL
 CBD .F                12:   CASING BOTTOM DRILLER
 BS  .IN            7.875:   BIT SIZE
 BSD .F               861:   BIT SIZE AT DEPTH
 DFT .       GEL-OIL EMUL:   DRILLING FLUID TYPE
 DFD .                9.6:   DRILLING FLUID DENSITY
 DFV .                 38:   DRILLING FLUID VISCOSITY
 DFPH.                  9:   DRILLING FLUID PH
 DFL .               15.4:   DRILLING FLUID LOSS
 MSS .           FLOWLINE:   MUD SAMPLE SOURCE
 RMS .OHMM           0.86:   RESISTIVITY MUD SAMPLE
 MST .F                68:   MUD SAMPLE TEMPERATURE
 RMF .OHMM           0.52:   RESISTIVITY MUD FILTRATE SAMPLE
 MFST.F                68:   MUD FILTRATE SAMPLE TEMPERATURE
 RMC .OHMM           1.98:   RESISTIVITY MUD CAKE
 MCST.F                68:   MUD CAKE SAMPLE TEMPERATURE
 MFSS.               MEAS:   MUD FILTRATE SAMPLE SOURCE
 MCSS.               MEAS:   MUD CAKE SAMPLE SOURCE
 RMB .OHMM           0.77:   RESISTIVITY MUD AT BHT
 BHT .F                78:   BOTTOM HOLE TEMPERATURE
 TCS .HRS               1:   TIME CURCULATED STOPPED
 MRT .F                78:   MAXIMUM RECORDED TEMPERATURE
 LUN .               2523:   LOGGING UNIT NUMBER
 LUL .               CSPR:   LOGGING UNIT LOCATION
 ENGI.             KNOBEL:   RECORDING ENGINEER
 WITN.          JORGENSEN:   WITNESSED BY
 CLNT.            A2DTECH:   CLIENT CODE
 ORIG.      2" , 5" PRINT:   ORIGIN OF DATA
 UWI .       490250657300:   UNIQUE WELL ID
 DICO. A2D Technologies, Inc.:   DIGITIZING COMPANY
~OTHER INFORMATION
~A   DEPT       GR          ASN       CILD        ILD      SPR   
# ...
  736.0000    35.8805    17.4890    63.8690    15.9122   -19.0282
  736.5000    38.5944    17.4002    63.8425    15.7558   -19.0204
  737.0000    39.6542    17.2584    63.8110    15.6782   -19.0124
  737.5000    40.7158    17.1045    63.7795    15.6790   -19.0047
  738.0000    41.7756    16.9495    63.7463    15.6798   -18.9969
  738.5000    44.9406    16.7956    63.7165    15.6805   -18.9887
  739.0000    46.9026    16.7190    63.6850    15.7242   -18.9812
  739.5000    48.2632    16.7219    63.6535    15.8391   -18.9720
  740.0000    49.6255    16.8025    64.4110    15.9254   -18.9655
  740.5000    44.0687    16.8848    65.1600    15.9978   -18.9577
  741.0000    43.1736    16.9639    65.1339    15.9985   -18.9498
  741.5000    42.1281    17.0451    65.1024    15.9993   -18.9413
  742.0000    40.3308    16.9685    65.0680    16.0786   -18.9342
  742.5000    43.9487    16.8924    65.0373    16.0793   -18.9263
  743.0000    46.9634    16.7386    65.7953    16.0014   -18.9183
  743.5000    47.7206    16.7406    66.5508    15.9239   -18.9107
  744.0000    45.9251    16.7429    66.5197    15.6892   -18.9028
  744.5000    47.1534    16.6669    67.5040    15.5293   -18.8950
  745.0000    45.9412    16.5909    68.0335    15.2093   -18.8401
  745.5000    42.9408    16.5367    69.5700    14.9066   -18.7212
  746.0000    42.3447    16.4389    70.3344    14.5935   -18.7147
  746.5000    45.8122    16.3628    71.0911    14.3588   -18.5491
  747.0000    47.9246    16.2867    71.0528    14.1239   -18.3847
  747.5000    46.5784    16.2896    71.0221    14.1249   -18.3770
  748.0000    48.3919    16.2915    70.9914    14.1257   -18.0558
  748.5000    48.8484    16.3726    70.9606    14.1264   -17.7346
  749.0000    45.3986    16.4533    70.9291    14.2842   -17.8837
  749.5000    46.6472    16.5339    70.1043    14.4419   -18.0328
  750.0000    45.7411    17.0624    69.2862    14.7567   -18.0251
  750.5000    44.3686    18.8381    66.5687    15.4058   -18.3309
  751.0000    43.7742    21.1599    62.1378    16.2943   -18.7474
  751.5000    44.8358    23.3542    58.9573    17.2732   -19.1223
  752.0000    45.8955    25.0784    56.5643    18.3820   -19.1223
  752.5000    44.2485    26.0188    53.3838    19.2622   -18.9655
  753.0000    41.9960    26.6458    51.7781    19.8684   -18.9655
  753.5000    44.2645    26.4890    52.5346    19.9484   -18.8088
  754.0000    45.7754    25.9404    56.4407    19.6360   -18.8088
  754.5000    44.2787    23.9812    60.3884    17.9892   -19.1223
  755.0000    40.8272    21.0031    63.5695    16.5778   -19.2790
  755.5000    40.3832    19.0377    66.8349    15.3235   -19.2790
  756.0000    43.0988    17.9968    71.2701    14.2261   -19.4357
  756.5000    42.2037    17.0063    73.9004    13.3642   -19.4357
  757.0000    43.2634    16.3009    76.1155    12.7363   -19.5925
  757.5000    45.1054    15.5172    78.2641    12.4254   -19.5925
  758.0000    46.5877    14.8903    79.8080    12.3484   -19.5925
  758.5000    47.1963    14.5768    80.5646    12.4288   -19.7492
  759.0000    44.7974    14.4201    81.6273    12.5874   -19.7492
  759.5000    43.1504    14.4071    82.8650    12.5889   -19.7492
  760.0000    46.1668    14.3417    82.8341    12.6689   -19.7492
  760.5000    52.4897    14.2633    82.0157    12.7488   -19.5925
  761.0000    50.8427    14.2633    81.9842    12.7505   -19.5925
  761.5000    49.4965    14.2633    82.7415    12.7520   -19.5925
  762.0000    48.5854    14.2633    82.3797    12.7794   -19.5925
  762.5000    51.3170    14.2503    81.8898    12.8336   -19.5925
  763.0000    49.3692    14.1066    81.8537    12.7425   -19.5925
  763.5000    47.1207    14.1066    81.8229    12.6013   -19.4357
  764.0000    48.1999    14.0282    81.7953    12.5246   -19.4357
  764.5000    53.7532    13.9498    81.6692    12.5261   -19.4357
  765.0000    54.6608    13.9498    81.7302    12.5052   -19.2790
  765.5000    53.6153    13.8715    81.7008    12.4504   -19.2790
  766.0000    55.8798    13.8715    81.6685    12.4522   -19.2790
  766.5000    54.1449    13.7931    81.6350    12.5322   -19.1223
  767.0000    53.1873    13.7931    81.6063    12.4553   -19.1223
  767.5000    55.1511    13.7931    81.5748    12.4568   -19.1223
  768.0000    52.6018    13.7931    81.5433    12.4584   -19.1223
  768.5000    49.8781    13.7931    81.5064    12.4603   -19.1223
  769.0000    47.0539    13.7931    81.4755    12.4618   -19.1484
  769.5000    44.5046    13.7931    81.4488    12.5109   -19.2790
  770.0000    42.7072    13.7931    81.2073    12.5434   -19.2790
  770.5000    41.5113    13.7931    80.5954    12.6234   -19.2790
  771.0000    40.9170    13.8715    80.5646    12.7318   -19.2790
  771.5000    44.5349    13.8715    80.5354    12.8619   -19.2790
  772.0000    47.6999    13.9498    80.5028    12.7850   -19.2790
  772.5000    50.2634    13.9498    81.2593    12.7080   -19.2790
  773.0000    43.9559    13.8715    82.0159    12.7096   -19.2790
  773.5000    41.5570    13.8715    81.9843    12.7112   -19.2790
  774.0000    39.9100    13.8715    82.4147    12.6345   -19.4357
  774.5000    44.3901    13.7931    83.0377    12.5886   -19.2790
  775.0000    49.7004    13.7931    83.5958    12.4806   -19.4357
  775.5000    53.9181    13.7147    85.0033    12.4822   -19.7623
  776.0000    51.6696    13.6364    84.9725    12.4049   -20.0627
  776.5000    52.2842    13.6364    85.1706    12.4067   -20.0627
  777.0000    53.9412    13.5580    85.8723    12.3297   -20.0627
  777.5000    51.5423    13.5580    86.4567    12.2982   -20.1264
  778.0000    48.8426    13.4796    86.4252    12.1476   -20.0627
  778.5000    47.6468    13.4013    87.1811    12.0203   -20.0627
  779.0000    45.3543    13.3229    87.1494    11.9438   -20.0627
  779.5000    43.1515    13.2445    87.9055    11.8664   -20.0627
  780.0000    42.2546    13.2445    88.3203    11.8498   -20.0627
  780.5000    45.1206    13.2445    89.0656    11.7125   -20.0627
  781.0000    42.8162    13.3229    89.3881    11.5574   -20.0627
  781.5000    38.0690    13.3229    90.1446    11.4801   -20.0823
  782.0000    36.1212    13.3229    90.9011    11.4035   -20.3762
  782.5000    36.8802    13.4039    90.0751    11.4050   -20.3762
  783.0000    40.9474    13.6364    89.5329    11.4066   -20.4098
  783.5000    43.3624    13.8030    87.6512    11.5764   -20.5329
  784.0000    42.4672    14.0282    86.0455    12.0380   -20.6897
  784.5000    42.0214    14.3417    82.6457    12.5105   -20.6897
  785.0000    43.6844    14.7335    78.8971    12.9829   -20.6897
  785.5000    42.7476    15.2038    74.9185    13.6124   -20.5329
  786.0000    40.9919    15.7524    70.8873    14.2419   -20.4545
  786.5000    42.8035    16.3793    67.0726    15.3423   -20.3196
  787.0000    35.4440    17.2414    63.0179    16.7567   -20.0627
  787.5000    27.3308    17.8683    59.0500    18.0927   -19.9060
  788.0000    28.3924    18.7524    54.2947    19.3543   -19.7492
  788.5000    32.3075    19.9060    50.3268    21.0344   -19.4031
  789.0000    29.1567    20.3762    47.1463    22.4932   -19.0439
  789.5000    34.5791    20.3762    45.5406    23.3582   -18.4953
  790.0000    43.1883    20.4545    45.5098    23.7522   -18.0251
  790.5000    47.8282    20.2978    45.4789    23.0473   -17.5549
  791.0000    48.7376    20.2194    46.2362    22.4209   -17.0846
  791.5000    49.7973    20.1411    46.9921    21.7160   -17.2414
  792.0000    51.0254    20.0627    47.7484    21.1681   -17.7116
  792.5000    52.2194    20.0627    47.7165    20.7771   -17.8683
  793.0000    52.9783    19.9060    48.3220    20.2292   -18.1818
  793.5000    51.9328    19.7492    49.2306    19.5968   -18.1818
  794.0000    49.5339    19.5925    50.7745    19.2904   -18.1818
  794.5000    44.8812    19.6708    50.9186    19.1353   -18.0251
  795.0000    41.7304    19.7492    51.4961    19.0579   -17.8683
  795.5000    38.8804    19.7492    52.2490    18.9029   -17.8683
  796.0000    36.7822    19.7492    52.2205    18.6685   -17.8683
  796.5000    39.7549    19.5925    53.7620    18.3561   -17.8683
