~VERSION INFORMATION
 VERS.                2.0:   CWLS LOG ASCII STANDARD - VERSION 2.0
 WRAP.                 NO:   ONE LINE PER DEPTH STEP
~WELL INFORMATION
#MNEM.UNIT      DATA TYPE    INFORMATION
#----------   ------------   ------------------------------
 STRT.F           85.5000:   START DEPTH
 STOP.F         1080.5000:   STOP DEPTH
 STEP.F            0.5000:   STEP LENGTH
 NULL.          -999.2500:   NO VALUE
 COMP.         U.S.  NAVY:   COMPANY
 WELL.  N.P.R. #3 #67-S-2:   WELL
 FLD .             TEAPOT:   FIELD
 LOC .       S2 T38N R78W:   LOCATION
 CNTY.            NATRONA:   COUNTY
 STAT.            WYOMING:   STATE
 CTRY. UNITED STATES OF AMERICA:   COUNTRY
 SRVC.       Schlumberger:   SERVICE COMPANY
 DATE.        20-JUL-1964:   LOGDATE
 API .       490250639700:   API NUMBER
~CURVE INFORMATION
#MNEM.UNIT       API CODE    CURVE DESCRIPTION
#----------   ------------   ------------------------------
 DEPT.F                  :   
 GR  .GAPI   30 310 01 00:   GAMMA RAY
 DT  .US/F   60 520 33 00:   INTERVAL TRANSIT TIME
 SPR .MV     06 010 01 00:   SPONTANEOUS POTENTIAL
 CILD.MMHO   06 110 46 00:   CONDUCTIVITY INDUCTION LOG DEEP
 ASN .OHMM   06 041 16 00:   AMPLIFIED SHORT NORMAL 16"
 ILD .OHMM   06 120 46 00:   INDUCTION LOG DEEP
~PARAMETER INFORMATION
#MNEM.UNIT          VALUE    DESCRIPTION
#----------   ------------   ------------------------------
 PD  .                 GL:   PERMANENT DATUM
 EPD .F              5207:   ELEVATION PERMANENT DATUM
 LMF .                 KB:   LOG MEASURED FROM
 DAPD.F                 5:   FEET ABOVE PERMANENT DATUM
 DMF .                 KB:   DRILLING MEASURED FROM
 EKB .F              5212:   KELLING BUSHING
 EGL .F              5207:   GROUND LEVEL
 DATE.          7-20-1964:   RUN DATE
 RUN .                  1:   RUN NUMBER
 DD  .F              1080:   DEPTH DRILLER
 DL  .F              1081:   DEPTH LOGGER
 BLI .F              1080:   BOTTOM LOG INTERVAL
 TLI .F                86:   TOP LOG INTERVAL
 CS  .IN            8.625:   CASING SIZE
 CBD .F                10:   CASING BOTTOM DRILLER
 BS  .IN             6.75:   BIT SIZE
 BSD .F              1080:   BIT SIZE AT DEPTH
 DFT .            GEL-OIL:   DRILLING FLUID TYPE
 DFD .                9.5:   DRILLING FLUID DENSITY
 DFV .                 43:   DRILLING FLUID VISCOSITY
 MSS .           FLOWLINE:   MUD SAMPLE SOURCE
 RMS .OHMM           1.85:   RESISTIVITY MUD SAMPLE
 MST .F                83:   MUD SAMPLE TEMPERATURE
 RMF .OHMM           1.29:   RESISTIVITY MUD FILTRATE SAMPLE
 MFST.F                83:   MUD FILTRATE SAMPLE TEMPERATURE
 RMC .OHMM           2.49:   RESISTIVITY MUD CAKE
 MCST.F                83:   MUD CAKE SAMPLE TEMPERATURE
 MFSS.                 FP:   MUD FILTRATE SAMPLE SOURCE
 MCSS.                 FP:   MUD CAKE SAMPLE SOURCE
 TCS .HRS               2:   TIME CURCULATED STOPPED
 LUN .               4507:   LOGGING UNIT NUMBER
 LUL .               CSPR:   LOGGING UNIT LOCATION
 ENGI.             DANNER:   RECORDING ENGINEER
 WITN.          JORGENSEN:   WITNESSED BY
 CLNT.            A2DTECH:   CLIENT CODE
 ORIG.           2" PRINT:   ORIGIN OF DATA
 UWI .       490250639700:   UNIQUE WELL ID
 DICO. A2D Technologies, Inc.:   DIGITIZING COMPANY
~OTHER INFORMATION
~A   DEPT       GR         DT        SPR       CILD        ASN        ILD   
# ...
 1021.5000    23.6648    96.5107   -33.9266    66.0405    18.0601    15.9837
 1022.0000    28.2776    97.3790   -34.8663    63.7100    19.0726    16.1877
 1022.5000    27.9088    97.9145   -35.5583    62.2510    19.3637    16.4194
 1023.0000    25.5123    98.8089   -36.2567    62.2510    19.6960    16.6819
 1023.5000    23.0656    98.4697   -35.7509    62.2510    20.0690    16.6558
 1024.0000    21.2349    98.1641   -35.2641    62.2510    20.0686    16.6283
 1024.5000    18.0107    98.8989   -35.9366    62.2510    19.8575    16.5990
 1025.0000    22.3911    98.4484   -36.6069    62.2534    19.3089    16.5822
 1025.5000    20.1777    97.9980   -37.2461    63.3377    18.9741    16.4822
 1026.0000    18.5500    98.0912   -35.7835    64.5592    19.3899    16.3431
 1026.5000    19.0214    96.0713   -34.3588    65.7786    19.6713    15.9878
 1027.0000    21.6582    93.9906   -32.9430    67.0003    19.3924    15.6332
 1027.5000    23.7067    92.1135   -31.5188    68.2195    19.0817    15.2781
 1028.0000    23.1331    91.9009   -31.1182    69.4413    18.7710    14.8900
 1028.5000    28.0616    92.1016   -31.5144    70.6605    18.4602    14.6832
 1029.0000    37.2734    91.9138   -31.8888    71.8824    18.1677    14.4554
 1029.5000    35.1051    93.7590   -31.5650    73.2066    17.9014    14.2270
 1030.0000    33.0028    95.2705   -31.2683    72.5991    17.6350    14.0939
 1030.5000    29.6849    95.1765   -30.9664    71.9322    17.3687    14.1394
 1031.0000    25.8651    95.0825   -30.6974    71.2159    17.0817    14.1896
 1031.5000    19.1518    94.9885   -30.9571    71.2150    17.1522    14.2392
 1032.0000    22.5392    94.8982   -31.1989    71.2158    17.3187    14.2894
 1032.5000    26.2701    95.7787   -31.4365    71.2151    17.4851    14.3390
 1033.0000    27.2825    96.6538   -31.6784    72.0602    17.4771    14.3924
 1033.5000    33.2177    97.5302   -31.8866    72.9682    17.2396    14.3053
 1034.0000    39.7167    97.8313   -31.4748    73.8762    17.0028    14.1057
 1034.5000    43.3632    97.0971   -31.1038    74.7842    16.7654    13.9059
 1035.0000    41.8820    96.9636   -30.7369    75.6922    16.5283    13.7062
 1035.5000    41.6357    95.8670   -30.3660    76.8952    16.2911    13.5135
 1036.0000    44.4091    95.0387   -29.9993    78.4647    16.0539    13.3297
 1036.5000    45.5568    94.8601   -29.6289    80.0342    15.8167    13.1461
 1037.0000    38.5929    94.6940   -29.5282    81.6037    15.5795    12.9622
 1037.5000    32.2594    94.6438   -29.5628    83.1733    15.3423    12.7786
 1038.0000    28.1781    94.5946   -29.6006    84.7428    15.1051    12.5946
 1038.5000    31.3387    95.2138   -29.6355    86.3123    14.8679    12.4112
 1039.0000    29.4093    95.8112   -29.6730    87.3257    14.6307    12.2272
 1039.5000    26.8474    96.4086   -29.7014    87.7002    14.3936    12.0439
 1040.0000    29.5621    96.8972   -29.2280    88.0748    14.1564    11.8597
 1040.5000    34.0836    95.7668   -28.8277    88.4493    13.9192    11.6765
 1041.0000    36.0361    95.1171   -28.4291    88.8239    13.7591    11.4923
 1041.5000    33.6042    94.6256   -28.0290    89.1984    13.6836    11.3055
 1042.0000    32.9343    94.1321   -27.9463    89.5730    13.6081    11.2909
 1042.5000    30.5053    93.4855   -27.9901    89.9475    13.5326    11.2771
 1043.0000    28.7791    92.6959   -28.0346    90.3957    13.4572    11.2622
 1043.5000    27.3905    92.1922   -28.0788    90.9214    13.3817    11.2485
 1044.0000    28.0718    92.8715   -28.1230    91.4471    13.3062    11.2337
 1044.5000    25.2221    93.5295   -28.1674    91.9727    13.2307    11.2198
 1045.0000    19.4093    94.1875   -28.2115    92.4984    13.1553    11.2051
 1045.5000    15.3958    94.6240   -28.2562    93.0241    13.0798    11.1222
 1046.0000    22.5049    94.3156   -28.3108    93.5498    13.0043    11.0387
 1046.5000    28.2928    93.7619   -28.2096    94.0754    12.9288    10.9557
 1047.0000    23.6757    93.0490   -28.0762    94.6011    12.8534    10.8723
 1047.5000    19.0235    92.9700   -27.9434    95.1268    12.7779    10.7892
 1048.0000    15.9762    92.6146   -27.8097    95.6525    12.7024    10.7058
 1048.5000    12.4650    92.4292   -27.6769    96.1781    12.6270    10.6227
 1049.0000     8.9350    92.8240   -27.5160    96.7038    12.5516    10.5394
 1049.5000     8.0384    93.0070   -27.2718    97.2295    12.4761    10.4562
 1050.0000    14.4041    92.7366   -26.9643    97.7552    12.4007    10.3730
 1050.5000     0.0000    92.4925   -26.6574    98.2809    12.3251    10.2897
 1051.0000     1.5243    92.4925   -26.3499    98.8065    12.2498    10.2094
 1051.5000     8.5194    92.1126   -26.0429    99.3322    12.1742    10.1964
 1052.0000    13.3616    91.5639   -25.7355    99.8579    12.1018    10.1841
 1052.5000    18.1138    91.2359   -25.5301   100.1510    12.0882    10.1714
 1053.0000    23.6728    91.0092   -25.5301   100.2461    12.0753    10.1591
 1053.5000    24.5297    90.5912   -25.5300   100.3412    12.0621    10.1465
 1054.0000    28.7324    89.9683   -25.5301   100.4363    12.0492    10.1341
 1054.5000    22.9058    89.7156   -25.5298   100.5315    12.0360    10.1215
 1055.0000    19.6715    89.9081   -25.5301   100.6266    12.0231    10.1097
 1055.5000    22.0707    89.9900   -25.5296   100.7217    12.0100    10.1097
 1056.0000    26.2069    89.5896   -25.4413   100.8168    11.9970    10.1208
 1056.5000    35.2850    89.8011   -25.2011   100.9120    11.9839    10.1313
 1057.0000    40.4286    89.9900   -24.9341   101.0071    11.9709    10.1418
 1057.5000  -999.2500    89.6396   -24.8981   101.0956    11.9578    10.1523
 1058.0000  -999.2500    89.7052   -24.8588   101.2959    11.9448    10.1627
 1058.5000  -999.2500    89.8412   -24.8181   101.4831    11.9318    10.1732
 1059.0000  -999.2500    89.8187   -24.7787   101.6704    11.9187    10.1837
 1059.5000  -999.2500    89.7079   -24.7345   101.8577    11.9057    10.1942
 1060.0000  -999.2500    89.5970   -24.5617   102.0450    11.8926    10.2047
 1060.5000  -999.2500    89.4895   -24.3709   102.2322    11.8796    10.1982
 1061.0000  -999.2500    89.2526   -24.1812   102.4195    11.8666    10.1797
 1061.5000  -999.2500    89.0234   -23.9906   102.6068    11.8535    10.1611
 1062.0000  -999.2500    89.0695   -23.8008   102.7940    11.8405    10.1425
 1062.5000  -999.2500    89.4886   -23.6103   102.9813    11.8275    10.1239
 1063.0000  -999.2500    89.4261   -23.4204   103.1686    11.8145    10.1053
 1063.5000  -999.2500    89.3637   -23.2300   103.3559    11.8027    10.0868
 1064.0000  -999.2500    89.3014   -23.0399   103.5431    11.7858    10.0682
 1064.5000  -999.2500    89.1001   -22.8495   103.7304    11.7704    10.0496
 1065.0000  -999.2500    88.8653   -22.7136   103.9177    11.7550    10.0310
 1065.5000  -999.2500    88.6306   -22.6385   104.0837    11.7397    10.0125
 1066.0000  -999.2500    88.4885   -22.5638   104.1804    11.7243     9.9939
 1066.5000  -999.2500    88.4885   -22.4886   104.2672    11.7089     9.9753
 1067.0000  -999.2500    88.1949   -22.4140   104.3541    11.6935     9.9567
 1067.5000  -999.2500    87.6960   -22.3387   104.4409    11.6781     9.9382
 1068.0000  -999.2500    87.0802   -22.2642   104.5278    11.6627     9.9196
 1068.5000  -999.2500    86.2744   -22.1888   104.6146    11.6474     9.9010
 1069.0000  -999.2500    85.4686   -22.2114   104.7015    11.6320     9.8824
 1069.5000  -999.2500    85.2853   -22.3250   104.7883    11.6166     9.8638
 1070.0000  -999.2500    85.6464   -22.4396   104.8752    11.6033     9.8452
 1070.5000  -999.2500    86.1159   -22.5493   104.9620    11.5441     9.8267
 1071.0000  -999.2500    86.5854   -22.4527   106.6094    11.4515     9.8081
 1071.5000  -999.2500    86.9379   -22.3581   106.8614    11.3590     9.7895
 1072.0000  -999.2500    87.0871   -22.2646   107.1135    11.2664     9.7709
 1072.5000  -999.2500    87.5397   -22.1701   107.3655    11.1739     9.7523
 1073.0000  -999.2500    88.1836   -22.0766   107.6175    11.0814     9.7338
