~VERSION INFORMATION
 VERS.                2.0:   CWLS LOG ASCII STANDARD - VERSION 2.0
 WRAP.                 NO:   ONE LINE PER DEPTH STEP
~WELL INFORMATION
#MNEM.UNIT      DATA TYPE    INFORMATION
#----------   ------------   ------------------------------
 STRT.F           87.0000:   START DEPTH
 STOP.F          987.0000:   STOP DEPTH
 STEP.F            0.5000:   STEP LENGTH
 NULL.          -999.2500:   NO VALUE
 COMP.   FLUOR DANIEL INC:   COMPANY
 WELL. NAVAL PETROLEUM RESERVE 3 SH-2 #53-2:   WELL
 FLD .        TEAPOT DOME:   FIELD
 LOC .       S2 T38N R78W:   LOCATION
 CNTY.            NATRONA:   COUNTY
 STAT.            WYOMING:   STATE
 CTRY. UNITED STATES OF AMERICA:   COUNTRY
 SRVC. Schlumberger Well Surveying Corp:   SERVICE COMPANY
 DATE.        17-JUL-1963:   LOGDATE
 API .       490250645200:   API NUMBER
~CURVE INFORMATION
#MNEM.UNIT       API CODE    CURVE DESCRIPTION
#----------   ------------   ------------------------------
 DEPT.F                  :   
 GR  .GAPI   30 310 01 00:   GAMMA RAY
 SPR .MV     05 010 01 00:   SPONTANEOUS POTENTIAL
 CILD.MMHO   05 110 46 00:   CONDUCTIVITY INDUCTION LOG DEEP
 ILD .OHMM   05 120 46 00:   INDUCTION LOG DEEP
 ASN .OHMM   05 041 16 00:   AMPLIFIED SHORT NORMAL 16"
~PARAMETER INFORMATION
#MNEM.UNIT          VALUE    DESCRIPTION
#----------   ------------   ------------------------------
 PD  .                 GL:   PERMANENT DATUM
 EPD .F              5165:   ELEVATION PERMANENT DATUM
 LMF .                 KB:   LOG MEASURED FROM
 DAPD.F                 5:   FEET ABOVE PERMANENT DATUM
 DMF .                 KB:   DRILLING MEASURED FROM
 EKB .F              5170:   KELLING BUSHING
 EGL .F              5165:   GROUND LEVEL
 DATE.          7-17-1963:   RUN DATE
 RUN .                  1:   RUN NUMBER
 DD  .F               986:   DEPTH DRILLER
 DL  .F               987:   DEPTH LOGGER
 BLI .F               986:   BOTTOM LOG INTERVAL
 TLI .F                30:   TOP LOG INTERVAL
 CS  .IN            8.625:   CASING SIZE
 CBD .F                10:   CASING BOTTOM DRILLER
 BS  .IN            7.875:   BIT SIZE
 BSD .F               986:   BIT SIZE AT DEPTH
 DFT .            GEL-OIL:   DRILLING FLUID TYPE
 DFD .                9.4:   DRILLING FLUID DENSITY
 DFV .                 67:   DRILLING FLUID VISCOSITY
 DFPH.                8.5:   DRILLING FLUID PH
 DFL .                4.6:   DRILLING FLUID LOSS
 MSS .           FLOWLINE:   MUD SAMPLE SOURCE
 RMS .OHMM           3.37:   RESISTIVITY MUD SAMPLE
 MST .F                79:   MUD SAMPLE TEMPERATURE
 RMF .OHMM           1.49:   RESISTIVITY MUD FILTRATE SAMPLE
 MFST.F                83:   MUD FILTRATE SAMPLE TEMPERATURE
 MFSS.           MEASURED:   MUD FILTRATE SAMPLE SOURCE
 BHT .F                80:   BOTTOM HOLE TEMPERATURE
 TCS .HRS            0030:   TIME CURCULATED STOPPED
 MRT .F                80:   MAXIMUM RECORDED TEMPERATURE
 LUN .               4507:   LOGGING UNIT NUMBER
 LUL .              CSPR.:   LOGGING UNIT LOCATION
 ENGI.            WINKLER:   RECORDING ENGINEER
 WITN.          JORGENSON:   WITNESSED BY
 CLNT.            A2DTECH:   CLIENT CODE
 ORIG.      2" & 5" PRINT:   ORIGIN OF DATA
 UWI .       490250645200:   UNIQUE WELL ID
 DICO. A2D Technologies, Inc.:   DIGITIZING COMPANY
~OTHER INFORMATION
~A   DEPT       GR        SPR       CILD          ILD        ASN 
# ...
  392.0000  -999.2500   -59.7777   312.9155     3.3092     4.1610
  392.5000  -999.2500   -59.8165   339.4033     3.0062     3.9396
  393.0000  -999.2500   -59.8544   358.9266     2.8679     3.7469
  393.5000  -999.2500   -59.8921   352.2613     2.9498     3.6454
  394.0000  -999.2500   -59.9298   339.3505     3.0417     3.6476
  394.5000  -999.2500   -59.9675   325.6834     3.2262     3.9197
  395.0000  -999.2500   -60.0052   312.0163     3.4369     3.9875
  395.5000  -999.2500   -60.0430   295.5136     3.6311     3.9329
  396.0000  -999.2500   -60.0807   269.2161     3.8754     4.0756
  396.5000  -999.2500   -60.1180   236.1608     4.3148     4.8798
  397.0000  -999.2500   -60.1297   205.1105     4.7621     5.1148
  397.5000  -999.2500   -60.1017   184.0871     5.2089     5.2808
  398.0000  -999.2500   -60.0743   173.3864     5.3384     5.4483
  398.5000  -999.2500   -60.0467   168.2906     5.3795     5.5913
  399.0000  -999.2500   -60.0192   170.4637     5.3673     5.6339
  399.5000  -999.2500   -59.9918   174.8844     5.1601     5.6248
  400.0000  -999.2500   -59.9644   185.6505     4.9552     5.5632
  400.5000  -999.2500   -59.9269   200.3417     4.7520     5.4510
  401.0000  -999.2500   -59.8208   224.6231     4.5137     5.2621
  401.5000  -999.2500   -59.7132   252.8442     4.0739     4.9979
  402.0000  -999.2500   -59.6075   283.3568     3.6253     4.6934
  402.5000  -999.2500   -59.5657   315.0743     3.1830     4.1976
  403.0000  -999.2500   -59.6480   329.1567     3.1626     3.9237
  403.5000  -999.2500   -59.7281   331.7051     3.1651     3.7098
  404.0000  -999.2500   -59.8086   336.1809     3.1654     3.8537
  404.5000  -999.2500   -59.8890   336.1809     3.1658     3.9613
  405.0000  -999.2500   -59.9694   330.9548     3.1932     3.7614
  405.5000  -999.2500   -60.0500   313.1618     3.3364     3.7312
  406.0000  -999.2500   -60.1304   282.3719     3.6492     4.1992
  406.5000  -999.2500   -60.1408   248.7437     3.9878     4.5081
  407.0000  -999.2500   -60.1407   227.2764     4.3276     4.6095
  407.5000  -999.2500   -60.1406   211.7588     4.6481     4.7609
  408.0000  -999.2500   -60.1406   203.9357     4.9423     4.9460
  408.5000  -999.2500   -60.1406   202.5126     5.0087     5.0905
  409.0000  -999.2500   -60.1407   202.5126     5.0445     5.1873
  409.5000  -999.2500   -60.1407   202.5126     5.0623     5.2600
  410.0000  -999.2500   -60.1397   205.2261     4.9487     5.2944
  410.5000  -999.2500   -60.0793   210.0338     4.8352     5.2137
  411.0000  -999.2500   -59.9171   213.2700     4.7222     5.0611
  411.5000  -999.2500   -59.7569   216.5829     4.6018     4.8775
  412.0000  -999.2500   -59.5931   224.9297     4.4707     4.7057
  412.5000  -999.2500   -59.6168   241.9450     4.2575     4.5516
  413.0000  -999.2500   -59.7347   259.2953     4.0391     4.3391
  413.5000  -999.2500   -59.8539   276.6456     3.8205     4.1311
  414.0000  -999.2500   -59.9286   292.3216     3.6016     4.0552
  414.5000  -999.2500   -59.8721   294.8543     3.5364     4.0998
  415.0000  -999.2500   -59.8193   292.3116     3.4990     3.9702
  415.5000  -999.2500   -59.7666   294.0100     3.4622     3.9383
  416.0000  -999.2500   -59.7140   301.6382     3.4250     3.9019
  416.5000  -999.2500   -59.6613   309.2663     3.3878     3.7531
  417.0000  -999.2500   -59.6086   316.0804     3.3507     3.6600
  417.5000  -999.2500   -59.5560   317.4013     3.3136     3.7842
  418.0000  -999.2500   -59.5033   319.7588     3.2772     3.7836
  418.5000  -999.2500   -59.4507   326.2915     3.1576     3.6793
  419.0000  -999.2500   -59.3981   342.2197     3.0103     3.5838
  419.5000  -999.2500   -59.3471   361.7565     2.8626     3.4892
  420.0000  -999.2500   -59.2589   397.6344     2.7147     3.3462
  420.5000  -999.2500   -59.1663   435.1018     2.5674     3.1884
  421.0000  -999.2500   -59.0740   456.7144     2.4177     3.0641
  421.5000  -999.2500   -58.9809   454.8598     2.4274     3.0295
  422.0000  -999.2500   -59.0368   436.6808     2.5308     3.0579
  422.5000  -999.2500   -59.2330   413.3684     2.6361     3.0884
  423.0000  -999.2500   -59.4299   390.2695     2.7415     3.1800
  423.5000  -999.2500   -59.6273   367.1540     2.8453     3.2694
  424.0000  -999.2500   -59.8245   344.0384     2.9396     3.4903
  424.5000  -999.2500   -60.0198   305.5075     3.4098     3.8409
  425.0000  -999.2500   -60.1297   260.8040     3.8765     4.1624
  425.5000  -999.2500   -60.0960   241.8177     4.0986     4.3610
  426.0000  -999.2500   -60.0645   226.3920     4.1817     4.4241
  426.5000  -999.2500   -60.0326   221.6080     4.2678     4.4528
  427.0000  -999.2500   -60.0009   222.2455     4.2723     4.4288
  427.5000  -999.2500   -59.9695   226.6044     4.2746     4.4035
  428.0000  -999.2500   -59.9356   233.7344     4.1421     4.3436
  428.5000  -999.2500   -59.8445   245.6884     3.9722     4.2247
  429.0000  -999.2500   -59.7553   264.1231     3.8017     4.0450
  429.5000  -999.2500   -59.6670   288.1407     3.5836     3.8802
  430.0000  -999.2500   -59.5775   321.2204     3.2801     3.7873
  430.5000  -999.2500   -59.6134   356.0919     2.9755     3.7100
  431.0000  -999.2500   -59.7478   389.4472     2.6670     3.5971
  431.5000  -999.2500   -59.8843   415.9397     2.5641     3.4325
  432.0000  -999.2500   -59.9381   425.6281     2.5626     3.2925
  432.5000  -999.2500   -59.9439   413.6884     2.5610     3.2576
  433.0000  -999.2500   -60.0675   399.9578     2.6558     3.4900
  433.5000  -999.2500   -60.1950   383.8548     2.7877     3.6288
  434.0000  -999.2500   -60.3181   366.7236     2.9210     3.5466
  434.5000  -999.2500   -60.5423   342.2111     3.0636     3.8309
  435.0000  -999.2500   -60.7760   305.6030     3.4386     4.3900
  435.5000  -999.2500   -60.9413   266.1909     3.8415     4.8538
  436.0000  -999.2500   -60.9135   235.5176     4.2453     5.0653
  436.5000  -999.2500   -60.8896   211.7856     4.6474     5.2347
  437.0000  -999.2500   -60.8659   200.6452     5.0007     5.3952
  437.5000  -999.2500   -60.8422   195.4298     5.0960     5.5189
  438.0000  -999.2500   -60.8185   192.0888     5.1972     5.6426
  438.5000  -999.2500   -60.7948   188.6968     5.3209     5.7926
  439.0000  -999.2500   -60.7709   183.3534     5.5423     6.0602
  439.5000  -999.2500   -60.7450   176.8554     5.7605     6.3242
  440.0000  -999.2500   -60.8200   170.3573     5.9785     6.5880
  440.5000  -999.2500   -60.9153   164.3216     6.1966     6.8472
  441.0000  -999.2500   -61.0110   159.9638     6.4167     7.0420
  441.5000  -999.2500   -61.1065   156.2814     6.5115     7.2123
  442.0000  -999.2500   -61.2019   154.1424     6.5538     7.3341
  442.5000  -999.2500   -61.2978   153.7186     6.5835     7.3935
  443.0000  -999.2500   -61.3649   153.2660     6.5828     7.4071
  443.5000  -999.2500   -61.4041   153.6375     6.5829     7.3828
  444.0000  -999.2500   -61.4432   154.0415     6.5829     7.3375
  444.5000  -999.2500   -61.4824   154.4438     6.5830     7.2919
  445.0000  -999.2500   -61.5212   154.8453     6.5825     7.2483
  445.5000  -999.2500   -61.5465   155.2467     6.5667     7.2690
  446.0000  -999.2500   -61.5461   155.6481     6.5499     7.2931
  446.5000  -999.2500   -61.5462   156.0464     6.5333     7.3170
  447.0000  -999.2500   -61.5462   156.6144     6.5166     7.3408
  447.5000  -999.2500   -61.5462   157.3947     6.4999     7.3647
  448.0000  -999.2500   -61.5462   158.1770     6.4833     7.3856
  448.5000  -999.2500   -61.5462   159.0151     6.4666     7.3626
  449.0000  -999.2500   -61.5461   159.8627     6.4500     7.3384
  449.5000  -999.2500   -61.5460   160.7102     6.4333     7.3036
  450.0000   105.5110   -61.5465   160.8443     6.4165     7.2554
  450.5000   104.8184   -61.5795   159.2850     6.3992     7.2076
  451.0000    99.3885   -61.6938   157.7258     6.3838     7.1708
  451.5000    96.2662   -61.8067   155.8871     6.5048     7.2590
  452.0000    90.8040   -61.9197   153.9389     6.6399     7.4468
  452.5000    86.2565   -62.0326   151.3236     6.7827     7.6677
