~VERSION INFORMATION
 VERS.                2.0:   CWLS LOG ASCII STANDARD - VERSION 2.0
 WRAP.                 NO:   ONE LINE PER DEPTH STEP
~WELL INFORMATION
#MNEM.UNIT      DATA TYPE    INFORMATION
#----------   ------------   ------------------------------
 STRT.F            0.0000:   START DEPTH
 STOP.F         2230.0000:   STOP DEPTH
 STEP.F            0.5000:   STEP LENGTH
 NULL.          -999.2500:   NO VALUE
 COMP. LAWRENCE/ALLISON INC:   COMPANY
 WELL. NPR 3 SH X 34 #48-34:   WELL
 FLD .            WILDCAT:   FIELD
 LOC .      S34 T39N R78W:   LOCATION
 CNTY.            NATRONA:   COUNTY
 STAT.            WYOMING:   STATE
 CTRY. UNITED STATES OF AMERICA:   COUNTRY
 SRVC.            Unknown:   SERVICE COMPANY
 DATE.        02-SEP-1991:   LOGDATE
 API .       490251110600:   API NUMBER
~CURVE INFORMATION
#MNEM.UNIT       API CODE    CURVE DESCRIPTION
#----------   ------------   ------------------------------
 DEPT.F                  :   
 ROP .MIN/FT 91 810 01 00:   RAT OF DRILLING PENETRATION
 TGAS.UNITS  91 830 01 00:   TOTAL GAS FROM HOTWIRE
 C1  .VF     91 831 01 00:   METHANE
 C2  .VF     91 832 01 00:   ETHANE
 C3  .VF     91 833 01 00:   PROPANE
 C4  .VF     91 834 01 00:   BUTANE
 TT  .US/F   81 520 00 00:   TRANSIT TIME
 GR  .GAPI   81 310 01 00:   GAMMA RAY FROM CEMENT BOND LOG
~PARAMETER INFORMATION
#MNEM.UNIT          VALUE    DESCRIPTION
#----------   ------------   ------------------------------
 EKB .F              5145:   KELLING BUSHING
 EGL .F              5135:   GROUND LEVEL
 DATE.          09-2-1991:   RUN DATE
 RUN .                  1:   RUN NUMBER
 BLI .F              2400:   BOTTOM LOG INTERVAL
 TLI .F              2200:   TOP LOG INTERVAL
 ENGI.           C. TOWER:   RECORDING ENGINEER
 WITN.            R. HUSK:   WITNESSED BY
 CLNT.            A2DTECH:   CLIENT CODE
 ORIG.           5" PRINT:   ORIGIN OF DATA
 UWI .       490251110600:   UNIQUE WELL ID
 DICO. A2D Technologies, Inc.:   DIGITIZING COMPANY
~OTHER INFORMATION
~A    DEPT     ROP       TGAS         C1         C2         C3         C4          TT         GR  
# ...
 1134.0000     0.7828     7.9691     9.0204     1.7779  -999.2500  -999.2500  -999.2500  -999.2500
 1134.5000     0.7880     7.9832     9.0249     1.7482  -999.2500  -999.2500  -999.2500  -999.2500
 1135.0000     0.7932     7.9973     9.0294     1.7184  -999.2500  -999.2500  -999.2500  -999.2500
 1135.5000     0.7985     8.0113     9.0339     1.6887  -999.2500  -999.2500  -999.2500  -999.2500
 1136.0000     0.8037     8.0254     9.0384     1.6590  -999.2500  -999.2500  -999.2500  -999.2500
 1136.5000     0.8089     8.0394     9.0428     1.6293  -999.2500  -999.2500  -999.2500  -999.2500
 1137.0000     0.8141     8.0490     9.0473     1.5996  -999.2500  -999.2500  -999.2500  -999.2500
 1137.5000     0.8194     8.0488     9.0518     1.5696  -999.2500  -999.2500  -999.2500  -999.2500
 1138.0000     0.8246     8.0488     9.0563     1.5402  -999.2500  -999.2500  -999.2500  -999.2500
 1138.5000     0.8300     8.0488     9.0608     1.5138  -999.2500  -999.2500  -999.2500  -999.2500
 1139.0000     0.8349     8.0488     9.0653     1.5006  -999.2500  -999.2500  -999.2500  -999.2500
 1139.5000     0.8141     8.0488     9.0698     1.7207  -999.2500  -999.2500  -999.2500  -999.2500
 1140.0000     0.7974     8.0488     9.0743     1.7018  -999.2500  -999.2500  -999.2500  -999.2500
 1140.5000     0.7726     9.2587     9.0787     2.3352  -999.2500  -999.2500  -999.2500  -999.2500
 1141.0000     0.7704     9.2225     9.0832     2.3228  -999.2500  -999.2500  -999.2500  -999.2500
 1141.5000     0.7665     9.1863     9.0877     2.3103  -999.2500  -999.2500  -999.2500  -999.2500
 1142.0000     0.7635     9.1592     9.0922     2.3010  -999.2500  -999.2500  -999.2500  -999.2500
 1142.5000     0.7606     9.1230     9.0967     2.2886  -999.2500  -999.2500  -999.2500  -999.2500
 1143.0000     0.7644     9.0869     9.1011     2.2761  -999.2500  -999.2500  -999.2500  -999.2500
 1143.5000     0.7683     9.0507     9.1056     2.2637  -999.2500  -999.2500  -999.2500  -999.2500
 1144.0000     0.7721     9.0145     9.1101     2.2513  -999.2500  -999.2500  -999.2500  -999.2500
 1144.5000     0.7760     8.9784     9.1146     2.2388  -999.2500  -999.2500  -999.2500  -999.2500
 1145.0000     0.7799     8.9422     9.1191     2.2264  -999.2500  -999.2500  -999.2500  -999.2500
 1145.5000     0.7837     8.9060     9.1236     2.2140  -999.2500  -999.2500  -999.2500  -999.2500
 1146.0000     0.7876     8.8699     9.1281     2.2015  -999.2500  -999.2500  -999.2500  -999.2500
 1146.5000     0.7915     8.8337     9.1326     2.1891  -999.2500  -999.2500  -999.2500  -999.2500
 1147.0000     0.7953     8.7975     9.1370     2.1767  -999.2500  -999.2500  -999.2500  -999.2500
 1147.5000     0.7986     8.7614     9.1415     2.1642  -999.2500  -999.2500  -999.2500  -999.2500
 1148.0000     0.8007     8.7252     9.1460     2.1518  -999.2500  -999.2500  -999.2500  -999.2500
 1148.5000     0.8028     8.6890     9.1505     2.1426  -999.2500  -999.2500  -999.2500  -999.2500
 1149.0000     0.8050     8.6529     9.1550     2.1428  -999.2500  -999.2500  -999.2500  -999.2500
 1149.5000     0.8071     8.6167     9.1595     2.1429  -999.2500  -999.2500  -999.2500  -999.2500
 1150.0000     0.8092     8.5805     9.1639     2.1428  -999.2500  -999.2500  -999.2500  -999.2500
 1150.5000     0.8114     8.5443     9.1684     2.1429  -999.2500  -999.2500  -999.2500  -999.2500
 1151.0000     0.8135     8.5082     9.1729     2.1429  -999.2500  -999.2500  -999.2500  -999.2500
 1151.5000     0.8157     8.4720     9.1774     2.1429  -999.2500  -999.2500  -999.2500  -999.2500
 1152.0000     0.8178     8.4358     9.1819     2.1429  -999.2500  -999.2500  -999.2500  -999.2500
 1152.5000     0.8199     8.3995     9.1864     2.1429  -999.2500  -999.2500  -999.2500  -999.2500
 1153.0000     0.8222     8.3643     9.1909     2.1429  -999.2500  -999.2500  -999.2500  -999.2500
 1153.5000     0.8241     8.3305     9.1953     2.1429  -999.2500  -999.2500  -999.2500  -999.2500
 1154.0000     0.8115     8.3330     9.1998     2.1429  -999.2500  -999.2500  -999.2500  -999.2500
 1154.5000     0.7738     8.3798     9.2043     2.1429  -999.2500  -999.2500  -999.2500  -999.2500
 1155.0000     0.6990     6.8365     9.2088     2.1429  -999.2500  -999.2500  -999.2500  -999.2500
 1155.5000     0.6268     5.9632     9.2133     2.1429  -999.2500  -999.2500  -999.2500  -999.2500
 1156.0000     0.5601     5.9437     9.2178     2.1429  -999.2500  -999.2500  -999.2500  -999.2500
 1156.5000     0.5577     5.9292     9.2222     2.1429  -999.2500  -999.2500  -999.2500  -999.2500
 1157.0000     0.5571     5.9215     9.2267     2.1429  -999.2500  -999.2500  -999.2500  -999.2500
 1157.5000     0.5562     5.9131     9.2312     2.1429  -999.2500  -999.2500  -999.2500  -999.2500
 1158.0000     0.5553     5.9040     9.2357     2.1429  -999.2500  -999.2500  -999.2500  -999.2500
 1158.5000     0.5544     5.8950     9.2402     2.1429  -999.2500  -999.2500  -999.2500  -999.2500
 1159.0000     0.5534     5.8859     9.2447     2.1429  -999.2500  -999.2500  -999.2500  -999.2500
 1159.5000     0.5525     5.8769     9.2492     2.1429  -999.2500  -999.2500  -999.2500  -999.2500
 1160.0000     0.5516     5.8678     9.2536     2.1429  -999.2500  -999.2500  -999.2500  -999.2500
 1160.5000     0.5507     5.8588     9.2581     2.1429  -999.2500  -999.2500  -999.2500  -999.2500
 1161.0000     0.5497     5.8498     9.2626     2.1429  -999.2500  -999.2500  -999.2500  -999.2500
 1161.5000     0.5488     5.8407     9.2671     2.1430  -999.2500  -999.2500  -999.2500  -999.2500
 1162.0000     0.5479     5.8317     9.2716     2.1388  -999.2500  -999.2500  -999.2500  -999.2500
 1162.5000     0.5470     5.8226     9.2761     2.1334  -999.2500  -999.2500  -999.2500  -999.2500
 1163.0000     0.5465     5.8136     9.2805     2.1279  -999.2500  -999.2500  -999.2500  -999.2500
 1163.5000     0.5465     5.8045     9.2850     2.1224  -999.2500  -999.2500  -999.2500  -999.2500
 1164.0000     0.5465     5.7955     9.2895     2.1169  -999.2500  -999.2500  -999.2500  -999.2500
 1164.5000     0.5465     5.7864     9.2940     2.1114  -999.2500  -999.2500  -999.2500  -999.2500
 1165.0000     0.5465     5.7774     9.2985     2.1060  -999.2500  -999.2500  -999.2500  -999.2500
 1165.5000     0.5465     5.7683     9.3030     2.1005  -999.2500  -999.2500  -999.2500  -999.2500
 1166.0000     0.5465     5.7593     9.3075     2.0950  -999.2500  -999.2500  -999.2500  -999.2500
 1166.5000     0.5465     5.7502     9.3119     2.0895  -999.2500  -999.2500  -999.2500  -999.2500
 1167.0000     0.5465     5.7412     9.3164     2.0840  -999.2500  -999.2500  -999.2500  -999.2500
 1167.5000     0.5465     5.7322     9.3209     2.0786  -999.2500  -999.2500  -999.2500  -999.2500
 1168.0000     0.5465     5.7231     9.3254     2.0731  -999.2500  -999.2500  -999.2500  -999.2500
 1168.5000     0.5465     5.7141     9.3299     2.0676  -999.2500  -999.2500  -999.2500  -999.2500
 1169.0000     0.5465     5.7050     9.3344     2.0621  -999.2500  -999.2500  -999.2500  -999.2500
 1169.5000     0.5465     5.6960     9.3388     2.0566  -999.2500  -999.2500  -999.2500  -999.2500
 1170.0000     0.5465     5.6869     9.3433     2.0511  -999.2500  -999.2500  -999.2500  -999.2500
 1170.5000     0.5465     5.6779     9.3478     2.0457  -999.2500  -999.2500  -999.2500  -999.2500
 1171.0000     0.5465     5.6688     9.3523     2.0402  -999.2500  -999.2500  -999.2500  -999.2500
 1171.5000     0.5465     5.6598     9.3568     2.0347  -999.2500  -999.2500  -999.2500  -999.2500
 1172.0000     0.5465     5.6508     9.3613     2.0292  -999.2500  -999.2500  -999.2500  -999.2500
 1172.5000     0.5465     5.6417     9.3658     2.0237  -999.2500  -999.2500  -999.2500  -999.2500
 1173.0000     0.5465     5.6327     9.3702     2.0182  -999.2500  -999.2500  -999.2500  -999.2500
 1173.5000     0.5465     5.6236     9.3747     2.0128  -999.2500  -999.2500  -999.2500  -999.2500
 1174.0000     0.5458     5.6146     9.3792     2.0073  -999.2500  -999.2500  -999.2500  -999.2500
