~VERSION INFORMATION
 VERS.                2.0:   CWLS LOG ASCII STANDARD - VERSION 2.0
 WRAP.                 NO:   ONE LINE PER DEPTH STEP
~WELL INFORMATION
#MNEM.UNIT      DATA TYPE    INFORMATION
#----------   ------------   ------------------------------
 STRT.F           28.0000:   START DEPTH
 STOP.F          687.0000:   STOP DEPTH
 STEP.F            0.5000:   STEP LENGTH
 NULL.          -999.2500:   NO VALUE
 COMP. LAWRENCE/ALLISON INC:   COMPANY
 WELL.      41 STX #15-15:   WELL
 FLD .             TEAPOT:   FIELD
 LOC .      S15 T38N R78W:   LOCATION
 CNTY.            NATRONA:   COUNTY
 STAT.            WYOMING:   STATE
 CTRY. UNITED STATES OF AMERICA:   COUNTRY
 SRVC.           Gearhart:   SERVICE COMPANY
 DATE.        24-AUG-1987:   LOGDATE
 API .       490251118800:   API NUMBER
~CURVE INFORMATION
#MNEM.UNIT       API CODE    CURVE DESCRIPTION
#----------   ------------   ------------------------------
 DEPT.F                  :   
 GRR .GAPI   07 310 01 00:   GAMMA RAY
 ILD .OHMM   07 120 46 00:   INDUCTION LOG DEEP
 ILM .OHMM   07 120 44 00:   INDUCTION LOG MEDIUM
~PARAMETER INFORMATION
#MNEM.UNIT          VALUE    DESCRIPTION
#----------   ------------   ------------------------------
 PD  .                 GL:   PERMANENT DATUM
 EPD .F              5230:   ELEVATION PERMANENT DATUM
 LMF .                 KB:   LOG MEASURED FROM
 DAPD.F              10.5:   FEET ABOVE PERMANENT DATUM
 DMF .                 KB:   DRILLING MEASURED FROM
 EKB .F            5240.5:   KELLING BUSHING
 EDF .F            5239.5:   DRILLING FLOOR
 EGL .F              5230:   GROUND LEVEL
 DATE.        24-AUG-1987:   RUN DATE
 RUN .                  1:   RUN NUMBER
 DD  .F               693:   DEPTH DRILLER
 DL  .F               695:   DEPTH LOGGER
 BLI .F               687:   BOTTOM LOG INTERVAL
 TLI .F                30:   TOP LOG INTERVAL
 CS  .IN            9.625:   CASING SIZE
 CBD .F                48:   CASING BOTTOM DRILLER
 CBL .F                48:   CASING BOTTOM LOGGER
 BS  .IN             8.75:   BIT SIZE
 BSD .F               693:   BIT SIZE AT DEPTH
 DFT .                AIR:   DRILLING FLUID TYPE
 TCS .HRS            0700:   TIME CURCULATED STOPPED
 TLAB.HRS            0617:   TIME LOGGER AT BOTTOM
 MRT .F                80:   MAXIMUM RECORDED TEMPERATURE
 LUN .               7597:   LOGGING UNIT NUMBER
 LUL .           GILLETTE:   LOGGING UNIT LOCATION
 ENGI.         WEATHERMON:   RECORDING ENGINEER
 WITN.             STRONG:   WITNESSED BY
 CLNT.            A2DTECH:   CLIENT CODE
 ORIG.       2", 5" PRINT:   ORIGIN OF DATA
 UWI .       490251118800:   UNIQUE WELL ID
 DICO. A2D Technologies, Inc.:   DIGITIZING COMPANY
~OTHER INFORMATION
~A   DEPT       GRR       ILD        ILM   
# ...
  483.0000    98.3815    14.7254    13.6253
  483.5000    97.7891    14.6252    13.7211
  484.0000    96.5921    14.6277    13.8175
  484.5000    97.2087    14.6297    13.8185
  485.0000    98.4290    14.7334    13.7237
  485.5000    99.3474    14.7354    13.7248
  486.0000    99.0171    14.6356    13.8213
  486.5000    97.8604    14.6376    13.8222
  487.0000    96.6668    14.6396    14.0163
  487.5000    97.5851    14.3321    14.0172
  488.0000    98.8054    14.0472    13.6346
  488.5000    99.1194    14.1473    13.2627
  489.0000    99.7355    14.1492    13.0807
  489.5000    99.1432    14.0529    12.8122
  490.0000    97.0403    13.9578    12.7245
  490.5000    95.2395    13.7675    12.6374
  491.0000    95.5535    13.5798    12.6385
  491.5000    96.1696    13.5821    12.5518
  492.0000    97.3899    13.5840    12.5528
  492.5000   102.5378    13.5858    12.4669
  493.0000   104.0604    13.6822    12.4678
  493.5000   104.4149    13.6840    12.5554
  494.0000   105.8997    13.7811    12.7317
  494.5000   106.8149    13.8789    12.8213
  495.0000   103.2044    13.9777    12.8222
  495.5000   101.1015    13.9796    12.8231
  496.0000    99.9019    13.9815    12.9132
  496.5000   100.5210    13.9834    12.9141
  497.0000   103.2519    14.0826    13.0954
  497.5000   104.7744    14.0845    13.1874
  498.0000   105.3905    13.9886    13.0971
  498.5000   104.4961    13.8944    13.0073
  499.0000   102.3931    13.8002    12.9185
  499.5000    99.3839    13.6122    12.8301
  500.0000    96.9789    13.3339    12.5852
  500.5000   101.5314    13.1470    12.3955
  501.0000   101.5492    12.9729    12.2260
  501.5000   101.5670    12.9901    11.8935
  502.0000   100.9806    13.2495    11.6501
  502.5000    98.8837    13.3435    11.8145
  503.0000    96.7867    13.4381    11.8161
  503.5000    95.2939    13.8177    11.8178
  504.0000    95.2305    15.1225    12.1768
  504.5000    97.4444    15.7667    12.9367
  505.0000    98.6707    16.7837    13.3025
  505.5000    99.5949    18.1157    14.5596
  506.0000    96.9950    20.1031    17.1988
  506.5000    88.7589    21.3998    19.6239
  507.0000    86.0576    22.3114    21.3299
  507.5000    83.3564    23.9158    23.1842
  508.0000    80.3531    24.5914    24.5103
  508.5000    80.6731    24.9380    25.0290
  509.0000    83.4099    24.5981    25.2067
  509.5000    84.9383    23.9037    23.6846
  510.0000    84.6541    22.3093    22.4094
  510.5000    84.6719    21.8733    21.2028
  511.0000    84.6897    21.8770    20.4829
  511.5000    85.3118    20.8439    20.4791
  512.0000    88.9550    20.2761    19.3685
  512.5000    92.9003    20.2795    18.7032
  513.0000    93.8248    20.4234    18.4692
  513.5000    92.2517    20.4262    18.6009
  514.0000    89.3329    20.4290    18.7329
  514.5000    88.7420    20.4317    18.7355
  515.0000    88.7643    20.5766    18.7381
  515.5000    88.7821    20.7226    19.0024
  516.0000    87.8936    20.7254    19.1372
  516.5000    86.4009    20.5851    19.4072
  517.0000    85.8100    20.5879    19.5449
  517.5000    86.7386    20.3073    19.4118
  518.0000    87.0586    20.3101    19.1477
  518.5000    87.3785    20.1725    18.7559
  519.0000    87.3964    20.0149    18.3723
  519.5000    84.9973    19.9003    17.9964
  520.0000    82.2961    19.6297    17.9989
  520.5000    81.7097    19.3615    17.8769
  521.0000    85.5148    19.0976    17.6104
  521.5000    88.6984    18.8380    17.2724
  522.0000    88.4141    18.7098    17.0368
  522.5000    86.3172    18.5831    17.1583
  523.0000    85.4242    18.5863    17.1606
  523.5000    85.4465    18.4598    16.9265
  524.0000    86.6728    18.4630    16.5797
  524.5000    89.4096    18.3380    16.5825
  525.0000    91.5423    18.2137    16.5848
  525.5000    92.4664    17.9655    16.3580
  526.0000    92.7864    17.8439    16.2477
  526.5000    94.3148    17.7231    16.3630
  527.0000    95.5411    17.7255    16.3653
  527.5000    95.8610    17.7280    16.3675
  528.0000    95.8792    17.7305    16.3697
  528.5000    96.5418    17.7334    16.3720
  529.0000    97.4296    17.6127    16.3577
  529.5000    97.7495    17.4935    16.1509
  530.0000    97.4608    17.2556    15.8210
  530.5000    96.5767    17.0198    15.4973
  531.0000    95.0839    16.7884    15.4994
  531.5000    94.1954    16.5596    15.5016
  532.0000    94.5154    16.3333    15.3960
  532.5000    95.1374    15.9994    14.9773
  533.0000    96.0616    15.7814    14.5695
  533.5000    98.1942    15.7841    14.0749
  534.0000   100.0248    15.8960    13.5970
  534.5000   100.6468    15.8982    13.6935
  535.0000   100.3625    15.9004    13.7907
  535.5000    98.5479    15.9025    13.9852
  536.0000    98.2834    15.9047    14.0845
  536.5000    99.5141    15.9069    14.1845
  537.0000   101.3447    15.9096    14.0883
  537.5000   102.2688    15.9118    14.0903
  538.0000   102.5843    15.9139    14.0927
  538.5000    96.2622    15.8057    14.0946
  539.0000    93.8631    15.8080    14.0965
  539.5000    94.1831    15.8105    14.0984
  540.0000    94.8051    15.8127    14.0024
  540.5000    93.9166    15.8148    14.0048
  541.0000    92.7260    15.7072    14.0067
  541.5000    91.8369    15.6009    13.9114
  542.0000    91.8553    15.2825    13.7216
  542.5000    91.2689    15.0741    13.7240
  543.0000    91.3071    14.8687    13.7258
  543.5000    92.5940    14.8707    13.7277
  544.0000    93.1351    14.7701    13.5405
  544.5000    92.5531    14.7721    13.3558
  545.0000    91.9667    14.6721    13.3638
  545.5000    93.1930    14.6742    13.4524
  546.0000    94.4193    14.5747    13.3612
  546.5000    94.1306    14.5772    13.0883
  547.0000    92.9444    14.3785    12.9992
  547.5000    92.9622    14.2807    12.9111
  548.0000    94.4906    14.1840    12.9133
  548.5000    97.2275    14.1039    12.8258
  549.0000    98.4538    14.1485    12.7389
  549.5000    98.7737    14.1931    12.7407
  550.0000    99.6979    14.2377    12.7424
  550.5000   101.2181    14.2377    12.6551
  551.0000   101.8312    14.2377    12.4816
  551.5000   101.8401    14.3368    12.4825
  552.0000    99.7341    14.3368    12.5737
  552.5000    97.2760    14.3368    12.7467
  553.0000    95.2202    14.3368    12.8365
  553.5000    95.5334    14.3368    12.8373
  554.0000    97.3550    14.3368    12.8382
  554.5000    99.4786    14.3368    12.8391
  555.0000   100.3939    14.2377    12.8399
  555.5000   101.3091    14.1393    12.9302
  556.0000   101.0136    14.1393    12.8417
  556.5000   100.4205    14.1393    12.8426
  557.0000   100.1269    14.0416    12.7547
  557.5000   100.7404    13.8481    12.8443
  558.0000   101.3535    13.6574    12.8452
  558.5000   101.6646    13.6574    12.8463
  559.0000   101.6737    13.5630    12.4956
  559.5000   103.1950    13.3762    12.4099
  560.0000   103.8059    13.2837    12.3249
  560.5000   102.3064    13.1919    12.2406
  561.0000   101.7089    13.2837    12.2416
  561.5000   105.0432    13.2837    12.0738
  562.0000   108.3754    13.2837    11.9083
  562.5000   110.8012    13.2837    11.9920
  563.0000   109.6016    13.2837    12.0763
  563.5000   108.4020    13.2837    12.2460
  564.0000   108.7130    13.3762    12.3321
  564.5000   110.5599    13.3762    12.3329
  565.0000   111.4501    13.2837    12.2483
  565.5000   109.3461    13.2837    12.0806
  566.0000   106.0317    13.2837    11.9977
  566.5000   106.3427    13.2837    11.9987
  567.0000   106.3516    13.1919    11.9995
  567.5000   106.6626    13.0102    12.0003
  568.0000   108.1820    12.8310    11.9182
  568.5000   110.0036    12.6542    11.9190
  569.0000   110.6666    12.5667    11.7558
  569.5000   109.4171    12.5667    11.6754
  570.0000   107.6133    12.4799    11.6761
  570.5000   107.6224    12.4831    11.7582
  571.0000   107.6314    12.4747    11.6775
  571.5000   108.8506    12.3080    11.5976
  572.0000   112.7870    12.1384    11.5986
  572.5000   117.6297    11.9712    11.2820
  573.0000   119.1491    11.8063    11.0504
  573.5000   118.8559    11.8063    10.9708
