~VERSION INFORMATION
 VERS.                2.0:   CWLS LOG ASCII STANDARD - VERSION 2.0
 WRAP.                 NO:   ONE LINE PER DEPTH STEP
~WELL INFORMATION
#MNEM.UNIT      DATA TYPE    INFORMATION
#----------   ------------   ------------------------------
 STRT.F            0.0000:   START DEPTH
 STOP.F         4112.0000:   STOP DEPTH
 STEP.F            0.5000:   STEP LENGTH
 NULL.          -999.2500:   NO VALUE
 COMP. LAWRENCE-ALLISON &AS:   COMPANY
 WELL. N P R 3-76-1-SX #3-3:   WELL
 FLD .          N.P.R. #3:   FIELD
 LOC .       S3 T38N R78W:   LOCATION
 CNTY.            NATRONA:   COUNTY
 STAT.            WYOMING:   STATE
 CTRY. UNITED STATES OF AMERICA:   COUNTRY
 SRVC.      Dresser Atlas:   SERVICE COMPANY
 DATE.        04-SEP-1983:   LOGDATE
 API .       490251093100:   API NUMBER
~CURVE INFORMATION
#MNEM.UNIT       API CODE    CURVE DESCRIPTION
#----------   ------------   ------------------------------
 DEPT.F                  :   
 DEN .G/C3   45 350 01 00:   COMPENSATED BULK DENSTIY
 CORR.G/C3   45 356 01 00:   DENSITY CORRECTION
 PORD.DEC    45 890 12 00:   POROSITY DENSITY SANDSTONE
 CNC .DEC    42 890 03 00:   NEUTRON POROSITY SANDSTONE
 SPR .MV     07 010 01 00:   SPONTANEOUS POTENTIAL
 GRR .GAPI   07 310 01 00:   GAMMA RAY FROM RES. LOG.
 RFOC.OHMM   07 220 04 00:   RESISTIVITY FOCUSED LOG
 CALD.IN     45 280 60 00:   CALIPER
 AC  .US/F   60 520 00 00:   ACOUSTIC SONIC
 RILD.OHMM   07 120 46 00:   INDUCTION LOG DEEP RESISTIVITY
 RILM.OHMM   07 120 44 00:   INDUCTION LOG MEDIUM RESISTIVITY
~PARAMETER INFORMATION
#MNEM.UNIT          VALUE    DESCRIPTION
#----------   ------------   ------------------------------
 PD  .                 GL:   PERMANENT DATUM
 EPD .F              5147:   ELEVATION PERMANENT DATUM
 LMF .                 KB:   LOG MEASURED FROM
 DAPD.F                10:   FEET ABOVE PERMANENT DATUM
 DMF .                 KB:   DRILLING MEASURED FROM
 EKB .F              5157:   KELLING BUSHING
 EGL .F              5147:   GROUND LEVEL
 DATE.             9-4-83:   RUN DATE
 RUN .                  1:   RUN NUMBER
 DD  .F              4119:   DEPTH DRILLER
 DL  .F              4115:   DEPTH LOGGER
 BLI .F              4112:   BOTTOM LOG INTERVAL
 CS  .IN            9.625:   CASING SIZE
 CBD .F               491:   CASING BOTTOM DRILLER
 CBL .F               494:   CASING BOTTOM LOGGER
 BS  .IN             8.75:   BIT SIZE
 BSD .F              4119:   BIT SIZE AT DEPTH
 DFT .            KCL GEL:   DRILLING FLUID TYPE
 DFD .                8.9:   DRILLING FLUID DENSITY
 DFV .                 46:   DRILLING FLUID VISCOSITY
 DFPH.                  9:   DRILLING FLUID PH
 DFL .               13.6:   DRILLING FLUID LOSS
 MSS .            MUDTANK:   MUD SAMPLE SOURCE
 RMS .OHMM           .315:   RESISTIVITY MUD SAMPLE
 MST .F                92:   MUD SAMPLE TEMPERATURE
 RMF .OHMM            .25:   RESISTIVITY MUD FILTRATE SAMPLE
 MFST.F                84:   MUD FILTRATE SAMPLE TEMPERATURE
 RMC .OHMM             .4:   RESISTIVITY MUD CAKE
 MCST.F                92:   MUD CAKE SAMPLE TEMPERATURE
 MFSS.                  M:   MUD FILTRATE SAMPLE SOURCE
 MCSS.                  C:   MUD CAKE SAMPLE SOURCE
 RMB .OHMM            .22:   RESISTIVITY MUD AT BHT
 BHT .F               132:   BOTTOM HOLE TEMPERATURE
 TCS .HRS               4:   TIME CURCULATED STOPPED
 MRT .F               132:   MAXIMUM RECORDED TEMPERATURE
 LUN .               6274:   LOGGING UNIT NUMBER
 LUL .               GLTE:   LOGGING UNIT LOCATION
 ENGI.             RAUTIO:   RECORDING ENGINEER
 WITN.             STRONG:   WITNESSED BY
 CLNT.            A2DTECH:   CLIENT CODE
 ORIG. 1", 2", 2.5", 5" PRINT:   ORIGIN OF DATA
 UWI .       490251093100:   UNIQUE WELL ID
 DICO. A2D Technologies, Inc.:   DIGITIZING COMPANY
~OTHER INFORMATION
~A    DEPT     DEN       CORR       PORD        CNC        SPR          GRR     RFOC       CALD         AC       RILD       RILM   
# ...
 3355.0000     2.4143     0.0361     0.1414     0.2996   -32.2640   149.3294     4.7076    10.0150    88.1377     2.5831     2.0735
 3355.5000     2.3590     0.0208     0.1703     0.3004   -31.1915   176.5103     4.3751    10.0306    90.0910     2.1632     1.7677
 3356.0000     2.3105     0.0116     0.1991     0.3124   -30.1471   202.6189     3.1547    10.0475    93.3190     1.8115     1.5699
 3356.5000     2.2854     0.0747     0.2273     0.3253   -29.0891   208.1356     2.2692    10.0641    99.6163     1.6476     1.5969
 3357.0000     2.2453     0.2199     0.2482     0.3127   -27.9421   199.9224     1.8167    10.0732   106.5210     1.6277     1.7645
 3357.5000     2.2408     0.1499     0.2369     0.2985   -28.1017   187.1438     1.8639    10.0605   108.0140     1.6791     1.9284
 3358.0000     2.3186     0.0701     0.1833     0.2819   -29.2502   165.4950     2.2912    10.0481   104.3463     1.7636     2.1065
 3358.5000     2.4650     0.0081     0.1278     0.2707   -30.3251   144.3517     3.1191    10.0352    98.0464     1.8523     2.3011
 3359.0000     2.4587     0.0168     0.1132     0.2707   -31.3602   126.2739     4.3751    10.0223    92.2455     1.9455     2.5136
 3359.5000     2.4670     0.0254     0.1079     0.2672   -32.4281   128.4650     4.2628    10.0096    92.5097     2.1372     2.7457
 3360.0000     2.4709     0.0331     0.1054     0.2596   -33.5047   131.5982     3.9924     9.9968    92.9323     2.4432     2.9993
 3360.5000     2.4743     0.0359     0.1037     0.2570   -34.1171   135.0640     4.0535     9.9839    93.1494     2.7931     3.2268
 3361.0000     2.4783     0.0408     0.1019     0.2586   -34.3989   139.6138     4.1474     9.9713    92.7015     3.1931     3.4450
 3361.5000     2.4808     0.0479     0.1001     0.2779   -34.6892   145.0761     4.2435     9.9586    92.0812     3.4773     3.6239
 3362.0000     2.4833     0.0540     0.0992     0.2752   -34.9887   151.3017     4.3418     9.9557    91.4771     3.5462     3.7368
 3362.5000     2.4822     0.0606     0.1009     0.2638   -35.2848   149.2934     4.4424     9.9557    91.0076     3.5828     3.8532
 3363.0000     2.4789     0.0558     0.1026     0.2562   -35.5660   146.5426     4.5383     9.9558    90.7362     3.5931     3.9199
 3363.5000     2.4758     0.0504     0.1043     0.2546   -35.8944   144.1254     4.5590     9.9558    90.4648     3.6035     3.8917
 3364.0000     2.4716     0.0445     0.1059     0.2551   -35.9607   147.0624     4.5889     9.9558    90.3704     3.6139     3.8654
 3364.5000     2.4674     0.0387     0.1076     0.2562   -36.0328   150.4211     4.6190     9.9558    90.4890     3.6244     3.8394
 3365.0000     2.4631     0.0324     0.1102     0.2586   -36.0906   153.7545     4.6494     9.9558    90.6076     3.6401     3.8135
 3365.5000     2.4596     0.0044     0.1136     0.2607   -36.1519   156.7865     4.6799     9.9558    90.7262     3.6345     3.7878
 3366.0000     2.4636     0.0000     0.1136     0.2619   -36.2158   156.3649     4.7076     9.9558    90.9758     3.5951     3.7622
 3366.5000     2.4718     0.0200     0.1085     0.2631   -36.2814   154.4366     4.6032     9.9558    91.2475     3.5561     3.7368
 3367.0000     2.4778     0.0369     0.1056     0.2679   -36.2972   151.3875     4.5100     9.9558    91.7118     3.5175     3.7116
 3367.5000     2.4704     0.0510     0.1091     0.2806   -36.2589   147.7086     4.4179     9.9558    92.1628     3.4794     3.6866
 3368.0000     2.4624     0.0318     0.1144     0.2876   -36.2245   147.0634     4.3287     9.9558    92.6137     3.4416     3.6617
 3368.5000     2.4526     0.0135     0.1177     0.2766   -36.1913   150.2825     4.2953     9.9558    92.9890     3.3863     3.6502
 3369.0000     2.4549    -0.0078     0.1155     0.2664   -36.1566   153.1623     4.3306     9.9558    93.1437     3.3985     3.6792
 3369.5000     2.4620    -0.0164     0.1124     0.2643   -36.1224   156.4890     4.3714     9.9558    93.0077     3.4254     3.7084
 3370.0000     2.4676    -0.0026     0.1092     0.2742   -36.0884   155.6221     4.4125     9.9558    92.7445     3.4525     3.7379
 3370.5000     2.4699     0.0086     0.1076     0.2827   -36.0540   154.5165     4.4541     9.9558    92.3413     3.4799     3.7676
 3371.0000     2.4698     0.0218     0.1084     0.2756   -36.0201   153.2005     4.4961     9.9558    91.9381     3.5074     3.7975
 3371.5000     2.4700     0.0377     0.1092     0.2693   -35.9864   151.8897     4.5386     9.9558    91.5349     3.5351     3.8277
 3372.0000     2.4699     0.0297     0.1092     0.2673   -35.9509   151.3972     4.5816     9.9558    91.3386     3.5630     3.8581
 3372.5000     2.4700     0.0133     0.1092     0.2707   -35.9117   152.2912     4.6232     9.9558    91.3224     3.5910     3.8888
 3373.0000     2.4700     0.0017     0.1088     0.2697   -35.7819   153.1861     4.5805     9.9558    91.3061     3.6193     3.9200
 3373.5000     2.4697     0.0019     0.1084     0.2686   -35.6304   152.8137     4.5166     9.9558    91.2898     3.6429     3.9513
 3374.0000     2.4725     0.0181     0.1062     0.2681   -35.4781   150.6675     4.4566     9.9558    91.2736     3.6342     3.9919
 3374.5000     2.4775     0.0360     0.1041     0.2675   -35.3276   148.5861     4.5336     9.9558    91.2573     3.6268     3.9748
 3375.0000     2.4797     0.0542     0.1028     0.2648   -35.1762   146.2034     4.6221     9.9558    91.2903     3.6194     3.9482
 3375.5000     2.4765     0.0641     0.1060     0.2594   -35.0819   147.3645     4.5785     9.9558    91.3983     3.6121     3.9217
 3376.0000     2.4711     0.0304     0.1086     0.2602   -35.0235   151.0004     4.5253     9.9551    91.5063     3.6047     3.8954
 3376.5000     2.4678     0.0064     0.1090     0.2668   -34.9645   153.1624     4.4727     9.9544    91.6145     3.5974     3.8693
 3377.0000     2.4717     0.0049     0.1088     0.2760   -34.9059   153.4103     4.4208     9.9536    91.7223     3.5900     3.8435
 3377.5000     2.4661     0.0016     0.1114     0.2811   -34.8479   154.5747     4.3694     9.9528    91.8337     3.5827     3.8178
 3378.0000     2.4600    -0.0148     0.1162     0.2781   -34.7867   156.7755     4.3186     9.9520    91.6317     3.5719     3.7924
 3378.5000     2.4525    -0.0404     0.1188     0.2735   -34.7188   158.2405     4.2685     9.9512    91.3020     3.5486     3.7790
 3379.0000     2.4560    -0.0323     0.1180     0.2691   -34.4870   154.5366     4.2178     9.9504    90.7592     3.5255     3.7959
 3379.5000     2.4606    -0.0194     0.1148     0.2689   -34.2264   150.3363     4.2282     9.9497    90.2165     3.5025     3.8115
 3380.0000     2.4657     0.0104     0.1116     0.2684   -33.9551   147.1043     4.2456     9.9489    89.9002     3.4796     3.8271
 3380.5000     2.4707     0.0225     0.1082     0.2647   -33.6802   146.7319     4.2630     9.9481    89.7505     3.4483     3.8427
 3381.0000     2.4739     0.0102     0.1067     0.2599   -33.5265   145.3064     4.2804     9.9473    89.7505     3.4634     3.8584
 3381.5000     2.4739    -0.0016     0.1064     0.2554   -33.7251   143.4132     4.2957     9.9465    89.7503     3.4877     3.8740
 3382.0000     2.4742    -0.0058     0.1062     0.2577   -33.9070   147.0297     4.4560     9.9458    89.7503     3.5122     3.8897
 3382.5000     2.4773     0.0015     0.1046     0.2648   -34.0932   151.2030     4.4370     9.9450    89.7497     3.5370     3.9055
 3383.0000     2.4797     0.0070     0.1021     0.2699   -34.2831   155.6646     4.3650     9.9442    89.7505     3.5618     3.9192
 3383.5000     2.4768     0.0407     0.1037     0.2727   -34.4684   157.6942     4.2957     9.9434    89.9680     3.5770     3.8557
 3384.0000     2.4741     0.0366     0.1052     0.2774   -34.6540   157.5018     4.3647     9.9426    90.3534     3.5445     3.8010
 3384.5000     2.4721     0.0241     0.1068     0.2795   -34.7784   158.0915     4.4731     9.9418    90.7388     3.4952     3.7472
 3385.0000     2.4740     0.0099     0.1052     0.2774   -34.8682   160.2944     4.5383     9.9411    91.1394     3.4465     3.6942
