~VERSION INFORMATION
 VERS.                2.0:   CWLS LOG ASCII STANDARD - VERSION 2.0
 WRAP.                 NO:   ONE LINE PER DEPTH STEP
~WELL INFORMATION
#MNEM.UNIT      DATA TYPE    INFORMATION
#----------   ------------   ------------------------------
 STRT.F           26.0000:   START DEPTH
 STOP.F          533.5000:   STOP DEPTH
 STEP.F            0.5000:   STEP LENGTH
 NULL.          -999.2500:   NO VALUE
 COMP. BROWN JOHN E&C INC:   COMPANY
 WELL.  NPR 3 #76-531-X-3:   WELL
 FLD .             TEAPOT:   FIELD
 LOC .       S3 T38N R78W:   LOCATION
 CNTY.            NATRONA:   COUNTY
 STAT.            WYOMING:   STATE
 CTRY. UNITED STATES OF AMERICA:   COUNTRY
 SRVC.       Schlumberger:   SERVICE COMPANY
 DATE.        20-SEP-1990:   LOGDATE
 API .       490251130500:   API NUMBER
~CURVE INFORMATION
#MNEM.UNIT       API CODE    CURVE DESCRIPTION
#----------   ------------   ------------------------------
 DEPT.F                  :   
 ILM .OHMM   07 120 44 00:   INDUCTION LOG MEDIUM
 ILD .OHMM   07 120 46 00:   INDUCTION LOG DEEP
 CALD.IN     45 280 60 00:   CALIPER FROM DENSITY LOG
 GRD .GAPI   45 310 01 00:   GAMMA RAY FROM DENSITY LOG
 DPHI.DEC    45 890 12 00:   DENSITY POROSITY SANDSTONE
 RHOB.G/C3   45 350 01 00:   BULK DENSITY
 DRHO.G/C3   45 356 01 00:   DENSITY CORRECTION
~PARAMETER INFORMATION
#MNEM.UNIT          VALUE    DESCRIPTION
#----------   ------------   ------------------------------
 PD  .                 GL:   PERMANENT DATUM
 EPD .F              5148:   ELEVATION PERMANENT DATUM
 LMF .                 KB:   LOG MEASURED FROM
 DAPD.F                10:   FEET ABOVE PERMANENT DATUM
 DMF .                 KB:   DRILLING MEASURED FROM
 EKB .F              5158:   KELLING BUSHING
 EDF .F              5157:   DRILLING FLOOR
 EGL .F              5148:   GROUND LEVEL
 DATE.            9-20-90:   RUN DATE
 RUN .                  1:   RUN NUMBER
 DD  .F               535:   DEPTH DRILLER
 DL  .F               536:   DEPTH LOGGER
 BLI .F               530:   BOTTOM LOG INTERVAL
 TLI .F                49:   TOP LOG INTERVAL
 CBD .F                40:   CASING BOTTOM DRILLER
 CBL .F                49:   CASING BOTTOM LOGGER
 BS  .IN            7.875:   BIT SIZE
 BSD .F               535:   BIT SIZE AT DEPTH
 DFT .                AIR:   DRILLING FLUID TYPE
 TCS .HRS            0315:   TIME CURCULATED STOPPED
 TLAB.HRS            0409:   TIME LOGGER AT BOTTOM
 LUN .               6882:   LOGGING UNIT NUMBER
 LUL .               CODY:   LOGGING UNIT LOCATION
 ENGI.          M. FISHER:   RECORDING ENGINEER
 WITN.          G. STRONG:   WITNESSED BY
 CLNT.            A2DTECH:   CLIENT CODE
 ORIG.   2" 2.5" 5" PRINT:   ORIGIN OF DATA
 UWI .       490251130500:   UNIQUE WELL ID
 DICO. A2D Technologies, Inc.:   DIGITIZING COMPANY
~OTHER INFORMATION
~A   DEPT      ILM        ILD       CALD         GRD      DPHI       RHOB       DRHO   
# ...
  435.5000    24.5753    25.7430     7.9652    90.7279     0.1701     2.2545    -0.0033
  436.0000    24.6615    25.5057     7.9622    93.5538     0.1723     2.2462    -0.0064
  436.5000    24.7137    25.1716     7.9593    94.3605     0.1745     2.2377    -0.0065
  437.0000    24.2558    24.7701     7.9563    93.0246     0.1758     2.2350    -0.0060
  437.5000    23.9308    24.3751     7.9517    91.6726     0.1730     2.2463    -0.0045
  438.0000    23.6092    23.9894     7.9393    90.4023     0.1665     2.2696    -0.0027
  438.5000    23.2979    23.5952     7.9269    90.3352     0.1598     2.2920     0.0005
  439.0000    22.9032    23.1711     7.9147    91.6178     0.1570     2.3027     0.0036
  439.5000    22.2808    22.9067     7.9450    93.0459     0.1589     2.2953     0.0066
  440.0000    21.6754    22.6452     7.9803    94.4706     0.1634     2.2743     0.0090
  440.5000    21.0863    22.3867     7.9647    95.6178     0.1684     2.2617     0.0104
  441.0000    20.7498    22.1477     7.9169    95.6066     0.1682     2.2608     0.0092
  441.5000    20.8041    21.9153     7.8678    94.6101     0.1665     2.2711     0.0076
  442.0000    21.0086    21.6854     7.8513    93.1248     0.1650     2.2744     0.0054
  442.5000    21.1339    21.4579     7.8475    93.0376     0.1656     2.2716     0.0021
  443.0000    20.6993    21.2328     7.8440    94.0636     0.1663     2.2685    -0.0006
  443.5000    20.3838    21.0100     7.8405    97.7006     0.1663     2.2711     0.0005
  444.0000    20.0731    20.5718     7.8369   101.2538     0.1609     2.2885     0.0017
  444.5000    19.6959    20.0481     7.8330   101.4571     0.1553     2.3090     0.0025
  445.0000    18.9658    19.5377     7.8265   100.8065     0.1512     2.3293     0.0025
  445.5000    18.2629    19.0403     7.8200   100.1822     0.1476     2.3391     0.0025
  446.0000    17.5872    18.5555     7.8135    99.5241     0.1463     2.3445     0.0025
  446.5000    16.9311    18.0831     7.8071    97.2772     0.1445     2.3545     0.0016
  447.0000    16.6671    17.6227     7.8005    92.7530     0.1417     2.3651     0.0001
  447.5000    16.5072    17.1741     7.7939    88.1613     0.1398     2.3724    -0.0013
  448.0000    16.3349    16.9473     7.7961    85.9100     0.1413     2.3687    -0.0028
  448.5000    16.3369    16.8971     7.7990    87.3681     0.1441     2.3568    -0.0043
  449.0000    16.0160    16.6143     7.8018    91.1709     0.1466     2.3458    -0.0041
  449.5000    15.7817    16.3363     7.8046    94.8956     0.1458     2.3457    -0.0023
  450.0000    15.5507    16.0393     7.8074    97.4415     0.1427     2.3573    -0.0005
  450.5000    15.3233    15.8883     7.8102    96.9681     0.1394     2.3728     0.0013
  451.0000    15.1412    15.7284     7.8132    95.8164     0.1394     2.3736     0.0019
  451.5000    15.0410    15.5688     7.8109    94.6434     0.1394     2.3736     0.0001
  452.0000    14.9415    15.4108     7.8074    93.9988     0.1390     2.3801    -0.0016
  452.5000    14.8427    15.2543     7.8039    94.7603     0.1342     2.3970    -0.0028
  453.0000    14.7445    15.0995     7.8005    96.3034     0.1295     2.4165    -0.0035
  453.5000    14.6469    14.9462     7.7970    98.3585     0.1242     2.4341    -0.0042
  454.0000    14.5500    14.8699     7.7937   100.4316     0.1214     2.4410    -0.0048
  454.5000    14.4538    14.8279     7.7936   101.6375     0.1225     2.4431    -0.0055
  455.0000    14.3582    14.7859     7.7936   100.1773     0.1260     2.4416    -0.0062
  455.5000    14.2632    14.7441     7.7936    98.0231     0.1278     2.4405    -0.0062
  456.0000    14.1688    14.7024     7.7936    97.1343     0.1256     2.4430    -0.0043
  456.5000    14.0751    14.6608     7.7936    96.9938     0.1216     2.4500    -0.0023
  457.0000    13.9697    14.6194     7.7936    96.8739     0.1181     2.4564    -0.0003
  457.5000    13.9861    14.5780     7.7936    97.1789     0.1166     2.4563     0.0016
  458.0000    14.0106    14.5368     7.7936    98.9855     0.1173     2.4551     0.0036
  458.5000    14.0351    14.4942     7.7936   100.6260     0.1186     2.4540     0.0058
  459.0000    14.0596    14.4650     7.7936   102.0974     0.1199     2.4529     0.0082
  459.5000    14.0850    14.4271     7.7936   103.3178     0.1214     2.4520     0.0077
  460.0000    14.0984    14.3893     7.7936   104.6008     0.1214     2.4577     0.0067
  460.5000    13.9518    14.3516     7.7936   104.3757     0.1137     2.4706     0.0057
  461.0000    13.8479    14.3140     7.7973   102.9679     0.1094     2.4835     0.0050
  461.5000    13.7451    14.2765     7.8014   101.5853     0.1070     2.4964     0.0044
  462.0000    13.7063    14.2391     7.8054   100.7797     0.1066     2.4983     0.0038
  462.5000    13.6346    14.1163     7.8094   100.3631     0.1080     2.4918     0.0031
  463.0000    13.5649    13.9633     7.8134    99.9407     0.1093     2.4856     0.0025
  463.5000    13.4983    13.8121     7.8125    99.5828     0.1107     2.4798     0.0019
  464.0000    13.4321    13.6622     7.8112    99.6293     0.1120     2.4764     0.0012
  464.5000    13.3662    13.5149     7.8099   100.5710     0.1122     2.4748     0.0006
  465.0000    13.3007    13.4310     7.8086   101.5398     0.1122     2.4755    -0.0001
  465.5000    13.2354    13.3616     7.8074   102.3209     0.1122     2.4762    -0.0007
  466.0000    13.1705    13.2917     7.8061   102.9552     0.1118     2.4770    -0.0014
  466.5000    13.1059    13.2193     7.8048   103.5795     0.1114     2.4796    -0.0011
  467.0000    13.0416    13.2197     7.8035   104.2128     0.1087     2.4862    -0.0005
  467.5000    12.9783    13.2194     7.8023   104.4790     0.1061     2.4987     0.0000
  468.0000    12.9934    13.2193     7.8010   104.6322     0.1035     2.5111     0.0006
  468.5000    13.0121    13.2192     7.7997   104.7965     0.1013     2.5161     0.0012
  469.0000    13.0307    13.2095     7.7984   104.2120     0.1003     2.5189     0.0016
  469.5000    13.0493    13.1887     7.7972   103.4381     0.1002     2.5217     0.0018
  470.0000    13.0679    13.1679     7.7959   103.2198     0.1021     2.5134     0.0019
  470.5000    13.0867    13.1472     7.7947   105.2834     0.1050     2.5038     0.0021
  471.0000    13.0987    13.1267     7.7927   107.5444     0.1076     2.4937     0.0023
  471.5000    12.9986    13.1056     7.7872   107.3569     0.1091     2.4849     0.0025
  472.0000    12.9152    13.0253     7.7817   107.0013     0.1105     2.4791     0.0026
  472.5000    12.8323    12.9080     7.7762   107.0292     0.1119     2.4738     0.0028
  473.0000    12.7500    12.7925     7.7743   107.4804     0.1126     2.4735     0.0030
  473.5000    12.6264    12.6779     7.7755   107.9827     0.1125     2.4742     0.0032
  474.0000    12.4993    12.5645     7.7769   105.8622     0.1110     2.4780     0.0034
  474.5000    12.3735    12.4520     7.7782   103.1785     0.1089     2.4870     0.0041
  475.0000    12.2490    12.3406     7.7795   103.2470     0.1066     2.4959     0.0072
  475.5000    12.1257    12.2301     7.7808   108.6238     0.1050     2.5042     0.0102
  476.0000    12.0037    12.1206     7.7821   113.8273     0.1037     2.5074     0.0111
  476.5000    11.8829    12.0122     7.7835   114.4186     0.1031     2.5103     0.0101
  477.0000    11.7633    11.9047     7.7848   112.4390     0.1023     2.5122     0.0081
  477.5000    11.7290    11.7977     7.7861   112.5533     0.1022     2.5106     0.0050
  478.0000    11.5405    11.6912     7.7874   115.1769     0.1039     2.5066     0.0019
  478.5000    11.3415    11.5807     7.7887   116.6877     0.1054     2.5024    -0.0013
  479.0000    11.1460    11.4731     7.7901   115.6093     0.1050     2.5012    -0.0017
  479.5000    10.9531    11.3096     7.7914   114.5766     0.1025     2.5128    -0.0005
  480.0000    10.7609    11.0765     7.7927   113.6762     0.0985     2.5271     0.0007
  480.5000    10.5721    10.8483     7.7910   113.9021     0.0968     2.5327     0.0020
