~VERSION INFORMATION
 VERS.                2.0:   CWLS LOG ASCII STANDARD - VERSION 2.0
 WRAP.                 NO:   ONE LINE PER DEPTH STEP
~WELL INFORMATION
#MNEM.UNIT      DATA TYPE    INFORMATION
#----------   ------------   ------------------------------
 STRT.F           80.0000:   START DEPTH
 STOP.F          814.0000:   STOP DEPTH
 STEP.F            0.5000:   STEP LENGTH
 NULL.          -999.2500:   NO VALUE
 COMP.          U.S. NAVY:   COMPANY
 WELL. RES 3 TEAPOT DOM #17-S-35:   WELL
 FLD .             TEAPOT:   FIELD
 LOC .      S35 T39N R78W:   LOCATION
 CNTY.            NATRONA:   COUNTY
 STAT.            WYOMING:   STATE
 CTRY. UNITED STATES OF AMERICA:   COUNTRY
 SRVC. Schlumberger Well Surveying Corp:   SERVICE COMPANY
 DATE.        20-JUL-1952:   LOGDATE
 API .       490250650200:   API NUMBER
~CURVE INFORMATION
#MNEM.UNIT       API CODE    CURVE DESCRIPTION
#----------   ------------   ------------------------------
 DEPT.F                  :   
 SPR .MV     05 010 01 00:   SPONTANEOUS POTENTIAL FROM RES.
 ILD .OHMM   05 120 46 00:   INDUCTION LOG DEEP
 ASN .OHMM   05 041 16 00:   AMPLIFIED SHORT NORMAL 16"
 CILD.MMHO   05 110 46 00:   CONDUCTIVITY INDUCTION LOG DEEP
 GR  .GAPI   30 310 01 00:   GAMMA RAY
~PARAMETER INFORMATION
#MNEM.UNIT          VALUE    DESCRIPTION
#----------   ------------   ------------------------------
 PD  .                 KB:   PERMANENT DATUM
 LMF .                 KB:   LOG MEASURED FROM
 DMF .                 KB:   DRILLING MEASURED FROM
 EKB .F              5101:   KELLING BUSHING
 EGL .F              5096:   GROUND LEVEL
 DATE.        20-JUL-1962:   RUN DATE
 RUN .                  1:   RUN NUMBER
 DD  .F               815:   DEPTH DRILLER
 DL  .F               815:   DEPTH LOGGER
 BLI .F               814:   BOTTOM LOG INTERVAL
 TLI .F                80:   TOP LOG INTERVAL
 BS  .IN             6.75:   BIT SIZE
 BSD .F               815:   BIT SIZE AT DEPTH
 DFT .       OIL EMULSION:   DRILLING FLUID TYPE
 DFD .               10.0:   DRILLING FLUID DENSITY
 DFV .                 45:   DRILLING FLUID VISCOSITY
 DFL .                2.7:   DRILLING FLUID LOSS
 RMS .OHMM           3.64:   RESISTIVITY MUD SAMPLE
 MST .F                89:   MUD SAMPLE TEMPERATURE
 RMF .OHMM           3.01:   RESISTIVITY MUD FILTRATE SAMPLE
 MFST.F                89:   MUD FILTRATE SAMPLE TEMPERATURE
 RMC .OHMM           3.41:   RESISTIVITY MUD CAKE
 MCST.F                89:   MUD CAKE SAMPLE TEMPERATURE
 RMB .OHMM           3.41:   RESISTIVITY MUD AT BHT
 BHT .F                89:   BOTTOM HOLE TEMPERATURE
 TCS .HRS              .5:   TIME CURCULATED STOPPED
 LUN .               2503:   LOGGING UNIT NUMBER
 LUL .               CSPR:   LOGGING UNIT LOCATION
 ENGI.             DANNER:   RECORDING ENGINEER
 WITN.          JORGENSEN:   WITNESSED BY
 CLNT.            A2DTECH:   CLIENT CODE
 ORIG.           5" PRINT:   ORIGIN OF DATA
 UWI .       490250650200:   UNIQUE WELL ID
 DICO. A2D Technologies, Inc.:   DIGITIZING COMPANY
~OTHER INFORMATION
~A   DEPT      SPR          ILD        ASN      CILD        GR   
# ...
  446.0000   -50.4378     9.3738     9.1326   112.1208  -999.2500
  446.5000   -50.4521     9.2928     9.1415   110.5628  -999.2500
  447.0000   -50.4663     9.2123     9.3086   109.7937  -999.2500
  447.5000   -50.4806     9.1981     9.2706   109.0246  -999.2500
  448.0000   -50.0239     9.1289     9.1630   110.6143  -999.2500
  448.5000   -49.7206     9.0409     9.0836   112.2000  -999.2500
  449.0000   -49.4209     8.8884     9.0068   113.7857  -999.2500
  449.5000   -49.1247     8.8836     8.9282   115.3714  -999.2500
  450.0000   -48.9784     8.8050     8.8976   116.2075  -999.2500
  450.5000   -48.9889     8.9474     8.9293   116.6744  -999.2500
  451.0000   -49.1567     9.1094     9.0239   115.4145  -999.2500
  451.5000   -49.6370     9.1048     9.0695   115.4340  -999.2500
  452.0000   -49.9603     9.1787     9.0841   115.4496  -999.2500
  452.5000   -50.1266     9.1741     9.0991   114.6764  -999.2500
  453.0000   -49.8219     9.1694     9.1139   114.6959  -999.2500
  453.5000   -49.5172     9.2445     9.0970   114.7114  -999.2500
  454.0000   -49.0532     9.1601     8.9389   114.7270  -999.2500
  454.5000   -48.7486     9.1554     8.9537   113.9538  -999.2500
  455.0000   -49.0742     9.0722     8.9842   113.1845  -999.2500
  455.5000   -49.3974     8.9889     8.9832   113.2040  -999.2500
  456.0000   -49.8777     8.9056     8.8880   113.2196  -999.2500
  456.5000   -49.7300     8.8224     8.7298   112.4463  -999.2500
  457.0000   -49.2633     8.8176     8.6977   112.4658  -999.2500
  457.5000   -48.8067     8.7343     8.7594   112.4814  -999.2500
  458.0000   -48.6590     8.7296     8.8371   112.4970  -999.2500
  458.5000   -48.6687     8.6453     8.8525   113.2975  -999.2500
  459.0000   -48.6800     8.6407     8.6767   114.8830  -999.2500
  459.5000   -48.8462     8.6360     8.4400   115.6835  -999.2500
  460.0000   -49.1695     8.6314     8.3774   117.2690  -999.2500
  460.5000   -49.3358     8.6267     8.5806   118.0695  -999.2500
  461.0000   -49.5021     8.6221     8.7212   120.4399  -999.2500
  461.5000   -49.6684     8.6972     8.8146   121.2404  -999.2500
  462.0000   -49.6777     8.7712     8.9238   120.4710  -999.2500
  462.5000   -49.8440     9.0012     9.0172   119.7017  -999.2500
  463.0000   -50.0103     9.0763     9.1106   118.9324  -999.2500
  463.5000   -50.0196     9.1503     9.2040   117.3781  -999.2500
  464.0000   -49.8719     9.2233     9.2974   116.6088  -999.2500
  464.5000   -49.7219     9.2971     9.3751   114.9713  -999.2500
  465.0000   -49.4191     9.2924     9.4685   113.3964  -999.2500
  465.5000   -49.1146     9.2877     9.5619   111.1611  -999.2500
  466.0000   -49.2812     9.3617     9.4981   110.2459  -999.2500
  466.5000   -49.6044     9.3569     9.4657   107.2715  -999.2500
  467.0000   -49.9278     9.4310     9.4805   106.4983  -999.2500
  467.5000   -49.7740     9.4252     9.5739   106.5178  -999.2500
  468.0000   -49.4823     9.5003     9.6201   107.3183  -999.2500
  468.5000   -49.0145     9.4945     9.5705   107.3339  -999.2500
  469.0000   -48.8666     9.4898     9.5239   107.3495  -999.2500
  469.5000   -48.7190     9.4852     9.4599   108.1500  -999.2500
  470.0000   -48.5714     9.4805     9.2545   109.7355  -999.2500
  470.5000   -48.5808     9.3972     9.1436   110.5360  -999.2500
  471.0000   -48.5902     9.2354     9.0483   112.1214  -999.2500
  471.5000   -48.5997     9.0735     8.9687   114.4918  -999.2500
  472.0000   -48.9249     8.8330     8.8420   116.8622  -999.2500
  472.5000   -49.2482     8.5138     8.6839   119.2326  -999.2500
  473.0000   -49.5715     8.2733     8.5729   120.8180  -999.2500
  473.5000   -49.7378     8.1901     8.5090   123.1884  -999.2500
  474.0000   -49.7471     8.1068     8.4924   125.5588  -999.2500
  474.5000   -49.9110     8.0235     8.3028   127.9292  -999.2500
  475.0000   -49.6064     7.9403     8.1446   130.2996  -999.2500
  475.5000   -49.4587     7.9355     8.0808   132.6700  -999.2500
  476.0000   -48.9994     7.9308     8.1270   133.4705  -999.2500
  476.5000   -48.8494     8.0049     8.2205   131.1313  -999.2500
  477.0000   -49.0180     8.0789     8.3305   128.7921  -999.2500
  477.5000   -49.4982     8.2303     8.4109   127.2339  -999.2500
  478.0000   -49.6645     8.3054     8.5034   124.8986  -999.2500
  478.5000   -49.9878     8.5354     8.6096   123.3438  -999.2500
  479.0000   -49.9971     8.6106     8.6873   121.0047  -999.2500
  479.5000   -50.0064     8.7631     8.7649   118.6660  -999.2500
  480.0000   -50.0157     8.9146     8.8584   117.1117  -999.2500
  480.5000   -50.0251     8.9897     8.9675   115.5575  -999.2500
  481.0000   -50.0345     9.1423     9.0609   114.7880  -999.2500
  481.5000   -50.0439     9.2162     9.2172   113.2239  -999.2500
  482.0000   -50.2122     9.2902     9.3421   111.6487  -999.2500
  482.5000   -50.3785     9.3641     9.4040   109.2882  -999.2500
  483.0000   -50.7018     9.4371     9.4348   107.7861  -999.2500
  483.5000   -50.8681     9.4323     9.4336   106.2319  -999.2500
  484.0000   -50.7204     9.5062     9.4327   105.4625  -999.2500
  484.5000   -50.5704     9.5016     9.4317   106.3997  -999.2500
  485.0000   -50.2657     9.4182     9.5409   108.6373  -999.2500
  485.5000   -49.9610     9.3349     9.6500   110.2228  -999.2500
  486.0000   -49.6587     9.2516     9.5051   111.8083  -999.2500
  486.5000   -49.5087     9.1673     9.3094   113.3937  -999.2500
  487.0000   -49.2063     9.0055     9.0967   114.9792  -999.2500
  487.5000   -49.2156     8.8436     9.0800   115.7797  -999.2500
  488.0000   -49.0656     8.7603     9.0791   116.5802  -999.2500
  488.5000   -49.5482     8.6770     9.0153   117.3807  -999.2500
  489.0000   -49.7145     8.5151     8.9514   118.1813  -999.2500
  489.5000   -49.8808     8.5105     8.9036   118.1968  -999.2500
  490.0000   -49.7331     8.6631     9.0125   118.2124  -999.2500
  490.5000   -49.0989     8.7382     9.2474   116.6582  -999.2500
  491.0000   -48.3389     8.8121     9.4823   114.3190  -999.2500
  491.5000   -48.0342     9.0422     9.6386   111.1949  -999.2500
  492.0000   -48.2028     9.1948     9.8264   108.8518  -999.2500
  492.5000   -48.3691     9.4259     9.9984   105.7315  -999.2500
  493.0000   -48.5354     9.5785    10.1745   102.6074  -999.2500
  493.5000   -48.7017     9.8097    10.3570   100.2682  -999.2500
  494.0000   -48.7110    10.0409    10.5394    97.9290  -999.2500
  494.5000   -48.7203    10.2721    10.7219    95.5898  -999.2500
  495.0000   -48.7296    10.5033    10.9292    93.2506  -999.2500
  495.5000   -48.7389    10.7345    11.3259    92.4774  -999.2500
  496.0000   -48.9052    10.9657    11.6269    90.9231  -999.2500
  496.5000   -48.9145    11.1969    11.8618    89.3721  -999.2500
  497.0000   -48.9238    11.5055    12.0967    87.0336  -999.2500
  497.5000   -48.9331    11.6581    12.4102    85.4793  -999.2500
  498.0000   -48.9424    11.8893    12.7238    83.1401  -999.2500
  498.5000   -48.9517    12.1991    12.9587    80.8009  -999.2500
  499.0000   -48.9610    12.4315    13.1936    79.2465  -999.2500
  499.5000   -48.9703    12.7401    13.4285    76.9075  -999.2500
  500.0000   -49.1366    12.8203    13.5064    76.1382  -999.2500
  500.5000   -49.7714    12.8510    13.1505    75.7621  -999.2500
  501.0000   -50.0974    12.8820    12.9697    74.6367  -999.2500
  501.5000   -50.4208    12.7979    12.8115    74.6682  -999.2500
  502.0000   -50.5873    12.6351    12.5747    74.6998  -999.2500
  502.5000   -50.7537    12.5510    12.4166    76.3012  -999.2500
  503.0000   -50.7632    12.3882    12.1798    79.4725  -999.2500
  503.5000   -50.7726    12.1469    12.0216    80.4345  -999.2500
  504.0000   -50.7821    11.9055    11.8634    82.0199  -999.2500
  504.5000   -50.7916    11.7427    11.6266    83.4851  -999.2500
  505.0000   -50.6436    11.5800    11.5471    84.4065  -999.2500
  505.5000   -50.1825    11.4958    11.4675    85.9027  -999.2500
  506.0000   -49.7210    11.4117    11.4665    85.9340  -999.2500
  506.5000   -49.5711    11.4061    11.4656    86.7504  -999.2500
