~VERSION INFORMATION
 VERS.                2.0:   CWLS LOG ASCII STANDARD - VERSION 2.0
 WRAP.                 NO:   ONE LINE PER DEPTH STEP
~WELL INFORMATION
#MNEM.UNIT      DATA TYPE    INFORMATION
#----------   ------------   ------------------------------
 STRT.F           30.0000:   START DEPTH
 STOP.F         3375.5000:   STOP DEPTH
 STEP.F            0.5000:   STEP LENGTH
 NULL.          -999.2500:   NO VALUE
 COMP.       INTEX OIL CO:   COMPANY
 WELL.   NPR ##3 57-SX-34:   WELL
 FLD .             TEAPOT:   FIELD
 LOC .      S34 T39N R78W:   LOCATION
 CNTY.            NATRONA:   COUNTY
 STAT.            WYOMING:   STATE
 CTRY. UNITED STATES OF AMERICA:   COUNTRY
 SRVC.       Schlumberger:   SERVICE COMPANY
 DATE.        12-AUG-1967:   LOGDATE
 API .       490251023200:   API NUMBER
~CURVE INFORMATION
#MNEM.UNIT       API CODE    CURVE DESCRIPTION
#----------   ------------   ------------------------------
 DEPT.F                  :   
 SPR .MV     07 010 01 00:   SPONTANEOUS POTENTIAL
 ILD .OHMM   07 120 46 00:   INDUCTION LOG DEEP
 ASN .OHMM   05 041 16 00:   AMPLIFIED SHORT NORMAL 16"
 CILD.MMHO   07 110 46 00:   CONDUCTIVITY INDUCTION LOG DEEP
 LL8 .OHMM   07 220 08 00:   LATEROLOG-8 RES.
 ILM .OHMM   07 120 44 00:   INDUCTION LOG MEDIUM
 CALD.IN     45 280 60 00:   CALIPER
 GRD .GAPI   45 310 01 00:   GAMMA RAY FROM DENSITY LOG
 RHOB.G/C3   45 350 01 00:   BULK DENSITY
 DPHI.DEC    45 890 12 00:   DENSITY POROSITY SANDSTONE
 CORR.G/C3   45 356 01 00:   DENSITY CORRECTION
~PARAMETER INFORMATION
#MNEM.UNIT          VALUE    DESCRIPTION
#----------   ------------   ------------------------------
 PD  .                 GL:   PERMANENT DATUM
 EPD .F              5084:   ELEVATION PERMANENT DATUM
 LMF .                 KB:   LOG MEASURED FROM
 DAPD.F                12:   FEET ABOVE PERMANENT DATUM
 DMF .                 KB:   DRILLING MEASURED FROM
 EKB .F              5096:   KELLING BUSHING
 EGL .F              5084:   GROUND LEVEL
 DATE.            8-12-67:   RUN DATE
 RUN .                  2:   RUN NUMBER
 DD  .F              3380:   DEPTH DRILLER
 DL  .F              3371:   DEPTH LOGGER
 BLI .F              3368:   BOTTOM LOG INTERVAL
 TLI .F               630:   TOP LOG INTERVAL
 CS  .IN            10.75:   CASING SIZE
 CBD .F               643:   CASING BOTTOM DRILLER
 BS  .IN            9.875:   BIT SIZE
 BSD .F              3380:   BIT SIZE AT DEPTH
 DFT .               CHEM:   DRILLING FLUID TYPE
 DFD .                9.4:   DRILLING FLUID DENSITY
 DFV .                 48:   DRILLING FLUID VISCOSITY
 DFPH.                8.5:   DRILLING FLUID PH
 DFL .                3.6:   DRILLING FLUID LOSS
 MSS .          FLOW LINE:   MUD SAMPLE SOURCE
 RMS .OHMM           2.81:   RESISTIVITY MUD SAMPLE
 MST .F                88:   MUD SAMPLE TEMPERATURE
 RMF .OHMM            1.7:   RESISTIVITY MUD FILTRATE SAMPLE
 MFST.F                86:   MUD FILTRATE SAMPLE TEMPERATURE
 MFSS.                  M:   MUD FILTRATE SAMPLE SOURCE
 RMB .OHMM           2.03:   RESISTIVITY MUD AT BHT
 BHT .F               122:   BOTTOM HOLE TEMPERATURE
 TCS .HRS             2.5:   TIME CURCULATED STOPPED
 MRT .F               122:   MAXIMUM RECORDED TEMPERATURE
 LUN .               7030:   LOGGING UNIT NUMBER
 LUL .               CSPR:   LOGGING UNIT LOCATION
 ENGI.             SCHODE:   RECORDING ENGINEER
 WITN.                MAY:   WITNESSED BY
 CLNT.            A2DTECH:   CLIENT CODE
 ORIG.   1" 2.5" 5" PRINT:   ORIGIN OF DATA
 UWI .       490251023200:   UNIQUE WELL ID
 DICO. A2D Technologies, Inc.:   DIGITIZING COMPANY
~OTHER INFORMATION
~A   DEPT      SPR        ILD        ASN       CILD        LL8        ILM       CALD         GRD      RHOB       DPHI       CORR   
# ...
 2287.0000   -28.8465     4.0636  -999.2500  -999.2500     5.3064     4.4110    11.5017   100.3455     2.4780     0.1087     0.0164
 2287.5000   -28.8928     4.0758  -999.2500  -999.2500     5.5342     4.2874    11.5002   100.3310     2.4506     0.1161     0.0253
 2288.0000   -28.9384     4.0879  -999.2500  -999.2500     5.2576     4.2874    11.4987    99.8126     2.4150     0.1177     0.0364
 2288.5000   -28.9864     4.1004  -999.2500  -999.2500     4.9330     4.3856    11.4972    99.2592     2.4453     0.1146     0.0478
 2289.0000   -29.0334     4.1135  -999.2500  -999.2500     5.9640     4.5574    11.4958    98.7178     2.4416     0.1185     0.0594
 2289.5000   -29.0788     4.1267  -999.2500  -999.2500     7.8964     4.7788    11.4943    98.2006     2.4523     0.1137     0.0700
 2290.0000   -29.1281     4.1742  -999.2500  -999.2500     7.3208     4.7017    11.4928    98.0338     2.4666     0.1089     0.0808
 2290.5000   -29.1728     4.2836  -999.2500  -999.2500     6.2926     4.5265    11.4913   100.5223     2.4834     0.1040     0.0603
 2291.0000   -29.2716     4.3959  -999.2500  -999.2500     5.4087     4.6779    11.4898   104.1543     2.4839     0.0988     0.0268
 2291.5000   -29.3582     4.5111  -999.2500  -999.2500     5.0452     4.8133    11.4883   108.7515     2.4737     0.1091     0.0354
 2292.0000   -29.4496     4.6293  -999.2500  -999.2500     5.0452     4.9527    11.4868   106.8750     2.4854     0.0996     0.0564
 2292.5000   -29.5382     4.7506  -999.2500  -999.2500     8.2067     5.0961    11.4853   102.8651     2.5048     0.0867     0.0760
 2293.0000   -29.6287     4.8752  -999.2500  -999.2500     7.9488     5.2436    11.4843   101.9948     2.4420     0.1074     0.0951
 2293.5000   -29.7168     5.0029  -999.2500  -999.2500     6.8620     5.3954    11.4843   100.5282     2.4476     0.1240     0.1043
 2294.0000   -29.8067     5.1341  -999.2500  -999.2500     7.0090     5.5516    11.4842    98.7932     2.4796     0.1101     0.0772
 2294.5000   -29.9022     5.2686  -999.2500  -999.2500     7.5451     5.7123    11.4843    97.0245     2.4906     0.0933     0.0326
 2295.0000   -29.8925     5.4237  -999.2500  -999.2500     8.1963     5.8167    11.4843    96.2838     2.4813     0.0980     0.0163
 2295.5000   -29.6388     5.3989  -999.2500  -999.2500     6.5256     5.7680    11.4843    96.1067     2.4810     0.1059     0.0390
 2296.0000   -29.4020     5.3473  -999.2500  -999.2500     6.6955     5.7203    11.4843    95.8421     2.4815     0.0981     0.0348
 2296.5000   -29.1797     5.2962  -999.2500  -999.2500     7.4899     5.6725    11.4843    95.9005     2.4743     0.1047     0.0176
 2297.0000   -29.2128     5.2455  -999.2500  -999.2500     8.5237     5.6251    11.4843    93.7668     2.4716     0.1097     0.0254
 2297.5000   -29.2481     5.1953  -999.2500  -999.2500     8.5237     5.5782    11.4843    90.1505     2.4820     0.1073     0.0363
 2298.0000   -29.2931     5.1373  -999.2500  -999.2500     6.6876     5.5238    11.4843    88.3665     2.4953     0.1012     0.0313
 2298.5000   -29.3327     5.1668  -999.2500  -999.2500     5.3265     5.5803    11.4843    90.9486     2.4949     0.0935     0.0218
 2299.0000   -29.3736     5.2027  -999.2500  -999.2500     7.5170     5.6489    11.4843    93.6740     2.4807     0.0985     0.0274
 2299.5000   -29.4156     5.2387  -999.2500  -999.2500     9.3303     5.7183    11.4843    94.0518     2.4557     0.1071     0.0415
 2300.0000   -29.4560     5.2750  -999.2500  -999.2500     8.2624     5.7884    11.4843    92.7018     2.4429     0.1170     0.0596
 2300.5000   -29.4971     5.3265  -999.2500  -999.2500     7.2688     5.8307    11.4843    93.8131     2.4552     0.1155     0.0365
 2301.0000   -29.5409     5.1945  -999.2500  -999.2500     7.4565     5.7432    11.4843    95.6857     2.4401     0.1186     0.0066
 2301.5000   -29.5655     4.9798  -999.2500  -999.2500     7.6561     5.4172    11.4843    96.6605     2.4278     0.1249     0.0097
 2302.0000   -29.5634     4.7740  -999.2500  -999.2500     6.6955     5.0515    11.4843    94.1802     2.4334     0.1231     0.0103
 2302.5000   -29.5623     4.5766  -999.2500  -999.2500     5.8264     4.7109    11.4842    91.7604     2.4441     0.1183     0.0156
 2303.0000   -29.5649     4.3875  -999.2500  -999.2500     5.9595     4.3937    11.4843    92.3699     2.4610     0.1140     0.0268
 2303.5000   -29.5685     4.2061  -999.2500  -999.2500     5.5746     4.2062    11.4842    96.1927     2.4548     0.1222     0.0380
 2304.0000   -29.6594     4.0610  -999.2500  -999.2500     4.8111     4.2106    11.4842    96.2315     2.4342     0.1350     0.0381
 2304.5000   -29.7599     4.1148  -999.2500  -999.2500     4.2874     4.4154    11.4852    93.2975     2.4064     0.1448     0.0253
 2305.0000   -29.8553     4.1614  -999.2500  -999.2500     6.5105     4.6974    11.4888    89.5217     2.4451     0.1293     0.0177
 2305.5000   -29.9496     4.2106  -999.2500  -999.2500     7.8708     4.9974    11.4923    87.0254     2.4214     0.1385     0.0259
 2306.0000   -29.8594     4.1017  -999.2500  -999.2500     8.1107     5.1373    11.4959    87.3257     2.4361     0.1312     0.0501
 2306.5000   -29.7593     3.9123  -999.2500  -999.2500     8.5237     4.7218    11.4995    87.4071     2.4681     0.1228     0.0317
 2307.0000   -29.6523     3.7317  -999.2500  -999.2500     7.3770     4.3886    11.5031    86.8591     2.4887     0.1145     0.0019
 2307.5000   -29.5484     3.5593  -999.2500  -999.2500     5.6623     4.0790    11.5067    86.0966     2.4734     0.1045     0.0122
 2308.0000   -29.4456     3.3957  -999.2500  -999.2500     4.3462     3.7912    11.5104    87.5060     2.4680     0.1059     0.0281
 2308.5000   -29.3417     3.2392  -999.2500  -999.2500     3.6435     3.5237    11.5138    92.3272     2.4647     0.1072     0.0431
 2309.0000   -29.2279     3.0901  -999.2500  -999.2500     3.6435     3.2751    11.5175    94.3540     2.4518     0.1190     0.0589
 2309.5000   -29.1744     2.9480  -999.2500  -999.2500     4.1266     3.2103    11.5215    91.6389     2.4235     0.1357     0.0750
 2310.0000   -29.2281     2.8308  -999.2500  -999.2500     6.2580     3.2103    11.5176    89.8217     2.4102     0.1484     0.0906
 2310.5000   -29.2706     2.7750  -999.2500  -999.2500     5.2857     3.2103    11.4956    88.7997     2.4399     0.1380     0.1013
 2311.0000   -29.3153     2.7798  -999.2500  -999.2500     3.9168     3.2103    11.4746    89.0720     2.4054     0.1539     0.1010
 2311.5000   -29.3612     2.7755  -999.2500  -999.2500     4.3872     3.1421    11.4531    91.2993     2.4167     0.1279     0.0702
 2312.0000   -29.4055     2.7779  -999.2500  -999.2500     5.2417     3.0821    11.4435    93.8861     2.4530     0.1297     0.0220
 2312.5000   -29.4507     2.7779  -999.2500  -999.2500     3.8488     3.0408    11.4733    93.1285     2.4324     0.1352     0.0378
 2313.0000   -29.4957     2.7779  -999.2500  -999.2500     2.9787     2.9863    11.5015    90.6740     2.4225     0.1413     0.0702
 2313.5000   -29.5406     2.7779  -999.2500  -999.2500     3.3168     2.9863    11.5490    91.6842     2.4498     0.1316     0.0339
 2314.0000   -29.5855     2.7779  -999.2500  -999.2500     4.7164     2.9863    11.5288    93.8518     2.4413     0.1279     0.0455
 2314.5000   -29.6304     2.8468  -999.2500  -999.2500     5.7377     3.0171    11.5570    96.0054     2.4222     0.1516     0.0755
 2315.0000   -29.6753     2.9674  -999.2500  -999.2500     4.7179     3.1278    11.5630    98.2937     2.4288     0.1339     0.0661
 2315.5000   -29.7202     3.1570  -999.2500  -999.2500     3.7777     3.2103    11.5402    99.3523     2.4540     0.1171     0.0471
 2316.0000   -29.7652     3.3586  -999.2500  -999.2500     4.9003     4.0610    11.5074    98.0656     2.4786     0.1003     0.0185
 2316.5000   -29.8101     3.5731  -999.2500  -999.2500     6.8610     4.1352    11.4841    98.8119     2.5121     0.0768     0.0394
 2317.0000   -29.8550     3.8013  -999.2500  -999.2500     6.5989     4.2442    11.4847    99.4704     2.5003     0.0946     0.0808
