~VERSION INFORMATION
 VERS.                2.0:   CWLS LOG ASCII STANDARD - VERSION 2.0
 WRAP.                 NO:   ONE LINE PER DEPTH STEP
~WELL INFORMATION
#MNEM.UNIT      DATA TYPE    INFORMATION
#----------   ------------   ------------------------------
 STRT.F           36.0000:   START DEPTH
 STOP.F          521.0000:   STOP DEPTH
 STEP.F            0.5000:   STEP LENGTH
 NULL.          -999.2500:   NO VALUE
 COMP. FENIX & SCISSON INC:   COMPANY
 WELL.        NPR-3 #36-3:   WELL
 FLD .             TEAPOT:   FIELD
 LOC .       S3 T38N R78W:   LOCATION
 CNTY.            NATRONA:   COUNTY
 STAT.            WYOMING:   STATE
 CTRY. UNITED STATES OF AMERICA:   COUNTRY
 SRVC.            Unknown:   SERVICE COMPANY
 DATE.        09-JUL-1978:   LOGDATE
 API .       490251066200:   API NUMBER
~CURVE INFORMATION
#MNEM.UNIT       API CODE    CURVE DESCRIPTION
#----------   ------------   ------------------------------
 DEPT.F                  :   
 CALD.IN     45 280 60 00:   CALIPER FROM DENSITY LOG
 GRD .GAPI   45 310 01 00:   GAMMA RAY FROM DENSITY LOG
 CORR.G/C3   45 356 01 00:   DENSITY CORRECTION
 DPHI.DEC    45 890 12 00:   DENSITY POROSITY SANDSTONE
 RHOB.G/C3   45 350 01 00:   BULK DENSITY
 SPR .MV     07 010 01 00:   SPONTANEOUS POTENTIAL
 ILD .OHMM   07 120 46 00:   INDUCTION LOG DEEP
 SN  .OHMM   07 040 16 00:   SHORT NORMAL 16"
~PARAMETER INFORMATION
#MNEM.UNIT          VALUE    DESCRIPTION
#----------   ------------   ------------------------------
 PD  .                 GL:   PERMANENT DATUM
 EPD .F              5216:   ELEVATION PERMANENT DATUM
 LMF .                 KB:   LOG MEASURED FROM
 DAPD.F                 4:   FEET ABOVE PERMANENT DATUM
 DMF .                 KB:   DRILLING MEASURED FROM
 EKB .F              5220:   KELLING BUSHING
 EGL .F              5216:   GROUND LEVEL
 DATE.        09-JUL-1978:   RUN DATE
 RUN .                  1:   RUN NUMBER
 DD  .F               520:   DEPTH DRILLER
 DL  .F               524:   DEPTH LOGGER
 BLI .F               519:   BOTTOM LOG INTERVAL
 TLI .F                50:   TOP LOG INTERVAL
 CS  .IN            8.625:   CASING SIZE
 CBD .F                40:   CASING BOTTOM DRILLER
 BS  .IN            7.875:   BIT SIZE
 BSD .F               520:   BIT SIZE AT DEPTH
 DFT .                KCL:   DRILLING FLUID TYPE
 DFD .                8.6:   DRILLING FLUID DENSITY
 DFV .                 32:   DRILLING FLUID VISCOSITY
 DFPH.                9.5:   DRILLING FLUID PH
 DFL .               14.4:   DRILLING FLUID LOSS
 MSS .           FLOWLINE:   MUD SAMPLE SOURCE
 RMS .OHMM           0.24:   RESISTIVITY MUD SAMPLE
 MST .F                70:   MUD SAMPLE TEMPERATURE
 RMF .OHMM           0.24:   RESISTIVITY MUD FILTRATE SAMPLE
 MFST.F                70:   MUD FILTRATE SAMPLE TEMPERATURE
 RMC .OHMM           0.42:   RESISTIVITY MUD CAKE
 MCST.F                72:   MUD CAKE SAMPLE TEMPERATURE
 MFSS.               MEAS:   MUD FILTRATE SAMPLE SOURCE
 BHT .F                80:   BOTTOM HOLE TEMPERATURE
 TCS .HRS               3:   TIME CURCULATED STOPPED
 MRT .F                80:   MAXIMUM RECORDED TEMPERATURE
 LUN .               2958:   LOGGING UNIT NUMBER
 LUL .               CASP:   LOGGING UNIT LOCATION
 ENGI.             MILLER:   RECORDING ENGINEER
 WITN.           MCGINLEY:   WITNESSED BY
 CLNT.            A2DTECH:   CLIENT CODE
 ORIG.           5" PRINT:   ORIGIN OF DATA
 UWI .       490251066200:   UNIQUE WELL ID
 DICO. A2D Technologies, Inc.:   DIGITIZING COMPANY
~OTHER INFORMATION
~A   DEPT     CALD        GRD       CORR       DPHI       RHOB        SPR        ILD         SN   
# ...
  400.5000     8.4738    61.8480     0.0016     0.1595     2.4395   -19.3396    14.4370    11.2737
  401.0000     8.4598    61.6990     0.0017     0.1494     2.4515   -19.2274    14.2933    11.2466
  401.5000     8.4612    61.6990     0.0017     0.1562     2.4359   -19.2327    14.0904    11.3214
  402.0000     8.4624    61.6990     0.0018     0.1658     2.4225   -19.2380    13.9879    11.3159
  402.5000     8.4484    61.8480     0.0034     0.1634     2.4352   -19.2423    13.9825    11.3112
  403.0000     8.4498    63.6364     0.0079     0.1490     2.4532   -19.2465    13.9769    11.3059
  403.5000     8.4510    65.4247     0.0065     0.1451     2.4562   -19.2508    13.9701    11.2234
  404.0000     8.4522    70.1937     0.0051     0.1448     2.4585   -19.2561    13.9646    11.2190
  404.5000     8.4534    73.0253     0.0037     0.1436     2.4615   -19.2603    13.9592    11.2145
  405.0000     8.4545    73.0452     0.0037     0.1430     2.4614   -19.2646    13.9537    11.2870
  405.5000     8.4557    71.9821     0.0023     0.1492     2.4480   -19.2688    13.9469    11.2826
  406.0000     8.4571    72.1371     0.0024     0.1561     2.4400   -19.4243    13.9414    11.3576
  406.5000     8.4583    72.7462     0.0025     0.1513     2.4468   -19.4286    13.9359    11.4309
  407.0000     8.4595    71.0879     0.0010     0.1503     2.4453   -19.5830    13.9305    11.4253
  407.5000     8.4455    69.2996     0.0011     0.1602     2.4327   -19.5872    13.9248    11.4208
  408.0000     8.4022    70.6408    -0.0003     0.1617     2.4275   -19.4413    13.9182    11.4164
  408.5000     8.3435    69.1505    -0.0017     0.1604     2.4350   -19.4466    13.9127    11.4119
  409.0000     8.3449    68.4054    -0.0001     0.1658     2.4238   -19.4509    13.9073    11.3285
  409.5000     8.3163    68.1073     0.0044     0.1631     2.4216   -19.4551    13.9018    11.3231
  410.0000     8.2876    69.7466     0.0225     0.1496     2.4516   -19.4595    13.9927    11.2405
  410.5000     8.3037    73.3234     0.0165     0.1448     2.4563   -19.4647    13.9859    11.2361
  411.0000     8.3651    73.0253     0.0121     0.1520     2.4457   -19.4690    13.9804    11.1541
  411.5000     8.4253    70.7899     0.0167     0.1594     2.4390   -19.4732    13.8787    10.9954
  412.0000     8.4265    67.6483     0.0183     0.1606     2.4360   -19.4775    13.8719    10.9911
  412.5000     8.4299    67.3621     0.0168     0.1591     2.4309   -19.4828    13.8665    10.9867
  413.0000     8.4351    69.5976     0.0109     0.1620     2.4414   -19.4870    13.7656    10.8314
  413.5000     8.4402    70.7899     0.0035     0.1653     2.4183   -19.1910    13.4779    10.8260
  414.0000     8.4454    72.4292     0.0066     0.1650     2.4273   -18.8949    13.1864    10.8218
  414.5000     8.4476    72.5782     0.0112     0.1644     2.4258   -18.4498    13.0989    10.8175
  415.0000     8.4637    71.8331     0.0127     0.1545     2.4311   -18.4541    13.1859    10.8133
  415.5000     8.4649    71.3860     0.0173     0.1515     2.4424   -18.3071    13.3628    10.8089
  416.0000     8.4660    71.8331     0.0159     0.1577     2.4514   -18.1622    13.5434    10.8788
  416.5000     8.4520    71.2370    -0.0005     0.1655     2.4245   -17.8662    13.6320    10.8745
  417.0000     8.4535    70.1937    -0.0004     0.1738     2.4186   -17.7203    13.7211    10.9469
  417.5000     8.4695    70.2086    -0.0004     0.1875     2.4081   -16.9749    13.7144    11.1750
  418.0000     8.4707    71.5708    -0.0003     0.2057     2.3835   -15.6278    13.8998    11.3225
  418.5000     8.4719    71.2370    -0.0002     0.2219     2.3367   -14.7042    14.4810    11.3968
  419.0000     8.4731    70.1937     0.0073     0.2484     2.2949   -12.7845    14.9842    11.3125
  419.5000     8.4891    66.7660     0.0164     0.2609     2.2476   -11.7377    15.6123    11.2301
  420.0000     8.7655    56.3338     0.0719     0.2666     2.2275   -11.4406    16.1548    11.0702
  420.5000     8.5915    51.2668     0.1138     0.2444     2.2978   -11.4459    16.4976    11.0658
  421.0000     8.4330    50.0745     0.0578     0.2537     2.2328   -11.4512    16.9404    11.1394
  421.5000     8.4345    51.1177     0.0002     0.2863     2.2396   -11.4555    17.0528    11.2892
  422.0000     8.4357    52.3100     0.0123     0.2471     2.3009   -11.4597    17.1643    11.3726
  422.5000     8.4219    52.7571     0.0273     0.2333     2.3174   -11.4640    17.2749    11.7578
  423.0000     8.4079    51.1177     0.0409     0.2252     2.3257   -11.4693    17.8733    11.9999
  423.5000     8.3942    49.9255     0.0499     0.2007     2.3594   -11.4735    18.2423    12.1637
  424.0000     8.3956    52.3815     0.0485     0.2025     2.3603   -11.4778    18.3616    12.3273
  424.5000     8.3816    53.8003     0.0516     0.2058     2.3557   -11.4821    18.3526    12.3212
  425.0000     8.3682    57.0790     0.0651     0.2004     2.3580   -11.4874    17.7207    12.3164
  425.5000     8.3842    60.0596     0.0921     0.1983     2.3721   -11.3415    17.3504    12.3115
  426.0000     8.3854    57.8241     0.1536     0.1991     2.4799   -10.8953    17.2242    12.2218
  426.5000     8.3866    57.0790     0.1192     0.2060     2.4381   -10.5992    17.2174    12.2158
  427.0000     8.3878    57.5261     0.0385     0.2186     2.3410   -10.3032    16.9744    12.1267
  427.5000     8.3892    58.4203     0.0191     0.2164     2.3358   -10.3085    16.6181    11.9552
  428.0000     8.3904    58.4203     0.0237     0.2113     2.3433   -10.3128    16.2708    11.9505
  428.5000     8.3915    58.7183     0.0205     0.2086     2.3486   -10.3170    15.9307    11.8633
  429.0000     8.3927    60.0596     0.0133     0.2104     2.3501   -10.3214    15.8141    11.8575
  429.5000     8.3939    58.9657     0.0194     0.2124     2.3449   -10.4767    15.5902    11.8529
  430.0000     8.3951    57.0790     0.0255     0.2112     2.3480   -10.4810    15.5840    11.8482
  430.5000     8.3962    56.9300     0.0270     0.2088     2.3525   -10.3340    15.3641    11.8436
  431.0000     8.3974    57.0790     0.0181     0.2046     2.3578   -10.3393    15.2524    11.8377
  431.5000     8.3986    57.6751     0.0092     0.2243     2.3421   -10.3446    15.0357    11.8331
  432.0000     8.3997    59.4635     0.0138     0.2303     2.3168   -10.3489    15.0298    11.8285
  432.5000     8.4009    61.2519     0.0198     0.2240     2.3287   -10.6535    15.0239    11.8238
  433.0000     8.3872    62.4441     0.0184     0.2138     2.3423   -10.8079    15.0180    11.8180
  433.5000     8.3884    62.5931     0.0185     0.2090     2.3468   -11.1135    15.0120    11.8134
  434.0000     8.3898    62.4441     0.0171     0.2131     2.3506   -11.4180    14.9015    11.8087
  434.5000     8.3910    61.2519     0.0156     0.2151     2.3431   -11.4223    14.7930    11.8041
  435.0000     8.3623    60.2086     0.0157     0.2227     2.3331   -11.4265    14.7872    11.7993
  435.5000     8.3486    61.2976     0.0188     0.2232     2.3275   -11.4104    14.7815    11.7936
  436.0000     8.3498    61.9970     0.0219     0.2208     2.3366   -11.2849    14.7742    11.7890
  436.5000     8.3357    60.9538     0.0219     0.2115     2.3456   -11.4404    14.7684    11.7844
  437.0000     8.3220    60.5067     0.0220     0.2085     2.3486   -11.5948    14.6610    11.8616
  437.5000     8.3083    62.2951     0.0266     0.2037     2.3539   -11.5991    14.6552    12.0211
  438.0000     8.3097    62.4441     0.0251     0.1986     2.3644   -11.7545    14.6493    12.1011
  438.5000     8.3258    62.5931     0.0192     0.1980     2.3764   -11.9089    14.6423    12.1804
  439.0000     8.3419    62.8912     0.0148     0.2010     2.3615   -12.2134    15.1511    12.2590
  439.5000     8.3580    63.1893     0.0164     0.1982     2.3660   -12.3678    15.5711    12.3394
  440.0000     8.3741    62.7422     0.0240     0.1986     2.3638   -12.3732    15.6713    12.3333
  440.5000     8.3755    62.4441     0.0225     0.2027     2.3601   -12.3774    15.7723    12.3285
