~VERSION INFORMATION
 VERS.                2.0:   CWLS LOG ASCII STANDARD - VERSION 2.0
 WRAP.                 NO:   ONE LINE PER DEPTH STEP
~WELL INFORMATION
#MNEM.UNIT      DATA TYPE    INFORMATION
#----------   ------------   ------------------------------
 STRT.F           12.0000:   START DEPTH
 STOP.F          510.0000:   STOP DEPTH
 STEP.F            0.5000:   STEP LENGTH
 NULL.          -999.2500:   NO VALUE
 COMP. LAWRENCE-ALLISON &AS:   COMPANY
 WELL. NPR 3 #51-41SX10UP4:   WELL
 FLD .            NATRONA:   FIELD
 LOC .      S10 T38N R78W:   LOCATION
 CNTY.            NATRONA:   COUNTY
 STAT.            WYOMING:   STATE
 CTRY. UNITED STATES OF AMERICA:   COUNTRY
 SRVC.      Dresser Atlas:   SERVICE COMPANY
 DATE.        15-DEC-1984:   LOGDATE
 API .       490251100000:   API NUMBER
~CURVE INFORMATION
#MNEM.UNIT       API CODE    CURVE DESCRIPTION
#----------   ------------   ------------------------------
 DEPT.F                  :   
 RD  .OHMM   11 220 10 00:   RESISTIVITY DEEP
 RS  .OHMM   11 220 09 00:   RESISTIVITY SHALLOW
 SPR .MV     11 010 01 00:   SPONTANEOUS POTENTIAL FROM RES.
 DT  .US/F   60 520 00 00:   INTERVAL TRANSIT TIME
 CALD.IN     45 280 60 00:   CALIPER FROM DENSITY LOG
 CNC .DEC    42 890 00 00:   NEUTRON POROSITY
 CORR.G/C3   45 356 01 00:   DENSITY CORRECTION
 GRD .GAPI   45 310 01 00:   GAMMA RAY FROM DENSITY LOG
 PORD.DEC    45 890 00 00:   POROSITY DENSITY
 RHOB.G/C3   45 350 01 00:   BULK DENSITY
~PARAMETER INFORMATION
#MNEM.UNIT          VALUE    DESCRIPTION
#----------   ------------   ------------------------------
 PD  .                 GL:   PERMANENT DATUM
 EPD .F              5207:   ELEVATION PERMANENT DATUM
 LMF .                 GL:   LOG MEASURED FROM
 DMF .                 GL:   DRILLING MEASURED FROM
 EGL .F              5207:   GROUND LEVEL
 DATE.        15-DEC-1984:   RUN DATE
 RUN .                  1:   RUN NUMBER
 DD  .F               515:   DEPTH DRILLER
 DL  .F               511:   DEPTH LOGGER
 BLI .F               510:   BOTTOM LOG INTERVAL
 TLI .F                20:   TOP LOG INTERVAL
 CS  .IN            8.625:   CASING SIZE
 CBD .F                20:   CASING BOTTOM DRILLER
 CBL .F                20:   CASING BOTTOM LOGGER
 BS  .IN            7.875:   BIT SIZE
 BSD .F               515:   BIT SIZE AT DEPTH
 DFT .          KCL/WATER:   DRILLING FLUID TYPE
 MSS .           FLOWLINE:   MUD SAMPLE SOURCE
 RMS .OHMM           .129:   RESISTIVITY MUD SAMPLE
 MST .F                94:   MUD SAMPLE TEMPERATURE
 RMF .OHMM            .10:   RESISTIVITY MUD FILTRATE SAMPLE
 MFST.F                94:   MUD FILTRATE SAMPLE TEMPERATURE
 RMC .OHMM            .16:   RESISTIVITY MUD CAKE
 MCST.F                94:   MUD CAKE SAMPLE TEMPERATURE
 MFSS.               CALC:   MUD FILTRATE SAMPLE SOURCE
 MCSS.               CALC:   MUD CAKE SAMPLE SOURCE
 TCS .HRS               2:   TIME CURCULATED STOPPED
 MRT .F               100:   MAXIMUM RECORDED TEMPERATURE
 LUN .               6270:   LOGGING UNIT NUMBER
 LUL .                 FM:   LOGGING UNIT LOCATION
 ENGI.            LEBSOCK:   RECORDING ENGINEER
 WITN.          DAN LUERS:   WITNESSED BY
 CLNT.            A2DTECH:   CLIENT CODE
 ORIG.           5" PRINT:   ORIGIN OF DATA
 UWI .       490251100000:   UNIQUE WELL ID
 DICO. A2D Technologies, Inc.:   DIGITIZING COMPANY
~OTHER INFORMATION
~A   DEPT       RD         RS        SPR         DT       CALD          CNC     CORR         GRD      PORD       RHOB   
# ...
  146.0000    19.3277    11.2029   -69.9408   102.3789     7.8027     0.2775     0.0051    97.3868     0.1363     2.4492
  146.5000    19.7479    11.5258   -69.6277   101.7040     7.8033     0.2690    -0.0069    97.9911     0.1380     2.4457
  147.0000    19.9656    11.5350   -69.7614   101.8603     7.8187     0.2642    -0.0013    98.0052     0.1416     2.4374
  147.5000    18.8500    11.2297   -70.0465   102.3930     7.8194     0.2633     0.0295    97.7204     0.1443     2.4307
  148.0000    18.3511    11.1603   -70.0287   103.3030     7.8348     0.2659     0.0116    97.4327     0.1485     2.4285
  148.5000    18.2358    10.9412   -70.6061   103.6092     7.8353     0.2851     0.0056    98.6322     0.1502     2.4286
  149.0000    18.5078    10.6538   -70.5919   103.5381     7.8359     0.2869    -0.0003   100.1252     0.1502     2.4286
  149.5000    18.5225    10.6623   -71.1693   103.0142     7.8365     0.2820    -0.0031   101.0256     0.1496     2.4302
  150.0000    18.4098    10.5973   -71.1515   102.7166     7.8370     0.2580     0.0181   101.6296     0.1471     2.4393
  150.5000    18.0278    10.5307   -71.5810   102.7221     7.8376     0.2564     0.0423   101.6415     0.1411     2.4455
  151.0000    17.5692    10.4686   -71.7182   103.0283     7.8383     0.2588     0.0394    99.8767     0.1381     2.4487
  151.5000    17.5867    10.4049   -71.7004   103.0326     7.8389     0.2711     0.0064    97.5178     0.1368     2.4530
  152.0000    17.1213    10.4153   -71.6861   102.7351     7.8395     0.2807    -0.0071    96.9363     0.1326     2.4576
  152.5000    17.1349    10.4236   -71.5138   102.1987     7.8400     0.2803     0.0006    96.6518     0.1302     2.4599
  153.0000    17.1486    10.4319   -71.0623   102.1400     7.8406     0.2761     0.0128    97.3017     0.1290     2.4607
  153.5000    17.1626    10.4402   -70.6042   102.4473     7.8412     0.2829     0.0373   101.7146     0.1283     2.4616
  154.0000    17.1794    10.3051   -70.2941   103.0555     7.8121     0.2937     0.0556   104.6890     0.1277     2.4616
  154.5000    16.7214    10.1720   -70.1319   103.9655     7.7979     0.2976     0.0512   102.4783     0.1292     2.4576
  155.0000    16.2789     9.9047   -70.1176   104.5736     7.7986     0.2876     0.0438   101.1536     0.1338     2.4487
  155.5000    15.6339     9.7767   -70.2515   104.6534     7.7842     0.2840     0.0259   100.1308     0.1408     2.4443
  156.0000    15.0115     9.4525   -70.2569   104.5823     7.7997     0.2891     0.0080   102.9571     0.1417     2.4421
  156.5000    14.6145     9.1372   -70.3891   105.1915     7.7854     0.3126     0.0082   104.1541     0.1432     2.4407
  157.0000    14.1892     8.5952   -70.3757   106.7053     7.7861     0.3138     0.0083   104.1681     0.1456     2.4334
  157.5000    13.1095     7.9478   -70.3603   108.2191     7.7867     0.3005     0.0025   101.8092     0.1527     2.4200
  158.0000    12.5876     7.5505   -70.3475   108.6803     7.7874     0.2960    -0.0003    95.3021     0.1611     2.4044
  158.5000    12.4224     7.5580   -70.3347   108.1947     7.7879     0.2852    -0.0032    94.7181     0.1679     2.3977
  159.0000    13.0505     7.7759   -70.3220   107.0257     7.8033     0.2762    -0.0091    96.9547     0.1707     2.3978
  159.5000    13.8983     8.5135   -70.3092   106.1244     7.8039     0.2620    -0.0119    98.7439     0.1683     2.3987
  160.0000    14.9037     9.1926   -70.2933   105.5250     7.7895     0.2593     0.0033    97.1062     0.1646     2.4026
  160.5000    15.5469     9.4576   -70.2806   105.4528     7.7902     0.2767    -0.0028    96.5446     0.1610     2.4117
  161.0000    15.9978     9.7302   -70.2678   104.9299     7.8056     0.2875    -0.0144    96.5589     0.1562     2.4178
  161.5000    16.1215     9.7380   -70.4030   103.4248     7.7914     0.2841    -0.0142    97.1630     0.1492     2.4269
  162.0000    16.1343     9.7460   -70.6861   103.5812     7.7921     0.2760    -0.0020   102.5078     0.1437     2.4360
  162.5000    16.1472     9.7555   -70.8213   103.8874     7.7927     0.2778     0.0162   103.1118     0.1393     2.4503
  163.0000    16.1601     9.7633   -71.3970   104.1182     7.7932     0.2796     0.0344   103.1233     0.1320     2.4589
  163.5000    16.1730     9.7712   -71.6802   104.3490     7.7938     0.2813     0.0527   104.4785     0.1225     2.4694
  164.0000    16.0746     9.7790   -72.2591   104.4288     7.7944     0.2819     0.0513   105.3684     0.1236     2.4717
  164.5000    16.0907     9.7868   -72.5454   104.5087     7.7950     0.2825     0.0348   102.2716     0.1260     2.4695
  165.0000    15.7734     9.5938   -72.5295   104.5895     7.8253     0.2741     0.0291   101.3914     0.1266     2.4727
  165.5000    15.6742     9.5355   -72.5163   104.5939     7.8109     0.2713     0.0564   100.9612     0.1224     2.4743
  166.0000    15.2595     9.3493   -71.9091   104.6737     7.8264     0.2716     0.0716   100.2319     0.1218     2.4751
  166.5000    15.0652     9.2906   -71.6005   104.9799     7.8121     0.2734     0.0717    99.0578     0.1223     2.4722
  167.0000    14.8705     9.2359   -71.2919   105.2862     7.8128     0.2756     0.0719    99.0697     0.1238     2.4694
  167.5000    14.4770     9.1778   -70.6874   105.6038     7.8133     0.2775     0.0600    98.4198     0.1271     2.4642
  168.0000    14.0967     9.0592   -70.6706   106.2016     7.8145     0.2799     0.0299    96.1325     0.1355     2.4508
  168.5000    13.7237     9.0683   -70.0670   106.6588     7.8443     0.2871    -0.0249    94.3662     0.1421     2.4449
  169.0000    13.3579     8.9443   -70.0542   107.1160     7.8597     0.3027    -0.0359    94.3777     0.1414     2.4458
  169.5000    12.8286     8.4785   -69.7456   107.7241     7.8750     0.3108    -0.0221    94.3891     0.1378     2.4467
  170.0000    11.9823     7.2896   -69.5849   109.2379     7.9201     0.3161     0.0247    94.9932     0.1378     2.4498
  170.5000     9.5469     6.2242   -69.5722   111.3736     7.9206     0.3197     0.0550    97.9676     0.1441     2.4446
  171.0000     8.3830     5.6944   -69.5463   115.7382     7.9064     0.3035     0.0552    96.1472     0.1678     2.4148
  171.5000     8.1595     5.5056   -69.3956   116.1954     7.9218     0.2966     0.0553    93.8452     0.1818     2.3842
  172.0000     8.3964     5.6643   -69.3828   114.9922     7.9224     0.2845     0.0494    95.0419     0.1905     2.3648
  172.5000    10.0554     6.5175   -69.3701   112.3551     7.9231     0.2857     0.0256    99.7941     0.1737     2.3932
  173.0000    12.2097     8.0696   -69.3573   109.5670     7.9236     0.2929     0.0197   104.6944     0.1505     2.4331
  173.5000    13.1976     8.8957   -69.3446   107.7547     7.9242     0.3004     0.0319   107.3725     0.1316     2.4601
  174.0000    13.9463     9.4083   -69.3097   105.8786     7.9248     0.3048     0.0351   106.9396     0.1220     2.4732
  174.5000    13.8586     9.4159   -69.1680   104.7498     7.9105     0.3039     0.0202    99.6785     0.1231     2.4733
  175.0000    13.8724     9.4234   -69.0073   104.4534     7.9111     0.3015     0.0128    96.3457     0.1234     2.4719
  175.5000    13.8835     9.3660   -68.9945   103.8540     7.8969     0.3000     0.0054    95.7147     0.1243     2.4705
  176.0000    13.9909     9.2450   -68.8339   104.2357     7.9124     0.2950     0.0100    99.1364     0.1267     2.4661
  176.5000    14.0021     9.1887   -68.6731   105.9759     7.8980     0.2855     0.0510   106.4071     0.1348     2.4513
  177.0000    14.3068     9.1979   -68.6572   107.5477     7.9135     0.2729     0.0632   106.7149     0.1410     2.4453
  177.5000    14.3208     9.2691   -68.6445   108.8536     7.9141     0.2687     0.0649   106.8745     0.1410     2.4447
  178.0000    14.7336     9.4055   -68.6317   108.7825     7.9295     0.2713     0.0575   106.4415     0.1408     2.4523
  178.5000    15.1583     9.4782   -68.6190   108.1076     7.9301     0.2734     0.0215   103.4173     0.1341     2.4577
  179.0000    15.3813     9.7514   -68.7544   106.3006     7.9307     0.2716     0.0096   102.0200     0.1316     2.4578
