~VERSION INFORMATION
 VERS.                2.0:   CWLS LOG ASCII STANDARD - VERSION 2.0
 WRAP.                 NO:   ONE LINE PER DEPTH STEP
~WELL INFORMATION
#MNEM.UNIT      DATA TYPE    INFORMATION
#----------   ------------   ------------------------------
 STRT.F           12.0000:   START DEPTH
 STOP.F          448.0000:   STOP DEPTH
 STEP.F            0.5000:   STEP LENGTH
 NULL.          -999.2500:   NO VALUE
 COMP. LAWRENCE/ALLISON INC:   COMPANY
 WELL. LI2 -52-61 SX10 #10-10:   WELL
 FLD .             TEAPOT:   FIELD
 LOC .      S10 T38N R78W:   LOCATION
 CNTY.            NATRONA:   COUNTY
 STAT.            WYOMING:   STATE
 CTRY. UNITED STATES OF AMERICA:   COUNTRY
 SRVC.      Dresser Atlas:   SERVICE COMPANY
 DATE.        13-JAN-1985:   LOGDATE
 API .       490251100400:   API NUMBER
~CURVE INFORMATION
#MNEM.UNIT       API CODE    CURVE DESCRIPTION
#----------   ------------   ------------------------------
 DEPT.F                  :   
 AC  .US/F   60 520 00 00:   ACCOUSTIC
 SPR .MV     11 010 01 00:   SPONTANEOUS POTENTIAL FROM RES.
 RD  .OHMM   11 220 10 00:   RESISTIVITY DEEP
 RS  .OHMM   11 220 09 00:   RESISTIVITY SHALLOW
 RMLL.OHMM   11 270 04 00:   MICRO LATEROLOG
 GRD .GAPI   45 310 01 00:   GAMMA RAY FROM DENSITY LOG
 CALD.IN     45 280 60 00:   CALIPER FROM DENSITY LOG
 CORR.G/C3   45 356 01 00:   DENSITY CORRECTION
 DEN .G/C3   45 350 01 00:   COMPENSATED BULK DENSTIY
 PORD.DEC    45 890 12 00:   POROSITY DENSITY SANDSTONE
 CNC .DEC    42 890 03 00:   NEUTRON POROSITY SANDSTONE
~PARAMETER INFORMATION
#MNEM.UNIT          VALUE    DESCRIPTION
#----------   ------------   ------------------------------
 PD  .                 GL:   PERMANENT DATUM
 EPD .F              5156:   ELEVATION PERMANENT DATUM
 LMF .                 GL:   LOG MEASURED FROM
 DMF .                 GL:   DRILLING MEASURED FROM
 EGL .F              5156:   GROUND LEVEL
 DATE.        13-JAN-1985:   RUN DATE
 RUN .                  1:   RUN NUMBER
 DD  .F               450:   DEPTH DRILLER
 DL  .F               450:   DEPTH LOGGER
 BLI .F               448:   BOTTOM LOG INTERVAL
 TLI .F                20:   TOP LOG INTERVAL
 CS  .IN            8.625:   CASING SIZE
 CBD .F                20:   CASING BOTTOM DRILLER
 CBL .F                20:   CASING BOTTOM LOGGER
 BS  .IN            7.875:   BIT SIZE
 BSD .F               450:   BIT SIZE AT DEPTH
 DFT .            KCL-H2O:   DRILLING FLUID TYPE
 MSS .               TANK:   MUD SAMPLE SOURCE
 RMS .OHMM           0.16:   RESISTIVITY MUD SAMPLE
 MST .F                20:   MUD SAMPLE TEMPERATURE
 RMF .OHMM           0.12:   RESISTIVITY MUD FILTRATE SAMPLE
 MFST.F                20:   MUD FILTRATE SAMPLE TEMPERATURE
 RMC .OHMM            0.2:   RESISTIVITY MUD CAKE
 MCST.F                20:   MUD CAKE SAMPLE TEMPERATURE
 MFSS.               CALC:   MUD FILTRATE SAMPLE SOURCE
 MCSS.               CALC:   MUD CAKE SAMPLE SOURCE
 BHT .F               100:   BOTTOM HOLE TEMPERATURE
 TCS .HRS               2:   TIME CURCULATED STOPPED
 MRT .F               100:   MAXIMUM RECORDED TEMPERATURE
 LUN .               6270:   LOGGING UNIT NUMBER
 LUL .                 FM:   LOGGING UNIT LOCATION
 ENGI.          E. GOVETT:   RECORDING ENGINEER
 WITN.             GROOMS:   WITNESSED BY
 CLNT.            A2DTECH:   CLIENT CODE
 ORIG.        2" 5" PRINT:   ORIGIN OF DATA
 UWI .       490251100400:   UNIQUE WELL ID
 DICO. A2D Technologies, Inc.:   DIGITIZING COMPANY
 R1  . POROSITY WITH SANDSTONE:   REMARKS 1
~OTHER INFORMATION
~A   DEPT       AC        SPR         RD         RS       RMLL         GRD      CALD       CORR        DEN       PORD        CNC   
# ...
  225.5000    98.2317   -44.7324    15.6707    11.1047     9.4627   109.4633     8.0441     0.0173     2.4807     0.1183     0.2859
  226.0000    97.2595   -44.8858    16.9102    12.2350     9.9996   108.1012     8.0433     0.0097     2.4792     0.1165     0.2802
  226.5000    96.5126   -44.8887    17.6240    12.7506    10.3487   106.7392     8.0424     0.0050     2.4829     0.1147     0.2787
  227.0000    95.9160   -44.8916    17.9885    13.0134    10.4162   105.5276     8.0413     0.0035     2.4844     0.1138     0.2848
  227.5000    95.6950   -44.8952    18.1069    12.8262    10.4102   104.6165     8.0557     0.0049     2.4873     0.1139     0.2921
  228.0000    96.4509   -44.8980    17.2378    12.0422    10.1198   105.3578     8.0396     0.0154     2.4881     0.1229     0.2994
  228.5000   100.8881   -44.9009    14.0830    10.6941     9.3700   108.8078     8.0387     0.0105     2.4865     0.1293     0.3293
  229.0000   109.2983   -44.9038     8.4471     6.8962     5.2211   112.4082     8.0379    -0.0044     2.4788     0.1487     0.3451
  229.5000   112.9246   -44.7560     7.6287     6.0811     3.5019   119.1665     8.0521     0.0001     2.4517     0.1907     0.3469
  230.0000   112.6271   -44.7596     8.1750     5.9950     3.6579   128.6316     8.0510     0.0227     2.3504     0.2131     0.2967
  230.5000   106.9661   -44.7625     8.9452     7.0802     5.9915   131.6283     8.0501     0.0483     2.3202     0.2013     0.2740
  231.0000   101.1368   -44.7653    12.7496    10.1611    10.6681   125.4543     8.0493     0.0588     2.3466     0.1509     0.2716
  231.5000    97.0091   -44.7682    16.6507    12.0942    12.4266   113.2652     8.0484     0.0158     2.4040     0.1155     0.2764
  232.0000    95.9617   -44.7711    18.1648    13.6899    11.2669   112.3543     8.0475     0.0178     2.4794     0.1074     0.2743
  232.5000    95.5905   -44.6233    18.2844    14.0713    11.1061   112.3457     8.0465     0.0238     2.5006     0.1059     0.2777
  233.0000    95.3684   -44.3257    18.2753    14.1629    11.2578   109.6749     8.0456     0.0267     2.5036     0.1029     0.2765
  233.5000    95.2978   -44.1773    18.2681    14.2538    11.2513   102.7022     8.0447     0.0297     2.5028     0.0965     0.2659
  234.0000    95.5287   -43.8796    18.1325    14.1481    11.2460   103.5958     8.0439     0.0311     2.5118     0.0923     0.2623
  234.5000    96.3596   -43.5813    17.9996    14.0420    10.9312   106.2940     8.0430     0.0280     2.5202     0.0929     0.2690
  235.0000    97.3408   -43.2830    17.8678    13.8415    10.8504   105.0824     8.0419     0.0264     2.5230     0.0990     0.2741
  235.5000    98.0214   -42.8347    17.8607    13.8351    10.6214   102.3594     8.0411     0.0218     2.5162     0.1129     0.2744
  236.0000    98.5518   -42.5357    17.9815    14.1204    10.3972   103.2584     8.0402     0.0172     2.4905     0.1199     0.2693
  236.5000    98.7805   -42.0874    18.9977    14.8359    10.7423   104.6032     8.0546     0.0126     2.4768     0.1220     0.2681
  237.0000    97.1332   -41.4809    21.0788    16.4384    12.7968   105.0478     8.0686     0.0125     2.4738     0.1227     0.2681
  237.5000    96.4615   -40.8891    22.9049    17.6144    14.2968   102.0295     8.0526     0.0276     2.4745     0.1245     0.2669
  238.0000    97.3675   -40.2896    25.0629    19.4072    13.3299    91.0435     8.0516     0.0335     2.4714     0.1345     0.2555
  238.5000    98.7995   -39.6900    27.3057    21.2343     7.4786    78.1860     8.0507     0.0214     2.4442     0.1514     0.2433
  239.0000    99.1796   -39.2411    30.2144    24.4751     7.6328    69.3699     8.0498     0.0122     2.3981     0.1744     0.2410
  239.5000    98.0451   -38.6225    33.5243    28.0176    10.2181    66.5042     8.0642     0.0122     2.3739     0.1811     0.2437
  240.0000    95.4821   -37.7415    36.9389    31.0847    14.8700    63.1873     8.0632     0.0074     2.3830     0.1712     0.2458
  240.5000    94.4513   -37.1412    39.8606    34.7284    15.9341    59.4192     8.0621     0.0060     2.4335     0.1391     0.2437
  241.0000    94.5364   -36.2412    42.1210    36.1920    13.8973    60.5034     8.0612     0.0134     2.4463     0.1364     0.2416
  241.5000    99.4284   -35.4911    41.8124    36.6819    12.1352    67.8209     8.0756     0.0224     2.4478     0.1416     0.2459
  242.0000   104.0159   -34.7289    39.2593    36.6607    10.3362    70.3686     8.0745     0.0375     2.4281     0.1576     0.2697
  242.5000   107.4012   -33.9915    37.9022    36.1374     8.8653    71.4126     8.0737     0.0510     2.3978     0.1773     0.2810
  243.0000   108.8332   -33.5418    37.3638    34.8859     7.7103    72.1580     8.0728     0.0358     2.3720     0.1910     0.2816
  243.5000   110.4154   -32.9430    36.5740    33.6778     6.7518    72.1473     8.0870     0.0221     2.3426     0.2054     0.2783
  244.0000   111.6971   -32.3434    36.3060    32.2823     6.3391    69.6123     8.0859     0.0311     2.3199     0.2142     0.2759
  244.5000   113.1290   -31.8800    35.7902    31.3819     6.1196    65.8121     8.1003     0.0567     2.3101     0.2197     0.2799
  245.0000   113.8848   -31.2957    35.5280    31.1499     6.2893    67.6079     8.1145     0.0628     2.3070     0.2215     0.2899
  245.5000   113.6639   -30.9966    35.2675    31.3529     7.2803    72.2610     8.1287     0.0516     2.3062     0.2215     0.3138
  246.0000   112.4662   -30.3978    35.2503    32.0022     6.8298    76.0117     8.1426     0.0414     2.3100     0.2154     0.3040
  246.5000   110.3670   -29.9488    34.9921    34.0470     6.7331    75.9954     8.1415     0.0428     2.3341     0.2010     0.2820
  247.0000   108.3429   -29.3323    34.7357    35.2357     7.7877    70.4284     8.1559     0.0563     2.3484     0.1953     0.2681
  247.5000   107.4458   -28.4493    34.9645    35.9663     9.0714    67.8634     8.1548     0.0623     2.3499     0.1944     0.2675
  248.0000   106.8492   -27.8497    36.2240    36.4533     9.4536    68.9074     8.1540     0.0456     2.3566     0.1902     0.2767
  248.5000   106.5530   -27.4008    37.1939    36.4320     7.5626    73.8612     8.1531     0.0315     2.3650     0.1863     0.2800
  249.0000   107.0835   -26.8013    36.4077    35.6591     6.5317    75.2060     8.1520     0.0213     2.3671     0.1857     0.2842
  249.5000   109.2668   -26.6535    35.1492    35.3955     5.9228    74.0768     8.1512     0.0273     2.3558     0.1914     0.2927
  250.0000   111.0744   -26.3552    34.8917    35.3792     5.8791    71.5797     8.1505     0.0317     2.3430     0.1991     0.3030
  250.5000   111.5289   -26.2132    36.3630    35.6712     6.8485    71.7200     8.1586     0.0280     2.3293     0.2084     0.3034
  251.0000   110.0318   -25.7686    36.9637    36.3578     7.5465    73.5597     8.1636     0.0223     2.3262     0.2109     0.3007
  251.5000   108.5337   -25.4744    36.5851    36.6022     7.8116    75.4601     8.1174     0.0150     2.3314     0.2076     0.2868
  252.0000   106.5847   -25.1747    34.8323    34.5825     7.5941    75.7523     8.1015     0.0180     2.3397     0.2028     0.2711
  252.5000   106.2135   -24.7361    33.8629    33.1854     7.1308    75.8962     8.0706     0.0209     2.3464     0.1985     0.2684
  253.0000   106.0677   -24.4421    33.3816    32.7182     6.5040    75.2840     8.0547     0.0239     2.3419     0.2031     0.2638
  253.5000   104.4944   -23.9993    33.4065    33.1677     6.1143    72.0226     8.0388     0.0270     2.3358     0.2052     0.2558
  254.0000    99.8557   -23.5547    36.2551    35.5477     6.9760    69.0992     8.0377     0.0389     2.3388     0.2025     0.2409
  254.5000    95.6935   -23.2607    39.1226    37.3116    12.5968    70.1433     8.0369     0.0434     2.3689     0.1864     0.2376
  255.0000    94.8909   -22.9667    41.6337    40.6058    13.7845    73.8941     8.0210     0.0267     2.4104     0.1624     0.2379
  255.5000    95.8979   -22.6745    42.7920    42.2661    11.7425    75.2389     8.0051     0.0204     2.4142     0.1585     0.2404
