~VERSION INFORMATION
 VERS.                2.0:   CWLS LOG ASCII STANDARD - VERSION 2.0
 WRAP.                 NO:   ONE LINE PER DEPTH STEP
~WELL INFORMATION
#MNEM.UNIT      DATA TYPE    INFORMATION
#----------   ------------   ------------------------------
 STRT.F           30.0000:   START DEPTH
 STOP.F          620.0000:   STOP DEPTH
 STEP.F            0.5000:   STEP LENGTH
 NULL.          -999.2500:   NO VALUE
 COMP. FENIX & SCISSON INC:   COMPANY
 WELL.       NPR-3 #62-15:   WELL
 FLD .             TEAPOT:   FIELD
 LOC .      S15 T38N R78W:   LOCATION
 CNTY.            NATRONA:   COUNTY
 STAT.            WYOMING:   STATE
 CTRY. UNITED STATES OF AMERICA:   COUNTRY
 SRVC.           BIRDWELL:   SERVICE COMPANY
 DATE.        08-JUN-1978:   LOGDATE
 API .       490251063700:   API NUMBER
~CURVE INFORMATION
#MNEM.UNIT       API CODE    CURVE DESCRIPTION
#----------   ------------   ------------------------------
 DEPT.F                  :   
 SPR .MV     05 010 01 00:   SPONTANEOUS POTENTIAL FROM RES.
 SN  .OHMM   05 040 16 00:   SHORT NORMAL 16"
 ILD .OHMM   05 120 46 00:   INDUCTION LOG DEEP
 CALD.IN     45 280 60 00:   CALIPER FROM DENSITY LOG
 GRD .GAPI   45 310 01 00:   GAMMA RAY FROM DENSITY LOG
 CORR.G/C3   45 356 01 00:   DENSITY CORRECTION
 DPHI.DEC    45 890 12 00:   DENSITY POROSITY SANDSTONE
 DEN .G/C3   45 350 01 00:   DENSITY
~PARAMETER INFORMATION
#MNEM.UNIT          VALUE    DESCRIPTION
#----------   ------------   ------------------------------
 PD  .                 GL:   PERMANENT DATUM
 EPD .F              5246:   ELEVATION PERMANENT DATUM
 LMF .                 KB:   LOG MEASURED FROM
 DAPD.F                 4:   FEET ABOVE PERMANENT DATUM
 DMF .                 KB:   DRILLING MEASURED FROM
 EKB .F              5250:   KELLING BUSHING
 EGL .F              5246:   GROUND LEVEL
 DATE.        08-JUN-1978:   RUN DATE
 RUN .                  1:   RUN NUMBER
 DD  .F               620:   DEPTH DRILLER
 DL  .F               627:   DEPTH LOGGER
 BLI .F               620:   BOTTOM LOG INTERVAL
 TLI .F                42:   TOP LOG INTERVAL
 CS  .IN            8.625:   CASING SIZE
 CBD .F                40:   CASING BOTTOM DRILLER
 CBL .F                42:   CASING BOTTOM LOGGER
 BS  .IN            7.875:   BIT SIZE
 BSD .F               620:   BIT SIZE AT DEPTH
 DFT .                KCL:   DRILLING FLUID TYPE
 DFD .                8.7:   DRILLING FLUID DENSITY
 DFV .                 31:   DRILLING FLUID VISCOSITY
 DFPH.               10.5:   DRILLING FLUID PH
 DFL .                 10:   DRILLING FLUID LOSS
 MSS .           FLOWLINE:   MUD SAMPLE SOURCE
 RMS .OHMM            .26:   RESISTIVITY MUD SAMPLE
 MST .F                76:   MUD SAMPLE TEMPERATURE
 RMF .OHMM            .28:   RESISTIVITY MUD FILTRATE SAMPLE
 MFST.F                76:   MUD FILTRATE SAMPLE TEMPERATURE
 RMC .OHMM            .40:   RESISTIVITY MUD CAKE
 MCST.F                77:   MUD CAKE SAMPLE TEMPERATURE
 MFSS.               MEAS:   MUD FILTRATE SAMPLE SOURCE
 MCSS.               MEAS:   MUD CAKE SAMPLE SOURCE
 RMB .OHMM            .28:   RESISTIVITY MUD AT BHT
 BHT .F                70:   BOTTOM HOLE TEMPERATURE
 TCS .HRS            0400:   TIME CURCULATED STOPPED
 MRT .F                70:   MAXIMUM RECORDED TEMPERATURE
 LUN .               2958:   LOGGING UNIT NUMBER
 LUL .               CASP:   LOGGING UNIT LOCATION
 ENGI.             MILLER:   RECORDING ENGINEER
 WITN.           MCGINLEY:   WITNESSED BY
 CLNT.            A2DTECH:   CLIENT CODE
 ORIG.           5" PRINT:   ORIGIN OF DATA
 UWI .       490251063700:   UNIQUE WELL ID
 DICO. A2D Technologies, Inc.:   DIGITIZING COMPANY
~OTHER INFORMATION
~A   DEPT      SPR         SN        ILD       CALD        GRD       CORR       DPHI        DEN   
# ...
  192.0000   -38.8610     9.1853     6.2022     7.9439    85.5835     0.0189     0.1152     2.4806
  192.5000   -38.8463     8.9391     6.2047     7.9284    86.1815     0.0189     0.1158     2.4873
  193.0000   -38.8303     8.8206     6.2072     7.8828    87.6830     0.0188     0.1149     2.4888
  193.5000   -38.8168     8.8249     6.2097     7.8070    91.7448     0.0187     0.1126     2.4880
  194.0000   -38.8020     8.8292     6.1694     7.8216    90.2343     0.0187     0.1099     2.4918
  194.5000   -38.7873     8.8343     6.1295     7.8814    87.9707     0.0186     0.1081     2.4955
  195.0000   -38.7725     8.8385     6.0898     7.8810    85.8578     0.0186     0.1090     2.4977
  195.5000   -38.7575     8.8427     6.0923     7.8957    84.0461     0.0185     0.1135     2.4984
  196.0000   -38.9162     8.8469     6.0948     7.8951    83.5909     0.0199     0.1171     2.4944
  196.5000   -39.1775     8.8511     6.0974     7.8947    88.1034     0.0244     0.1138     2.4876
  197.0000   -39.3124     8.8553     6.1003     7.8792    92.0145     0.0266     0.1115     2.4878
  197.5000   -39.1443     8.8595     6.1451     7.8486    95.6245     0.0287     0.1085     2.4908
  198.0000   -38.6805     8.8637     6.1476     7.7879    98.1802     0.0294     0.1079     2.4922
  198.5000   -38.5160     8.8069     6.1502     7.8025    99.2300     0.0301     0.1079     2.4960
  199.0000   -38.2019     8.8111     6.1527     7.9376    99.8290     0.0301     0.1073     2.5004
  199.5000   -38.1872     8.8153     6.1552     8.0576    98.4680     0.0285     0.1052     2.5019
  200.0000   -38.2560     8.8194     6.1629     8.1531    95.6657     0.0284     0.1047     2.4996
  200.5000   -38.6082     8.8849     6.2036     8.1857    92.4070     0.0277     0.1086     2.4943
  201.0000   -38.4402     8.9516     6.1206     8.2223    89.1483     0.0271     0.1119     2.4891
  201.5000   -38.4256     9.0179     6.0813     8.2371    88.8208     0.0283     0.1128     2.4883
  202.0000   -38.2613     8.9590     6.0429     8.2367    89.7470     0.0312     0.1125     2.4905
  202.5000   -38.2467     8.9015     6.0041     8.2213    91.9051     0.0341     0.1131     2.4927
  203.0000   -38.0824     8.8444     6.0070     8.1759    94.2380     0.0341     0.1062     2.4942
  203.5000   -38.0679     8.8496     6.0105     8.1304    92.8178     0.0340     0.1071     2.4957
  204.0000   -38.0533     8.7927     6.0133     8.0548    90.6988     0.0340     0.1056     2.4956
  204.5000   -38.0387     8.7969     5.9747     7.9792    88.5527     0.0324     0.1044     2.4956
  205.0000   -38.0240     8.8012     5.9775     7.8885    88.2079     0.0308     0.1073     2.4933
  205.5000   -38.1592     8.8062     5.9803     7.7978    93.4771     0.0263     0.1139     2.4918
  206.0000   -38.1409     8.8104     5.9831     7.7072    95.5844     0.0262     0.1136     2.4910
  206.5000   -38.1263     8.7528     5.9859     7.6466    94.9801     0.0307     0.1104     2.4925
  207.0000   -38.1118     8.6966     5.9888     7.6313    93.7738     0.0336     0.1089     2.4955
  207.5000   -38.0972     8.7017     5.9923     7.6460    91.5133     0.0380     0.1071     2.4992
  208.0000   -38.3856     8.6448     5.9951     7.6759    88.9516     0.0395     0.1032     2.5029
  208.5000   -38.6668     8.6499     5.9979     7.7358    86.5404     0.0409     0.0989     2.5072
  209.0000   -38.9521     8.6540     6.0007     7.8259    84.4305     0.0408     0.0948     2.5126
  209.5000   -39.0868     8.6582     5.9622     7.8858    83.2242     0.0408     0.0937     2.5133
  210.0000   -38.9222     8.6632     5.9650     7.9157    84.7287     0.0407     0.0925     2.5133
  210.5000   -38.8817     8.6666     5.9678     7.9153    89.2453     0.0422     0.0898     2.5162
  211.0000   -38.7399     8.6713     5.9706     7.9000    89.3947     0.0421     0.0889     2.5192
  211.5000   -38.7253     8.6754     5.9735     7.8394    89.2423     0.0420     0.0884     2.5192
  212.0000   -38.7107     8.6795     5.9769     7.7789    89.6926     0.0405     0.0875     2.5177
  212.5000   -38.6961     8.6836     6.0211     7.7786    91.0465     0.0404     0.0878     2.5154
  213.0000   -38.6815     8.6876     6.0240     7.7632    90.4426     0.0389     0.0932     2.5146
  213.5000   -38.6669     8.6918     6.0268     7.7629    87.5797     0.0358     0.0980     2.5138
  214.0000   -38.6523     8.6960     6.0296     7.7626    93.4516     0.0372     0.1025     2.5115
  214.5000   -38.6377     8.7009     6.0325     7.7623    96.3116     0.0357     0.1046     2.5033
  215.0000   -38.6228     8.7050     6.0353     7.7620    94.6535     0.0311     0.1019     2.4972
  215.5000   -38.6049     8.7091     6.0382     7.7617    92.2423     0.0311     0.1023     2.4987
  216.0000   -38.7436     8.7132     6.0417     7.7614    90.2830     0.0235     0.1091     2.5039
  216.5000   -38.7254     8.7173     6.0445     7.7611    89.9803     0.0145     0.1143     2.4844
  217.0000   -38.7108     8.7214     6.0473     7.7759    90.5812     0.0129     0.1152     2.4828
  217.5000   -38.6962     8.7255     6.0502     7.8058    91.9351     0.0159     0.1131     2.4866
  218.0000   -38.6816     8.7300     6.0530     7.8355    94.0421     0.0158     0.1110     2.4910
  218.5000   -38.6670     8.7953     6.0559     7.8804    96.1490     0.0158     0.1101     2.4918
  219.0000   -38.6524     8.7995     6.0587     7.9253    97.8041     0.0157     0.1101     2.4917
  219.5000   -38.6377     8.8036     6.0198     7.9401    97.9536     0.0156     0.1095     2.4917
  220.0000   -38.6228     8.8077     5.9819     7.9397    97.1987     0.0156     0.1106     2.4917
  220.5000   -38.6050     8.8119     5.9847     7.9244    95.8418     0.0170     0.1128     2.4909
  221.0000   -38.5904     8.8160     5.9875     7.8789    95.0873     0.0170     0.1116     2.4871
  221.5000   -38.5758     8.8202     5.9903     7.8635    94.1822     0.0184     0.1098     2.4848
  222.0000   -38.5612     8.8855     5.9511     7.8632    89.5119     0.0198     0.1068     2.4923
  222.5000   -38.5466     8.9514     5.9546     7.8780    92.5224     0.0228     0.1024     2.5005
  223.0000   -38.5320     8.9566     5.9574     7.8777    94.7800     0.0242     0.0997     2.5057
  223.5000   -38.5174     9.0229     5.9603     7.9075    95.9833     0.0152     0.1012     2.5065
  224.0000   -38.5028     9.0272     5.9637     7.9223    96.4340     0.0076     0.1074     2.4907
  224.5000   -38.6380     8.9692     6.0079     7.9220    91.1610     0.0061     0.1118     2.4824
  225.0000   -38.6228     8.9735     6.0103     7.8614    90.5571     0.0120     0.1149     2.4846
  225.5000   -38.6051     8.9148     6.0552     7.8159    89.8026     0.0209     0.1168     2.4778
  226.0000   -38.5905     8.9201     6.0581     7.7554    86.1866     0.0283     0.1096     2.4876
  226.5000   -38.5759     8.8628     6.0609     7.8153    90.1008     0.0298     0.1027     2.5018
  227.0000   -38.5601     8.8059     6.0637     7.8753    93.1114     0.0297     0.0967     2.5123
  227.5000   -38.5467     8.8111     6.0667     7.9052    94.7665     0.0296     0.0952     2.5160
  228.0000   -38.6806     8.7535     6.0701     7.9199    93.8614     0.0281     0.0959     2.5219
  228.5000   -38.6673     8.7587     6.0611     7.9347    90.8478     0.0265     0.0929     2.5279
  229.0000   -38.6527     8.7628     5.9925     7.9494    90.2179     0.0220     0.0917     2.5271
  229.5000   -38.6377     8.7669     5.9533     7.9491    91.2966     0.0204     0.0920     2.5211
  230.0000   -38.7732     8.6507     5.9568     7.9337    97.6204     0.0249     0.1040     2.5098
  230.5000   -38.7549     8.5950     5.9596     7.9184    98.8409     0.0301     0.1049     2.5015
  231.0000   -38.8937     8.5400     5.9624     7.9030    98.3704     0.0337     0.1046     2.5038
  231.5000   -38.8755     8.4852     5.9241     7.8876    97.6159     0.0351     0.1055     2.5045
  232.0000   -38.8609     8.3726     5.9276     7.8723    96.1084     0.0351     0.1061     2.5037
