~VERSION INFORMATION
 VERS.                2.0:   CWLS LOG ASCII STANDARD - VERSION 2.0
 WRAP.                 NO:   ONE LINE PER DEPTH STEP
~WELL INFORMATION
#MNEM.UNIT      DATA TYPE    INFORMATION
#----------   ------------   ------------------------------
 STRT.F           39.0000:   START DEPTH
 STOP.F          478.0000:   STOP DEPTH
 STEP.F            0.5000:   STEP LENGTH
 NULL.          -999.2500:   NO VALUE
 COMP. FENIX & SCISSON, INC.:   COMPANY
 WELL.  S-3 NPR #3 #46S-3:   WELL
 FLD .              NPR-3:   FIELD
 LOC .       S3 T38N R78W:   LOCATION
 CNTY.            NATRONA:   COUNTY
 STAT.            WYOMING:   STATE
 CTRY. UNITED STATES OF AMERICA:   COUNTRY
 SRVC.      Dresser Atlas:   SERVICE COMPANY
 DATE.        28-MAR-1977:   LOGDATE
 API .       490251034100:   API NUMBER
~CURVE INFORMATION
#MNEM.UNIT       API CODE    CURVE DESCRIPTION
#----------   ------------   ------------------------------
 DEPT.F                  :   
 ILD .OHMM   07 120 46 00:   INDUCTION LOG DEEP
 ILM .OHMM   07 120 44 00:   INDUCTION LOG MEDIUM
 SFL .OHMM   07 220 01 00:   SHALLOW FOCUSED LOG RESISTIVITY
 SPR .MV     07 010 01 00:   SPONTANEOUS POTENTIAL
 CALD.IN     45 280 60 00:   CALIPER FROM DENSITY LOG
 GRD .GAPI   45 310 01 00:   GAMMA RAY FROM DENSITY LOG
 DPHI.DEC    45 890 12 00:   DENSITY POROSITY SANDSTONE
 RHOB.G/C3   45 350 01 00:   BULK DENSITY
 DRHO.G/C3   45 356 01 00:   DENSITY CORRECTION
~PARAMETER INFORMATION
#MNEM.UNIT          VALUE    DESCRIPTION
#----------   ------------   ------------------------------
 PD  .                 GL:   PERMANENT DATUM
 EPD .F              5186:   ELEVATION PERMANENT DATUM
 LMF .                 KB:   LOG MEASURED FROM
 DAPD.F                 3:   FEET ABOVE PERMANENT DATUM
 DMF .                 KB:   DRILLING MEASURED FROM
 EKB .F              5189:   KELLING BUSHING
 EGL .F              5186:   GROUND LEVEL
 DATE.        28-MAR-1977:   RUN DATE
 RUN .                  1:   RUN NUMBER
 DD  .F               480:   DEPTH DRILLER
 DL  .F               480:   DEPTH LOGGER
 BLI .F               478:   BOTTOM LOG INTERVAL
 TLI .F                40:   TOP LOG INTERVAL
 CS  .IN            8.625:   CASING SIZE
 CBD .F                40:   CASING BOTTOM DRILLER
 CBL .F                40:   CASING BOTTOM LOGGER
 BS  .IN            7.875:   BIT SIZE
 BSD .F               480:   BIT SIZE AT DEPTH
 DFT .           CHEM GEL:   DRILLING FLUID TYPE
 DFD .                8.9:   DRILLING FLUID DENSITY
 DFV .                 39:   DRILLING FLUID VISCOSITY
 DFPH.                 11:   DRILLING FLUID PH
 DFL .                 16:   DRILLING FLUID LOSS
 MSS .           FLOWLINE:   MUD SAMPLE SOURCE
 RMS .OHMM           0.41:   RESISTIVITY MUD SAMPLE
 MST .F                40:   MUD SAMPLE TEMPERATURE
 RMF .OHMM           0.29:   RESISTIVITY MUD FILTRATE SAMPLE
 MFST.F                62:   MUD FILTRATE SAMPLE TEMPERATURE
 RMC .OHMM           0.28:   RESISTIVITY MUD CAKE
 MCST.F                62:   MUD CAKE SAMPLE TEMPERATURE
 MFSS.               MEAS:   MUD FILTRATE SAMPLE SOURCE
 MCSS.               MEAS:   MUD CAKE SAMPLE SOURCE
 RMB .OHMM           0.26:   RESISTIVITY MUD AT BHT
 BHT .F                62:   BOTTOM HOLE TEMPERATURE
 TCS .HRS               6:   TIME CURCULATED STOPPED
 MRT .F                62:   MAXIMUM RECORDED TEMPERATURE
 LUN .               6145:   LOGGING UNIT NUMBER
 LUL .              GLTTE:   LOGGING UNIT LOCATION
 ENGI.              RANCK:   RECORDING ENGINEER
 WITN.     MR. STUEBINGER:   WITNESSED BY
 CLNT.            A2DTECH:   CLIENT CODE
 ORIG.           5" PRINT:   ORIGIN OF DATA
 UWI .       490251034100:   UNIQUE WELL ID
 DICO. A2D Technologies, Inc.:   DIGITIZING COMPANY
~OTHER INFORMATION
~A   DEPT      ILD        ILM        SFL        SPR       CALD         GRD      DPHI       RHOB       DRHO   
# ...
  367.5000    23.9262    24.4490    34.4382   -27.2444     7.9286    73.2262     0.1866     2.3504     0.0170
  368.0000    23.2871    23.4635    36.9503   -27.0751     7.9304    74.3269     0.2004     2.3269     0.0142
  368.5000    22.6651    23.1399    35.4333   -27.0375     7.9321    75.6467     0.1974     2.3207     0.0176
  369.0000    22.0517    22.6897    34.4789   -26.8821     7.9339    76.4159     0.1946     2.3260     0.0265
  369.5000    21.4472    22.2368    33.3689   -26.7162     7.9356    76.1388     0.1919     2.3344     0.0312
  370.0000    20.9012    22.7315    31.7689   -26.6938     7.9373    74.9648     0.1964     2.3367     0.0344
  370.5000    20.4852    24.5693    29.8604   -26.5246     7.9236    73.6414     0.2009     2.3293     0.0360
  371.0000    19.9381    28.2877    27.6782   -26.5055     7.8939    75.0085     0.2020     2.3174     0.0347
  371.5000    19.1368    30.3543    30.1142   -26.3363     7.8385    76.5251     0.1972     2.3190     0.0333
  372.0000    18.4962    26.9794    32.3113   -26.1671     7.8100    78.5022     0.1870     2.3311     0.0275
  372.5000    18.1244    25.3543    31.8880   -25.9979     7.7819    77.0079     0.1795     2.3439     0.0187
  373.0000    17.8913    23.4962    30.8194   -25.8286     7.7687    74.3539     0.1686     2.3702     0.0158
  373.5000    17.7818    22.0810    28.1718   -25.6592     7.7555    73.6229     0.1637     2.3801     0.0190
  374.0000    17.7968    21.1910    27.0387   -25.4895     7.7274    73.6502     0.1625     2.3862     0.0222
  374.5000    17.5678    20.6190    25.5799   -25.3162     7.7296    73.3731     0.1631     2.3848     0.0223
  375.0000    17.3386    20.0707    25.0814   -25.1470     7.7164    71.6012     0.1649     2.3774     0.0195
  375.5000    17.1090    19.5330    25.4572   -25.1279     7.7182    69.2314     0.1705     2.3677     0.0137
  376.0000    17.0040    19.5492    25.6543   -24.9587     7.7203    69.2533     0.1774     2.3588     0.0138
  376.5000    17.0213    19.7029    25.8530   -24.9396     7.7067    70.9194     0.1792     2.3559     0.0140
  377.0000    17.0352    20.1406    25.5144   -24.9205     7.7089    72.9128     0.1795     2.3559     0.0164
  377.5000    17.1683    20.5845    24.8317   -24.7513     7.6953    74.2570     0.1785     2.3569     0.0174
  378.0000    17.1823    20.7459    25.0241   -24.5821     7.6821    74.5778     0.1770     2.3584     0.0190
  378.5000    17.3169    20.6182    25.7505   -24.4129     7.6544    74.8986     0.1764     2.3592     0.0176
  379.0000    17.4527    20.2067    26.4980   -24.2432     7.5965    75.6678     0.1760     2.3593     0.0148
  379.5000    17.4698    20.2232    26.8899   -24.2237     7.5535    76.4370     0.1769     2.3594     0.0135
  380.0000    17.4841    20.5248    25.8084   -24.0506     7.5393    76.7578     0.1790     2.3580     0.0092
  380.5000    17.4966    20.9771    25.4703   -23.7312     7.5421    76.1817     0.1823     2.3551     0.0063
  381.0000    17.5126    21.2900    25.6724   -23.7121     7.5890    75.3067     0.1862     2.3462     0.0020
  381.5000    17.5962    19.4741    25.8712   -23.5429     7.6355    74.8801     0.1911     2.3325    -0.0024
  382.0000    17.6639    17.5361    26.2539   -23.5238     7.6969    74.9028     0.1957     2.3148    -0.0052
  382.5000    17.8020    17.1826    26.8284   -23.2044     7.7136    75.6767     0.1968     2.3202    -0.0050
  383.0000    17.8166    17.4424    26.1106   -23.1854     7.7303    76.2964     0.1932     2.3308    -0.0018
  383.5000    17.8315    17.7026    25.2356   -23.1663     7.7469    76.1688     0.1863     2.3406     0.0028
  384.0000    17.7252    18.0927    23.3914   -22.9970     7.7338    75.2937     0.1826     2.3475     0.0045
  384.5000    17.6128    18.3588    21.9857   -22.9775     7.7355    73.2174     0.1832     2.3483     0.0046
  385.0000    17.1458    16.7805    21.3834   -23.1091     7.7223    75.3374     0.1868     2.3431     0.0018
  385.5000    16.2289    15.8801    20.6847   -23.0852     7.6947    76.2561     0.1892     2.3357    -0.0040
  386.0000    14.7316    15.3362    21.5838   -23.2163     7.6218    75.6761     0.1906     2.3328    -0.0084
  386.5000    14.6382    15.1465    22.5220   -23.1972     7.4593    74.6555     0.1705     2.3485    -0.0067
  387.0000    14.7556    15.4835    23.0149   -23.3331     7.1775    75.7292     0.1539     2.3803    -0.0035
  387.5000    14.8710    15.8247    23.3510   -23.4641     7.2240    76.6479     0.1404     2.4201     0.0012
  388.0000    14.9876    16.0056    22.2561   -23.8955     7.3302    77.1182     0.1289     2.4480     0.0088
  388.5000    15.0001    16.3347    24.0513   -24.1720     7.4812    76.9851     0.1124     2.4901     0.0165
  389.0000    15.0147    16.5434    26.1681   -24.7535     7.6322    76.4144     0.0811     2.5232     0.0226
  389.5000    15.0270    16.6731    27.1160   -25.0347     7.7534    76.2813     0.0703     2.5382     0.0243
  390.0000    14.9317    16.9218    31.7065   -25.1658     7.7705    76.6076     0.0676     2.5323     0.0259
  390.5000    14.5358    17.0546    35.2237   -25.1420     7.7722    76.3305     0.0720     2.5219     0.0246
  391.0000    14.2436    17.0685    34.4474   -25.2778     7.7740    76.2029     0.0819     2.5105     0.0248
  391.5000    13.8656    14.7522    28.9627   -25.1038     7.7757    77.8744     0.0942     2.4861     0.0249
  392.0000    13.3088    13.6711    21.4812   -25.0847     7.7773    79.9889     0.1113     2.4517     0.0221
  392.5000    12.9474    13.3048    17.2012   -25.0657     7.7792    81.3560     0.1260     2.4225     0.0178
  393.0000    12.5925    13.4092    17.0914   -24.8964     7.7810    81.0789     0.1371     2.4039     0.0135
  393.5000    12.3564    13.5143    17.2270   -24.8774     7.7827    81.3997     0.1415     2.3964     0.0121
  394.0000    12.1129    13.7159    17.1197   -24.8583     7.7845    82.9163     0.1418     2.3920     0.0123
  394.5000    11.7894    12.5342    16.7786   -24.8392     7.8012    83.2371     0.1372     2.3951     0.0124
  395.0000    11.3156    11.4543    16.4439   -24.9703     7.8033    83.4084     0.1312     2.4057     0.0111
  395.5000    10.9368    11.1421    16.2142   -24.9512     7.8048    83.5800     0.1267     2.4210     0.0083
  396.0000    10.7942    11.0232    15.9077   -25.2277     7.8068    83.9233     0.1231     2.4427     0.0101
  396.5000    10.5793    11.0106    15.5903   -25.3587     7.8084    84.9742     0.1203     2.4585     0.0176
  397.0000    10.5125    11.0204    15.3861   -25.3397     7.8103    85.1455     0.1188     2.4638     0.0208
  397.5000    10.3052    11.1083    15.1817   -25.3206     7.8119    83.0747     0.1173     2.4632     0.0209
  398.0000    10.1728    11.1954    15.1959   -25.3015     7.7988    82.1996     0.1166     2.4573     0.0181
  398.5000    10.1083    11.2825    15.2073   -25.2824     7.8006    81.1751     0.1178     2.4491     0.0138
  399.0000    10.0463    11.3717    15.2187   -25.2634     7.7874    79.2538     0.1199     2.4424     0.0094
  399.5000    10.0565    11.5413    15.1241   -25.2443     7.7896    80.3220     0.1222     2.4380     0.0081
  400.0000     9.8564    11.6318    14.9262   -25.0751     7.7757    82.7354     0.1226     2.4381     0.0097
  400.5000     9.7939    11.7233    14.8337   -24.8914     7.7786    83.6509     0.1218     2.4404     0.0159
  401.0000     9.7355    11.6508    14.7417   -24.7319     7.7511    82.9290     0.1206     2.4450     0.0206
  401.5000     9.7437    11.5008    14.7555   -24.5626     7.7534    82.9493     0.1188     2.4497     0.0254
  402.0000     9.8200    11.3480    14.7666   -23.9430     7.7558    82.9696     0.1175     2.4543     0.0316
  402.5000     9.8184    11.2590    14.7776   -23.9239     7.7586    84.0363     0.1166     2.4580     0.0362
  403.0000     9.8140    11.2095    14.7887   -24.2051     7.7606    85.7010     0.1163     2.4604     0.0409
  403.5000     9.8096    11.2202    14.7998   -24.7866     7.7478    85.1016     0.1169     2.4612     0.0426
