~VERSION INFORMATION
 VERS.                2.0:   CWLS LOG ASCII STANDARD - VERSION 2.0
 WRAP.                 NO:   ONE LINE PER DEPTH STEP
~WELL INFORMATION
#MNEM.UNIT      DATA TYPE    INFORMATION
#----------   ------------   ------------------------------
 STRT.F           30.0000:   START DEPTH
 STOP.F          526.0000:   STOP DEPTH
 STEP.F            0.5000:   STEP LENGTH
 NULL.          -999.2500:   NO VALUE
 COMP. FENIX & SCISSON INC:   COMPANY
 WELL.       NPR #37-SX-3:   WELL
 FLD .             TEAPOT:   FIELD
 LOC .       S3 T38N R78W:   LOCATION
 CNTY.            NATRONA:   COUNTY
 STAT.            WYOMING:   STATE
 CTRY. UNITED STATES OF AMERICA:   COUNTRY
 SRVC.              Welex:   SERVICE COMPANY
 DATE.        10-MAR-1977:   LOGDATE
 API .       490251028600:   API NUMBER
~CURVE INFORMATION
#MNEM.UNIT       API CODE    CURVE DESCRIPTION
#----------   ------------   ------------------------------
 DEPT.F                  :   
 ILD .OHMM   07 120 46 00:   INDUCTION LOG DEEP
 ILM .OHMM   07 120 44 00:   INDUCTION LOG MEDIUM
 SPR .MV     07 010 01 00:   SPONTANEOUS POTENTIAL
 SGRD.OHMM   07 220 05 00:   SHALLOW RESISTIVITY
 GRD .GAPI   45 310 01 00:   GAMMA RAY FROM DENSITY LOG
 CALD.IN     45 280 60 00:   CALIPER
 CORR.G/C3   45 356 01 00:   DENSITY CORRECTION
 RHOB.G/C3   45 350 01 00:   BULK DENSITY
 DPOR.DEC    45 890 12 00:   DENSITY POROSITY SANDSTONE
~PARAMETER INFORMATION
#MNEM.UNIT          VALUE    DESCRIPTION
#----------   ------------   ------------------------------
 PD  .                 GL:   PERMANENT DATUM
 EPD .F              5232:   ELEVATION PERMANENT DATUM
 LMF .                 GL:   LOG MEASURED FROM
 DMF .                 GL:   DRILLING MEASURED FROM
 EGL .F              5232:   GROUND LEVEL
 DATE.            3-10-77:   RUN DATE
 RUN .                  1:   RUN NUMBER
 DD  .F               530:   DEPTH DRILLER
 DL  .F               528:   DEPTH LOGGER
 BLI .F               526:   BOTTOM LOG INTERVAL
 TLI .F                35:   TOP LOG INTERVAL
 CS  .IN            8.625:   CASING SIZE
 CBD .F                40:   CASING BOTTOM DRILLER
 CBL .F                42:   CASING BOTTOM LOGGER
 BS  .IN            7.875:   BIT SIZE
 BSD .F               530:   BIT SIZE AT DEPTH
 DFT .            KCL MUD:   DRILLING FLUID TYPE
 DFD .                8.8:   DRILLING FLUID DENSITY
 DFV .                 32:   DRILLING FLUID VISCOSITY
 DFPH.                  8:   DRILLING FLUID PH
 DFL .                7.7:   DRILLING FLUID LOSS
 MSS .            MUD PIT:   MUD SAMPLE SOURCE
 RMS .OHMM            .48:   RESISTIVITY MUD SAMPLE
 MST .F                47:   MUD SAMPLE TEMPERATURE
 RMF .OHMM            .43:   RESISTIVITY MUD FILTRATE SAMPLE
 MFST.F                47:   MUD FILTRATE SAMPLE TEMPERATURE
 RMC .OHMM            .52:   RESISTIVITY MUD CAKE
 MCST.F                47:   MUD CAKE SAMPLE TEMPERATURE
 MFSS.           FANN KIT:   MUD FILTRATE SAMPLE SOURCE
 MCSS.           FANN KIT:   MUD CAKE SAMPLE SOURCE
 RMB .OHMM            .41:   RESISTIVITY MUD AT BHT
 BHT .F                55:   BOTTOM HOLE TEMPERATURE
 TCS .HRS             1.5:   TIME CURCULATED STOPPED
 MRT .F                55:   MAXIMUM RECORDED TEMPERATURE
 LUN .               8611:   LOGGING UNIT NUMBER
 LUL .           GILLETTE:   LOGGING UNIT LOCATION
 ENGI.               DOAK:   RECORDING ENGINEER
 WITN.              BURKE:   WITNESSED BY
 CLNT.            A2DTECH:   CLIENT CODE
 ORIG.       2", 5" PRINT:   ORIGIN OF DATA
 UWI .       490251028600:   UNIQUE WELL ID
 DICO. A2D Technologies, Inc.:   DIGITIZING COMPANY
~OTHER INFORMATION
~A   DEPT      ILD        ILM        SPR       SGRD         GRD        CALD      CORR        RHOB     DPOR   
# ...
  212.5000     7.1766     8.3712   -45.3315    10.6523   123.0034     7.9821     0.0612     2.4627     0.9532
  213.0000     7.1886     8.5464   -45.2708    10.5720   124.6908     7.9821     0.0637     2.4682     0.9589
  213.5000     7.2019     8.6363   -45.2101    10.3658   122.8409     7.9821     0.0663     2.4729     0.9671
  214.0000     7.2151     8.6531   -45.1494    10.5629   120.5060     7.9821     0.0679     2.4712     0.9737
  214.5000     7.2285     8.6712   -45.0887    10.7540   120.4973     7.9821     0.0667     2.4693     0.9671
  215.0000     7.2429     8.6890   -45.0280    10.6580   122.2032     7.9821     0.0656     2.4675     0.9603
  215.5000     7.1930     8.7046   -44.9673    10.5819   123.5741     7.9821     0.0644     2.4660     0.9616
  216.0000     7.1382     8.6042   -44.9065    10.5063   122.8341     7.9821     0.0655     2.4679     0.9657
  216.5000     7.0838     8.5165   -44.8450    10.4038   122.4779     7.9821     0.0673     2.4698     0.9700
  217.0000     7.0299     8.4298   -44.7853    10.2630   124.2696     7.9821     0.0692     2.4716     0.9743
  217.5000     6.9814     8.3440   -44.8033    10.1237   126.0471     7.9821     0.0711     2.4735     0.9776
  218.0000     6.6438     8.2593   -45.0671     9.9863   126.4503     7.9825     0.0730     2.4749     0.9808
  218.5000     6.3501     8.0318   -45.3192     9.8509   125.7881     7.9849     0.0748     2.4712     0.9766
  219.0000     6.0694     7.7653   -45.5714     9.7198   124.7325     7.9874     0.0760     2.4676     0.9649
  219.5000     5.8011     7.5077   -45.8236     9.4413   121.5059     7.9899     0.0752     2.4641     0.9532
  220.0000     5.5443     7.1625   -46.0758     9.1755   118.1986     7.9924     0.0745     2.4605     0.9406
  220.5000     5.2980     6.7356   -46.3285     8.8804   117.9137     7.9949     0.0737     2.4569     0.9393
  221.0000     5.0617     6.3341   -46.5798     7.9417   118.7487     7.9974     0.0730     2.4540     0.9398
  221.5000     5.1708     6.1941   -46.8373     6.4972   119.6170     7.9998     0.0723     2.4588     0.9408
  222.0000     5.2853     6.4914   -46.7000     5.3155   120.4971     8.0020     0.0715     2.4635     0.9509
  222.5000     5.4024     6.7469   -46.3478     4.7455   121.3660     8.0020     0.0708     2.4682     0.9610
  223.0000     5.5220     7.0128   -46.2557     9.8995   120.3124     8.0020     0.0702     2.4729     0.9644
  223.5000     5.6885     7.2889   -46.1767     9.7986   119.0891     8.0020     0.0724     2.4775     0.9699
  224.0000     5.9399     7.5846   -46.0096     9.7198   120.2862     8.0020     0.0740     2.4822     0.9867
  224.5000     6.2022     7.9268   -45.7040    10.1303   121.6987     8.0020     0.0716     2.4873     1.0018
  225.0000     6.4786     8.2843   -45.4004    10.6556   123.1077     8.0020     0.0693     2.4882     1.0029
  225.5000     6.7134     8.4676   -45.1253    10.5024   124.1760     8.0020     0.0670     2.4841     1.0007
  226.0000     6.8623     8.5773   -45.0874    10.2136   123.1615     8.0020     0.0646     2.4794     0.9906
  226.5000     7.0114     8.6884   -45.0431     9.9916   121.9391     8.0020     0.0622     2.4748     0.9793
  227.0000     7.1643     8.8009   -44.9983    10.7244   120.7964     8.0020     0.0618     2.4702     0.9675
  227.5000     7.3206     8.9149   -44.9534    11.0547   121.1832     8.0020     0.0614     2.4712     0.9659
  228.0000     7.4804     8.9480   -44.9086    10.9250   122.3417     8.0020     0.0610     2.4742     0.9733
  228.5000     7.6115     8.9480   -44.8637    10.8533   123.3590     8.0020     0.0606     2.4774     0.9793
  229.0000     7.6885     8.9481   -44.8185    10.9757   122.4945     8.0020     0.0602     2.4749     0.9728
  229.5000     7.7662     8.9480   -44.7740    11.0811   122.4864     8.0020     0.0594     2.4713     0.9690
  230.0000     7.8448     8.9480   -44.7570    11.1567   125.2917     8.0020     0.0584     2.4770     0.9837
  230.5000     7.9241     8.9480   -44.8234    10.9535   128.3289     8.0020     0.0574     2.4827     0.9966
  231.0000     8.0042     8.9480   -44.8866    11.2824   126.9183     8.0020     0.0564     2.4872     1.0026
  231.5000     8.0852     8.9480   -44.9498    11.5746   123.0096     8.0020     0.0547     2.4929     1.0097
  232.0000     8.1670     8.9480   -45.0130    11.4218   123.1368     8.0020     0.0526     2.4992     1.0225
  232.5000     8.2496     8.9481   -45.0761    11.2605   121.5847     8.0020     0.0527     2.4996     1.0292
  233.0000     8.3331     8.9482   -45.1393    11.7609   119.9819     8.0020     0.0535     2.4961     1.0093
  233.5000     8.4182     8.9477   -45.2026    12.1189   119.6945     8.0020     0.0538     2.4788     0.9819
  234.0000     8.4679     8.9479   -45.2662    11.2598   119.7710     8.0020     0.0460     2.4593     0.9545
  234.5000     8.3675     8.8645   -45.3411    11.4511   118.5449     8.0020     0.0425     2.4635     0.9437
  235.0000     8.2967     8.8053   -44.9566    11.7893   117.3524     8.0020     0.0432     2.4716     0.9641
  235.5000     8.2265     8.7465   -44.9262    12.6889   116.7572     8.0020     0.0438     2.4666     0.9614
  236.0000     8.1569     8.6882   -45.2641    11.9732   118.7432     8.0020     0.0468     2.4602     0.9501
  236.5000     8.0879     8.6303   -45.6099    11.2667   119.9727     8.0020     0.0507     2.4649     0.9506
  237.0000     8.0194     8.5727   -45.9264    10.9535   120.6418     8.0020     0.0547     2.4706     0.9693
  237.5000     7.9516     8.5155   -45.8942    11.1567   122.8794     8.0020     0.0586     2.4763     0.9847
  238.0000     7.8843     8.4587   -45.8542    11.0067   126.6553     8.0020     0.0621     2.4778     0.9877
  238.5000     7.7476     8.4023   -45.8156    10.7235   130.2959     8.0020     0.0631     2.4752     0.9774
  239.0000     7.5905     8.2904   -45.7767    10.5581   130.8131     8.0020     0.0640     2.4726     0.9674
  239.5000     7.4366     8.1653   -45.7320    10.8565   130.3845     8.0020     0.0648     2.4700     0.9587
  240.0000     7.2858     8.0421   -45.9691    10.6952   128.0923     8.0020     0.0657     2.4674     0.9579
  240.5000     7.0890     7.9207   -46.2427    10.3802   125.8774     8.0020     0.0664     2.4648     0.9571
  241.0000     6.8782     7.7595   -46.5167    10.0702   126.1391     8.0020     0.0670     2.4622     0.9413
  241.5000     6.6736     7.4714   -46.7899     9.7707   126.0151     8.0020     0.0676     2.4554     0.9235
  242.0000     6.4865     7.1940   -47.0625     9.2782   123.6935     8.0020     0.0682     2.4444     0.9057
  242.5000     5.8627     6.9268   -47.3314     8.7712   121.3968     8.0020     0.0689     2.4335     0.8880
  243.0000     5.3282     6.6696   -47.5933     8.2913   120.3912     8.0020     0.0695     2.4224     0.8702
  243.5000     4.8424     6.2523   -48.1373     7.8382   121.4797     8.0020     0.0702     2.4101     0.8524
  244.0000     4.4009     5.8090   -48.6857     7.4104   121.6770     8.0020     0.0709     2.3970     0.8275
  244.5000     3.9997     5.3492   -49.2320     7.0041   120.7193     8.0020     0.0715     2.3839     0.7957
  245.0000     3.6351     4.7956   -49.7786     6.4711   123.0299     8.0020     0.0722     2.3709     0.7638
  245.5000     3.3036     4.2993   -50.3241     5.6500   123.7578     8.0020     0.0729     2.3593     0.7317
  246.0000     3.0025     3.8543   -50.8735     4.9331   121.0010     8.0020     0.0736     2.3414     0.6913
  246.5000     2.7539     3.4554   -51.1451     4.3072   117.7243     8.0020     0.0740     2.3194     0.6472
  247.0000     2.6140     3.0978   -51.2391     3.7607   114.3726     8.0020     0.0692     2.3066     0.6255
  247.5000     2.4937     2.9154   -51.1449     3.2784   114.0667     8.0020     0.0647     2.2933     0.6023
  248.0000     2.5634     2.9439   -50.8421     2.9975   116.0634     8.0020     0.0601     2.2888     0.5929
  248.5000     2.6287     3.0684   -50.5409     3.4156   118.5846     8.0020     0.0562     2.3447     0.7105
