~VERSION INFORMATION
 VERS.                2.0:   CWLS LOG ASCII STANDARD - VERSION 2.0
 WRAP.                 NO:   ONE LINE PER DEPTH STEP
~WELL INFORMATION
#MNEM.UNIT      DATA TYPE    INFORMATION
#----------   ------------   ------------------------------
 STRT.F           46.0000:   START DEPTH
 STOP.F          490.0000:   STOP DEPTH
 STEP.F            0.5000:   STEP LENGTH
 NULL.          -999.2500:   NO VALUE
 COMP.    FENIX & SCISSON:   COMPANY
 WELL.        NPR #55-S-3:   WELL
 FLD .              NPR 3:   FIELD
 LOC .       S3 T38N R78W:   LOCATION
 CNTY.            NATRONA:   COUNTY
 STAT.            WYOMING:   STATE
 CTRY. UNITED STATES OF AMERICA:   COUNTRY
 SRVC.      Dresser Atlas:   SERVICE COMPANY
 DATE.        12-MAR-1977:   LOGDATE
 API .       490251028700:   API NUMBER
~CURVE INFORMATION
#MNEM.UNIT       API CODE    CURVE DESCRIPTION
#----------   ------------   ------------------------------
 DEPT.F                  :   
 SPR .MV     07 010 01 00:   SPONTANEOUS POTENTIAL
 ILM .OHMM   07 120 44 00:   INDUCTION LOG MEDIUM
 ILD .OHMM   07 120 46 00:   INDUCTION LOG DEEP
 SFL .OHMM   07 220 01 00:   SHALLOW FOCUSED LOG RESISTIVITY
 CALD.IN     45 280 60 00:   CALIPER FROM DENSITY LOG
 GRD .GAPI   45 310 01 00:   GAMMA RAY FROM DENSITY LOG
 CORR.G/C3   45 356 01 00:   DENSITY CORRECTION
 DPHI.DEC    45 890 12 00:   DENSITY POROSITY SANDSTONE
 RHOB.G/C3   45 350 01 00:   BULK DENSITY
~PARAMETER INFORMATION
#MNEM.UNIT          VALUE    DESCRIPTION
#----------   ------------   ------------------------------
 PD  .                 GL:   PERMANENT DATUM
 EPD .F              5169:   ELEVATION PERMANENT DATUM
 LMF .                 GL:   LOG MEASURED FROM
 DMF .                 GL:   DRILLING MEASURED FROM
 EGL .F              5169:   GROUND LEVEL
 DATE.        12-MAR-1977:   RUN DATE
 RUN .                  1:   RUN NUMBER
 DD  .F               498:   DEPTH DRILLER
 DL  .F               492:   DEPTH LOGGER
 BLI .F               490:   BOTTOM LOG INTERVAL
 TLI .F               046:   TOP LOG INTERVAL
 CS  .IN            8.625:   CASING SIZE
 CBD .F                40:   CASING BOTTOM DRILLER
 CBL .F               046:   CASING BOTTOM LOGGER
 BS  .IN            7.875:   BIT SIZE
 BSD .F               498:   BIT SIZE AT DEPTH
 DFT .           CHEM GEL:   DRILLING FLUID TYPE
 DFD .                8.7:   DRILLING FLUID DENSITY
 DFV .                 35:   DRILLING FLUID VISCOSITY
 DFPH.                8.0:   DRILLING FLUID PH
 DFL .                7.2:   DRILLING FLUID LOSS
 MSS .           FLOWLINE:   MUD SAMPLE SOURCE
 RMS .OHMM            .35:   RESISTIVITY MUD SAMPLE
 MST .F                60:   MUD SAMPLE TEMPERATURE
 RMF .OHMM             .3:   RESISTIVITY MUD FILTRATE SAMPLE
 MFST.F                60:   MUD FILTRATE SAMPLE TEMPERATURE
 RMC .OHMM            .73:   RESISTIVITY MUD CAKE
 MCST.F                60:   MUD CAKE SAMPLE TEMPERATURE
 MFSS.               MEAS:   MUD FILTRATE SAMPLE SOURCE
 MCSS.               MEAS:   MUD CAKE SAMPLE SOURCE
 RMB .OHMM            .33:   RESISTIVITY MUD AT BHT
 BHT .F                63:   BOTTOM HOLE TEMPERATURE
 TCS .HRS            1400:   TIME CURCULATED STOPPED
 MRT .F                63:   MAXIMUM RECORDED TEMPERATURE
 LUN .               6134:   LOGGING UNIT NUMBER
 LUL .              GLTTE:   LOGGING UNIT LOCATION
 ENGI.              NOYER:   RECORDING ENGINEER
 WITN.         STUEBINGER:   WITNESSED BY
 CLNT.            A2DTECH:   CLIENT CODE
 ORIG.           5" PRINT:   ORIGIN OF DATA
 UWI .       490251028700:   UNIQUE WELL ID
 DICO. A2D Technologies, Inc.:   DIGITIZING COMPANY
~OTHER INFORMATION
~A   DEPT      SPR        ILM        ILD        SFL       CALD        GRD       CORR         DPHI       RHOB 
# ...
  192.0000   -66.8427     6.8165     6.7013     9.7176     7.8805   110.0200     0.0251     0.0709     2.5330
  192.5000   -67.4438     6.4543     6.4328     9.6545     7.8804   109.4355     0.0237     0.1013     2.5001
  193.0000   -68.0590     6.2808     6.1317     9.5268     7.8803   108.8482     0.0209     0.1128     2.4678
  193.5000   -68.7964     5.9883     5.8410     9.3998     7.8809   110.5021     0.0196     0.1159     2.4574
  194.0000   -69.0977     5.6303     5.4198     9.2106     7.8819   104.7006     0.0228     0.1192     2.4507
  194.5000   -69.2490     5.0787     4.9562     9.0846     7.8828   102.3140     0.0259     0.1221     2.4447
  195.0000   -69.2505     4.6448     4.4086     8.7837     7.8837   103.0154     0.0321     0.1239     2.4410
  195.5000   -69.4018     4.1496     3.9215     8.2574     7.8847   105.7817     0.0322     0.1227     2.4441
  196.0000   -69.5067     3.7280     3.5613     7.7092     7.8856   104.1540     0.0356     0.1332     2.4208
  196.5000   -69.5067     2.9695     2.9973     7.1478     7.8865   101.9302     0.0371     0.1375     2.4081
  197.0000   -69.3572     2.6785     2.6189     5.8523     7.8875   103.7274     0.0343     0.1513     2.3879
  197.5000   -69.3572     2.4667     2.3883     4.9944     7.8884   101.7975     0.0329     0.1856     2.3608
  198.0000   -69.2078     2.3353     2.3082     4.1635     7.8893   100.7676     0.0286     0.2295     2.3082
  198.5000   -68.6099     2.3205     2.2308     3.6378     7.8903   100.0358     0.0243     0.2463     2.2433
  199.0000   -68.0120     2.4380     2.1861     3.7155     7.8912   101.8374     0.0199     0.2616     2.2174
  199.5000   -67.4140     2.5416     2.1871     4.9342     7.8922   104.2352     0.0156     0.2658     2.2227
  200.0000   -66.5172     2.6582     2.3286     5.9483     7.8931   107.0801     0.0227     0.2535     2.2735
  200.5000   -65.7698     2.9836     2.6429     5.3279     7.8940   109.0308     0.0294     0.1818     2.3233
  201.0000   -65.0165     3.4235     2.9486     4.3619     7.8950   107.5538     0.0100     0.1910     2.3402
  201.5000   -64.2750     3.8242     3.4213     4.6755     7.8959   107.1166     0.0041     0.1936     2.3342
  202.0000   -63.9761     4.3014     3.8922     6.9345     7.8968   107.2823     0.0222     0.1636     2.3907
  202.5000   -63.9761     4.7718     4.2898     9.6649     7.8975   108.9349     0.0343     0.1083     2.4698
  203.0000   -63.9761     5.0436     4.6955     8.6570     7.8979   107.7560     0.0374     0.0852     2.5089
  203.5000   -63.9761     5.3689     5.0690     8.1377     7.8983   107.3105     0.0346     0.0879     2.5097
  204.0000   -63.9998     5.5575     5.4344     7.9728     7.8986   111.5083     0.0347     0.0954     2.4962
  204.5000   -64.5740     5.6747     5.6282     7.9212     7.8990   114.9493     0.0363     0.0981     2.5030
  205.0000   -65.0224     5.7943     5.7888     7.8692     7.8994   117.9433     0.0409     0.0860     2.5121
  205.5000   -65.3214     5.8353     5.8323     7.8177     7.8997   115.6900     0.0470     0.0770     2.5212
  206.0000   -65.1719     5.8361     5.8350     7.8751     7.9001   115.5853     0.0472     0.0758     2.5295
  206.5000   -65.1719     5.7966     5.7975     7.9324     7.9004   116.3443     0.0473     0.0769     2.5243
  207.0000   -65.3747     5.6394     5.7596     8.1574     7.9008   114.9775     0.0471     0.0792     2.5213
  207.5000   -65.3819     5.5246     5.6837     8.3888     7.9012   112.1975     0.0446     0.0837     2.5175
  208.0000   -65.6886     5.3377     5.4544     8.6267     7.9015   118.6225     0.0416     0.0882     2.5101
  208.5000   -65.8472     5.1216     5.1586     8.8103     7.9019   121.0202     0.0388     0.0965     2.5117
  209.0000   -66.0041     4.8805     4.9231     8.7360     7.9023   120.4341     0.0344     0.1048     2.4643
  209.5000   -66.0114     4.6829     4.6282     7.7322     7.9026   121.7920     0.0300     0.1153     2.4531
  210.0000   -66.1683     4.5245     4.3812     6.5529     7.9030   120.0169     0.0272     0.1354     2.4343
  210.5000   -66.1755     4.4606     4.2343     5.2912     7.9034   118.9870     0.0242     0.1379     2.4163
  211.0000   -65.8833     4.4023     4.1493     5.6716     7.9037   116.9138     0.0379     0.1299     2.4347
  211.5000   -65.2745     4.3726     4.0931     6.5594     7.9041   112.3071     0.0725     0.1191     2.4463
  212.0000   -64.5504     4.4959     4.0679     6.8867     7.9045   107.5514     0.0231     0.1249     2.4556
  212.5000   -63.8109     4.6545     4.0985     5.8701     7.9048   110.5453     0.0187     0.1287     2.4255
  213.0000   -63.3672     4.8522     4.3038     5.7981     7.9052   113.5393     0.0204     0.1175     2.4609
  213.5000   -62.9272     5.0583     4.5823     7.1365     7.9056   116.3842     0.0250     0.0953     2.4948
  214.0000   -62.6350     5.3136     4.8117     7.5963     7.9060   118.3349     0.0266     0.1019     2.5235
  214.5000   -62.1931     5.6904     4.9833     6.7573     7.9075   117.6030     0.0312     0.1031     2.4911
  215.0000   -61.9009     6.0146     5.2042     6.8064     7.8794   116.1260     0.0313     0.0862     2.5221
  215.5000   -61.7602     6.4458     5.6890     7.8813     7.8662   114.6489     0.0315     0.0766     2.5251
  216.0000   -62.0668     7.0525     5.9737     8.2654     7.8679   112.4268     0.0301     0.0745     2.5274
  216.5000   -62.5231     7.4543     6.4935     8.5411     7.8695   110.0555     0.0257     0.0762     2.5282
  217.0000   -62.8298     7.5070     6.8187     8.9844     7.8711   108.7276     0.0228     0.0824     2.5162
  217.5000   -63.1364     7.5080     7.1176     9.2410     7.8728   108.1296     0.0185     0.0895     2.5050
  218.0000   -63.4430     7.5092     7.2141     9.1804     7.8744   110.0954     0.0186     0.0921     2.5043
  218.5000   -63.0029     7.4585     7.1184     8.9331     7.8760   112.5003     0.0202     0.0906     2.5002
  219.0000   -62.7089     7.2561     6.9274     8.8135     7.8777   111.2787     0.0233     0.0867     2.5066
  219.5000   -62.4185     7.0107     6.7884     8.6954     7.8793   109.3472     0.0264     0.0840     2.5104
  220.0000   -62.4258     6.7735     6.6520     8.6384     7.8810   108.9563     0.0280     0.0813     2.5187
  220.5000   -62.4330     6.5892     6.5180     8.4057     7.8826   109.5917     0.0312     0.0779     2.5210
  221.0000   -62.5899     6.4483     6.3368     8.3506     7.8842   110.6256     0.0328     0.0836     2.5135
  221.5000   -62.7470     6.2373     6.0475     8.4120     7.8709   109.4466     0.0329     0.0860     2.5098
  222.0000   -62.7558     6.0680     5.8447     8.4148     7.8726   112.4405     0.0315     0.0875     2.5137
  222.5000   -62.7630     5.9034     5.6487     8.3021     7.8743   113.7951     0.0271     0.0953     2.5190
  223.0000   -62.9199     5.7433     5.4217     8.1316     7.8759   116.1929     0.0258     0.1058     2.4814
  223.5000   -63.2266     5.5490     5.1679     7.9703     7.8775   118.4417     0.0259     0.1100     2.4732
  224.0000   -63.5332     5.0688     4.8558     7.7562     7.8792   119.4949     0.0245     0.1062     2.4822
  224.5000   -63.6901     4.6379     4.5679     7.4953     7.8808   118.0212     0.0261     0.1139     2.4687
  225.0000   -63.5479     4.3589     4.2647     7.0946     7.8824   116.2461     0.0263     0.1171     2.4567
  225.5000   -63.1063     4.2995     4.0933     5.6500     7.8841   116.7065     0.0264     0.1195     2.4528
  226.0000   -62.3650     4.3903     4.2393     4.7225     7.8857   116.8688     0.0220     0.1402     2.4207
  226.5000   -61.7752     4.6726     4.3905     4.5323     7.8874   116.2859     0.0161     0.1582     2.3944
  227.0000   -61.3316     5.0422     4.4846     6.2738     7.8890   114.5109     0.0207     0.1603     2.3982
  227.5000   -61.1891     5.2977     4.5807     8.4471     7.8906   111.9873     0.0268     0.1423     2.4314
  228.0000   -61.1981     5.6724     4.6472     8.9301     7.8923   113.3452     0.0285     0.1212     2.4841
