~VERSION INFORMATION
 VERS.                2.0:   CWLS LOG ASCII STANDARD - VERSION 2.0
 WRAP.                 NO:   ONE LINE PER DEPTH STEP
~WELL INFORMATION
#MNEM.UNIT      DATA TYPE    INFORMATION
#----------   ------------   ------------------------------
 STRT.F           14.0000:   START DEPTH
 STOP.F          432.0000:   STOP DEPTH
 STEP.F            0.5000:   STEP LENGTH
 NULL.          -999.2500:   NO VALUE
 COMP.    FENIX & SCISSON:   COMPANY
 WELL.   NPR-3 #63SX10-10:   WELL
 FLD .             TEAPOT:   FIELD
 LOC .      S10 T38N R78W:   LOCATION
 CNTY.            NATRONA:   COUNTY
 STAT.            WYOMING:   STATE
 CTRY. UNITED STATES OF AMERICA:   COUNTRY
 SRVC.           BIRDWELL:   SERVICE COMPANY
 DATE.        10-FEB-1978:   LOGDATE
 API .       490251066800:   API NUMBER
~CURVE INFORMATION
#MNEM.UNIT       API CODE    CURVE DESCRIPTION
#----------   ------------   ------------------------------
 DEPT.F                  :   
 CALD.IN     45 280 60 00:   CALIPER FROM DENSITY LOG
 CORR.G/C3   45 356 01 00:   DENSITY CORRECTION
 DPHI.DEC    45 890 12 00:   DENSITY POROSITY SANDSTONE
 GRD .GAPI   45 310 01 00:   GAMMA RAY FROM DENSITY LOG
 RHOB.G/C3   45 350 01 00:   BULK DENSITY
 ILD .OHMM   05 120 46 00:   INDUCTION LOG DEEP
 SN  .OHMM   05 040 16 00:   SHORT NORMAL 16"
 SPR .MV     05 010 01 00:   SPONTANEOUS POTENTIAL FROM RES.
~PARAMETER INFORMATION
#MNEM.UNIT          VALUE    DESCRIPTION
#----------   ------------   ------------------------------
 PD  .                 GL:   PERMANENT DATUM
 EPD .F              5186:   ELEVATION PERMANENT DATUM
 LMF .                 KB:   LOG MEASURED FROM
 DAPD.F                 4:   FEET ABOVE PERMANENT DATUM
 DMF .                 KB:   DRILLING MEASURED FROM
 EKB .F              5190:   KELLING BUSHING
 EGL .F              5186:   GROUND LEVEL
 DATE.        10-FEB-1978:   RUN DATE
 RUN .                  1:   RUN NUMBER
 DD  .F               429:   DEPTH DRILLER
 DL  .F               432:   DEPTH LOGGER
 BLI .F               424:   BOTTOM LOG INTERVAL
 TLI .F                20:   TOP LOG INTERVAL
 CS  .IN            8.625:   CASING SIZE
 CBD .F                29:   CASING BOTTOM DRILLER
 CBL .F                29:   CASING BOTTOM LOGGER
 BS  .IN            7.875:   BIT SIZE
 BSD .F               429:   BIT SIZE AT DEPTH
 DFT .    LIGNO SULF/FULL:   DRILLING FLUID TYPE
 DFD .                8.6:   DRILLING FLUID DENSITY
 DFV .                 34:   DRILLING FLUID VISCOSITY
 DFPH.                9.8:   DRILLING FLUID PH
 DFL .                5.6:   DRILLING FLUID LOSS
 MSS .           FLOWLINE:   MUD SAMPLE SOURCE
 RMS .OHMM            1.2:   RESISTIVITY MUD SAMPLE
 MST .F                62:   MUD SAMPLE TEMPERATURE
 RMF .OHMM            1.4:   RESISTIVITY MUD FILTRATE SAMPLE
 MFST.F                62:   MUD FILTRATE SAMPLE TEMPERATURE
 RMC .OHMM            1.0:   RESISTIVITY MUD CAKE
 MCST.F                62:   MUD CAKE SAMPLE TEMPERATURE
 MFSS.               MEAS:   MUD FILTRATE SAMPLE SOURCE
 RMB .OHMM            1.2:   RESISTIVITY MUD AT BHT
 BHT .F                62:   BOTTOM HOLE TEMPERATURE
 TCS .HRS               4:   TIME CURCULATED STOPPED
 MRT .F                62:   MAXIMUM RECORDED TEMPERATURE
 LUN .               2958:   LOGGING UNIT NUMBER
 LUL .                CAS:   LOGGING UNIT LOCATION
 ENGI.            POINTER:   RECORDING ENGINEER
 WITN.          MC GINLEY:   WITNESSED BY
 CLNT.            A2DTECH:   CLIENT CODE
 ORIG.           5" PRINT:   ORIGIN OF DATA
 UWI .       490251066800:   UNIQUE WELL ID
 DICO. A2D Technologies, Inc.:   DIGITIZING COMPANY
~OTHER INFORMATION
~A   DEPT     CALD       CORR       DPHI         GRD      RHOB        ILD         SN        SPR   
# ...
  216.5000     7.9740     0.1016     0.1534    97.0987     2.3766     5.5788     6.2176   -36.7524
  217.0000     7.9746     0.1272     0.1486    92.8727     2.3931     5.6186     6.3489   -36.4493
  217.5000     7.9599     0.1499     0.1290    90.6134     2.4186     5.6198     6.4830   -36.2971
  218.0000     7.9606     0.1693     0.1098    90.3167     2.4607     5.6209     6.6720   -35.9940
  218.5000     7.9653     0.1814     0.1020    93.0564     2.4879     5.8202     7.1446   -35.8414
  219.0000     7.9703     0.1994     0.1005    96.2434     2.4915     6.1103     7.5523   -35.8400
  219.5000     7.9753     0.2115     0.1005    98.6740     2.4893     6.5494     7.7653   -35.8386
  220.0000     7.9803     0.2208     0.1008    98.0788     2.4878     6.9717     7.8203   -35.8368
  220.5000     7.9853     0.2266     0.1020    93.0989     2.4870     7.2687     7.8756   -36.2879
  221.0000     7.9904     0.2282     0.1035    91.4422     2.4856     7.5261     7.8767   -36.5881
  221.5000     7.9954     0.2282     0.1053    92.8163     2.4818     7.3211     7.8234   -36.7391
  222.0000     8.0004     0.2253     0.1065    94.7930     2.4804     7.2071     7.6639   -36.5850
  222.5000     8.0054     0.2223     0.1068    97.1129     2.4841     6.7885     7.4557   -36.4327
  223.0000     8.0104     0.2194     0.1065    98.5976     2.4879     6.3359     6.8625   -36.2805
  223.5000     7.9968     0.2164     0.1134    99.3641     2.4902     5.9135     6.4490   -36.1282
  224.0000     7.9974     0.2120     0.1257   100.8869     2.4835     5.6741     6.1447   -35.9756
  224.5000     7.9980     0.2122     0.1329   102.7408     2.4685     5.5973     6.1458   -35.6725
  225.0000     7.9985     0.2241     0.1326   103.3275     2.4182     5.5598     6.1466   -35.5203
  225.5000     7.9991     0.2302     0.1115   102.2809     2.4318     5.5225     6.1474   -35.0664
  226.0000     7.9997     0.2302     0.0983   100.4755     2.4550     5.5239     6.4984   -34.9138
  226.5000     8.0153     0.2318     0.0944   100.0316     2.4963     5.7992     6.9169   -35.0636
  227.0000     8.0158     0.2378     0.0968   100.0441     2.4978     6.3026     7.2612   -35.6651
  227.5000     8.0316     0.2514     0.1004    99.6003     2.4949     6.8497     7.6755   -36.2667
  228.0000     8.0472     0.2635     0.1028    98.5512     2.4904     7.2410     8.0575   -36.7177
  228.5000     8.0477     0.2725     0.1018    96.2799     2.4904     7.4975     8.4002   -36.8675
  229.0000     8.0633     0.2772     0.0944    92.8249     2.4972     7.7159     8.7616   -37.1674
  229.5000     8.0639     0.2786     0.0941    91.1707     2.4995     7.9278     9.0674   -37.3168
  230.0000     8.0493     0.2772     0.0917    90.2730     2.4995     8.0957     9.2588   -37.0134
  230.5000     8.0500     0.2742     0.0896    89.0727     2.5025     8.2672     9.3891   -36.5595
  231.0000     8.0505     0.2683     0.0884    87.7236     2.5063     8.3263     9.5212   -36.4072
  231.5000     8.0358     0.2548     0.0968    86.9772     2.5018     8.5026     9.6552   -36.2546
  232.0000     8.0062     0.2293     0.0974    86.8334     2.4876     8.5634     9.7235   -36.2532
  232.5000     7.9616     0.2129     0.0989    87.2997     2.4725     8.6246     9.7248   -35.6485
  233.0000     7.9168     0.2114     0.1025    88.9763     2.4681     8.6867     9.7937   -35.3384
  233.5000     7.8569     0.2115     0.1039    91.1043     2.4674     8.6884     9.7953   -35.1928
  234.0000     7.7971     0.2070     0.1051    92.3246     2.4719     8.7505     9.7287   -35.0406
  234.5000     7.7673     0.1996     0.1063    91.1243     2.4847     8.7522     9.7304   -35.1903
  235.0000     7.7376     0.1891     0.1089    89.3189     2.4824     8.8148     9.7992   -35.4902
  235.5000     7.7080     0.1742     0.1129    90.3904     2.4795     8.8166     9.8006   -35.6396
  236.0000     7.6934     0.1607     0.1156    92.9722     2.4742     8.7575     9.8019   -35.7887
  236.5000     7.6941     0.1577     0.1099    94.1925     2.4683     8.7597     9.7356   -35.9381
  237.0000     7.6946     0.1533     0.1067    93.2244     2.4705     8.7615     9.6697   -36.2384
  237.5000     7.6951     0.1473     0.0967    90.1303     2.4848     8.8241     9.6714   -36.3878
  238.0000     7.6958     0.1413     0.0787    85.9042     2.5006     8.8258     9.6727   -36.6877
  238.5000     7.7114     0.1249     0.0763    81.9808     2.5186     9.0128     9.6739   -36.6863
  239.0000     7.7573     0.0919     0.0833    80.4700     2.5306     9.0772     9.6752   -36.6845
  239.5000     7.7729     0.0710     0.0919    80.0341     2.5344     9.2094     9.8114   -36.6831
  240.0000     7.8338     0.0650     0.1003    80.3491     2.4999     9.3362    10.0186   -36.5308
  240.5000     7.8949     0.0683     0.1039    82.9310     2.4954     9.4029    10.1596   -36.2278
  241.0000     7.9559     0.0741     0.1066    85.6682     2.4947     9.3394    10.0908   -35.9243
  241.5000     7.9715     0.0757     0.1192    87.1895     2.4902     9.0868     9.8227   -35.6212
  242.0000     8.0022     0.0757     0.1462    88.2584     2.4730     8.0799     9.1720   -35.7710
  242.5000     8.0028     0.0758     0.1714    91.2942     2.4430     6.4763     8.3834   -36.0709
  243.0000     8.0034     0.0774     0.1945    95.5402     2.3913     6.4329     7.7695   -36.2203
  243.5000     7.9888     0.0984     0.1993    99.7887     2.3380     6.5242     7.4026   -35.1627
  244.0000     7.9590     0.1330     0.1464    99.4961     2.3501     6.5708     7.3013   -34.8597
  244.5000     7.9293     0.1346     0.0918    78.0243     2.4199     6.7100     7.4551   -34.8738
  245.0000     7.8998     0.1346     0.0750    76.6727     2.4867     6.9958     8.0452   -35.1581
  245.5000     7.8852     0.1467     0.0753    76.2263     2.5122     7.4469     9.3852   -35.3079
  246.0000     7.9009     0.1557     0.0762    79.9546     2.5265     8.6134    10.3227   -35.6078
  246.5000     7.9015     0.1588     0.0747    82.3028     2.5302    10.1056    10.9867   -35.6060
  247.0000     7.9172     0.1604     0.0726    81.8589     2.5310    10.9269    11.6128   -35.7555
  247.5000     7.9329     0.1664     0.0763    81.1125     2.5318    11.5259    12.0225   -35.9049
  248.0000     7.9334     0.1710     0.0789    80.5113     2.5273    11.6889    12.1910   -36.0543
  248.5000     7.9339     0.1800     0.0798    80.0734     2.5228    11.2937    12.2764   -36.2037
  249.0000     7.9495     0.1876     0.0779    80.8423     2.5258    11.0633    12.5348   -36.3531
  249.5000     7.9502     0.1906     0.0737    84.3319     2.5311    11.2982    12.8949   -36.3513
  250.0000     7.9507     0.1907     0.0698    90.2421     2.5356    11.8613    13.3422   -36.6516
  250.5000     7.9360     0.1907     0.0707    87.6827     2.5417    12.9789    14.1025   -36.8010
  251.0000     7.9215     0.1923     0.0785    79.9771     2.5147    14.3994    14.9062   -36.9504
  251.5000     7.9222     0.1954     0.0812    70.1535     2.5284    16.1980    16.5764   -37.2507
  252.0000     7.9076     0.1999     0.0791    57.0016     2.5132    17.7239    18.7329   -37.3997
  252.5000     7.9081     0.1970     0.0833    47.7848     2.5102    20.6400    20.7832   -37.2471
  253.0000     7.9087     0.1971     0.1136    44.3152     2.5170    23.3794    23.2180   -36.9440
  253.5000     7.8941     0.2032     0.1319    41.2975     2.4974    26.1183    26.3455   -36.7918
  254.0000     7.8645     0.2092     0.1642    41.0069     2.3985    27.6068    27.9918   -36.6395
  254.5000     7.8498     0.2063     0.1720    44.0451     2.3745    27.9938    28.5808   -36.7890
  255.0000     7.8353     0.1718     0.1759    52.3150     2.3641    27.9956    28.9810   -37.0889
  255.5000     7.8057     0.1657     0.1717    53.2270     2.3756    27.9974    28.9997   -37.3891
  256.0000     7.8063     0.1524     0.1720    54.3308     2.4031    27.9993    29.3892   -37.5385
  256.5000     7.7917     0.1299     0.1816    56.2624     2.4084    28.0011    29.5952   -37.5367
