~VERSION INFORMATION
 VERS.                2.0:   CWLS LOG ASCII STANDARD - VERSION 2.0
 WRAP.                 NO:   ONE LINE PER DEPTH STEP
~WELL INFORMATION
#MNEM.UNIT      DATA TYPE    INFORMATION
#----------   ------------   ------------------------------
 STRT.F           40.0000:   START DEPTH
 STOP.F          468.0000:   STOP DEPTH
 STEP.F            0.5000:   STEP LENGTH
 NULL.          -999.2500:   NO VALUE
 COMP. BROWN JOHN E&C INC:   COMPANY
 WELL. NAVAL PETROLEUM RESERVE 3 SX-1 #73-2-10:   WELL
 FLD .             TEAPOT:   FIELD
 LOC .      S10 T38N R78W:   LOCATION
 CNTY.            NATRONA:   COUNTY
 STAT.            WYOMING:   STATE
 CTRY. UNITED STATES OF AMERICA:   COUNTRY
 SRVC.     Atlas Wireline:   SERVICE COMPANY
 DATE.        05-MAY-1991:   LOGDATE
 API .       490251134000:   API NUMBER
~CURVE INFORMATION
#MNEM.UNIT       API CODE    CURVE DESCRIPTION
#----------   ------------   ------------------------------
 DEPT.F                  :   
 RILD.OHMM   07 120 46 00:   INDUCTION LOG DEEP RESISTIVITY
 RILM.OHMM   07 120 44 00:   INDUCTION LOG MEDIUM RESISTIVITY
 GRD .GAPI   45 310 01 00:   GAMMA RAY FROM DENSITY LOG
 CALD.IN     45 280 60 00:   CALIPER FROM DENSITY LOG
 CORR.G/C3   45 356 01 00:   DENSITY CORRECTION
 PORD.DEC    45 890 12 00:   POROSITY DENSITY SANDSTONE
 DEN .G/C3   45 350 01 00:   COMPENSATED BULK DENSTIY
~PARAMETER INFORMATION
#MNEM.UNIT          VALUE    DESCRIPTION
#----------   ------------   ------------------------------
 PD  .                 GL:   PERMANENT DATUM
 EPD .F              5178:   ELEVATION PERMANENT DATUM
 LMF .                 KB:   LOG MEASURED FROM
 DAPD.F                 5:   FEET ABOVE PERMANENT DATUM
 DMF .                 KB:   DRILLING MEASURED FROM
 EKB .F              5183:   KELLING BUSHING
 EGL .F              5178:   GROUND LEVEL
 DATE.        05-MAY-1991:   RUN DATE
 RUN .                  1:   RUN NUMBER
 DD  .F               470:   DEPTH DRILLER
 DL  .F               470:   DEPTH LOGGER
 BLI .F               468:   BOTTOM LOG INTERVAL
 TLI .F                 0:   TOP LOG INTERVAL
 CS  .IN            8.625:   CASING SIZE
 CBD .F                45:   CASING BOTTOM DRILLER
 CBL .F                45:   CASING BOTTOM LOGGER
 BS  .IN            7.875:   BIT SIZE
 BSD .F               470:   BIT SIZE AT DEPTH
 DFT .                AIR:   DRILLING FLUID TYPE
 LUN .            HL-6272:   LOGGING UNIT NUMBER
 LUL .             CASPER:   LOGGING UNIT LOCATION
 ENGI.            KINNETT:   RECORDING ENGINEER
 WITN.             STRONG:   WITNESSED BY
 CLNT.            A2DTECH:   CLIENT CODE
 ORIG.           5" PRINT:   ORIGIN OF DATA
 UWI .       490251134000:   UNIQUE WELL ID
 DICO. A2D Technologies, Inc.:   DIGITIZING COMPANY
~OTHER INFORMATION
~A   DEPT     RILD       RILM          GRD     CALD       CORR       PORD        DEN   
# ...
  131.0000     8.0806     8.6383    54.0634     8.4944     0.0090     0.1228     2.4421
  131.5000     8.0779     8.6366    54.5219     8.4943     0.0060     0.1210     2.4474
  132.0000     8.1325     8.5157    54.7534     8.5092     0.0030     0.1198     2.4504
  132.5000     8.1297     8.3964    54.7589     8.4940     0.0044     0.1171     2.4556
  133.0000     8.1275     8.3947    54.7634     8.4938     0.0059     0.1137     2.4647
  133.5000     8.0690     8.3349    55.6756     8.4635     0.0059     0.1095     2.4722
  134.0000     8.0668     8.2182    55.9059     8.4633     0.0074     0.1047     2.4782
  134.5000     8.0087     8.1596    53.6423     8.4632     0.0088     0.1033     2.4797
  135.0000     7.8961     8.1015    47.0659     8.4630     0.0103     0.1078     2.4759
  135.5000     7.8351     7.9881    45.4808     8.4629     0.0103     0.1111     2.4714
  136.0000     7.6754     7.8217    47.5288     8.4778     0.0102     0.1135     2.4684
  136.5000     7.5066     7.6588    52.5257     8.4928     0.0117     0.1156     2.4639
  137.0000     7.3067     7.4474    56.3881     8.4926     0.0134     0.1171     2.4601
  137.5000     7.0554     7.2419    57.9811     8.4925     0.0162     0.1174     2.4586
  138.0000     6.8601     7.0911    54.8086     8.4923     0.0192     0.1144     2.4618
  138.5000     6.6703     7.0858    52.5438     8.4770     0.0191     0.1135     2.4663
  139.0000     6.3081     6.8918    50.0521     8.4769     0.0191     0.1129     2.4677
  139.5000     6.0489     6.7031    48.0143     8.4919     0.0176     0.1159     2.4609
  140.0000     5.9638     6.4745    45.5226     8.4917     0.0160     0.1201     2.4519
  140.5000     6.0037     6.3852    46.2079     8.5217     0.0160     0.1228     2.4459
  141.0000     6.1285     6.4745    47.5740     8.5215     0.0160     0.1261     2.4406
  141.5000     6.2558     6.7031    50.0748     8.5214     0.0189     0.1291     2.4368
  142.0000     6.4303     6.8918    52.8024     8.5212     0.0204     0.1294     2.4376
  142.5000     6.6096     7.0858    54.8493     8.5211     0.0159     0.1258     2.4406
  143.0000     6.7940     7.2853    54.1731     8.5209     0.0098     0.1231     2.4436
  143.5000     6.9351     7.4904    50.7736     8.5208     0.0038     0.1216     2.4466
  144.0000     7.0303     7.6480    46.4665     8.5206     0.0007     0.1201     2.4504
  144.5000     7.1763     7.7549    45.7891     8.5205    -0.0008     0.1180     2.4541
  145.0000     7.2747     7.8089    48.2910     8.5203     0.0007     0.1159     2.4586
  145.5000     7.3744     7.7549    53.7418     8.5620     0.0006     0.1138     2.4632
  146.0000     7.4237     7.7549    56.6964     8.5618     0.0021     0.1123     2.4677
  146.5000     7.5255     7.7013    54.8855     8.5617     0.0036     0.1129     2.4669
  147.0000     7.5234     7.7013    52.9279     8.5642     0.0066     0.1144     2.4624
  147.5000     7.4693     7.7013    51.7949     8.5614     0.0111     0.1157     2.4579
  148.0000     7.4155     7.7013    54.3005     8.5612     0.0140     0.1174     2.4541
  148.5000     7.2602     7.6480    56.3505     8.5611     0.0185     0.1174     2.4541
  149.0000     7.0593     7.4904    56.5811     8.5609     0.0215     0.1162     2.4586
  149.5000     6.8164     7.4386    54.7686     8.5608     0.0215     0.1144     2.4632
  150.0000     6.5639     7.2349    53.6356     8.5606     0.0214     0.1138     2.4654
  150.5000     6.3391     6.9343    55.9140     8.5605     0.0180     0.1153     2.4631
  151.0000     6.1143     6.6010    57.0548     8.5603     0.0107     0.1162     2.4602
  151.5000     5.8492     6.3274    57.9684     8.5602     0.0066     0.1162     2.4594
  152.0000     5.5330     6.0652    58.8820     8.5448     0.0067     0.1165     2.4602
  152.5000     5.3071     5.8138    59.3411     8.5447     0.0068     0.1165     2.4594
  153.0000     5.1977     5.5729    59.1182     8.5445     0.0038     0.1171     2.4548
  153.5000     5.1260     5.3420    57.5319     8.5444     0.0009     0.1198     2.4488
  154.0000     5.0905     5.3383    50.2637     8.5442     0.0010     0.1324     2.4307
  154.5000     5.0905     5.4849    39.5864     8.5441     0.0011     0.1372     2.4217
  155.0000     5.1617     5.6484    31.8636     8.5439     0.0028     0.1387     2.4224
  155.5000     5.2339     5.9522    31.9284     8.5438     0.0045     0.1350     2.4330
  156.0000     5.4567     6.2011    39.2672     8.5436     0.0043     0.1294     2.4413
  156.5000     5.6516     6.5507    45.6500     8.5587     0.0029     0.1223     2.4473
  157.0000     5.9343     6.7774    50.1544     8.5585     0.0029     0.1194     2.4526
  157.5000     6.1949     7.0119    53.1365     8.5583     0.0030     0.1189     2.4533
  158.0000     6.4634     7.2044    59.3918     8.5582     0.0046     0.1189     2.4518
  158.5000     6.7677     7.3510    57.3509     8.5580     0.0092     0.1186     2.4526
  159.0000     7.0069     7.5006    55.0826     8.5579     0.0108     0.1174     2.4548
  159.5000     7.2043     7.6004    54.8588     8.5577     0.0108     0.1162     2.4572
  160.0000     7.3560     7.7013    56.4553     8.5576     0.0109     0.1141     2.4654
  160.5000     7.4589     7.7540    57.3689     8.5574     0.0095     0.1120     2.4706
  161.0000     7.6159     7.7983    57.8279     8.5573     0.0080     0.1108     2.4721
  161.5000     7.6690     8.0813    57.1506     8.5571     0.0081     0.1129     2.4706
  162.0000     7.7763     8.0802    54.2006     8.5570     0.0082     0.1141     2.4646
  162.5000     7.8305     8.1354    52.8403     8.5720     0.0083     0.1144     2.4639
  163.0000     7.8851     8.2481    53.3005     8.5718     0.0084     0.1141     2.4654
  163.5000     7.9954     8.3044    54.4414     8.5717     0.0069     0.1090     2.4714
  164.0000     8.0511     8.4234    54.6732     8.5564     0.0040     0.1057     2.4774
  164.5000     8.0511     8.5361    53.0856     8.5562     0.0025     0.1051     2.4744
  165.0000     8.0511     8.6643    53.3174     8.5561    -0.0004     0.1051     2.4729
  165.5000     8.0511     8.7742    51.5049     8.5559    -0.0003     0.1048     2.4752
  166.0000     8.0511     8.7726    49.4639     8.5558    -0.0002     0.1042     2.4789
  166.5000     8.0511     8.7714    50.3775     8.5556    -0.0001     0.1025     2.4827
  167.0000     7.9954     8.7702    51.0639     8.5555     0.0014     0.1004     2.4857
  167.5000     8.0511     8.7690    51.9775     8.5553     0.0015     0.1013     2.4827
  168.0000     8.0511     8.7678    52.0121     8.5552     0.0016     0.1025     2.4819
  168.5000     8.0511     8.7666    47.8956     8.5550     0.0017     0.1010     2.4827
  169.0000     8.0511     8.7654    43.8092     8.5570     0.0002     0.0988     2.4842
  169.5000     8.0511     8.7036    41.9729     8.5699     0.0018     0.0849     2.5017
  170.0000     8.0511     8.5229    46.0909     8.5697     0.0019     0.0744     2.5242
  170.5000     8.0511     8.4627    50.4287     8.5695     0.0050     0.0727     2.5295
  171.0000     7.9954     8.2297    53.1607     8.5694     0.0066     0.0743     2.5301
  171.5000     7.9954     8.0589    52.6272     8.5692     0.0096     0.0767     2.5218
  172.0000     7.8851     7.8916    52.4726     8.5691     0.0112     0.0839     2.5045
  172.5000     7.8305     7.7817    59.2204     8.5689     0.0098     0.0938     2.4932
  173.0000     7.7763     7.6202    67.9373     8.5688     0.0095     0.1025     2.4842
  173.5000     7.7225     7.4611    69.9861     8.5383     0.0089     0.1043     2.4782
  174.0000     7.5632     7.3546    65.6736     8.5382     0.0100     0.1043     2.4752
  174.5000     7.4073     7.1995    62.9508     8.5532     0.0131     0.1035     2.4774
  175.0000     7.1544     6.9908    61.8189     8.5530     0.0162     0.1026     2.4804
  175.5000     6.8099     6.6732    62.5053     8.5681     0.0193     0.1038     2.4789
  176.0000     6.4323     6.3117    64.7825     8.5679     0.0148     0.1053     2.4729
