~VERSION INFORMATION
 VERS.                2.0:   CWLS LOG ASCII STANDARD - VERSION 2.0
 WRAP.                 NO:   ONE LINE PER DEPTH STEP
~WELL INFORMATION
#MNEM.UNIT      DATA TYPE    INFORMATION
#----------   ------------   ------------------------------
 STRT.F           30.0000:   START DEPTH
 STOP.F          507.0000:   STOP DEPTH
 STEP.F            0.5000:   STEP LENGTH
 NULL.          -999.2500:   NO VALUE
 COMP. FENIX & SCISSON INC:   COMPANY
 WELL.      NPR-3 #42S-10:   WELL
 FLD .             TEAPOT:   FIELD
 LOC .      S10 T38N R78W:   LOCATION
 CNTY.            NATRONA:   COUNTY
 STAT.            WYOMING:   STATE
 CTRY. UNITED STATES OF AMERICA:   COUNTRY
 SRVC.            Unknown:   SERVICE COMPANY
 DATE.        15-JUL-1978:   LOGDATE
 API .       490251065700:   API NUMBER
~CURVE INFORMATION
#MNEM.UNIT       API CODE    CURVE DESCRIPTION
#----------   ------------   ------------------------------
 DEPT.F                  :   
 SPR .MV     07 010 01 00:   SPONTANEOUS POTENTIAL
 ILD .OHMM   07 120 46 00:   INDUCTION LOG DEEP
 SN  .OHMM   07 040 16 00:   SHORT NORMAL
 CALD.IN     45 280 60 00:   CALIPER FROM DENSITY LOG
 GRD .GAPI   45 310 01 00:   GAMMA RAY FROM DENSITY LOG
 CORR.G/C3   45 356 01 00:   DENSITY CORRECTION
 RHOB.G/C3   45 350 01 00:   BULK DENSITY
 DPHI.DEC    45 890 12 00:   DENSITY POROSITY SANDSTONE
~PARAMETER INFORMATION
#MNEM.UNIT          VALUE    DESCRIPTION
#----------   ------------   ------------------------------
 PD  .                 GL:   PERMANENT DATUM
 EPD .F              5204:   ELEVATION PERMANENT DATUM
 LMF .                 KB:   LOG MEASURED FROM
 DAPD.F                 4:   FEET ABOVE PERMANENT DATUM
 DMF .                 KB:   DRILLING MEASURED FROM
 EKB .F              5208:   KELLING BUSHING
 EGL .F              5204:   GROUND LEVEL
 DATE.        15-JUL-1978:   RUN DATE
 RUN .                  1:   RUN NUMBER
 DD  .F               500:   DEPTH DRILLER
 DL  .F               511:   DEPTH LOGGER
 BLI .F               504:   BOTTOM LOG INTERVAL
 TLI .F                30:   TOP LOG INTERVAL
 CS  .IN            8.625:   CASING SIZE
 CBD .F                40:   CASING BOTTOM DRILLER
 CBL .F                40:   CASING BOTTOM LOGGER
 BS  .IN            7.875:   BIT SIZE
 BSD .F               500:   BIT SIZE AT DEPTH
 DFT .                KCL:   DRILLING FLUID TYPE
 DFD .                8.7:   DRILLING FLUID DENSITY
 DFV .                 32:   DRILLING FLUID VISCOSITY
 DFPH.                9.0:   DRILLING FLUID PH
 RMS .OHMM           0.18:   RESISTIVITY MUD SAMPLE
 MST .F                78:   MUD SAMPLE TEMPERATURE
 RMF .OHMM           0.16:   RESISTIVITY MUD FILTRATE SAMPLE
 MFST.F                88:   MUD FILTRATE SAMPLE TEMPERATURE
 RMC .OHMM           0.28:   RESISTIVITY MUD CAKE
 MCST.F                88:   MUD CAKE SAMPLE TEMPERATURE
 MFSS.               MEAS:   MUD FILTRATE SAMPLE SOURCE
 MCSS.               MEAS:   MUD CAKE SAMPLE SOURCE
 TCS .HRS               1:   TIME CURCULATED STOPPED
 LUN .               2958:   LOGGING UNIT NUMBER
 LUL .               CASP:   LOGGING UNIT LOCATION
 ENGI.              HONEA:   RECORDING ENGINEER
 WITN.           MCGINLEY:   WITNESSED BY
 CLNT.            A2DTECH:   CLIENT CODE
 ORIG.           5" PRINT:   ORIGIN OF DATA
 UWI .       490251065700:   UNIQUE WELL ID
 DICO. A2D Technologies, Inc.:   DIGITIZING COMPANY
~OTHER INFORMATION
~A   DEPT      SPR        ILD         SN       CALD        GRD       CORR       RHOB       DPHI   
# ...
  354.0000   -29.4128    13.5546     9.7629     9.0246    69.4011     0.0120     2.4341     0.1532
  354.5000   -29.4011    13.5592     9.7566     9.0126    67.9414     0.0122     2.4387     0.1514
  355.0000   -29.5383    13.5638     9.7504     8.9996    67.6639     0.0124     2.4411     0.1526
  355.5000   -29.6755    13.5684     9.7441     8.9875    68.8853     0.0141     2.4360     0.1529
  356.0000   -29.6632    13.5730     9.7438     8.9900    68.7564     0.0158     2.4346     0.1522
  356.5000   -29.6490    13.6713     9.7369     8.9775    68.1948     0.0175     2.4392     0.1549
  357.0000   -29.4882    13.6759     9.6876     8.9798    68.2210     0.0177     2.4311     0.1560
  357.5000   -29.4764    13.6806     9.6942     8.9822    68.3958     0.0179     2.4297     0.1551
  358.0000   -29.4646    13.7797     9.6994     8.9850    68.7192     0.0165     2.4321     0.1547
  358.5000   -29.4528    13.7844     9.7047     8.9873    68.5968     0.0153     2.4337     0.1547
  359.0000   -29.4410    13.8843     9.7092     8.9748    67.8564     0.0155     2.4331     0.1570
  359.5000   -29.4292    13.8899     9.7153     8.9772    66.7241     0.0156     2.4287     0.1609
  360.0000   -29.4174    13.9905     9.7199     8.9795    66.5951     0.0173     2.4229     0.1659
  360.5000   -29.4056    13.9953     9.7259     8.9818    67.5194     0.0190     2.4169     0.1680
  361.0000   -29.3938    14.0000     9.7312     8.9842    67.9914     0.0207     2.4111     0.1640
  361.5000   -29.2330    14.0048     9.7365     8.9711    67.8690     0.0254     2.4218     0.1541
  362.0000   -29.2212    13.9124     9.6737     8.9740    67.2943     0.0241     2.4465     0.1437
  362.5000   -29.2094    13.9183     9.6803     8.9614    67.3270     0.0168     2.4548     0.1454
  363.0000   -29.1976    13.7333     9.6860     8.9638    67.5018     0.0125     2.4452     0.1474
  363.5000   -29.3353    13.6435     9.6909     8.9662    67.2309     0.0127     2.4438     0.1462
  364.0000   -29.4724    13.4607     9.6961     8.9685    65.9198     0.0129     2.4477     0.1447
  364.5000   -29.7583    13.1915     9.7014     8.9714    65.6488     0.0101     2.4531     0.1467
  365.0000   -29.7465    12.9267     9.7067     8.9737    66.9391     0.0103     2.4561     0.1556
  365.5000   -29.7347    12.5804     9.7120     8.9760    69.2739     0.0075     2.4339     0.1613
  366.0000   -29.5738    12.3278     9.7173     8.9629    70.9345     0.0047     2.4295     0.1586
  366.5000   -29.3984    12.5890     9.7226     8.9362    69.9206     0.0034     2.4267     0.1516
  367.0000   -29.2519    12.8556     9.7279     8.9231    68.3058    -0.0024     2.4148     0.1806
  367.5000   -29.0636    13.2184     9.7333     8.8815    68.4871    -0.0052     2.3925     0.1991
  368.0000   -28.6296    13.5941     9.8059     8.8536    68.6554    -0.0020     2.3643     0.2119
  368.5000   -28.3198    14.0833     9.8790     8.8713    66.6079     0.0042     2.3360     0.2199
  369.0000   -27.8609    14.7017     9.9655     8.8291    63.5137     0.0089     2.3227     0.2256
  369.5000   -27.2529    15.6437    10.2370     8.7128    59.8252     0.0106     2.3168     0.2295
  370.0000   -26.7941    16.8435    10.5283     8.6241    56.4339     0.0107     2.3140     0.2305
  370.5000   -26.1861    18.1726    10.8279     8.5839    56.0143     0.0109     2.3171     0.2284
  371.0000   -25.7272    19.7417    11.1360     8.6313    56.7845     0.0126     2.3232     0.2256
  371.5000   -25.4174    21.0086    11.4709     8.6485    56.0733     0.0144     2.3203     0.2229
  372.0000   -24.8095    22.2037    11.9051     8.5618    55.5051     0.0190     2.3264     0.2205
  372.5000   -24.3506    23.3061    12.3393     8.4603    55.2276     0.0237     2.3325     0.2207
  373.0000   -23.8917    23.4748    12.7735     8.4323    56.1519     0.0284     2.3296     0.2207
  373.5000   -23.5818    23.6447    13.2077     8.4050    57.6639     0.0345     2.3260     0.2198
  374.0000   -23.2720    23.8159    13.6383     8.3782    58.8789     0.0392     2.3314     0.2123
  374.5000   -22.9621    23.8240    13.8348     8.3806    59.7966     0.0453     2.3546     0.1946
  375.0000   -22.6523    23.9958    14.0341     8.3977    60.8629     0.0485     2.3727     0.1907
  375.5000   -22.4914    24.0040    14.1387     8.4149    62.2264     0.0487     2.3810     0.1876
  376.0000   -22.1816    24.5283    14.1465     8.4469    62.2526     0.0459     2.3834     0.1864
  376.5000   -22.0208    25.4275    14.1660     8.5708    59.6544     0.0461     2.3835     0.1788
  377.0000   -22.0089    26.8566    14.2598     8.7080    54.2080     0.0478     2.3873     0.1684
  377.5000   -22.1462    28.5454    14.2677     8.4545    53.1253     0.0480     2.4061     0.1469
  378.0000   -22.2834    30.3773    14.2770     8.6200    52.6992     0.0451     2.4473     0.1360
  378.5000   -22.4207    32.3268    14.2848     8.7410    51.2460     0.0375     2.4625     0.1453
  379.0000   -22.5579    32.5580    14.1927     8.5950    48.7462     0.0292     2.4573     0.1578
  379.5000   -22.6951    30.8292    14.2023     8.6121    48.4687     0.0309     2.4439     0.1697
  380.0000   -22.8294    29.7978    14.1107     8.7183    50.4331     0.0385     2.3970     0.1884
  380.5000   -22.8176    29.6012    14.1204     8.8097    52.2424     0.0462     2.3762     0.1920
  381.0000   -22.8058    29.4084    13.9350     8.8417    53.9030     0.0448     2.3763     0.1967
  381.5000   -22.6450    29.4209    13.8470     8.7847    55.8609     0.0361     2.3697     0.2039
  382.0000   -22.4842    29.4309    13.7577     8.7870    58.7103     0.0348     2.3505     0.2092
  382.5000   -22.3234    26.3749    13.5790     8.7893    60.6686     0.0350     2.3431     0.2118
  383.0000   -22.1625    24.1286    13.4008     8.7917    60.6954     0.0367     2.3432     0.2127
  383.5000   -21.8527    23.1616    13.2231     8.7624    60.1327     0.0384     2.3374     0.2076
  384.0000   -21.6919    22.8532    13.0513     8.6634    60.1589     0.0356     2.3509     0.1950
  384.5000   -21.5310    22.8609    12.9689     8.6503    61.0766     0.0328     2.3675     0.1959
  385.0000   -21.3702    22.8687    12.8853     8.7867    61.9944     0.0285     2.3706     0.1974
  385.5000   -21.3584    22.8765    12.7179     8.8632    62.6149     0.0257     2.3655     0.1988
  386.0000   -21.1976    22.8843    12.6374     8.6727    62.6411     0.0259     2.3678     0.1996
  386.5000   -21.0368    22.8922    12.4717     8.6151    62.5187     0.0261     2.3575     0.2085
  387.0000   -20.8759    22.9000    12.3929     8.6625    62.2467     0.0263     2.3479     0.2055
  387.5000   -20.8641    22.9079    12.2303     8.7242    61.6796     0.0265     2.3480     0.2025
  388.0000   -20.8523    22.9173    12.2371     8.7859    61.5572     0.0252     2.3571     0.2057
  388.5000   -21.2881    23.0832    12.1597     8.7882    61.5840     0.0239     2.3610     0.2128
  389.0000   -21.7298    23.0910    12.1665     8.7757    61.9326     0.0241     2.3521     0.2182
  389.5000   -22.0092    23.0989    12.1732     8.7780    62.5339     0.0243     2.3313     0.2196
  390.0000   -21.9970    23.1067    12.0961     8.7655    62.7021     0.0260     2.3322     0.2193
  390.5000   -21.9851    22.9563    12.1044     8.7684    62.2826     0.0292     2.3293     0.2207
  391.0000   -21.9709    22.6505    12.0263     8.8004    61.8695     0.0353     2.3279     0.2168
  391.5000   -21.9591    22.3470    11.9504     8.8324    61.7406     0.0400     2.3328     0.2078
  392.0000   -21.7983    22.0494    11.8749     8.9089    61.7734     0.0418     2.3431     0.2006
  392.5000   -21.6374    21.9058    11.7999     8.9854    61.9481     0.0374     2.3649     0.2120
  393.0000   -21.6256    21.9151    11.8080     9.0323    62.4201     0.0285     2.3374     0.2154
  393.5000   -21.4648    22.0737    11.7318     9.0346    62.5949     0.0258     2.3345     0.2135
  394.0000   -21.3040    22.0812    11.6578     9.0067    62.6211     0.0245     2.3391     0.2118
