~VERSION INFORMATION
 VERS.                2.0:   CWLS LOG ASCII STANDARD - VERSION 2.0
 WRAP.                 NO:   ONE LINE PER DEPTH STEP
~WELL INFORMATION
#MNEM.UNIT      DATA TYPE    INFORMATION
#----------   ------------   ------------------------------
 STRT.F            0.0000:   START DEPTH
 STOP.F         1110.0000:   STOP DEPTH
 STEP.F            0.5000:   STEP LENGTH
 NULL.          -999.2500:   NO VALUE
 COMP. FENIX & SCISSON INC:   COMPANY
 WELL. NAVAL PETROLEUM RESERVE 3 SX-1 #63-14:   WELL
 FLD .       TEA POT DOME:   FIELD
 LOC .      S14 T38N R78W:   LOCATION
 CNTY.            NATRONA:   COUNTY
 STAT.            WYOMING:   STATE
 CTRY. UNITED STATES OF AMERICA:   COUNTRY
 SRVC.            Unknown:   SERVICE COMPANY
 DATE.        15-APR-1978:   LOGDATE
 API .       490251061500:   API NUMBER
~CURVE INFORMATION
#MNEM.UNIT       API CODE    CURVE DESCRIPTION
#----------   ------------   ------------------------------
 DEPT.F                  :   
 NPHI.DEC    42 890 03 00:   NEUTRON POROSITY SANDSTONE
 GRD .GAPI   45 310 01 00:   GAMMA RAY FROM DENSITY LOG
 CALD.IN     45 280 60 00:   CALIPER FROM DENSITY LOG
 RHOB.G/C3   45 350 01 00:   BULK DENSITY
 DPHI.DEC    45 890 12 00:   DENSITY POROSITY SANDSTONE
 CORR.G/C3   45 356 01 00:   DENSITY CORRECTION
 SPR .MV     05 010 01 00:   SPONTANEOUS POTENTIAL FROM RES.
 SN  .OHMM   05 040 16 00:   SHORT NORMAL 16"
 ILD .OHMM   05 120 46 00:   INDUCTION LOG DEEP
~PARAMETER INFORMATION
#MNEM.UNIT          VALUE    DESCRIPTION
#----------   ------------   ------------------------------
 PD  .                 GL:   PERMANENT DATUM
 EPD .F              5253:   ELEVATION PERMANENT DATUM
 LMF .                 KB:   LOG MEASURED FROM
 DAPD.F                 4:   FEET ABOVE PERMANENT DATUM
 DMF .                 KB:   DRILLING MEASURED FROM
 EKB .F              5257:   KELLING BUSHING
 EGL .F              5253:   GROUND LEVEL
 DATE.          4-15-1978:   RUN DATE
 RUN .                  1:   RUN NUMBER
 DD  .F              1095:   DEPTH DRILLER
 DL  .F              1102:   DEPTH LOGGER
 BLI .F              1100:   BOTTOM LOG INTERVAL
 TLI .F               850:   TOP LOG INTERVAL
 CS  .IN            9.625:   CASING SIZE
 CBD .F                40:   CASING BOTTOM DRILLER
 CBL .F                40:   CASING BOTTOM LOGGER
 BS  .IN            7.875:   BIT SIZE
 BSD .F              1095:   BIT SIZE AT DEPTH
 DFT .                KCL:   DRILLING FLUID TYPE
 DFD .                8.6:   DRILLING FLUID DENSITY
 DFV .                 30:   DRILLING FLUID VISCOSITY
 DFPH.                 10:   DRILLING FLUID PH
 DFL .                  8:   DRILLING FLUID LOSS
 MSS .           FLOWLINE:   MUD SAMPLE SOURCE
 RMS .OHMM            .46:   RESISTIVITY MUD SAMPLE
 MST .F                58:   MUD SAMPLE TEMPERATURE
 RMF .OHMM             .5:   RESISTIVITY MUD FILTRATE SAMPLE
 MFST.F                60:   MUD FILTRATE SAMPLE TEMPERATURE
 RMC .OHMM             .5:   RESISTIVITY MUD CAKE
 MCST.F                60:   MUD CAKE SAMPLE TEMPERATURE
 MFSS.           MEASURED:   MUD FILTRATE SAMPLE SOURCE
 RMB .OHMM            .33:   RESISTIVITY MUD AT BHT
 BHT .F                80:   BOTTOM HOLE TEMPERATURE
 TCS .HRS               6:   TIME CURCULATED STOPPED
 MRT .F                80:   MAXIMUM RECORDED TEMPERATURE
 LUN .               2958:   LOGGING UNIT NUMBER
 LUL .               CASP:   LOGGING UNIT LOCATION
 ENGI.             MILLER:   RECORDING ENGINEER
 WITN.           MCGINLEY:   WITNESSED BY
 CLNT.            A2DTECH:   CLIENT CODE
 ORIG.      2" & 5" PRINT:   ORIGIN OF DATA
 UWI .       490251061500:   UNIQUE WELL ID
 DICO. A2D Technologies, Inc.:   DIGITIZING COMPANY
~OTHER INFORMATION
~A    DEPT    NPHI         GRD      CALD       RHOB       DPHI       CORR        SPR         SN        ILD   
# ...
  839.5000  -999.2500   114.2644     7.9704     2.4292     0.1236     0.0670   -48.0040     4.7067     4.2051
  840.0000  -999.2500   113.7628     7.9337     2.4486     0.1192     0.0802   -48.0040     4.5630     4.2499
  840.5000  -999.2500   110.5760     7.9303     2.4546     0.1148     0.0757   -48.0040     4.5148     4.2953
  841.0000  -999.2500   109.7228     7.9927     2.4513     0.1104     0.0656   -48.0040     4.5189     4.3416
  841.5000  -999.2500   109.6481     8.0760     2.4499     0.1156     0.0612   -48.0040     4.8644     4.3878
  842.0000  -999.2500   109.7374     7.9968     2.4547     0.1183     0.0605   -48.0040     5.3187     4.7051
  842.5000  -999.2500   110.0547     7.8543     2.4594     0.1090     0.0609   -48.0040     5.8015     5.1066
  843.0000  -999.2500   110.6559     7.7116     2.4572     0.1078     0.0704   -48.0041     6.1847     5.5423
  843.5000  -999.2500   110.7958     7.5857     2.4541     0.1075     0.0799   -48.0043     6.2000     5.7230
  844.0000  -999.2500   110.8808     7.4740     2.4508     0.1084     0.0843   -48.0019     6.2153     5.8433
  844.5000  -999.2500   113.4082     7.3953     2.4490     0.1135     0.0809   -47.9576     6.2306     5.9024
  845.0000  -999.2500   114.4667     7.3412     2.4478     0.1167     0.0773   -47.9140     6.3121     5.8936
  845.5000  -999.2500   114.3525     7.2376     2.4465     0.1104     0.0771   -47.8707     6.4542     5.8870
  846.0000  -999.2500   114.2157     7.1277     2.4423     0.1134     0.0780   -47.8275     6.5998     5.8804
  846.5000  -999.2500   114.0755     7.0377     2.4359     0.1188     0.0772   -47.7843     6.7496     5.8737
  847.0000  -999.2500   113.9100     6.9642     2.4294     0.1242     0.0736   -47.7410     6.8391     5.8671
  847.5000     0.1862   113.3470     6.9719     2.4270     0.1284     0.0700   -47.6978     6.7689     5.8605
  848.0000     0.1851   112.3122     6.9718     2.4295     0.1284     0.0668   -47.6542     6.7180     5.8539
  848.5000     0.1817   111.4743     6.9185     2.4376     0.1232     0.0698   -47.6093     6.6678     5.8472
  849.0000     0.1877   113.2060     6.9352     2.4455     0.1195     0.0731   -47.6620     6.6181     5.8407
  849.5000     0.1947   114.0105     6.9895     2.4534     0.1158     0.0763   -47.7298     6.5833     5.8341
  850.0000     0.1975   114.1367     7.1603     2.4613     0.1122     0.0789   -47.7979     6.5646     5.8275
  850.5000     0.1983   115.5002     7.3341     2.4692     0.1085     0.0799   -47.8654     6.5459     5.8209
  851.0000     0.1991   117.3936     7.5491     2.4733     0.1048     0.0835   -47.9317     6.5273     5.8143
  851.5000     0.1997   116.8482     7.7760     2.4746     0.1011     0.0929   -48.0091     6.5088     5.8078
  852.0000     0.1997   116.7518     8.0099     2.4797     0.0975     0.1022   -48.3940     6.4903     5.8012
  852.5000     0.1989   117.1196     8.0510     2.4802     0.0942     0.1041   -48.8039     6.4718     5.7947
  853.0000     0.1976   115.6852     8.0572     2.4771     0.0943     0.1046   -49.1940     6.4534     5.7765
  853.5000     0.1954   113.8008     8.1084     2.4763     0.0968     0.1046   -49.2666     6.4351     5.7539
  854.0000     0.1924   111.8812     8.1539     2.4741     0.0998     0.1046   -49.3266     6.4168     5.7314
  854.5000     0.1893   111.6242     8.0899     2.4689     0.1028     0.1047   -49.3879     6.3986     5.7090
  855.0000     0.1869   112.3369     8.0217     2.4611     0.1052     0.1020   -49.4498     6.3804     5.6889
  855.5000     0.1883   111.5042     7.9594     2.4409     0.1172     0.0981   -49.5111     6.3623     5.4538
  856.0000     0.1916   109.9140     7.9588     2.4329     0.1196     0.0825   -49.5744     6.2437     5.2482
  856.5000     0.1938   109.1385     7.9525     2.4268     0.1238     0.0703   -49.4199     6.0412     5.0503
  857.0000     0.1942   111.3718     7.8344     2.4155     0.1305     0.0706   -49.0942     5.8449     4.8584
  857.5000     0.1948   114.5748     7.7181     2.4044     0.1380     0.0679   -48.7670     5.6550     4.8121
  858.0000     0.1966   116.1675     7.6025     2.4037     0.1355     0.0649   -48.4393     5.4714     4.7976
  858.5000     0.1991   115.8965     7.4872     2.4187     0.1318     0.0668   -48.1124     5.2938     4.7841
  859.0000     0.2053   114.4444     7.3718     2.4203     0.1293     0.0678   -47.7994     5.1219     4.7703
  859.5000     0.2121   109.4998     7.2783     2.4219     0.1296     0.0652   -47.5731     5.0007     4.7566
  860.0000     0.2189   106.5597     7.2417     2.4201     0.1291     0.0627   -47.3575     5.2098     4.7430
  860.5000     0.2225   106.1988     7.2408     2.4174     0.1286     0.0610   -47.1941     5.3799     4.7294
  861.0000     0.2248   108.2486     7.2417     2.4145     0.1331     0.0644   -47.1678     5.5577     4.7158
  861.5000     0.2257   110.3419     7.1779     2.4019     0.1393     0.0679   -47.1382     5.6881     4.7022
  862.0000     0.2218   112.3631     7.0765     2.3908     0.1455     0.0676   -47.1092     5.4485     4.6885
  862.5000     0.2137   116.5111     7.0890     2.3943     0.1493     0.0668   -47.0799     5.2760     4.7182
  863.0000     0.2044   117.7902     7.1853     2.3986     0.1414     0.0716   -47.0508     5.1097     4.7490
  863.5000     0.1951   113.3008     7.3008     2.4074     0.1358     0.0764   -47.0234     4.9548     4.7799
  864.0000     0.1893   111.2675     7.3345     2.4232     0.1303     0.0755   -47.0863     5.1020     4.8109
  864.5000     0.1854   111.8797     7.3653     2.4339     0.1253     0.0745   -47.2670     5.2823     4.8422
  865.0000     0.1845   112.1647     7.4255     2.4381     0.1221     0.0734   -47.4460     5.4689     4.9084
  865.5000     0.1845   111.7744     7.5180     2.4424     0.1190     0.0724   -47.6367     5.6621     5.0611
  866.0000     0.1845   109.1960     7.6653     2.4467     0.1164     0.0713   -47.8631     5.8220     5.2186
  866.5000     0.1845   106.4230     7.8194     2.4509     0.1145     0.0706   -48.0947     5.9046     5.3809
  867.0000     0.1845   103.6005     7.9274     2.4540     0.1134     0.0711   -48.3267     5.9570     5.5483
  867.5000     0.1829   103.7785     7.9473     2.4526     0.1072     0.0735   -48.5627     5.9570     5.5851
  868.0000     0.1811   106.2565     7.9689     2.4499     0.1168     0.0811   -48.5758     5.9024     5.3384
  868.5000     0.1801   108.3272     7.9898     2.4472     0.1136     0.0845   -48.5423     5.8174     5.1027
  869.0000     0.1822   110.4027     8.0242     2.4444     0.1170     0.0846   -48.5077     5.7158     4.8773
  869.5000     0.1857   112.5111     8.0659     2.4483     0.1204     0.0845   -48.4739     5.6160     4.6605
  870.0000     0.1861   111.4357     8.1069     2.4542     0.1116     0.0887   -48.4404     5.4246     4.4340
  870.5000     0.1864   110.6100     8.1147     2.4601     0.1129     0.1007   -48.4030     5.1988     4.4377
  871.0000     0.1948   110.7074     8.0093     2.4658     0.1098     0.1131   -48.2251     4.9825     4.4218
  871.5000     0.1992   110.1888     7.9083     2.4660     0.1062     0.1254   -48.0308     4.6894     4.4110
  872.0000     0.2016   109.0082     7.7999     2.4660     0.1072     0.1297   -47.8362     4.7889     4.4000
  872.5000     0.2025   110.1653     7.6633     2.4658     0.1082     0.1226   -47.6385     4.9770     4.3950
  873.0000     0.1959   111.1275     7.5228     2.4705     0.1063     0.1189   -47.6225     5.1705     4.4225
  873.5000     0.1881   111.6010     7.4333     2.4760     0.1009     0.1154   -47.6446     5.3715     4.5868
  874.0000     0.1829   110.7267     7.3818     2.4806     0.0936     0.1120   -47.6674     5.5801     4.8871
  874.5000     0.1839   106.6234     7.3311     2.4632     0.1039     0.1077   -47.6899     5.7969     5.2070
  875.0000     0.1867   103.3384     7.2676     2.4344     0.1191     0.0885   -47.7123     6.0221     5.5479
  875.5000     0.1895   103.4787     7.1824     2.4299     0.1268     0.0696   -47.7346     6.2561     5.8894
