~VERSION INFORMATION
 VERS.                2.0:   CWLS LOG ASCII STANDARD - VERSION 2.0
 WRAP.                 NO:   ONE LINE PER DEPTH STEP
~WELL INFORMATION
#MNEM.UNIT      DATA TYPE    INFORMATION
#----------   ------------   ------------------------------
 STRT.F           14.0000:   START DEPTH
 STOP.F          500.0000:   STOP DEPTH
 STEP.F            0.1000:   STEP LENGTH
 NULL.          -999.2500:   NO VALUE
 COMP. LAWRENCE/ALLISON INC:   COMPANY
 WELL.    72-46 SX #10-10:   WELL
 FLD .             TEAPOT:   FIELD
 LOC .      S10 T38N R78W:   LOCATION
 CNTY.            NATRONA:   COUNTY
 STAT.            WYOMING:   STATE
 CTRY. UNITED STATES OF AMERICA:   COUNTRY
 SRVC.           Gearhart:   SERVICE COMPANY
 DATE.        22-MAY-1988:   LOGDATE
 API .       490251122600:   API NUMBER
~CURVE INFORMATION
#MNEM.UNIT       API CODE    CURVE DESCRIPTION
#----------   ------------   ------------------------------
 DEPT.F                  :   
 GRR .GAPI   07 310 01 00:   GAMMA RAY
 RILD.OHMM   07 120 46 00:   INDUCTION LOG DEEP RESISTIVITY
 RILM.OHMM   07 120 44 00:   INDUCTION LOG MEDIUM RESISTIVITY
~PARAMETER INFORMATION
#MNEM.UNIT          VALUE    DESCRIPTION
#----------   ------------   ------------------------------
 PD  .                 GL:   PERMANENT DATUM
 EPD .F              5173:   ELEVATION PERMANENT DATUM
 LMF .                 KB:   LOG MEASURED FROM
 DAPD.F              10.2:   FEET ABOVE PERMANENT DATUM
 DMF .                 KB:   DRILLING MEASURED FROM
 EKB .F            5183.2:   KELLING BUSHING
 EGL .F              5173:   GROUND LEVEL
 DATE.        22-MAY-1988:   RUN DATE
 RUN .                  1:   RUN NUMBER
 DD  .F               505:   DEPTH DRILLER
 DL  .F               504:   DEPTH LOGGER
 BLI .F               500:   BOTTOM LOG INTERVAL
 TLI .F                50:   TOP LOG INTERVAL
 CS  .IN            9.625:   CASING SIZE
 CBD .F                52:   CASING BOTTOM DRILLER
 CBL .F                50:   CASING BOTTOM LOGGER
 BS  .IN             8.75:   BIT SIZE
 BSD .F               505:   BIT SIZE AT DEPTH
 DFT .                AIR:   DRILLING FLUID TYPE
 TLAB.HRS            1339:   TIME LOGGER AT BOTTOM
 LUN .               7597:   LOGGING UNIT NUMBER
 LUL .           GILLETTE:   LOGGING UNIT LOCATION
 ENGI.          HUCKFELDT:   RECORDING ENGINEER
 WITN.             STRONG:   WITNESSED BY
 CLNT.            A2DTECH:   CLIENT CODE
 ORIG.           5" PRINT:   ORIGIN OF DATA
 UWI .       490251122600:   UNIQUE WELL ID
 DICO. A2D Technologies, Inc.:   DIGITIZING COMPANY
~OTHER INFORMATION
~A   DEPT       GRR      RILD       RILM   
# ...
   86.8000   121.5002     8.0592     8.0404
   86.9000   121.0720     8.0593     8.0404
   87.0000   120.8239     8.1042     8.0404
   87.1000   120.5386     8.1511     8.0752
   87.2000   120.5406     8.1729     8.0967
   87.3000   120.5431     8.1883     8.1119
   87.4000   120.5455     8.2303     8.1534
   87.5000   120.5480     8.2305     8.1534
   87.6000   120.5504     8.2733     8.1958
   87.7000   120.7999     8.2883     8.2106
   87.8000   120.8596     8.2884     8.2106
   87.9000   120.8621     8.2885     8.2106
   88.0000   120.7794     8.2887     8.2106
   88.1000   120.5623     8.2888     8.2106
   88.2000   120.5652     8.2889     8.2106
   88.3000   120.5674     8.2890     8.2402
   88.4000   120.5699     8.3088     8.2681
   88.5000   120.5723     8.3473     8.2681
   88.6000   120.5747     8.3474     8.2681
   88.7000   120.5654     8.3475     8.2681
   88.8000   120.2756     8.3476     8.2681
   88.9000   120.2776     8.3477     8.2681
   89.0000   120.2801     8.3479     8.2847
   89.1000   120.1823     8.3545     8.3260
   89.2000   119.9801     8.4066     8.3260
   89.3000   119.9830     8.4067     8.3260
   89.4000   119.9854     8.4068     8.3260
   89.5000   119.9879     8.4069     8.3260
   89.6000   120.1251     8.4070     8.3260
   89.7000   120.2971     8.4036     8.3260
   89.8000   120.3264     8.3488     8.3260
   89.9000   120.6067     8.3489     8.3260
   90.0000   120.8321     8.3491     8.3260
   90.1000   121.0849     8.3491     8.3053
   90.2000   121.4530     8.3492     8.2681
   90.3000   122.0178     8.3494     8.2681
   90.4000   122.7712     8.3495     8.2681
   90.5000   123.6656     8.3496     8.2681
   90.6000   123.8714     8.3497     8.2681
   90.7000   123.8246     8.3321     8.2681
   90.8000   123.5766     8.2919     8.2681
   90.9000   123.2869     8.2920     8.2681
   91.0000   122.7642     8.2922     8.2681
   91.1000   122.5282     8.2923     8.2681
   91.2000   122.4645     8.2923     8.2681
   91.3000   122.2064     8.2925     8.2681
   91.4000   121.8606     8.2926     8.2681
   91.5000   121.8407     8.2927     8.2681
   91.6000   121.5613     8.2928     8.2681
   91.7000   121.5635     8.2930     8.2681
   91.8000   121.4011     8.2930     8.2681
   91.9000   121.2639     8.2931     8.2681
   92.0000   121.2664     8.2933     8.2681
   92.1000   121.2688     8.2934     8.2681
   92.2000   121.2712     8.2935     8.2681
   92.3000   121.2737     8.2937     8.2681
   92.4000   121.2761     8.2937     8.2681
   92.5000   121.2785     8.2938     8.2681
   92.6000   121.2810     8.2940     8.2681
   92.7000   121.2836     8.2941     8.2681
   92.8000   121.2858     8.2942     8.2681
   92.9000   121.2883     8.2943     8.2681
   93.0000   121.2907     8.2945     8.2681
   93.1000   121.2931     8.2946     8.2681
   93.2000   121.2778     8.2947     8.2681
   93.3000   120.9940     8.2948     8.2681
   93.4000   120.9960     8.3282     8.2681
   93.5000   120.8381     8.3531     8.2681
   93.6000   120.6965     8.3532     8.2681
   93.7000   120.6989     8.3533     8.2681
   93.8000   120.7014     8.3535     8.2681
   93.9000   120.4550     8.3536     8.2681
   94.0000   120.2071     8.3537     8.2982
   94.1000   120.0998     8.3538     8.3260
   94.2000   120.1023     8.3539     8.3260
   94.3000   120.0719     8.3540     8.3260
   94.4000   119.8029     8.3542     8.3260
   94.5000   119.5759     8.3543     8.3260
   94.6000   119.3278     8.3544     8.3533
   94.7000   119.2012     8.3717     8.3844
   94.8000   119.1363     8.4131     8.3844
   94.9000   118.8751     8.4132     8.3844
   95.0000   118.2957     8.4134     8.4294
   95.1000   118.0879     8.4135     8.4431
   95.2000   117.6841     8.4136     8.4431
   95.3000   117.1856     8.4279     8.4431
   95.4000   116.7351     8.4727     8.4470
   95.5000   116.4810     8.4729     8.5023
   95.6000   116.2391     8.5154     8.5023
   95.7000   115.8006     8.5324     8.5344
   95.8000   115.4386     8.5325     8.5837
   95.9000   115.1907     8.5439     8.6333
   96.0000   114.9428     8.5925     8.6823
   96.1000   114.6693     8.5927     8.6823
   96.2000   114.2219     8.6327     8.7226
   96.3000   114.0651     8.6826     8.7431
   96.4000   113.9507     8.7328     8.7622
   96.5000   113.8285     8.7833     8.8128
   96.6000   114.0725     8.8365     8.8661
   96.7000   114.0753     8.8366     8.9149
   96.8000   114.2828     8.8745     8.9664
   96.9000   114.5356     8.9258     9.0182
   97.0000   114.7884     8.9774     9.0703
   97.1000   115.0412     9.0294     9.1226
   97.2000   115.3048     9.0873     9.1811
   97.3000   115.5470     9.1341     9.1811
   97.4000   115.7999     9.2230     9.2170
   97.5000   116.0528     9.2799     9.2702
   97.6000   116.2277     9.2936     9.3238
   97.7000   116.2301     9.3474     9.3777
   97.8000   116.2329     9.4108     9.4412
   97.9000   116.2350     9.5011     9.4863
   98.0000   115.9045     9.5433     9.5410
   98.1000   115.5187     9.5655     9.5739
   98.2000   115.2123     9.6103     9.5844
   98.3000   114.7181     9.6105     9.6410
   98.4000   114.4212     9.6648     9.6954
   98.5000   114.2222     9.7207     9.7514
   98.6000   113.8273     9.7770     9.7766
   98.7000   113.4218     9.8143     9.7957
   98.8000   113.1737     9.8216     9.8523
   98.9000   112.9110     9.8833     9.9141
   99.0000   112.6777     9.9356     9.9141
   99.1000   112.4298     9.9528     9.9543
   99.2000   112.3093     9.9810     9.9836
   99.3000   112.3117    10.0387     9.9995
   99.4000   112.3142    10.0968    10.0535
   99.5000   112.3169    10.1639    10.0535
   99.6000   112.3190    10.1640    10.1029
   99.7000   112.4835    10.2016    10.1613
   99.8000   112.7363    10.2606    10.2200
   99.9000   112.9351    10.3073    10.2664
  100.0000   112.9376    10.3074    10.2664
  100.1000   113.1288    10.3924    10.3836
  100.2000   113.3200    10.4775    10.5008
  100.3000   113.5112    10.5625    10.6180
  100.4000   113.7023    10.6475    10.7352
  100.5000   113.8660    10.7326    10.8525
  100.6000   113.8693    10.8234    10.9295
  100.7000   113.6385    10.8816    10.9372
  100.8000   113.5708    10.9444    11.0051
  100.9000   113.4472    10.9755    11.0047
  101.0000   113.2725    10.9939    11.0490
  101.1000   113.2560    11.0623    11.1123
  101.2000   112.9745    11.2077    11.1581
  101.3000   112.7605    11.2635    11.1618
  101.4000   112.5127    11.3285    11.2353
  101.5000   112.2649    11.3938    11.2902
  101.6000   111.9611    11.4594    11.3550
  101.7000   111.4647    11.5256    11.4201
  101.8000   111.2170    11.5920    11.4713
  101.9000   110.9692    11.6056    11.4708
  102.0000   110.5752    11.6446    11.5368
  102.1000   110.0768    11.7117    11.6029
  102.2000   109.6171    11.7792    11.6694
  102.3000   109.3548    11.8511    11.7363
  102.4000   109.1215    11.8511    11.7933
  102.5000   108.6909    11.9009    11.7927
  102.6000   108.3214    11.9340    11.8562
  102.7000   108.0736    11.9547    11.9242
  102.8000   107.8259    12.0176    11.9926
  102.9000   107.5468    12.0176    12.0613
  103.0000   107.3303    12.0782    12.1304
  103.1000   107.0825    12.1018    12.2086
  103.2000   106.8346    12.1018    12.2700
  103.3000   106.6453    12.1018    12.2932
  103.4000   106.6531    12.1031    12.3247
  103.5000   106.9565    12.1865    12.3953
  103.6000   106.9589    12.1865    12.4645
  103.7000   106.9619    12.1865    12.4639
  103.8000   107.0600    12.1865    12.4634
  103.9000   107.2724    12.1981    12.5062
  104.0000   107.2756    12.2718    12.5497
  104.1000   107.5172    12.2718    12.5492
  104.2000   107.7711    12.2718    12.5487
  104.3000   108.1565    12.2718    12.5481
  104.4000   108.5833    12.2718    12.6020
  104.5000   108.8615    12.2718    12.6350
  104.6000   109.4250    12.2718    12.6345
  104.7000   109.6493    12.2718    12.6339
  104.8000   109.9031    12.2718    12.6334
  104.9000   110.0426    12.2718    12.6329
