~VERSION INFORMATION
 VERS.                2.0:   CWLS LOG ASCII STANDARD - VERSION 2.0
 WRAP.                 NO:   ONE LINE PER DEPTH STEP
~WELL INFORMATION
#MNEM.UNIT      DATA TYPE    INFORMATION
#----------   ------------   ------------------------------
 STRT.F            0.0000:   START DEPTH
 STOP.F         4112.0000:   STOP DEPTH
 STEP.F            0.5000:   STEP LENGTH
 NULL.          -999.2500:   NO VALUE
 COMP. LAWRENCE-ALLISON &AS:   COMPANY
 WELL. N P R 3-76-1-SX #3-3:   WELL
 FLD .          N.P.R. #3:   FIELD
 LOC .       S3 T38N R78W:   LOCATION
 CNTY.            NATRONA:   COUNTY
 STAT.            WYOMING:   STATE
 CTRY. UNITED STATES OF AMERICA:   COUNTRY
 SRVC.      Dresser Atlas:   SERVICE COMPANY
 DATE.        04-SEP-1983:   LOGDATE
 API .       490251093100:   API NUMBER
~CURVE INFORMATION
#MNEM.UNIT       API CODE    CURVE DESCRIPTION
#----------   ------------   ------------------------------
 DEPT.F                  :   
 DEN .G/C3   45 350 01 00:   COMPENSATED BULK DENSTIY
 CORR.G/C3   45 356 01 00:   DENSITY CORRECTION
 PORD.DEC    45 890 12 00:   POROSITY DENSITY SANDSTONE
 CNC .DEC    42 890 03 00:   NEUTRON POROSITY SANDSTONE
 SPR .MV     07 010 01 00:   SPONTANEOUS POTENTIAL
 GRR .GAPI   07 310 01 00:   GAMMA RAY FROM RES. LOG.
 RFOC.OHMM   07 220 04 00:   RESISTIVITY FOCUSED LOG
 CALD.IN     45 280 60 00:   CALIPER
 AC  .US/F   60 520 00 00:   ACOUSTIC SONIC
 RILD.OHMM   07 120 46 00:   INDUCTION LOG DEEP RESISTIVITY
 RILM.OHMM   07 120 44 00:   INDUCTION LOG MEDIUM RESISTIVITY
~PARAMETER INFORMATION
#MNEM.UNIT          VALUE    DESCRIPTION
#----------   ------------   ------------------------------
 PD  .                 GL:   PERMANENT DATUM
 EPD .F              5147:   ELEVATION PERMANENT DATUM
 LMF .                 KB:   LOG MEASURED FROM
 DAPD.F                10:   FEET ABOVE PERMANENT DATUM
 DMF .                 KB:   DRILLING MEASURED FROM
 EKB .F              5157:   KELLING BUSHING
 EGL .F              5147:   GROUND LEVEL
 DATE.             9-4-83:   RUN DATE
 RUN .                  1:   RUN NUMBER
 DD  .F              4119:   DEPTH DRILLER
 DL  .F              4115:   DEPTH LOGGER
 BLI .F              4112:   BOTTOM LOG INTERVAL
 CS  .IN            9.625:   CASING SIZE
 CBD .F               491:   CASING BOTTOM DRILLER
 CBL .F               494:   CASING BOTTOM LOGGER
 BS  .IN             8.75:   BIT SIZE
 BSD .F              4119:   BIT SIZE AT DEPTH
 DFT .            KCL GEL:   DRILLING FLUID TYPE
 DFD .                8.9:   DRILLING FLUID DENSITY
 DFV .                 46:   DRILLING FLUID VISCOSITY
 DFPH.                  9:   DRILLING FLUID PH
 DFL .               13.6:   DRILLING FLUID LOSS
 MSS .            MUDTANK:   MUD SAMPLE SOURCE
 RMS .OHMM           .315:   RESISTIVITY MUD SAMPLE
 MST .F                92:   MUD SAMPLE TEMPERATURE
 RMF .OHMM            .25:   RESISTIVITY MUD FILTRATE SAMPLE
 MFST.F                84:   MUD FILTRATE SAMPLE TEMPERATURE
 RMC .OHMM             .4:   RESISTIVITY MUD CAKE
 MCST.F                92:   MUD CAKE SAMPLE TEMPERATURE
 MFSS.                  M:   MUD FILTRATE SAMPLE SOURCE
 MCSS.                  C:   MUD CAKE SAMPLE SOURCE
 RMB .OHMM            .22:   RESISTIVITY MUD AT BHT
 BHT .F               132:   BOTTOM HOLE TEMPERATURE
 TCS .HRS               4:   TIME CURCULATED STOPPED
 MRT .F               132:   MAXIMUM RECORDED TEMPERATURE
 LUN .               6274:   LOGGING UNIT NUMBER
 LUL .               GLTE:   LOGGING UNIT LOCATION
 ENGI.             RAUTIO:   RECORDING ENGINEER
 WITN.             STRONG:   WITNESSED BY
 CLNT.            A2DTECH:   CLIENT CODE
 ORIG. 1", 2", 2.5", 5" PRINT:   ORIGIN OF DATA
 UWI .       490251093100:   UNIQUE WELL ID
 DICO. A2D Technologies, Inc.:   DIGITIZING COMPANY
~OTHER INFORMATION
~A    DEPT     DEN       CORR       PORD        CNC        SPR          GRR     RFOC       CALD         AC       RILD       RILM   
# ...
  732.0000     2.5117     0.0138     0.0829     0.3036   -39.2754   107.1525     6.0967     9.3608  -999.2500     5.7793     5.4912
  732.5000     2.5212     0.0137     0.0773     0.3004   -39.0547   109.0464     6.1466     9.3604  -999.2500     5.8583     5.5856
  733.0000     2.5269     0.0228     0.0741     0.3002   -38.8180   111.3082     6.1967     9.3601  -999.2500     5.9383     5.6817
  733.5000     2.5275     0.0307     0.0728     0.3015   -38.5870   110.0616     6.2473     9.3597  -999.2500     6.0192     5.7794
  734.0000     2.5286     0.0391     0.0723     0.3028   -38.3571   106.3762     6.2982     9.3593  -999.2500     6.1012     5.8641
  734.5000     2.5298     0.0404     0.0723     0.2990   -38.1281    99.2719     6.4335     9.3589  -999.2500     6.1843     5.9488
  735.0000     2.5296     0.0371     0.0723     0.2921   -37.8940    93.4642     6.5981     9.3585  -999.2500     6.2685     6.0612
  735.5000     2.5287     0.0398     0.0723     0.2847   -37.6581    95.1025     6.7668     9.3581  -999.2500     6.4039     6.1757
  736.0000     2.5267     0.0468     0.0737     0.2767   -37.5785    96.6598     6.9399     9.3578  -999.2500     6.5914     6.2925
  736.5000     2.5228     0.0543     0.0768     0.2594   -37.8717    95.2286     7.1174     9.3574  -999.2500     6.7845     6.4259
  737.0000     2.5171     0.0521     0.0800     0.2602   -38.1592    90.6624     7.2994     9.3570  -999.2500     6.9831     6.6179
  737.5000     2.5107     0.0391     0.0831     0.2660   -38.4455    89.6142     7.4861     9.3566  -999.2500     7.1876     6.8429
  738.0000     2.5082     0.0303     0.0851     0.2694   -38.6822    91.5918     7.6776     9.3562  -999.2500     7.3981     7.0773
  738.5000     2.5093     0.0440     0.0845     0.2633   -38.6301    93.3455     7.8740     9.3559  -999.2500     7.6147     7.3183
  739.0000     2.5114     0.0524     0.0827     0.2528   -38.5892    95.9273     8.1539     9.3555  -999.2500     7.8377     7.5675
  739.5000     2.5160     0.0364     0.0803     0.2422   -38.5386    98.4837     8.1214     9.3551  -999.2500     8.0673     7.8607
  740.0000     2.5185     0.0168     0.0780     0.2402   -38.4903   101.2312     8.0688     9.3547  -999.2500     8.3035     7.9118
  740.5000     2.5210     0.0103     0.0763     0.2480   -38.4424   101.0749     8.0166     9.3544  -999.2500     8.4838     7.9713
  741.0000     2.5213     0.0199     0.0762     0.2546   -38.3910    99.2781     7.9647     9.3540  -999.2500     8.5553     8.0313
  741.5000     2.5188     0.0290     0.0779     0.2527   -38.3490    97.6100     7.9131     9.3536  -999.2500     8.6275     8.0909
  742.0000     2.5190     0.0381     0.0785     0.2514   -38.3028    96.0648     7.8607     9.3534  -999.2500     8.7002     8.1523
  742.5000     2.5214     0.0467     0.0774     0.2560   -38.4999    94.4154     7.9185     9.3534  -999.2500     8.7736     8.2138
  743.0000     2.5219     0.0561     0.0763     0.2614   -38.7188    95.2441     7.9781     9.3534  -999.2500     8.8476     8.2757
  743.5000     2.5212     0.0428     0.0767     0.2659   -38.9444    96.7432     8.0381     9.3534  -999.2500     8.9222     8.3379
  744.0000     2.5208     0.0283     0.0772     0.2536   -39.1683    97.9882     8.0985     9.3534  -999.2500     8.9974     8.4006
  744.5000     2.5204     0.0100     0.0777     0.2418   -39.3921    98.0744     8.1534     9.3534  -999.2500     9.0733     8.4638
  745.0000     2.5183     0.0087     0.0784     0.2470   -39.6106    97.1889     8.1225     9.3534  -999.2500     9.1498     8.5275
  745.5000     2.5143     0.0046     0.0795     0.2575   -39.8327    95.7719     8.0944     9.3534  -999.2500     9.2276     8.5916
  746.0000     2.5109     0.0122     0.0827     0.2680   -39.7904    94.3974     8.0664     9.3534  -999.2500     9.2696     8.6562
  746.5000     2.5150     0.0196     0.0810     0.2787   -39.6703    92.9725     8.0385     9.3534  -999.2500     9.2463     8.7213
  747.0000     2.5224     0.0270     0.0772     0.2725   -39.5458    93.1319     8.0060     9.3534  -999.2500     9.2247     8.7765
  747.5000     2.5264     0.0345     0.0739     0.2634   -39.4834    94.6491     8.0337     9.3534  -999.2500     9.2033     8.7913
  748.0000     2.5189     0.0428     0.0769     0.2543   -39.5703    96.1099     8.0959     9.3534  -999.2500     9.1822     8.8061
  748.5000     2.5085     0.0407     0.0825     0.2469   -39.6465    97.3569     8.1585     9.3534  -999.2500     9.1612     8.8209
  749.0000     2.5054     0.0312     0.0865     0.2450   -39.7255   100.5114     8.2215     9.3534  -999.2500     9.1392     8.8358
  749.5000     2.5101     0.0233     0.0840     0.2434   -39.8056   101.2155     8.2851     9.3534  -999.2500     9.1180     8.8508
  750.0000     2.5141     0.0143     0.0807     0.2378   -39.8846   100.8324     8.3491     9.3534  -999.2500     9.1008     8.8657
  750.5000     2.5179     0.0117     0.0786     0.2327   -39.9640    94.6266     8.4581     9.3534  -999.2500     9.2339     8.8807
  751.0000     2.5222     0.0139     0.0765     0.2349   -40.0434    94.3156     8.4510     9.3534  -999.2500     9.3475     8.8958
  751.5000     2.5260     0.0205     0.0744     0.2418   -40.1228    98.1608     8.4285     9.3534  -999.2500     9.4624     8.9108
  752.0000     2.5295     0.0611     0.0723     0.2487   -40.2021    97.6413     8.4065     9.3534  -999.2500     9.5955     8.9354
  752.5000     2.5218     0.0426     0.0760     0.2515   -40.2820    94.5044     8.3836     9.3534  -999.2500     9.5459     8.9170
  753.0000     2.5143     0.0335     0.0819     0.2492   -40.3605    93.0236     8.3611     9.3534  -999.2500     9.4474     8.8570
  753.5000     2.5100     0.0362     0.0842     0.2420   -40.4400    92.8327     8.3389     9.3534  -999.2500     9.3500     8.7971
  754.0000     2.5062     0.0373     0.0851     0.2378   -40.5222    92.5405     8.3168     9.3534  -999.2500     9.2535     8.7379
  754.5000     2.5034     0.0398     0.0864     0.2430   -40.5957    93.3480     8.2947     9.3534  -999.2500     9.1580     8.6792
  755.0000     2.5004     0.0411     0.0897     0.2487   -40.6648    97.3639     8.2726     9.3534  -999.2500     9.0635     8.6209
  755.5000     2.4975     0.0418     0.0930     0.2562   -40.5249    98.8762     8.2506     9.3534  -999.2500     8.9700     8.5630
  756.0000     2.4961     0.0322     0.0940     0.2537   -40.3898    95.9780     8.2286     9.3534  -999.2500     8.8775     8.5054
  756.5000     2.5009     0.0099     0.0912     0.2456   -40.2482    92.9299     8.2067     9.3534  -999.2500     8.7859     8.4481
  757.0000     2.5053     0.0004     0.0881     0.2374   -40.1043    92.9731     8.1848     9.3534  -999.2500     8.6953     8.3915
  757.5000     2.5118    -0.0003     0.0851     0.2313   -39.9597   100.2933     8.1630     9.3534  -999.2500     8.6056     8.3351
  758.0000     2.5211     0.0157     0.0809     0.2337   -39.8799   107.5707     8.1413     9.3534  -999.2500     8.5168     8.2943
  758.5000     2.5311     0.0406     0.0755     0.2473   -40.0194   104.9280     8.1196     9.3534  -999.2500     8.4581     8.2718
  759.0000     2.5351     0.0639     0.0691     0.2523   -40.1455   101.3555     8.0980     9.3534  -999.2500     8.4581     8.2494
  759.5000     2.5299     0.0571     0.0708     0.2558   -40.2727   100.7911     8.0765     9.3534  -999.2500     8.4581     8.2270
  760.0000     2.5278     0.0508     0.0737     0.2578   -40.3101    98.4136     8.0550     9.3534  -999.2500     8.4581     8.2047
  760.5000     2.5285     0.0430     0.0743     0.2598   -40.3450    94.8336     8.0336     9.3534  -999.2500     8.4581     8.1825
  761.0000     2.5252     0.0359     0.0750     0.2618   -40.3771    90.4255     8.0122     9.3534  -999.2500     8.4581     8.1603
  761.5000     2.5191     0.0295     0.0780     0.2631   -40.4102    92.1399     7.9365     9.3534  -999.2500     8.4580     8.1381
  762.0000     2.5170     0.0382     0.0809     0.2645   -40.4435    96.2213     7.8400     9.3534  -999.2500     8.4582     8.1161
