~VERSION INFORMATION
 VERS.                2.0:   CWLS LOG ASCII STANDARD - VERSION 2.0
 WRAP.                 NO:   ONE LINE PER DEPTH STEP
~WELL INFORMATION
#MNEM.UNIT      DATA TYPE    INFORMATION
#----------   ------------   ------------------------------
 STRT.F           11.0000:   START DEPTH
 STOP.F          807.0000:   STOP DEPTH
 STEP.F            0.5000:   STEP LENGTH
 NULL.          -999.2500:   NO VALUE
 COMP. BROWN JOHN E&C INC:   COMPANY
 WELL. NPR 3 SHX-34 #77-1-34:   WELL
 FLD .             TEAPOT:   FIELD
 LOC .      S34 T39N R79W:   LOCATION
 CNTY.            NATRONA:   COUNTY
 STAT.            WYOMING:   STATE
 CTRY. UNITED STATES OF AMERICA:   COUNTRY
 SRVC.     Atlas Wireline:   SERVICE COMPANY
 DATE.        07-DEC-1991:   LOGDATE
 API .       490252248000:   API NUMBER
~CURVE INFORMATION
#MNEM.UNIT       API CODE    CURVE DESCRIPTION
#----------   ------------   ------------------------------
 DEPT.F                  :   
 CALD.IN     45 280 60 00:   CALIPER FROM DENSITY LOG
 CORR.G/C3   45 356 01 00:   DENSITY CORRECTION
 DEN .G/C3   45 350 01 00:   COMPENSATED BULK DENSTIY
 GRD .GAPI   45 310 01 00:   GAMMA RAY FROM DENSITY LOG
 PORD.DEC    45 890 12 00:   POROSITY DENSITY SANDSTONE
 GRR .GAPI   07 310 01 00:   GAMMA RAY FROM RESISTIVITY
 RILD.OHMM   07 120 46 00:   RESISTIVITY INDUCTION LOG DEEP
 RILM.OHMM   07 120 44 00:   RESITIVITY INDUCTION LOG MEDIUM
~PARAMETER INFORMATION
#MNEM.UNIT          VALUE    DESCRIPTION
#----------   ------------   ------------------------------
 PD  .                 GL:   PERMANENT DATUM
 EPD .F              5098:   ELEVATION PERMANENT DATUM
 LMF .                 KB:   LOG MEASURED FROM
 DAPD.F                10:   FEET ABOVE PERMANENT DATUM
 DMF .                 KB:   DRILLING MEASURED FROM
 EKB .F              5108:   KELLING BUSHING
 EDF .F              5107:   DRILLING FLOOR
 EGL .F              5098:   GROUND LEVEL
 DATE.        07-DEC-1991:   RUN DATE
 RUN .                  1:   RUN NUMBER
 DD  .F               810:   DEPTH DRILLER
 DL  .F               810:   DEPTH LOGGER
 BLI .F               808:   BOTTOM LOG INTERVAL
 CS  .IN            9.625:   CASING SIZE
 CBD .F                85:   CASING BOTTOM DRILLER
 CBL .F                97:   CASING BOTTOM LOGGER
 BS  .IN             8.75:   BIT SIZE
 BSD .F               810:   BIT SIZE AT DEPTH
 DFT .                AIR:   DRILLING FLUID TYPE
 BHT .F                90:   BOTTOM HOLE TEMPERATURE
 MRT .F                90:   MAXIMUM RECORDED TEMPERATURE
 LUN .            HL 6274:   LOGGING UNIT NUMBER
 LUL .             CASPER:   LOGGING UNIT LOCATION
 ENGI.       P. RASMUSSEN:   RECORDING ENGINEER
 WITN.        GARY STRONG:   WITNESSED BY
 CLNT.            A2DTECH:   CLIENT CODE
 ORIG.           5" PRINT:   ORIGIN OF DATA
 UWI .       490252248000:   UNIQUE WELL ID
 DICO. A2D Technologies, Inc.:   DIGITIZING COMPANY
~OTHER INFORMATION
~A   DEPT     CALD       CORR        DEN        GRD       PORD         GRR      RILD       RILM   
# ...
  699.5000     9.0285    -0.0026     2.3732   114.3610     0.1655    86.9173    10.2378    10.3698
  700.0000     9.0285    -0.0011     2.3785   106.6075     0.1647    87.5188    10.5966    10.5135
  700.5000     9.0285    -0.0012     2.3935   105.4119     0.1574    84.5113    10.8177    10.7332
  701.0000     9.0285    -0.0012     2.4040   108.7208     0.1514    83.5367    10.9673    10.8925
  701.5000     9.0285    -0.0012     2.4175   113.2323     0.1466    82.2482    10.8910    10.9567
  702.0000     9.0347     0.0018     2.4190   115.6403     0.1430    88.8406    10.8153    10.8804
  702.5000     9.0435     0.0017     2.4114   116.2464     0.1411    90.9314    10.6663    10.7302
  703.0000     9.0435     0.0047     2.4024   114.7519     0.1475    88.5148    10.5194    10.5821
  703.5000     9.0426     0.0048     2.3955   115.0578     0.1529    88.2031    10.3743    10.4360
  704.0000     9.0285     0.0077     2.3882   114.4628     0.1572    91.7953    10.3022    10.3634
  704.5000     9.0285     0.0076     2.3882   111.6819     0.1577    93.5858    10.2307    10.2913
  705.0000     9.0435     0.0076     2.3927   110.2697     0.1559    91.1692    10.1596    10.1493
  705.5000     9.0435     0.0046     2.3957   112.6791     0.1535    88.7554    10.0889    10.1485
  706.0000     9.0435     0.0030     2.4002   115.0871     0.1502    84.5399    10.0699    10.0779
  706.5000     9.0435     0.0015     2.4032   114.4920     0.1487    88.1321    10.0146    10.0772
  707.0000     9.0435     0.0030     2.4062   114.7993     0.1469    89.0216     9.9582    10.0071
  707.5000     9.0285     0.0044     2.4077   114.8248     0.1463    85.7041     9.9582    10.0063
  708.0000     9.0357     0.0074     2.4077   109.4065     0.1466    87.4946     9.9582    10.0057
  708.5000     9.0435     0.0072     2.4054   106.7093     0.1469    94.3901     9.9582    10.0145
  709.0000     9.0435     0.0043     2.4047   105.5137     0.1466    97.0815     9.9582    10.0490
  709.5000     9.0585     0.0013     2.4092   110.3255     0.1448    95.2655     9.9582    10.0465
  710.0000     9.0585     0.0013     2.4144   113.3341     0.1414    92.8517     9.9582    10.0445
  710.5000     9.0585     0.0012     2.4191   113.9403     0.1393    93.4410    10.0272    10.0424
  711.0000     9.0585     0.0012     2.4250   113.3452     0.1357    94.6666    10.0272    10.0404
  711.5000     9.0585     0.0027     2.4287   114.5534     0.1351    97.0190    10.0967    10.0383
  712.0000     9.0585     0.0042     2.4197   116.3608     0.1393    97.6111    10.0967    10.0358
  712.5000     9.0585     0.0041     2.4137   118.1682     0.1430    97.2966    10.0967    10.0338
  713.0000     9.0585     0.0041     2.4106   119.3763     0.1436    95.7837    10.0967     9.9627
  713.5000     9.0585     0.0041     2.4129   119.3819     0.1430    96.0698    10.0967     9.8920
  714.0000     9.0585     0.0040     2.4136   119.3875     0.1427    96.3616    10.0272     9.8900
  714.5000     9.0536     0.0040     2.4136   119.7372     0.1430    96.3474     9.9582     9.8199
  715.0000     9.0495     0.0040     2.4121   120.3465     0.1439    92.7325     9.8897     9.8179
  715.5000     9.0342     0.0040     2.4106   121.2544     0.1445    93.5160     9.8216     9.7483
  716.0000     9.0188     0.0039     2.4106   121.8621     0.1439   100.5147     9.6870     9.6791
  716.5000     9.0186     0.0039     2.4121   120.6344     0.1433   104.4072     9.6203     9.6100
  717.0000     9.0183     0.0039     2.4136   119.1735     0.1430   103.4950     9.5541     9.6081
  717.5000     9.0105     0.0038     2.4151   119.4827     0.1433   101.0510     9.4231     9.6061
  718.0000     9.0026     0.0038     2.4121   119.7901     0.1448   100.0842     9.3583     9.6042
  718.5000     9.0024     0.0038     2.4030   119.4682     0.1484    97.1862     9.2939     9.6022
  719.0000     8.9871     0.0037     2.4008   118.6030     0.1490    95.3513     9.2939     9.5342
  719.5000     8.9868     0.0037     2.4060   118.3098     0.1478    96.2787     9.2299     9.4665
  720.0000     8.9865     0.0037     2.4106   119.5198     0.1454    99.5791     9.1664     9.3346
  720.5000     8.9862     0.0037     2.4120   121.0761     0.1445   100.7781     8.9167     9.2684
  721.0000     8.9859     0.0036     2.4075   123.4396     0.1454   100.4742     8.7888     9.1841
  721.5000     9.0006     0.0016     2.4045   124.3476     0.1484    99.5703     8.5549     8.9494
  722.0000     9.0003     0.0006     2.4060   125.2556     0.1484   100.7686     8.4376     8.7035
  722.5000     9.0000     0.0005     2.4075   124.6435     0.1463   102.5675     8.2077     8.3481
  723.0000     9.0012    -0.0025     2.4097   127.0733     0.1441   104.9872     8.0395     7.8973
  723.5000     9.0144    -0.0025     2.4120   129.1825     0.1417   107.4114     7.7667     7.5226
  724.0000     9.0141     0.0004     2.4157   129.4881     0.1405   109.4649     7.2988     7.1657
  724.5000     9.0138     0.0004     2.4195   128.8963     0.1405   108.5611     6.8590     6.9688
  725.0000     9.0135     0.0019     2.4135   131.9082     0.1417   108.5582     6.3136     6.5924
  725.5000     9.0131     0.0034     2.4127   137.3206     0.1436   110.3571     5.7582     5.9742
  726.0000     9.0279     0.0033     2.4097   145.1355     0.1442   110.6552     5.1325     5.2089
  726.5000     9.0276     0.0063     2.3999   155.3883     0.1457   112.1530     4.9927     4.4730
  727.0000     9.0273     0.0063     2.3728   158.9653     0.1538   119.3573     4.9583     4.5343
  727.5000     9.0270     0.0078     2.3525   159.5712     0.1773   137.1973     5.0621     5.0638
  728.0000     9.0266     0.0077     2.3480   146.3668     0.1839   138.2704     5.1680     5.4252
  728.5000     9.0114     0.0061     2.3796   131.3290     0.1622   133.1617     5.3495     5.8124
  729.0000     9.0111     0.0031     2.3984   125.6620     0.1454   117.2428     5.4239     6.3140
  729.5000     9.0108     0.0001     2.4242   124.7664     0.1321   107.3300     5.7352     6.8116
  730.0000     8.9955    -0.0029     2.4412   125.9764     0.1243    99.5193     6.4254     7.3587
  730.5000     8.9951    -0.0030     2.4495   128.9865     0.1213    97.4143     7.3493     7.9467
  731.0000     8.9949    -0.0030     2.4548   131.3977     0.1194    98.9128     7.9292     8.3764
  731.5000     8.9946    -0.0030     2.4525   132.6060     0.1188   100.7117     8.3219     8.6693
  732.0000     8.9943     0.0000     2.4495   132.6131     0.1185    99.1672     8.4960     8.8492
  732.5000     9.0090     0.0029     2.4510   131.4189     0.1188   100.1046     8.6738     9.0329
  733.0000     9.0086     0.0059     2.4517   129.6260     0.1194   104.3058     8.7944     9.1573
  733.5000     9.0084     0.0105     2.4517   127.8313     0.1200   106.7053     8.9167     9.2190
  734.0000     9.0081     0.0134     2.4502   124.2347     0.1206   106.1018     9.0458     9.2806
  734.5000     9.0078     0.0149     2.4471   121.2388     0.1209   104.8977     9.2939     9.4749
  735.0000     9.0075     0.0133     2.4449   122.4488     0.1213   103.9939     9.4884     9.6120
  735.5000     9.0072     0.0073     2.4449   127.8613     0.1219   104.8919     9.6870     9.8025
  736.0000     9.0069     0.0026     2.4449   132.3729     0.1244   107.6117     9.8216     9.9370
  736.5000     8.9916    -0.0018     2.4434   133.5974     0.1258   110.8913     9.9582    10.0733
  737.0000     8.9913    -0.0034     2.4404   131.1876     0.1255   111.4897    10.0272    10.2819
  737.5000     8.9910    -0.0019     2.4389   129.0926     0.1243   110.2849    10.0967    10.4952
  738.0000     9.0057    -0.0004     2.4381   127.8967     0.1234   106.6783    10.2371    10.5665
  738.5000     9.0054    -0.0003     2.4388   127.6051     0.1230   101.8706    10.3123    10.6372
  739.0000     9.0051     0.0025     2.4404   127.6141     0.1219   100.0659    10.3794    10.7831
  739.5000     9.0048     0.0025     2.4433   126.1196     0.1213   101.8648    10.5237    10.8557
