~VERSION INFORMATION
 VERS.                2.0:   CWLS LOG ASCII STANDARD - VERSION 2.0
 WRAP.                 NO:   ONE LINE PER DEPTH STEP
~WELL INFORMATION
#MNEM.UNIT      DATA TYPE    INFORMATION
#----------   ------------   ------------------------------
 STRT.F          520.5000:   START DEPTH
 STOP.F         3119.5000:   STOP DEPTH
 STEP.F            0.5000:   STEP LENGTH
 NULL.          -999.2500:   NO VALUE
 COMP.   FLUOR DANIEL INC:   COMPANY
 WELL. NAVAL PETROLEUM RESERVE 3 X-10 #52-10:   WELL
 FLD .            WILDCAT:   FIELD
 LOC .      S10 T38N R78W:   LOCATION
 CNTY.            NATRONA:   COUNTY
 STAT.            WYOMING:   STATE
 CTRY. UNITED STATES OF AMERICA:   COUNTRY
 SRVC.            Unknown:   SERVICE COMPANY
 DATE.        16-AUG-1995:   LOGDATE
 API .       490252275200:   API NUMBER
~CURVE INFORMATION
#MNEM.UNIT       API CODE    CURVE DESCRIPTION
#----------   ------------   ------------------------------
 DEPT.F                  :   
 ROP .MIN/FT 91 810 01 00:   RAT OF DRILLING PENETRATION
 TGAS.UNITS  91 830 01 00:   TOTAL GAS FROM HOTWIRE
~PARAMETER INFORMATION
#MNEM.UNIT          VALUE    DESCRIPTION
#----------   ------------   ------------------------------
 EKB .F              5206:   KELLING BUSHING
 EGL .F              5196:   GROUND LEVEL
 DATE.            8-16-95:   RUN DATE
 DD  .F              3120:   DEPTH DRILLER
 CS  .IN            9.625:   CASING SIZE
 CBD .F               508:   CASING BOTTOM DRILLER
 BS  .IN             8.75:   BIT SIZE
 BSD .F              3120:   BIT SIZE AT DEPTH
 ENGI.               HUSK:   RECORDING ENGINEER
 WITN.              TOWER:   WITNESSED BY
 CLNT.            A2DTECH:   CLIENT CODE
 ORIG.           5" PRINT:   ORIGIN OF DATA
 UWI .       490252275200:   UNIQUE WELL ID
 DICO. A2D Technologies, Inc.:   DIGITIZING COMPANY
~OTHER INFORMATION
~A   DEPT        ROP     TGAS   
# ...
 2464.5000     1.5825    35.9819
 2465.0000     1.5824    34.3047
 2465.5000     1.5822    32.9176
 2466.0000     1.5602    31.9139
 2466.5000     1.0311    31.6637
 2467.0000     1.0204    30.1812
 2467.5000     1.0096    29.7095
 2468.0000     1.1260    28.1202
 2468.5000     1.1365    27.7553
 2469.0000     1.1470    27.7584
 2469.5000     1.1468    27.7448
 2470.0000     1.1467    27.7312
 2470.5000     1.0089    27.7175
 2471.0000     1.0087    27.7039
 2471.5000     1.0192    27.6903
 2472.0000     1.0191    27.6767
 2472.5000     1.0189    27.6631
 2473.0000     1.0294    27.6494
 2473.5000     1.0505    27.6358
 2474.0000     1.0609    27.6222
 2474.5000     1.0078    27.6086
 2475.0000     0.9123    27.5950
 2475.5000     0.9122    27.5813
 2476.0000     0.9015    27.5677
 2476.5000     0.9013    27.5541
 2477.0000     0.9012    27.5405
 2477.5000     0.9011    27.5269
 2478.0000     0.9009    27.5133
 2478.5000     1.0174    27.4996
 2479.0000     1.0172    27.4860
 2479.5000     1.0171    27.4724
 2480.0000     1.0169    27.4588
 2480.5000     1.0168    27.4452
 2481.0000     1.0167    27.4315
 2481.5000     1.0165    27.4179
 2482.0000     1.0270    27.4043
 2482.5000     0.9196    27.3907
 2483.0000     0.9192    27.3771
 2483.5000     0.9188    27.3634
 2484.0000     0.9184    27.3498
 2484.5000     1.0028    27.3362
 2485.0000     1.0023    27.3226
 2485.5000     1.0126    27.3090
 2486.0000     1.0228    27.2953
 2486.5000     1.0224    27.2817
 2487.0000     1.0220    27.2681
 2487.5000     1.0216    27.2545
 2488.0000     1.0318    27.2409
 2488.5000     0.6288    27.2273
 2489.0000     0.6178    27.2136
 2489.5000     0.6175    27.2000
 2490.0000     0.6171    27.1864
 2490.5000     0.6273    27.1728
 2491.0000     0.6374    27.1592
 2491.5000     0.6370    27.1743
 2492.0000     0.6366    27.6164
 2492.5000     1.9922    28.7787
 2493.0000     1.9917    30.3572
 2493.5000     1.9914    31.7166
 2494.0000     1.1647    31.7958
 2494.5000     0.9524    32.8689
 2495.0000     0.9626    34.5906
 2495.5000     0.9622    35.7531
 2496.0000     0.9619    37.4927
 2496.5000     1.2899    38.4016
 2497.0000     1.3001    38.2508
 2497.5000     1.2997    38.1000
 2498.0000     1.3205    37.9491
 2498.5000     1.3200    37.7983
 2499.0000     1.3196    37.6475
 2499.5000     1.3192    37.4966
 2500.0000     1.7532    37.3458
 2500.5000     1.7634    37.1949
 2501.0000     1.7736    37.1364
 2501.5000     1.7731    37.2319
 2502.0000     1.7833    37.3275
 2502.5000     1.2321    37.4230
 2503.0000     1.2317    37.5186
 2503.5000     1.2420    37.6141
 2504.0000     1.1885    37.7097
 2504.5000     0.9763    37.8052
 2505.0000     0.9759    37.9007
 2505.5000     0.9755    37.9963
 2506.0000     0.9751    38.0918
 2506.5000     0.9747    38.1874
 2507.0000     0.9743    38.2829
 2507.5000     0.9738    38.3785
 2508.0000     0.9841    38.4740
 2508.5000     1.4815    38.5696
 2509.0000     1.4811    38.6651
 2509.5000     1.5019    38.7607
 2510.0000     1.5122    38.8562
 2510.5000     0.9715    38.9517
 2511.0000     0.9605    39.0473
 2511.5000     0.9601    39.1428
 2512.0000     0.9704    39.2384
 2512.5000     0.9805    39.3339
 2513.0000     1.4886    39.4295
 2513.5000     1.4882    39.5250
 2514.0000     1.4878    39.6206
 2514.5000     1.5051    39.7161
 2515.0000     1.7730    39.8117
 2515.5000     1.7620    39.9072
 2516.0000     1.7616    40.0027
 2516.5000     1.1786    40.0983
 2517.0000     1.0087    40.1938
 2517.5000     1.0190    40.2894
 2518.0000     1.0398    40.3849
 2518.5000     0.7215    40.4805
 2519.0000     0.7635    40.5760
 2519.5000     0.7843    40.6716
 2520.0000     0.7946    40.7671
 2520.5000     0.6775    40.8626
 2521.0000     0.6151    40.9582
 2521.5000     0.6156    41.0537
 2522.0000     0.6160    41.1493
 2522.5000     0.6270    41.2448
 2523.0000     0.6274    41.3404
 2523.5000     0.6278    41.4359
 2524.0000     0.6176    41.5315
 2524.5000     0.6181    41.6270
 2525.0000     0.6290    41.7226
 2525.5000     0.6294    41.8181
 2526.0000     0.6298    41.9136
 2526.5000     1.0221    42.0092
 2527.0000     1.0437    42.1047
 2527.5000     1.0441    42.2003
 2528.0000     1.0445    42.2884
 2528.5000     1.2124    40.1684
 2529.0000     1.4797    39.0475
 2529.5000     1.4907    36.9794
 2530.0000     1.5122    34.3579
 2530.5000     1.5232    29.2559
 2531.0000     1.5448    25.4939
 2531.5000     1.5558    23.4267
 2532.0000     1.5244    21.6445
 2532.5000     1.3023    20.9683
 2533.0000     1.3027    21.0634
 2533.5000     1.3137    21.1296
 2534.0000     1.3142    21.1382
 2534.5000     1.5582    21.1467
 2535.0000     1.5586    21.1553
 2535.5000     1.5590    21.1638
 2536.0000     1.5594    21.1724
 2536.5000     1.5597    21.1809
 2537.0000     1.5601    21.1895
 2537.5000     1.5499    21.1981
 2538.0000     1.5503    21.2066
 2538.5000     1.5614    21.2152
 2539.0000     1.5618    21.2237
 2539.5000     1.5622    21.2323
 2540.0000     1.2659    21.2408
 2540.5000     0.9909    21.2494
 2541.0000     1.0019    21.2580
 2541.5000     1.0023    21.2665
 2542.0000     1.3205    21.2751
 2542.5000     1.3208    21.2836
 2543.0000     1.3212    21.2922
 2543.5000     1.3217    21.3008
 2544.0000     1.3327    21.3093
 2544.5000     1.3437    21.3179
 2545.0000     1.3441    21.3264
 2545.5000     1.3444    21.3357
 2546.0000     1.3448    28.8229
 2546.5000     1.1122    38.4228
 2547.0000     1.1232    46.9664
 2547.5000     1.1235    54.4796
 2548.0000     1.1239    58.7719
 2548.5000     1.1244    56.7520
 2549.0000     1.1248    56.8449
 2549.5000     1.1252    55.7837
 2550.0000     1.0726    54.9180
 2550.5000     0.7339    55.0169
 2551.0000     0.7450    55.0588
 2551.5000     0.7560    55.1007
 2552.0000     0.7669    55.1426
 2552.5000     0.7673    55.1845
 2553.0000     0.7678    55.2264
 2553.5000     0.7682    55.2682
 2554.0000     0.7686    55.3101
 2554.5000     0.7690    55.3520
 2555.0000     0.7694    55.3939
 2555.5000     0.7698    55.4358
 2556.0000     0.7701    55.4777
 2556.5000     0.7705    55.5196
 2557.0000     0.7709    55.5614
 2557.5000     0.7713    55.6033
 2558.0000     1.9370    55.6452
 2558.5000     1.9480    55.6871
 2559.0000     1.9590    55.7290
 2559.5000     1.9594    55.7709
 2560.0000     1.6420    55.8128
 2560.5000     1.0279    56.7903
 2561.0000     1.0389    61.4582
 2561.5000     1.0393    69.1225
 2562.0000     1.0406    73.7305
 2562.5000     2.0101    69.8953
 2563.0000     2.0202    61.3394
 2563.5000     2.0303    54.1532
 2564.0000     1.4894    49.3235
 2564.5000     1.4889    46.1081
 2565.0000     1.4883    45.1056
 2565.5000     1.4878    45.2007
 2566.0000     1.5476    45.2958
 2566.5000     1.9953    45.9988
 2567.0000     2.0053    46.5423
 2567.5000     2.0153    45.9795
 2568.0000     2.0255    45.6761
 2568.5000     1.7494    45.7711
 2569.0000     1.7595    45.8662
 2569.5000     1.7696    45.9613
 2570.0000     1.5678    46.0563
 2570.5000     1.5665    46.1514
 2571.0000     1.5667    46.2465
 2571.5000     1.5662    46.3415
 2572.0000     1.5550    46.4366
 2572.5000     1.5545    46.5317
 2573.0000     1.5539    46.6268
 2573.5000     1.5534    46.7218
 2574.0000     1.5211    46.8169
 2574.5000     1.0015    46.9120
 2575.0000     1.0010    47.0070
 2575.5000     1.0005    47.1021
 2576.0000     1.0000    47.1972
 2576.5000     1.3808    47.2923
 2577.0000     1.3803    47.3873
 2577.5000     1.3903    47.4824
 2578.0000     1.3897    47.5775
 2578.5000     1.3998    47.6725
 2579.0000     1.3993    47.7676
 2579.5000     1.4094    47.8603
 2580.0000     1.3983    43.7324
 2580.5000     1.3977    43.4854
 2581.0000     1.4078    42.8662
 2581.5000     1.3967    42.5690
 2582.0000     0.9619    42.0000
 2582.5000     0.9507    42.0951
 2583.0000     0.9608    42.1901
 2583.5000     0.9602    42.2852
 2584.0000     0.9809    42.3803
 2584.5000     1.0121    42.4754
 2585.0000     1.0329    42.5704
 2585.5000     1.0430    41.4797
