~VERSION INFORMATION
 VERS.                2.0:   CWLS LOG ASCII STANDARD - VERSION 2.0
 WRAP.                 NO:   ONE LINE PER DEPTH STEP
~WELL INFORMATION
#MNEM.UNIT      DATA TYPE    INFORMATION
#----------   ------------   ------------------------------
 STRT.F           30.0000:   START DEPTH
 STOP.F          634.0000:   STOP DEPTH
 STEP.F            0.5000:   STEP LENGTH
 NULL.          -999.2500:   NO VALUE
 COMP. FENIX & SCISSON INC:   COMPANY
 WELL.     26-S-11 #26-11:   WELL
 FLD .             TEAPOT:   FIELD
 LOC .      S11 T38N R78W:   LOCATION
 CNTY.            NATRONA:   COUNTY
 STAT.            WYOMING:   STATE
 CTRY. UNITED STATES OF AMERICA:   COUNTRY
 SRVC.              Welex:   SERVICE COMPANY
 DATE.        26-APR-1977:   LOGDATE
 API .       490251034300:   API NUMBER
~CURVE INFORMATION
#MNEM.UNIT       API CODE    CURVE DESCRIPTION
#----------   ------------   ------------------------------
 DEPT.F                  :   
 SPR .MV     07 010 01 00:   SPONTANEOUS POTENTIAL
 ILD .OHMM   07 120 46 00:   INDUCTION LOG DEEP
 ILM .OHMM   07 120 44 00:   INDUCTION LOG MEDIUM
 SGRD.OHMM   07 221 05 00:   SHALLOW SHORT GUARD RESISTIVITY
 CALD.IN     45 280 60 00:   CALIPER FROM DENSITY LOG
 GRD .GAPI   45 310 01 00:   GAMMA RAY FROM DENSITY LOG
 CORR.G/C3   45 356 01 00:   DENSITY CORRECTION
 DPHI.DEC    45 890 12 00:   DENSITY POROSITY SANDSTONE
 RHOB.G/C3   45 350 01 00:   BULK DENSITY
~PARAMETER INFORMATION
#MNEM.UNIT          VALUE    DESCRIPTION
#----------   ------------   ------------------------------
 PD  .                 GL:   PERMANENT DATUM
 EPD .F              5179:   ELEVATION PERMANENT DATUM
 LMF .                 GL:   LOG MEASURED FROM
 DMF .                 GL:   DRILLING MEASURED FROM
 EGL .F              5179:   GROUND LEVEL
 DATE.          4-24-1977:   RUN DATE
 RUN .                  1:   RUN NUMBER
 DD  .F               645:   DEPTH DRILLER
 DL  .F               634:   DEPTH LOGGER
 BLI .F               632:   BOTTOM LOG INTERVAL
 TLI .F                40:   TOP LOG INTERVAL
 CS  .IN            8.625:   CASING SIZE
 CBD .F                40:   CASING BOTTOM DRILLER
 CBL .F                42:   CASING BOTTOM LOGGER
 BS  .IN            7.875:   BIT SIZE
 BSD .F               645:   BIT SIZE AT DEPTH
 DFT .            KCL MUD:   DRILLING FLUID TYPE
 DFD .                8.8:   DRILLING FLUID DENSITY
 DFV .                 33:   DRILLING FLUID VISCOSITY
 DFPH.                7.5:   DRILLING FLUID PH
 DFL .                 96:   DRILLING FLUID LOSS
 MSS .           FLOWLINE:   MUD SAMPLE SOURCE
 RMS .OHMM            .17:   RESISTIVITY MUD SAMPLE
 MST .F                81:   MUD SAMPLE TEMPERATURE
 RMF .OHMM            .16:   RESISTIVITY MUD FILTRATE SAMPLE
 MFST.F                81:   MUD FILTRATE SAMPLE TEMPERATURE
 RMC .OHMM            .21:   RESISTIVITY MUD CAKE
 MCST.F                81:   MUD CAKE SAMPLE TEMPERATURE
 MFSS.           FANN KIT:   MUD FILTRATE SAMPLE SOURCE
 MCSS.           FANN KIT:   MUD CAKE SAMPLE SOURCE
 RMB .OHMM            .19:   RESISTIVITY MUD AT BHT
 BHT .F                72:   BOTTOM HOLE TEMPERATURE
 TCS .HRS             1.5:   TIME CURCULATED STOPPED
 MRT .F                72:   MAXIMUM RECORDED TEMPERATURE
 LUN .                861:   LOGGING UNIT NUMBER
 LUL .           GILLETTE:   LOGGING UNIT LOCATION
 ENGI.             JOYNER:   RECORDING ENGINEER
 WITN.           ROB LYON:   WITNESSED BY
 CLNT.            A2DTECH:   CLIENT CODE
 ORIG.         2.5" PRINT:   ORIGIN OF DATA
 UWI .       490251034300:   UNIQUE WELL ID
 DICO. A2D Technologies, Inc.:   DIGITIZING COMPANY
~OTHER INFORMATION
~A   DEPT      SPR        ILD        ILM       SGRD       CALD        GRD       CORR       DPHI       RHOB   
# ...
   66.5000  -999.2500     6.1462     8.5199  -999.2500     7.9656   132.8124    -0.0401     0.1788     2.3478
   67.0000  -999.2500     6.2326     8.7636  -999.2500     7.9660   135.2674    -0.0371     0.1762     2.3515
   67.5000  -999.2500     6.2321     8.8881  -999.2500     7.9665   137.5157    -0.0360     0.1727     2.3553
   68.0000  -999.2500     6.3197     9.0144  -999.2500     7.9669   138.8814    -0.0331     0.1679     2.3689
   68.5000  -999.2500     6.3693     9.1424  -999.2500     7.9673   139.5503    -0.0301     0.1620     2.3816
   69.0000  -999.2500     6.4590     9.2723  -999.2500     7.9678   139.3339    -0.0282     0.1549     2.3920
   69.5000  -999.2500     6.5897     9.2723  -999.2500     7.9682   138.1218    -0.0293     0.1529     2.3994
   70.0000    -1.1839     6.6420     9.4040  -999.2500     7.9686   135.9936    -0.0312     0.1620     2.3812
   70.5000    -1.2227     6.7354     9.4040  -999.2500     7.9691   134.8178    -0.0323     0.1715     2.3692
   71.0000    -1.2615     6.7757     9.5376  -999.2500     7.9695   133.1197    -0.0341     0.1751     2.3573
   71.5000    -1.3003     6.8299     9.4040  -999.2500     7.9700   130.8840    -0.0371     0.1781     2.3524
   72.0000    -1.3391     6.8704     9.4040  -999.2500     7.9704   128.8270    -0.0371     0.1775     2.3490
   72.5000    -1.3807     6.8699     9.4040  -999.2500     7.9708   127.0633    -0.0371     0.1757     2.3570
   73.0000   -27.7838     6.9664     9.2723  -999.2500     7.9713   127.0200    -0.0371     0.1746     2.3578
   73.5000   -36.0300     6.9659     9.2723  -999.2500     7.9717   129.4931    -0.0401     0.1799     2.3516
   74.0000   -46.1532     6.9654     9.0144  -999.2500     7.9721   133.3124    -0.0401     0.1800     2.3468
   74.5000   -52.3893     6.8680     8.8881  -999.2500     7.9726   134.7507    -0.0430     0.1769     2.3495
   75.0000   -52.0392     6.7719     8.7636  -999.2500     7.9730   133.4101    -0.0430     0.1793     2.3484
   75.5000   -50.1949     6.7163     8.7636  -999.2500     7.9735   128.6999    -0.0443     0.1823     2.3441
   76.0000   -49.8288     6.6767     8.5199  -999.2500     7.9739   123.3501    -0.0460     0.1734     2.3591
   76.5000   -51.8595     6.5833     8.4005  -999.2500     7.9743   124.7130    -0.0460     0.1710     2.3635
   77.0000   -54.0150     6.5828     8.2829  -999.2500     7.9744   126.5089    -0.0490     0.1692     2.3658
   77.5000   -55.7074     6.5281     8.0525  -999.2500     8.0036   127.3146    -0.0490     0.1657     2.3672
   78.0000   -56.0786     6.4367     7.9397  -999.2500     8.0034   125.3666    -0.0503     0.1674     2.3702
   78.5000   -52.9782     6.3995     7.7189  -999.2500     8.0039   125.0957    -0.0519     0.1663     2.3717
   79.0000   -49.3573     6.2575     7.5042  2000.0000     8.0323   122.7664    -0.0519     0.1639     2.3739
   79.5000   -46.0384     6.1698     7.3991  1991.4714     8.0320   118.7222    -0.0490     0.1586     2.3784
   80.0000   -42.7196     6.0491     7.1933  1982.9429     8.0332   112.3377    -0.0475     0.1562     2.3820
   80.5000   -39.4008     5.9645     6.9932  1974.4143     8.0610   110.5739    -0.0431     0.1562     2.3864
   81.0000   -36.0820     5.9641     6.9932  1965.8857     8.0607   110.5446    -0.0386     0.1592     2.3868
   81.5000   -33.0653     5.8807     7.1933  1898.5525     8.0605   112.0151    -0.0371     0.1568     2.3826
   82.0000   -31.2570     5.7984     7.1933  1398.4714     8.0603   113.3403    -0.0371     0.1598     2.3846
   82.5000   -30.0530     5.7980     7.0925  1143.5458     8.0577   112.3167    -0.0371     0.1598     2.3810
   83.0000   -30.0575     5.7169     6.8952  1395.9536     8.0306   110.5530    -0.0371     0.1592     2.3795
   83.5000   -30.0660     5.7165     6.7987  1540.4893     8.0304   110.8588    -0.0371     0.1568     2.3825
   84.0000   -30.6707     5.7161     6.6096  1676.1803     8.0302   112.6142    -0.0371     0.1562     2.3869
   84.5000   -31.0055     5.7964     6.4257   827.8482     8.0300   112.6044    -0.0371     0.1539     2.3913
   85.0000   -31.5861     5.7959     6.3357   470.7999     8.0004   110.9691    -0.0416     0.1527     2.3932
   85.5000   -31.8928     5.7955     6.2470   360.0469     8.0002   109.5140    -0.0460     0.1521     2.3883
   86.0000   -32.1994     5.8770     6.0732   354.9296     7.9961   109.4135    -0.0476     0.1539     2.3853
   86.5000   -32.5061     5.8765     6.0732   344.9846     7.9705   112.1016    -0.0490     0.1575     2.3838
   87.0000   -32.8127     5.8761     5.9882   344.9120     7.9703   115.9238    -0.0490     0.1580     2.3867
   87.5000   -32.4144     5.9587     5.9882   364.8541     7.9700   117.0716    -0.0490     0.1544     2.3926
   88.0000   -31.6899     5.9582     6.0732   380.5438     7.9698   114.4854    -0.0490     0.1515     2.3956
   88.5000   -31.0660     5.9578     6.0732   354.5565     7.9696   113.9296    -0.0490     0.1516     2.3911
   89.0000   -30.7160     5.8745     6.0732   307.8494     7.9694   113.9296    -0.0490     0.1534     2.3852
   89.5000   -30.7205     5.8741     6.0732   325.6487     7.9692   114.0958    -0.0473     0.1559     2.3807
   90.0000   -30.7251     5.8737     6.0732   391.1023     7.9690   115.3121    -0.0460     0.1601     2.3762
   90.5000   -30.7296     5.7915     6.0732   403.4833     7.9688   117.7070    -0.0490     0.1656     2.3718
   91.0000   -30.7350     5.7105     5.9882   339.5095     7.9686   119.2557    -0.0507     0.1709     2.3614
   91.5000   -30.7394     5.7101     5.9882   294.7846     7.9684   120.1383    -0.0549     0.1770     2.3495
   92.0000   -30.7439     5.6302     5.9043   316.2579     7.9682   120.5013    -0.0566     0.1830     2.3421
   92.5000   -30.7483     5.6298     5.9043   238.4726     7.9680   119.2711    -0.0596     0.1829     2.3450
   93.0000   -30.7528     5.5510     5.9043   190.2558     7.9677   118.3284    -0.0549     0.1823     2.3452
   93.5000   -30.7572     5.5506     5.9043    91.3517     7.9675   119.2082    -0.0519     0.1790     2.3494
   94.0000   -30.4595     5.4730     5.9043    48.4144     7.9673   120.6745    -0.0490     0.1691     2.3657
   94.5000   -30.4640     5.4726     5.9043    29.9650     7.9671   120.7876    -0.0490     0.1618     2.3760
   95.0000   -30.1663     5.4722     5.9043    23.5715     7.9669   119.5015    -0.0460     0.1578     2.3819
   95.5000   -30.1708     5.4718     5.9043    21.6542     7.9667   120.6745    -0.0460     0.1563     2.3848
   96.0000   -30.4773     5.4714     5.9043    21.0475     7.9665   122.4340    -0.0460     0.1563     2.3863
   96.5000   -30.4819     5.5484     5.9043    19.8887     7.9663   123.0205    -0.0460     0.1563     2.3877
   97.0000   -30.4864     5.5479     5.9043    19.6060     7.9661   120.6745    -0.0490     0.1589     2.3818
   97.5000   -30.4909     5.5475     5.9043    19.0567     7.9659   117.1554    -0.0490     0.1643     2.3744
   98.0000   -30.4955     5.6255     5.9043    18.7858     7.9656   115.6891    -0.0519     0.1694     2.3625
   98.5000   -30.5000     5.7045     5.9882    18.0037     7.9654   114.8094    -0.0549     0.1745     2.3581
   99.0000   -30.5046     5.7846     5.9882    16.7742     7.9652   117.1554    -0.0549     0.1769     2.3551
   99.5000   -30.5090     5.8659     6.0732    14.9812     7.9650   119.5015    -0.0559     0.1783     2.3595
  100.0000   -30.2107     5.9483     6.1595    12.6459     7.9648   116.6874    -0.0538     0.1702     2.3661
  100.5000   -30.5181     6.0319     6.2470    11.1306     7.9644   114.3981    -0.0506     0.1671     2.3698
  101.0000   -30.5226     6.1166     6.3357    11.8040     7.9639   114.2175    -0.0491     0.1635     2.3708
  101.5000   -30.5272     6.2024     6.4257    14.1836     7.9635   116.2625    -0.0491     0.1594     2.3767
  102.0000   -30.6808     6.1157     6.6096    15.3936     7.9630   117.0498    -0.0492     0.1564     2.3830
  102.5000   -30.8384     6.1152     6.7034    15.1624     7.9626   116.1608    -0.0493     0.1562     2.3865
