~VERSION INFORMATION
 VERS.                2.0:   CWLS LOG ASCII STANDARD - VERSION 2.0
 WRAP.                 NO:   ONE LINE PER DEPTH STEP
~WELL INFORMATION
#MNEM.UNIT      DATA TYPE    INFORMATION
#----------   ------------   ------------------------------
 STRT.F           80.0000:   START DEPTH
 STOP.F          740.0000:   STOP DEPTH
 STEP.F            0.5000:   STEP LENGTH
 NULL.          -999.2500:   NO VALUE
 COMP. U S NAVY/INTEX OIL CO:   COMPANY
 WELL. NPR 3 TEAPOT DOME #73-S-34:   WELL
 FLD .             TEAPOT:   FIELD
 LOC .      S34 T39N R78W:   LOCATION
 CNTY.            NATRONA:   COUNTY
 STAT.            WYOMING:   STATE
 CTRY. UNITED STATES OF AMERICA:   COUNTRY
 SRVC. Schlumberger Well Surveying Corp:   SERVICE COMPANY
 DATE.        19-FEB-1961:   LOGDATE
 API .       490250655200:   API NUMBER
~CURVE INFORMATION
#MNEM.UNIT       API CODE    CURVE DESCRIPTION
#----------   ------------   ------------------------------
 DEPT.F                  :   
 GR  .CPS    99 310 30 00:   GAMMA RAY FROM PERFORATING FORMATION COLLAR CHART
 SPR .MV     05 010 01 00:   SPONTANEOUS POTENTIAL
 ILD .OHMM   05 120 46 00:   INDUCTION LOG DEEP
 CILD.MMHO   05 110 46 00:   CONDUCTIVITY INDUCTION LOG DEEP
 ASN .OHMM   05 041 16 00:   AMPLIFIED SHORT NORMAL 16"
~PARAMETER INFORMATION
#MNEM.UNIT          VALUE    DESCRIPTION
#----------   ------------   ------------------------------
 LMF .                 KB:   LOG MEASURED FROM
 DMF .                 KB:   DRILLING MEASURED FROM
 EKB .F              5044:   KELLING BUSHING
 EGL .F              5040:   GROUND LEVEL
 DATE.          2-19-1961:   RUN DATE
 RUN .                  1:   RUN NUMBER
 DD  .F               740:   DEPTH DRILLER
 DL  .F               741:   DEPTH LOGGER
 BLI .F               740:   BOTTOM LOG INTERVAL
 TLI .F                80:   TOP LOG INTERVAL
 CBD .F               740:   CASING BOTTOM DRILLER
 CBL .F               741:   CASING BOTTOM LOGGER
 BS  .IN            7.875:   BIT SIZE
 BSD .F               740:   BIT SIZE AT DEPTH
 DFT .       GEL-OIL EMUL:   DRILLING FLUID TYPE
 DFD .                9.2:   DRILLING FLUID DENSITY
 DFV .                 49:   DRILLING FLUID VISCOSITY
 DFPH.                  8:   DRILLING FLUID PH
 DFL .               11.4:   DRILLING FLUID LOSS
 MSS .           FLOWLINE:   MUD SAMPLE SOURCE
 RMS .OHMM            .84:   RESISTIVITY MUD SAMPLE
 MST .F                74:   MUD SAMPLE TEMPERATURE
 RMF .OHMM            .83:   RESISTIVITY MUD FILTRATE SAMPLE
 MFST.F                75:   MUD FILTRATE SAMPLE TEMPERATURE
 RMC .OHMM            .52:   RESISTIVITY MUD CAKE
 MCST.F                74:   MUD CAKE SAMPLE TEMPERATURE
 RMB .OHMM           1.98:   RESISTIVITY MUD AT BHT
 BHT .F                70:   BOTTOM HOLE TEMPERATURE
 TCS .HRS               1:   TIME CURCULATED STOPPED
 MRT .F                70:   MAXIMUM RECORDED TEMPERATURE
 LUN .               2523:   LOGGING UNIT NUMBER
 LUL .               CSPR:   LOGGING UNIT LOCATION
 ENGI.             KNOBEL:   RECORDING ENGINEER
 WITN.          JORGENSEN:   WITNESSED BY
 CLNT.            A2DTECH:   CLIENT CODE
 ORIG.        2" 5" PRINT:   ORIGIN OF DATA
 UWI .       490250655200:   UNIQUE WELL ID
 DICO. A2D Technologies, Inc.:   DIGITIZING COMPANY
~OTHER INFORMATION
~A   DEPT       GR        SPR          ILD      CILD         ASN 
# ...
  446.0000  -999.2500   -21.0651     8.1295   127.3880    10.6262
  446.5000  -999.2500   -21.0346     8.0763   128.3948    10.6120
  447.0000  -999.2500   -21.0040     8.0233   129.4005    10.5980
  447.5000  -999.2500   -20.9734     7.9702   130.4051    10.5840
  448.0000  -999.2500   -20.9429     7.9172   131.4097    10.5699
  448.5000  -999.2500   -20.9123     7.8646   132.4143    10.5559
  449.0000  -999.2500   -20.8818     7.8316   133.4189    10.5419
  449.5000  -999.2500   -20.8512     7.8320   134.3361    10.5278
  450.0000  -999.2500   -20.8204     8.1516   129.2835    10.5400
  450.5000  -999.2500   -21.2263     8.1516   129.2835    10.5400
  451.0000  -999.2500   -21.1484     8.1133   129.8164    10.5400
  451.5000  -999.2500   -21.1222     8.0701   130.6508    10.5400
  452.0000  -999.2500   -21.0082     8.0161   131.6961    10.5405
  452.5000  -999.2500   -20.9304     7.9620   132.7414    10.5178
  453.0000  -999.2500   -20.8525     7.9079   133.7861    10.4862
  453.5000  -999.2500   -20.7746     7.8521   134.8307    10.4534
  454.0000  -999.2500   -20.6967     7.8402   135.8754    10.3176
  454.5000  -999.2500   -20.6189     7.8399   136.9200    10.2706
  455.0000  -999.2500   -20.5410     7.8401   137.9647    10.2263
  455.5000  -999.2500   -20.4631     7.8401   138.5054    10.2752
  456.0000  -999.2500   -20.3851     7.8401   138.1647    10.3367
  456.5000  -999.2500   -20.3066     7.8401   137.8241    10.3977
  457.0000  -999.2500   -20.2291     7.8401   137.4834    10.4297
  457.5000  -999.2500   -20.2960     7.8401   137.1428    10.3868
  458.0000  -999.2500   -20.3832     7.8402   136.8021    10.3449
  458.5000  -999.2500   -20.4704     7.8327   136.4615    10.3031
  459.0000  -999.2500   -20.5574     7.8207   136.1208    10.2615
  459.5000  -999.2500   -20.6445     7.8085   135.7802    10.2269
  460.0000  -999.2500   -20.7311     7.7964   135.7588    10.2055
  460.5000  -999.2500   -20.8202     7.7842   136.8781    10.1828
  461.0000  -999.2500   -20.7697     7.7721   137.9973    10.1601
  461.5000  -999.2500   -20.6449     7.7599   139.1166    10.1356
  462.0000  -999.2500   -20.5183     7.7481   140.2359    10.0637
  462.5000  -999.2500   -20.3917     7.7391   141.3551     9.9467
  463.0000  -999.2500   -20.2647     7.6428   142.4744     9.8128
  463.5000  -999.2500   -20.1370     7.5332   143.5937     9.7535
  464.0000  -999.2500   -20.0296     7.4240   144.7130     9.6967
  464.5000  -999.2500   -20.1859     7.3114   145.8322     9.6256
  465.0000  -999.2500   -20.3444     7.0819   146.9515     9.5354
  465.5000  -999.2500   -20.5021     6.8568   147.9751     9.4476
  466.0000  -999.2500   -20.6460     6.6328   156.4798     9.2941
  466.5000  -999.2500   -20.5107     6.4089   164.3146     9.1181
  467.0000  -999.2500   -20.3607     6.1845   172.1495     8.9407
  467.5000  -999.2500   -20.2251     5.9607   179.4792     8.7168
  468.0000  -999.2500   -20.3222     5.7536   182.6935     8.3880
  468.5000  -999.2500   -20.4264     5.7260   185.9078     8.0576
  469.0000  -999.2500   -20.5291     5.6936   187.3797     7.9055
  469.5000  -999.2500   -20.6918     5.6577   186.9444     7.9352
  470.0000  -999.2500   -20.7641     5.8059   186.5092     8.0489
  470.5000  -999.2500   -20.6615     6.0043   181.3766     8.3094
  471.0000  -999.2500   -20.5505     6.2036   175.4072     8.5882
  471.5000  -999.2500   -20.4403     6.4027   169.4378     8.8650
  472.0000  -999.2500   -20.3304     6.6017   163.4683     9.0857
  472.5000  -999.2500   -20.2206     6.8009   157.4989     9.1691
  473.0000  -999.2500   -20.1107     6.9999   151.5294     9.2506
  473.5000  -999.2500   -20.0009     7.1968   147.6601     9.2909
  474.0000  -999.2500   -19.8907     7.2962   145.9190     9.3298
  474.5000  -999.2500   -19.7796     7.2241   145.2839     9.3690
  475.0000  -999.2500   -19.6719     7.1549   147.4832     9.4103
  475.5000  -999.2500   -19.7148     7.0853   149.6825     9.4542
  476.0000  -999.2500   -20.3233     7.0156   151.8817     9.3934
  476.5000  -999.2500   -20.9168     6.9440   154.6770     9.1986
  477.0000  -999.2500   -21.2207     6.7714   158.3105     9.0003
  477.5000  -999.2500   -21.1000     6.4482   161.9441     8.8024
  478.0000  -999.2500   -20.9846     6.1273   165.5777     8.6048
  478.5000  -999.2500   -20.8664     5.8059   169.2112     8.4072
  479.0000  -999.2500   -20.8993     5.4844   183.1821     8.2092
  479.5000  -999.2500   -20.9573     5.1750   199.0790     8.0127
  480.0000  -999.2500   -21.0148     4.8804   214.9758     7.8145
  480.5000  -999.2500   -21.0627     4.5899   230.8727     7.4289
  481.0000  -999.2500   -20.8436     4.2953   242.4013     7.0238
  481.5000  -999.2500   -20.5311     4.2156   241.8376     6.6170
  482.0000  -999.2500   -20.2146     4.3994   241.4331     6.3883
  482.5000  -999.2500   -19.8981     4.5825   237.5065     6.3819
  483.0000  -999.2500   -19.5804     4.7632   234.1641     6.8780
  483.5000  -999.2500   -19.2639     4.9483   224.6607     7.5622
  484.0000  -999.2500   -19.0047     5.2262   206.8401     7.9741
  484.5000  -999.2500   -19.2791     5.9104   189.0196     8.3142
  485.0000  -999.2500   -19.5507     6.3338   169.7819     8.5283
  485.5000  -999.2500   -19.8202     6.6968   160.8530     8.7018
  486.0000  -999.2500   -20.0899     7.0197   154.8645     8.8780
  486.5000  -999.2500   -20.3615     7.0958   152.4272     9.0536
  487.0000  -999.2500   -20.6301     7.1863   149.9043     9.2293
  487.5000  -999.2500   -20.5586     7.2780   147.3842     9.4050
  488.0000  -999.2500   -20.4647     7.3697   144.8627     9.5807
  488.5000  -999.2500   -20.3720     7.4613   142.3411     9.7570
  489.0000  -999.2500   -20.2799     7.5530   141.1538     9.9363
  489.5000  -999.2500   -20.1870     7.6446   140.3800    10.1294
  490.0000  -999.2500   -20.0956     7.7362   139.6062    10.1269
  490.5000  -999.2500   -20.0627     7.8279   138.8324    10.1916
  491.0000  -999.2500   -20.3291     7.9194   138.0585    10.2606
  491.5000  -999.2500   -20.5921     8.0116   137.2847    10.3294
  492.0000  -999.2500   -20.8516     8.0347   136.5109    10.3982
  492.5000  -999.2500   -20.9983     8.0034   135.7371    10.4670
  493.0000  -999.2500   -20.6375     7.9718   134.9633    10.5357
  493.5000  -999.2500   -20.2808     7.9401   134.1821    10.6034
  494.0000  -999.2500   -20.3795     7.9084   133.4419    10.6036
  494.5000  -999.2500   -20.5628     7.8767   134.4375    10.5057
  495.0000  -999.2500   -20.7467     7.8444   135.4232    10.4093
  495.5000  -999.2500   -20.8097     7.8643   136.4025    10.3123
  496.0000  -999.2500   -20.7134     7.9012   135.6677    10.2154
  496.5000  -999.2500   -20.6190     7.9386   134.6230    10.1251
  497.0000  -999.2500   -20.5240     7.9761   133.5784    10.1283
  497.5000  -999.2500   -20.4290     8.0143   132.5338     9.8878
  498.0000  -999.2500   -20.3331     8.0530   131.4891     9.6926
  498.5000  -999.2500   -20.2349     7.8529   135.1765     9.5015
  499.0000  -999.2500   -20.3811     7.6324   139.5293     9.3117
  499.5000  -999.2500   -20.5553     7.3945   143.8820     9.1083
  500.0000    57.3000   -20.7277     6.7764   150.8307     8.9122
  500.5000    60.3000   -20.8535     6.1806   163.8889     8.5108
  501.0000    59.3790   -20.8333     5.5830   176.9470     7.9338
  501.5000    56.3818   -20.6798     5.0043   191.5369     7.3982
  502.0000    60.5885   -20.6073     4.4226   219.6262     6.8731
  502.5000    65.3436   -20.5369     3.8417   273.6241     6.3472
  503.0000    63.9324   -20.4677     3.2576   320.3531     5.8213
  503.5000    65.4921   -20.3982     2.6721   370.0152     5.2781
  504.0000    67.3314   -20.3286     2.5621   423.0514     4.8575
  504.5000    62.1629   -20.2591     2.4781   477.0301     4.4235
  505.0000    57.4326   -20.1895     2.3916   510.2388     4.0224
  505.5000    52.7477   -20.1199     2.3043   552.3027     3.8459
  506.0000    54.0673   -20.0504     2.2274   556.0878     3.7525
  506.5000    52.7880   -19.9806     2.3672   546.2941     3.8291
