~VERSION INFORMATION
 VERS.                2.0:   CWLS LOG ASCII STANDARD - VERSION 2.0
 WRAP.                 NO:   ONE LINE PER DEPTH STEP
~WELL INFORMATION
#MNEM.UNIT      DATA TYPE    INFORMATION
#----------   ------------   ------------------------------
 STRT.F           57.5000:   START DEPTH
 STOP.F         4049.0000:   STOP DEPTH
 STEP.F            0.5000:   STEP LENGTH
 NULL.          -999.2500:   NO VALUE
 COMP. LAWRENCE/ALLISON INC:   COMPANY
 WELL.     NPR #3` #13-11:   WELL
 FLD .             NPR #3:   FIELD
 LOC .      S11 T38N R78W:   LOCATION
 CNTY.            NATRONA:   COUNTY
 STAT.            WYOMING:   STATE
 CTRY. UNITED STATES OF AMERICA:   COUNTRY
 SRVC.      Dresser Atlas:   SERVICE COMPANY
 DATE.        13-MAR-1986:   LOGDATE
 API .       490251106500:   API NUMBER
~CURVE INFORMATION
#MNEM.UNIT       API CODE    CURVE DESCRIPTION
#----------   ------------   ------------------------------
 DEPT.F                  :   
 CALR.IN     07 280 01 00:   CALIPER FROM RESISTIVITY
 GRR .GAPI   07 310 01 00:   GAMMA RAY FROM RESISTIVITY
 RILD.OHMM   07 120 46 00:   RESISTIVITY INDUCTION LOG DEEP
 RILM.OHMM   07 120 44 00:   RESISTIVITY INDUCTION LOG MEDIUM
 RFOC.OHMM   07 220 04 00:   RESISTIVITY FOCUSED LOG
 SPR .MV     07 010 01 00:   SPONTANEOUS POTENTIAL FROM RES.
 PORD.DEC    45 890 12 00:   POROSITY DENSITY SANDSTONE
 CNC .DEC    42 890 03 00:   COMPENSATED NEUTRON POROSITY SANDSTONE
 CORR.G/C3   45 356 01 00:   DENSITY CORRECTION
 DEN .G/C3   45 350 01 00:   COMPENSATED BULK DENSTIY
 DT  .US/F   60 520 00 00:   INTERVAL TRANSIT TIME
~PARAMETER INFORMATION
#MNEM.UNIT          VALUE    DESCRIPTION
#----------   ------------   ------------------------------
 PD  .                 GL:   PERMANENT DATUM
 EPD .F              5176:   ELEVATION PERMANENT DATUM
 LMF .                 KB:   LOG MEASURED FROM
 DAPD.F              11.8:   FEET ABOVE PERMANENT DATUM
 DMF .                 KB:   DRILLING MEASURED FROM
 EKB .F            5187.8:   KELLING BUSHING
 EGL .F              5176:   GROUND LEVEL
 DATE.        13-MAR-1986:   RUN DATE
 RUN .                  1:   RUN NUMBER
 DD  .F              4051:   DEPTH DRILLER
 DL  .F              4051:   DEPTH LOGGER
 BLI .F              4049:   BOTTOM LOG INTERVAL
 TLI .F               564:   TOP LOG INTERVAL
 CS  .IN            8.625:   CASING SIZE
 CBD .F               564:   CASING BOTTOM DRILLER
 CBL .F               564:   CASING BOTTOM LOGGER
 BS  .IN            7.875:   BIT SIZE
 BSD .F              4051:   BIT SIZE AT DEPTH
 DFT .          POLY- KCL:   DRILLING FLUID TYPE
 DFD .                8.9:   DRILLING FLUID DENSITY
 DFV .                 36:   DRILLING FLUID VISCOSITY
 DFPH.                8.5:   DRILLING FLUID PH
 DFL .               13.5:   DRILLING FLUID LOSS
 MSS .           FLOWLINE:   MUD SAMPLE SOURCE
 RMS .OHMM           .275:   RESISTIVITY MUD SAMPLE
 MST .F                55:   MUD SAMPLE TEMPERATURE
 RMF .OHMM           .206:   RESISTIVITY MUD FILTRATE SAMPLE
 MFST.F                55:   MUD FILTRATE SAMPLE TEMPERATURE
 RMC .OHMM           .344:   RESISTIVITY MUD CAKE
 MCST.F                55:   MUD CAKE SAMPLE TEMPERATURE
 MFSS.               CALC:   MUD FILTRATE SAMPLE SOURCE
 MCSS.               CALC:   MUD CAKE SAMPLE SOURCE
 RMB .OHMM           .092:   RESISTIVITY MUD AT BHT
 BHT .F               164:   BOTTOM HOLE TEMPERATURE
 TCS .HRS            0400:   TIME CURCULATED STOPPED
 MRT .F               164:   MAXIMUM RECORDED TEMPERATURE
 LUN .               6274:   LOGGING UNIT NUMBER
 LUL .           GILLETTE:   LOGGING UNIT LOCATION
 ENGI.             MILLER:   RECORDING ENGINEER
 WITN.             STRONG:   WITNESSED BY
 CLNT.            A2DTECH:   CLIENT CODE
 ORIG.         2.5" PRINT:   ORIGIN OF DATA
 UWI .       490251106500:   UNIQUE WELL ID
 DICO. A2D Technologies, Inc.:   DIGITIZING COMPANY
~OTHER INFORMATION
~A   DEPT     CALR         GRR      RILD       RILM       RFOC        SPR       PORD        CNC       CORR        DEN         DT   
# ...
 2863.5000     9.3168   119.9136     4.9075     5.0248     6.0136   -34.3110     0.0888     0.3017    -0.0042     2.4996    88.6478
 2864.0000     9.3162   118.0608     4.9072     5.0245     5.9303   -34.3171     0.0924     0.3023    -0.0013     2.4935    88.8032
 2864.5000     9.3307   119.8890     4.9069     5.0241     5.9299   -34.3232     0.0948     0.2803    -0.0013     2.4981    88.7869
 2865.0000     9.3456   121.1037     4.9386     5.0238     6.0123   -34.3293     0.0907     0.2808    -0.0044     2.5056    88.4060
 2865.5000     9.3450   118.0239     4.9748     5.0234     6.1350   -34.1636     0.0857     0.2858    -0.0164     2.5086    87.8948
 2866.0000     9.3443   113.1036     5.0060     5.0231     6.3545   -34.0366     0.0845     0.2937    -0.0196     2.5025    87.8344
 2866.5000     9.3437   113.7048     5.0437     5.0227     6.2279   -34.0427     0.0893     0.2989    -0.0152     2.4995    88.0072
 2867.0000     9.3431   116.7600     5.0434     5.0224     6.1797   -34.0488     0.0913     0.2941    -0.0093     2.4965    88.4634
 2867.5000     9.3425   120.4287     5.0430     5.0925     6.1793   -33.7500     0.0923     0.2885     0.0004     2.5025    88.9044
 2868.0000     9.3419   124.0974     5.0727     5.0921     6.1789   -33.7561     0.0841     0.2836     0.0201     2.5115    88.9096
 2868.5000     9.3413   126.5391     5.1128     5.0954     6.1784   -33.7622     0.0819     0.2785     0.0369     2.5115    88.9149
 2869.0000     9.3407   129.5943     5.1125     5.1653     6.1780   -33.7683     0.0830     0.2714     0.0436     2.5055    88.9202
 2869.5000     9.3401   128.9685     5.1412     5.2362     6.2127   -33.7744     0.0868     0.2639     0.0446     2.5039    88.9254
 2870.0000     9.3812   120.9808     5.1833     5.3080     6.2985   -33.4756     0.0889     0.2597     0.0465     2.5054    88.9307
 2870.5000     9.4001   121.5828     5.2555     5.3077     6.3506   -33.3201     0.0848     0.2679     0.0425     2.5115    88.9360
 2871.0000     9.3994   119.7292     5.2551     5.3073     6.3500   -33.1829     0.0803     0.2792     0.0386     2.5160    88.9413
 2871.5000     9.3988   117.2629     5.2547     5.3069     6.2621   -33.0295     0.0770     0.2853     0.0304     2.5235    89.0254
 2872.0000     9.4288   116.5477     5.1818     5.3065     6.2617   -32.8902     0.0752     0.2832     0.0206     2.5220    89.3313
 2872.5000     9.4281   119.0788     5.1553     5.3062     6.2296   -32.8963     0.0748     0.2724     0.0116     2.5144    89.5595
 2873.0000     9.4275   120.2935     5.1096     5.3058     6.1746   -32.9024     0.0763     0.2691     0.0040     2.5129    89.7927
 2873.5000     9.4356   119.6677     5.0844     5.2320     6.1742   -33.0639     0.0781     0.2722     0.0052     2.5114    90.0218
 2874.0000     9.4570   118.9448     5.0385     5.2316     6.1737   -33.2195     0.0798     0.2913     0.0141     2.5114    90.1777
 2874.5000     9.4563   120.2567     4.9686     5.0875     6.1444   -33.2256     0.0810     0.2997     0.0231     2.5113    90.3336
 2875.0000     9.4557   120.8589     4.8772     5.0167     6.0878   -33.3843     0.0816     0.2967     0.0279     2.5113    90.5648
 2875.5000     9.4550   119.6186     4.8318     4.9470     6.0600   -33.8476     0.0828     0.2785     0.0219     2.5098    90.7959
 2876.0000     9.4544   117.1523     4.7438     4.8107     6.0032   -34.1585     0.0838     0.2691     0.0188     2.5098    91.0261
 2876.5000     9.4538   118.3670     4.6784     4.6134     6.0027   -34.1646     0.0844     0.2745     0.0315     2.5143    91.3321
 2877.0000     9.4532   120.1952     4.5697     4.4863     5.9196   -34.7725     0.0810     0.2818     0.0402     2.5158    91.4142
 2877.5000     9.4526   122.0234     4.5063     4.3023     6.0020   -35.2389     0.0782     0.2848     0.0398     2.5158    91.4195
 2878.0000     9.4520   124.4651     4.4438     4.2425     5.8949   -35.4024     0.0792     0.2837     0.0365     2.5071    91.4247
 2878.5000     9.4514   126.2933     4.3822     4.2422     5.8138   -35.8589     0.0865     0.2800     0.0306     2.5022    91.4300
 2879.0000     9.4555   129.3485     4.3215     4.2419     5.6549   -36.4735     0.0882     0.2802     0.0275     2.4983    91.5066
 2879.5000     9.5114   133.6307     4.3212     4.2416     5.5211   -37.2319     0.0890     0.2829     0.0214     2.4929    91.8125
 2880.0000     9.5107   130.5509     4.3209     4.2413     5.4446   -37.8659     0.0954     0.2871     0.0094     2.4831    92.1888
 2880.5000     9.5138   122.5632     4.3206     4.3006     5.3693   -38.3181     0.1109     0.2834    -0.0088     2.4741    92.6559
 2881.0000     9.5401   117.6429     4.3807     4.3606     5.4632   -38.7927     0.1142     0.2779    -0.0209     2.4635    92.8117
 2881.5000     9.5394   118.8576     4.4570     4.4214     5.6355   -38.7988     0.1181     0.2777    -0.0270     2.4522    92.9676
 2882.0000     9.5056   123.1398     4.5665     4.4832     5.8341   -38.5000     0.1221     0.2804    -0.0301     2.4492    92.9729
 2882.5000     9.4465   123.7423     4.6452     4.5458     5.7533   -38.2012     0.1237     0.2849    -0.0271     2.4514    92.7598
 2883.0000     9.4153   121.2747     4.7602     4.6831     5.6736   -38.0711     0.1230     0.2906    -0.0272     2.4544    92.3138
 2883.5000     9.4147   116.9679     4.7745     4.7392     5.6732   -37.9085     0.1210     0.2888    -0.0242     2.4574    92.1689
 2884.0000     9.4141   116.6784     4.8261     4.8054     5.7693   -37.9146     0.1192     0.2763    -0.0242     2.4597    92.0903
 2884.5000     9.4135   118.1704     4.8257     4.8050     5.9135   -37.9207     0.1173     0.2633    -0.0213     2.4603    91.6629
 2885.0000     9.4128   116.9311     4.8254     4.8047     5.9957   -37.9268     0.1149     0.2628    -0.0213     2.4651    90.9162
 2885.5000     9.4121   114.4648     4.8381     4.8044     5.9952   -37.9329     0.1119     0.2659    -0.0183     2.4735    90.3848
 2886.0000     9.3810   112.6120     4.9050     4.8714     5.9948   -37.9390     0.1081     0.2726    -0.0093     2.4813    90.2399
 2886.5000     9.3498   115.0537     4.9604     4.9019     5.9944   -37.9451     0.1029     0.2872     0.0027     2.4838    89.8577
 2887.0000     9.3492   118.1089     5.0294     4.9691     5.9797   -37.9512     0.1013     0.2933     0.0027     2.4802    89.8629
 2887.5000     9.3180   118.7117     5.0407     5.0080     5.9110   -37.9573     0.1051     0.2979     0.0026     2.4747    89.8682
 2888.0000     9.3174   118.0843     5.0990     5.1065     5.9106   -37.6585     0.1087     0.2996     0.0026     2.4651    89.7229
 2888.5000     9.3168   116.8450     5.1811     5.2492     5.9102   -37.6646     0.1105     0.2961     0.0146     2.4685    89.6664
 2889.0000     9.2856   114.3788     5.2420     5.2941     5.9098   -37.2418     0.1128     0.2870     0.0388     2.4751    89.0980
 2889.5000     9.2850   110.6855     5.2416     5.2936     6.0036   -36.9442     0.1028     0.2708     0.0236     2.4785    88.2010
 2890.0000     9.2844   106.9922     5.2316     5.2688     6.1949   -36.7683     0.0956     0.2661     0.0024     2.4857    86.9428
 2890.5000     9.2532   111.8879     5.1595     5.1968     6.8118   -36.4683     0.0908     0.2699     0.0054     2.5018    85.9555
 2891.0000     9.2526   115.5566     5.0885     5.0548     6.8821   -36.0508     0.0898     0.2738     0.0084     2.4916    85.3278
 2891.5000     9.2519   117.9983     4.8734     4.8975     6.2255   -35.5659     0.0942     0.2771     0.0083     2.4867    85.4510
 2892.0000     9.2513   117.3725     4.6172     4.6819     5.8987   -35.1503     0.0978     0.2726    -0.0002     2.4918    86.6751
 2892.5000     9.2813   118.5872     4.4227     4.2946     5.7374   -34.5477     0.0982     0.2731    -0.0195     2.4957    88.9116
 2893.0000     9.2807   119.8037     4.2427     4.0472     5.5037   -34.2501     0.0991     0.2784    -0.0135     2.4800    89.8328
 2893.5000     9.3106   119.7896     4.0748     4.0039     5.3469   -33.5326     0.1031     0.2900     0.0214     2.4790    90.2894
