~VERSION INFORMATION
 VERS.                2.0:   CWLS LOG ASCII STANDARD - VERSION 2.0
 WRAP.                 NO:   ONE LINE PER DEPTH STEP
~WELL INFORMATION
#MNEM.UNIT      DATA TYPE    INFORMATION
#----------   ------------   ------------------------------
 STRT.F           15.0000:   START DEPTH
 STOP.F         5640.0000:   STOP DEPTH
 STEP.F            0.5000:   STEP LENGTH
 NULL.          -999.2500:   NO VALUE
 COMP.       F D SERV INC:   COMPANY
 WELL. NAVAL PETROLEUM RESERVE 3 SX-1 #43-10:   WELL
 FLD .         N.P.R. #.3:   FIELD
 LOC .      S10 T38N R78W:   LOCATION
 CNTY.            NATRONA:   COUNTY
 STAT.            WYOMING:   STATE
 CTRY. UNITED STATES OF AMERICA:   COUNTRY
 SRVC.      Dresser Atlas:   SERVICE COMPANY
 DATE.        05-JUL-1986:   LOGDATE
 API .       490251101800:   API NUMBER
~CURVE INFORMATION
#MNEM.UNIT       API CODE    CURVE DESCRIPTION
#----------   ------------   ------------------------------
 DEPT.F                  :   
 GRR .GAPI   07 310 01 00:   GAMMA RAY
 ILD .OHMM   07 120 46 00:   INDUCTION LOG DEEP
 ILM .OHMM   07 120 44 00:   INDUCTION LOG MEDIUM
 CALS.IN     60 280 50 00:   CALIPER FROM SONIC LOG
 GRS .GAPI   60 310 01 00:   GAMMA RAY FROM SONIC LOG
 AC  .US/F   60 520 00 00:   ACCOUSTIC
~PARAMETER INFORMATION
#MNEM.UNIT          VALUE    DESCRIPTION
#----------   ------------   ------------------------------
 PD  .                 GL:   PERMANENT DATUM
 EPD .F              5205:   ELEVATION PERMANENT DATUM
 LMF .                 KB:   LOG MEASURED FROM
 DAPD.F                 5:   FEET ABOVE PERMANENT DATUM
 DMF .                 KB:   DRILLING MEASURED FROM
 EKB .F              5210:   KELLING BUSHING
 EGL .F              5205:   GROUND LEVEL
 DATE.        05-JUL-1986:   RUN DATE
 RUN .                  1:   RUN NUMBER
 DD  .F               560:   DEPTH DRILLER
 DL  .F               560:   DEPTH LOGGER
 BLI .F               550:   BOTTOM LOG INTERVAL
 TLI .F                15:   TOP LOG INTERVAL
 CS  .IN            8.625:   CASING SIZE
 CBD .F                47:   CASING BOTTOM DRILLER
 CBL .F                47:   CASING BOTTOM LOGGER
 BS  .IN            7.875:   BIT SIZE
 BSD .F               560:   BIT SIZE AT DEPTH
 DFT .                AIR:   DRILLING FLUID TYPE
 BHT .F                83:   BOTTOM HOLE TEMPERATURE
 TCS .HRS            2100:   TIME CURCULATED STOPPED
 TLAB.HRS            2230:   TIME LOGGER AT BOTTOM
 MRT .F                83:   MAXIMUM RECORDED TEMPERATURE
 LUN .               7609:   LOGGING UNIT NUMBER
 LUL .           GILLETTE:   LOGGING UNIT LOCATION
 ENGI.              BAURT:   RECORDING ENGINEER
 CLNT.            A2DTECH:   CLIENT CODE
 ORIG. 1" 2" 2.5", 5" PRINT:   ORIGIN OF DATA
 UWI .       490251101800:   UNIQUE WELL ID
 DICO. A2D Technologies, Inc.:   DIGITIZING COMPANY
 R2  . HEADER NOT CLEARLY VISIBLE:   REMARKS 2
~OTHER INFORMATION
~A   DEPT       GRR       ILD        ILM       CALS        GRS         AC   
# ...
 2407.0000  -999.2500  -999.2500  -999.2500    11.8355   100.2603    86.4419
 2407.5000  -999.2500  -999.2500  -999.2500    11.8356    99.6513    86.9119
 2408.0000  -999.2500  -999.2500  -999.2500    11.8509   101.7696    87.3485
 2408.5000  -999.2500  -999.2500  -999.2500    11.8662   102.9788    86.4426
 2409.0000  -999.2500  -999.2500  -999.2500    11.8815   103.2789    85.3106
 2409.5000  -999.2500  -999.2500  -999.2500    11.8817   102.9722    83.9524
 2410.0000  -999.2500  -999.2500  -999.2500    11.8818   102.0602    83.2730
 2410.5000  -999.2500  -999.2500  -999.2500    11.8820   100.8451    83.0460
 2411.0000  -999.2500  -999.2500  -999.2500    11.8821    99.6301    83.2022
 2411.5000  -999.2500  -999.2500  -999.2500    11.8823    93.8696    83.7231
 2412.0000  -999.2500  -999.2500  -999.2500    11.8824    91.4424    84.1748
 2412.5000  -999.2500  -999.2500  -999.2500    11.8674    92.8024    84.4758
 2413.0000  -999.2500  -999.2500  -999.2500    11.8676   101.1328    84.7767
 2413.5000  -999.2500  -999.2500  -999.2500    11.8678   102.9487    85.3793
 2414.0000  -999.2500  -999.2500  -999.2500    11.8679   102.3390    85.7556
 2414.5000  -999.2500  -999.2500  -999.2500    11.8681   103.2452    85.5243
 2415.0000  -999.2500  -999.2500  -999.2500    11.8530   105.0604    84.8490
 2415.5000  -999.2500  -999.2500  -999.2500    11.8229   107.4815    84.1696
 2416.0000  -999.2500  -999.2500  -999.2500    11.8079   109.2975    83.7918
 2416.5000  -999.2500  -999.2500  -999.2500    11.7929   106.8696    83.7158
 2417.0000  -999.2500  -999.2500  -999.2500    11.7779   106.8606    84.0920
 2417.5000  -999.2500  -999.2500  -999.2500    11.7478   109.6619    84.0158
 2418.0000  -999.2500  -999.2500  -999.2500    11.7327   111.7085    83.6319
 2418.5000  -999.2500  -999.2500  -999.2500    11.7177   110.4935    82.9584
 2419.0000  -999.2500  -999.2500  -999.2500    11.7027   108.0663    82.6560
 2419.5000  -999.2500  -999.2500  -999.2500    11.6725   106.5482    82.6553
 2420.0000  -999.2500  -999.2500  -999.2500    11.6424   105.0302    83.1070
 2420.5000  -999.2500  -999.2500  -999.2500    11.5971   102.6030    84.0113
 2421.0000  -999.2500  -999.2500  -999.2500    11.5651    98.8975    84.6139
 2421.5000  -999.2500  -999.2500  -999.2500    11.5368    97.4449    85.2205
 2422.0000  -999.2500  -999.2500  -999.2500    11.5370    98.3510    85.8310
 2422.5000  -999.2500  -999.2500  -999.2500    11.5068   103.8027    86.1200
 2423.0000  -999.2500  -999.2500  -999.2500    11.4615   104.4065    86.1947
 2423.5000  -999.2500  -999.2500  -999.2500    11.4313   103.4938    86.2693
 2424.0000  -999.2500  -999.2500  -999.2500    11.4164   102.8848    86.4947
 2424.5000  -999.2500  -999.2500  -999.2500    11.4165   102.8910    86.8710
 2425.0000  -999.2500  -999.2500  -999.2500    11.4167   103.8893    87.1720
 2425.5000  -999.2500  -999.2500  -999.2500    11.4168   106.5116    87.3220
 2426.0000  -999.2500  -999.2500  -999.2500    11.4170   108.0238    87.1703
 2426.5000  -999.2500  -999.2500  -999.2500    11.4171   108.6277    86.8679
 2427.0000  -999.2500  -999.2500  -999.2500    11.4173   108.6240    86.6409
 2427.5000  -999.2500  -999.2500  -999.2500    11.4174   108.0150    86.4140
 2428.0000  -999.2500  -999.2500  -999.2500    11.4176   105.8909    86.1870
 2428.5000  -999.2500  -999.2500  -999.2500    11.4177   100.7033    86.1863
 2429.0000  -999.2500  -999.2500  -999.2500    11.4179    96.4911    86.1945
 2429.5000  -999.2500  -999.2500  -999.2500    11.4181   101.3359    86.7125
 2430.0000  -999.2500  -999.2500  -999.2500    11.4182   104.9694    87.3151
 2430.5000  -999.2500  -999.2500  -999.2500    11.4183   106.1793    87.9177
 2431.0000  -999.2500  -999.2500  -999.2500    11.4185   102.8423    88.3695
 2431.5000  -999.2500  -999.2500  -999.2500    11.4186   102.2333    88.8212
 2432.0000  -999.2500  -999.2500  -999.2500    11.4188   103.4914    89.0468
 2432.5000  -999.2500  -999.2500  -999.2500    11.4189   106.7729    89.0460
 2433.0000  -999.2500  -999.2500  -999.2500    11.4191   106.4669    88.8943
 2433.5000  -999.2500  -999.2500  -999.2500    11.4344   108.5845    89.0274
 2434.0000  -999.2500  -999.2500  -999.2500    11.4346   111.0065    90.1748
 2434.5000  -999.2500  -999.2500  -999.2500    11.4347   107.9725    91.0036
 2435.0000  -999.2500  -999.2500  -999.2500    11.4349   106.7575    91.5308
 2435.5000  -999.2500  -999.2500  -999.2500    11.4199   111.9391    91.6057
 2436.0000  -999.2500  -999.2500  -999.2500    11.4200   115.2358    90.7752
 2436.5000  -999.2500  -999.2500  -999.2500    11.4201   115.8396    89.8695
 2437.0000  -999.2500  -999.2500  -999.2500    11.4203   113.1087    89.1880
 2437.5000  -999.2500  -999.2500  -999.2500    11.4205   109.4694    88.8877
 2438.0000  -999.2500  -999.2500  -999.2500    11.4206   107.0422    88.8867
 2438.5000  -999.2500  -999.2500  -999.2500    11.4208   107.3423    88.9616
 2439.0000  -999.2500  -999.2500  -999.2500    11.4209   109.4606    88.9607
 2439.5000  -999.2500  -999.2500  -999.2500    11.4211   111.6966    89.2616
 2440.0000  -999.2500  -999.2500  -999.2500    11.4212   116.7267    89.4872
 2440.5000  -999.2500  -999.2500  -999.2500    11.4517   117.6336    89.7127
 2441.0000  -999.2500  -999.2500  -999.2500    11.4821   113.6906    89.7985
 2441.5000  -999.2500  -999.2500  -999.2500    11.5126   110.6573    89.8620
 2442.0000  -999.2500  -999.2500  -999.2500    11.5127   110.0483    89.8611
 2442.5000  -999.2500  -999.2500  -999.2500    11.5280   109.7424    89.7096
 2443.0000  -999.2500  -999.2500  -999.2500    11.5282   109.4363    89.6334
 2443.5000  -999.2500  -999.2500  -999.2500    11.5283   109.7358    89.3310
 2444.0000  -999.2500  -999.2500  -999.2500    11.5285   110.3397    89.1041
 2444.5000  -999.2500  -999.2500  -999.2500    11.5287   111.5481    89.2731
 2445.0000  -999.2500  -999.2500  -999.2500    11.5440   113.3634    89.4797
 2445.5000  -999.2500  -999.2500  -999.2500    11.5593   114.2703    89.3279
 2446.0000  -999.2500  -999.2500  -999.2500    11.5746   111.5393    88.6485
 2446.5000  -999.2500  -999.2500  -999.2500    11.5747   109.0993    87.6674
 2447.0000  -999.2500  -999.2500  -999.2500    11.5749   107.8964    86.0829
 2447.5000  -999.2500  -999.2500  -999.2500    11.5902   105.7722    84.0460
 2448.0000  -999.2500  -999.2500  -999.2500    11.5903   102.4360    82.7309
 2448.5000  -999.2500  -999.2500  -999.2500    11.6056   102.4330    81.8573
 2449.0000  -999.2500  -999.2500  -999.2500    11.6209   102.4301    81.6304
 2449.5000  -999.2500  -999.2500  -999.2500    11.6362   103.0333    82.0821
 2450.0000  -999.2500  -999.2500  -999.2500    11.6325   104.5455    82.5561
 2450.5000  -999.2500  -999.2500  -999.2500    11.6061   106.6631    83.1609
 2451.0000  -999.2500  -999.2500  -999.2500    11.6212   106.9639    83.7390
 2451.5000  -999.2500  -999.2500  -999.2500    11.6364   106.3543    84.1908
 2452.0000  -999.2500  -999.2500  -999.2500    11.6364   103.9271    84.3409
 2452.5000  -999.2500  -999.2500  -999.2500    11.6364   101.8030    84.2646
 2453.0000  -999.2500  -999.2500  -999.2500    11.6364   102.4062    84.1884
 2453.5000  -999.2500  -999.2500  -999.2500    11.6212   104.2208    84.1123
 2454.0000  -999.2500  -999.2500  -999.2500    11.6212   106.9452    83.9608
 2454.5000  -999.2500  -999.2500  -999.2500    11.6212   113.6089    83.8083
 2455.0000  -999.2500  -999.2500  -999.2500    11.6364   117.2424    83.5066
 2455.5000  -999.2500  -999.2500  -999.2500    11.6364   118.4517    83.2797
 2456.0000  -999.2500  -999.2500  -999.2500    11.6364   115.1147    83.1281
 2456.5000  -999.2500  -999.2500  -999.2500    11.6364   107.5361    83.1274
 2457.0000  -999.2500  -999.2500  -999.2500    11.6364   105.7157    83.3529
 2457.5000  -999.2500  -999.2500  -999.2500    11.6364   106.9242    84.0610
 2458.0000  -999.2500  -999.2500  -999.2500    11.6364   107.2244    85.1613
 2458.5000  -999.2500  -999.2500  -999.2500    11.6364   106.9177    85.9147
