~VERSION INFORMATION
 VERS.                2.0:   CWLS LOG ASCII STANDARD - VERSION 2.0
 WRAP.                 NO:   ONE LINE PER DEPTH STEP
~WELL INFORMATION
#MNEM.UNIT      DATA TYPE    INFORMATION
#----------   ------------   ------------------------------
 STRT.F          250.0000:   START DEPTH
 STOP.F         1798.0000:   STOP DEPTH
 STEP.F            0.5000:   STEP LENGTH
 NULL.          -999.2500:   NO VALUE
 COMP. BROWN JOHN E&C INC:   COMPANY
 WELL. NPR 3 STX-10 #57-10:   WELL
 FLD .  TEAPOT DOME NPR 3:   FIELD
 LOC .      S10 T38N R78W:   LOCATION
 CNTY.            NATRONA:   COUNTY
 STAT.            WYOMING:   STATE
 CTRY. UNITED STATES OF AMERICA:   COUNTRY
 SRVC.           BIRDWELL:   SERVICE COMPANY
 DATE.        24-FEB-1979:   LOGDATE
 API .       490251096900:   API NUMBER
~CURVE INFORMATION
#MNEM.UNIT       API CODE    CURVE DESCRIPTION
#----------   ------------   ------------------------------
 DEPT.F                  :   
 GRD .GAPI   45 310 01 00:   GAMMA RAY FROM DENSITY LOG
 CALD.IN     45 280 60 00:   CALIPER
 RHOB.G/C3   45 350 01 00:   BULK DENSITY
 DPHI.DEC    45 890 12 00:   DENSITY POROSITY SANDSTONE
 CORR.G/C3   45 356 01 00:   DENSITY CORRECTION
~PARAMETER INFORMATION
#MNEM.UNIT          VALUE    DESCRIPTION
#----------   ------------   ------------------------------
 PD  .                 GL:   PERMANENT DATUM
 EPD .F              5201:   ELEVATION PERMANENT DATUM
 LMF .                 KB:   LOG MEASURED FROM
 DAPD.F                10:   FEET ABOVE PERMANENT DATUM
 DMF .                 KB:   DRILLING MEASURED FROM
 EKB .F              5211:   KELLING BUSHING
 EGL .F              5201:   GROUND LEVEL
 RUN .                  1:   RUN NUMBER
 DD  .F              1802:   DEPTH DRILLER
 DL  .F              1793:   DEPTH LOGGER
 BLI .F              1793:   BOTTOM LOG INTERVAL
 TLI .F               250:   TOP LOG INTERVAL
 CS  .IN            9.625:   CASING SIZE
 CBD .F               500:   CASING BOTTOM DRILLER
 CBL .F               490:   CASING BOTTOM LOGGER
 BS  .IN             8.75:   BIT SIZE
 BSD .F              1802:   BIT SIZE AT DEPTH
 DFT .                OIL:   DRILLING FLUID TYPE
 BHT .F                90:   BOTTOM HOLE TEMPERATURE
 TCS .HRS               4:   TIME CURCULATED STOPPED
 MRT .F                90:   MAXIMUM RECORDED TEMPERATURE
 LUN .               3029:   LOGGING UNIT NUMBER
 LUL .             CASPER:   LOGGING UNIT LOCATION
 ENGI.            ROLLINS:   RECORDING ENGINEER
 WITN.              AMEND:   WITNESSED BY
 CLNT.            A2DTECH:   CLIENT CODE
 ORIG.       2", 5" PRINT:   ORIGIN OF DATA
 UWI .       490251096900:   UNIQUE WELL ID
 DICO. A2D Technologies, Inc.:   DIGITIZING COMPANY
~OTHER INFORMATION
~A   DEPT       GRD        CALD       RHOB       DPHI      CORR  
# ...
 1348.0000   125.4773     8.8609     2.5390     0.0096     0.0827
 1348.5000   131.7219     8.8692     2.5424     0.0070     0.0815
 1349.0000   129.0683     8.8743     2.5457     0.0040     0.0801
 1349.5000   127.3066     8.9412     2.5491     0.0088     0.0843
 1350.0000   134.2228     9.0159     2.5287     0.0173     0.0900
 1350.5000   131.0619     9.0909     2.4901     0.0258     0.0958
 1351.0000   125.6458     9.1657     2.4950     0.0345     0.1017
 1351.5000   121.5225     9.1554     2.5034     0.0293     0.1080
 1352.0000   122.5503     9.1262     2.5142     0.0236     0.1093
 1352.5000   123.6976     9.0967     2.5002     0.0412     0.0876
 1353.0000   120.5077     9.0672     2.4707     0.0501     0.0804
 1353.5000   114.9116     9.0379     2.4672     0.0501     0.0946
 1354.0000   109.3704     9.0123     2.4829     0.0336     0.1425
 1354.5000   105.4116     9.0440     2.5124     0.0144     0.1635
 1355.0000   110.6115     9.0817     2.5323     0.0156     0.1690
 1355.5000   115.6450     9.1197     2.5320     0.0158     0.1740
 1356.0000   120.6582     9.1577     2.5308     0.0088     0.1823
 1356.5000   124.0328     9.1956     2.5294     0.0127     0.1921
 1357.0000   125.9499     9.2338     2.5280     0.0148     0.2020
 1357.5000   128.3066     9.2711     2.5282     0.0073     0.2058
 1358.0000   124.1823     9.2400     2.5626    -0.0116     0.1919
 1358.5000   118.0949     9.1997     2.5876    -0.0208     0.1693
 1359.0000   117.2168     9.1593     2.5835    -0.0160     0.1459
 1359.5000   118.6733     9.1189     2.5799    -0.0128     0.1406
 1360.0000   120.1019     9.0787     2.5766    -0.0139     0.1520
 1360.5000   121.5261     9.0386     2.5780    -0.0245     0.1949
 1361.0000   122.9839     9.0164     2.5823    -0.0351     0.2373
 1361.5000   122.5288     9.0234     2.6018    -0.0372     0.2552
 1362.0000   121.6470     9.0297     2.6207    -0.0386     0.2697
 1362.5000   120.7517     9.0340     2.6393    -0.0500     0.2835
 1363.0000   119.8577     8.9955     2.6513    -0.0513     0.2929
 1363.5000   119.1313     8.9259     2.6529    -0.0307     0.2284
 1364.0000   122.0974     8.8567     2.5792    -0.0144     0.1744
 1364.5000   126.0095     8.7916     2.5753    -0.0193     0.1597
 1365.0000   126.0041     8.7529     2.6189    -0.0245     0.1752
 1365.5000   124.4181     8.7527     2.6065    -0.0108     0.1257
 1366.0000   121.6552     8.7935     2.5526     0.0062     0.0831
 1366.5000   125.3736     8.8412     2.5071     0.0233     0.0412
 1367.0000   129.9382     8.8889     2.5059     0.0297     0.0337
 1367.5000   132.9576     8.9366     2.5046     0.0313     0.0418
 1368.0000   129.7413     8.9847     2.5044     0.0302     0.0646
 1368.5000   125.8609     8.9866     2.5003     0.0308     0.0840
 1369.0000   128.7952     8.9681     2.4966     0.0330     0.0830
 1369.5000   131.5774     8.9609     2.4976     0.0349     0.0841
 1370.0000   126.5644     8.9953     2.5164     0.0159     0.1012
 1370.5000   121.0140     9.0076     2.5494    -0.0049     0.1186
 1371.0000   119.0584     9.0173     2.5674    -0.0084     0.1246
 1371.5000   119.1087     9.0272     2.5631    -0.0036     0.1181
 1372.0000   121.6644     9.0385     2.5498     0.0049     0.1023
 1372.5000   124.1395     9.0548     2.5366     0.0134     0.0864
 1373.0000   126.5791     9.0708     2.5264     0.0168     0.0747
 1373.5000   129.0337     9.0868     2.5286     0.0079     0.0899
 1374.0000   131.6988     9.1028     2.5426     0.0008     0.1113
 1374.5000   128.8254     9.1189     2.5542     0.0018     0.1310
 1375.0000   125.4843     9.1343     2.5532     0.0027     0.1410
 1375.5000   129.3822     9.1265     2.5499     0.0038     0.1807
 1376.0000   133.1635     9.1126     2.5438    -0.0132     0.2256
 1376.5000   130.5037     9.0988     2.5880    -0.0127     0.2523
 1377.0000   126.9082     9.0849     2.5799    -0.0121     0.2382
 1377.5000   123.2809     9.0710     2.5723    -0.0223     0.2464
 1378.0000   119.5657     9.0571     2.6374    -0.0409     0.2534
 1378.5000   117.9130     9.0432     2.6372    -0.0233     0.1981
 1379.0000   116.9779     9.0293     2.5803    -0.0064     0.1358
 1379.5000   118.9735     9.0155     2.5685    -0.0078     0.1217
 1380.0000   121.3826     9.0017     2.5745    -0.0098     0.1261
 1380.5000   122.8224     8.9973     2.5520    -0.0040     0.1099
 1381.0000   120.6522     9.0047     2.5190     0.0207     0.0768
 1381.5000   118.3416     9.0120     2.5074     0.0245     0.1091
 1382.0000   120.3750     9.0192     2.5085     0.0016     0.1862
 1382.5000   123.0022     9.0262     2.5743    -0.0129     0.2147
 1383.0000   126.0716     9.0377     2.5484     0.0190     0.0926
 1383.5000   122.9081     9.0426     2.5204     0.0228     0.0852
 1384.0000   118.6367     9.0127     2.5524     0.0048     0.0806
 1384.5000   114.3292     8.9821     2.5362     0.0184     0.0758
 1385.0000   111.3437     8.9514     2.5034     0.0245     0.0724
 1385.5000   117.3598     8.9204     2.5135     0.0216     0.0901
 1386.0000   122.6414     8.8963     2.5385     0.0133     0.1150
 1386.5000   119.2775     8.9604     2.5584     0.0050     0.1027
 1387.0000   115.8960     9.0233     2.5234     0.0029     0.0799
 1387.5000   112.7807     9.0852     2.4651     0.0522     0.0564
 1388.0000   112.9773     9.0876     2.4133     0.0799     0.0540
 1388.5000   119.4416     9.0552     2.4428     0.0379     0.1296
 1389.0000   125.9957     9.0232     2.4936     0.0022     0.1641
 1389.5000   124.0828     8.9912     2.5446    -0.0059     0.1576
 1390.0000   121.1239     8.9596     2.5710    -0.0064     0.1567
 1390.5000   119.6146     8.9277     2.5686    -0.0069     0.1963
 1391.0000   125.9007     8.9523     2.5643    -0.0071     0.2409
 1391.5000   122.0496     9.0195     2.5601    -0.0067     0.2871
 1392.0000   118.3052     9.0871     2.5581    -0.0065     0.3153
 1392.5000   114.6801     9.1584     2.5906    -0.0359     0.3379
 1393.0000   122.4423     9.1212     2.6604    -0.0613     0.3583
 1393.5000   118.5191     9.0468     2.6734    -0.0562     0.3316
 1394.0000   122.6179     8.9712     2.6424    -0.0443     0.2895
 1394.5000   131.2993     8.8957     2.6079    -0.0323     0.2470
 1395.0000   138.1036     8.8197     2.5813    -0.0204     0.2293
 1395.5000   137.4578     8.7825     2.5902    -0.0139     0.2520
 1396.0000   135.2170     8.7657     2.6006    -0.0110     0.2591
 1396.5000   132.9472     8.7491     2.5876    -0.0080     0.2005
 1397.0000   130.6792     8.7326     2.5640     0.0011     0.1335
 1397.5000   128.4032     8.7161     2.5401     0.0125     0.0667
 1398.0000   126.0866     8.6996     2.5162     0.0239     0.0296
 1398.5000   126.0607     8.6835     2.4946     0.0365     0.0278
 1399.0000   126.8524     8.6710     2.4916     0.0336     0.0403
 1399.5000   131.4288     8.6076     2.4923     0.0277     0.0531
 1400.0000   136.0413     8.5377     2.5008     0.0247     0.0657
 1400.5000   140.6296     8.4673     2.5101     0.0214     0.0698
 1401.0000   145.2473     8.3988     2.5193     0.0181     0.0609
 1401.5000   147.8506     8.4621     2.5287     0.0164     0.0523
 1402.0000   138.4298     8.5434     2.5307     0.0164     0.0436
 1402.5000   125.6759     8.6249     2.5140     0.0260     0.0467
 1403.0000   126.9568     8.7063     2.4911     0.0404     0.0558
 1403.5000   128.1950     8.7873     2.4689     0.0549     0.0652
 1404.0000   125.3091     8.8679     2.4505     0.0659     0.0868
 1404.5000   123.0073     8.9107     2.4386     0.0477     0.1234
 1405.0000   121.4156     8.9001     2.5074     0.0088     0.1577
 1405.5000   122.5495     8.8899     2.5391     0.0145     0.1621
 1406.0000   123.6279     8.8796     2.5155     0.0234     0.1613
 1406.5000   124.3251     8.8868     2.5013     0.0289     0.2000
 1407.0000   120.0358     8.9191     2.5514    -0.0116     0.2949
 1407.5000   115.6988     8.9512     2.5976    -0.0381     0.3732
 1408.0000   121.7587     8.9833     2.6361    -0.0564     0.4320
 1408.5000   128.2456     9.0155     2.6734    -0.0646     0.4356
