~VERSION INFORMATION
 VERS.                2.0:   CWLS LOG ASCII STANDARD - VERSION 2.0
 WRAP.                 NO:   ONE LINE PER DEPTH STEP
~WELL INFORMATION
#MNEM.UNIT      DATA TYPE    INFORMATION
#----------   ------------   ------------------------------
 STRT.F           80.0000:   START DEPTH
 STOP.F          715.0000:   STOP DEPTH
 STEP.F            0.5000:   STEP LENGTH
 NULL.          -999.2500:   NO VALUE
 COMP. U S NAVY-INTEX OIL:   COMPANY
 WELL.     NPR #3 #37-S-2:   WELL
 FLD .             TEAPOT:   FIELD
 LOC .       S2 T38N R78W:   LOCATION
 CNTY.            NATRONA:   COUNTY
 STAT.            WYOMING:   STATE
 CTRY. UNITED STATES OF AMERICA:   COUNTRY
 SRVC.       Schlumberger:   SERVICE COMPANY
 DATE.        21-JUN-1962:   LOGDATE
 API .       490250640600:   API NUMBER
~CURVE INFORMATION
#MNEM.UNIT       API CODE    CURVE DESCRIPTION
#----------   ------------   ------------------------------
 DEPT.F                  :   
 ASN .OHMM   05 041 16 00:   AMPLIFIED SHORT NORMAL 16"
 CILD.MMHO   05 110 46 00:   CONDUCTIVITY INDUCTION LOG DEEP
 ILD .OHMM   05 120 46 00:   INDUCTION LOG DEEP
 SPR .MV     05 010 01 00:   SPONTANEOUS POTENTIAL FROM RES.
 GR  .GAPI   30 310 01 00:   GAMMA RAY
~PARAMETER INFORMATION
#MNEM.UNIT          VALUE    DESCRIPTION
#----------   ------------   ------------------------------
 LMF .                 KB:   LOG MEASURED FROM
 DMF .                 KB:   DRILLING MEASURED FROM
 EKB .F              5159:   KELLING BUSHING
 EGL .F              5154:   GROUND LEVEL
 DATE.        21-JUN-1962:   RUN DATE
 RUN .                  1:   RUN NUMBER
 DD  .F               715:   DEPTH DRILLER
 DL  .F               716:   DEPTH LOGGER
 BLI .F               715:   BOTTOM LOG INTERVAL
 TLI .F                80:   TOP LOG INTERVAL
 BS  .IN             6.75:   BIT SIZE
 BSD .F               715:   BIT SIZE AT DEPTH
 DFT .       OIL-EMULSION:   DRILLING FLUID TYPE
 DFD .                9.3:   DRILLING FLUID DENSITY
 DFV .                 50:   DRILLING FLUID VISCOSITY
 DFL .                3.8:   DRILLING FLUID LOSS
 RMS .OHMM            3.9:   RESISTIVITY MUD SAMPLE
 MST .F                72:   MUD SAMPLE TEMPERATURE
 RMF .OHMM            2.6:   RESISTIVITY MUD FILTRATE SAMPLE
 MFST.F                72:   MUD FILTRATE SAMPLE TEMPERATURE
 RMC .OHMM            5.2:   RESISTIVITY MUD CAKE
 MCST.F                72:   MUD CAKE SAMPLE TEMPERATURE
 TCS .HRS               1:   TIME CURCULATED STOPPED
 LUN .               2503:   LOGGING UNIT NUMBER
 LUL .               CSPR:   LOGGING UNIT LOCATION
 ENGI.             DANNER:   RECORDING ENGINEER
 WITN.          JORGENSEN:   WITNESSED BY
 CLNT.            A2DTECH:   CLIENT CODE
 ORIG.           5" PRINT:   ORIGIN OF DATA
 UWI .       490250640600:   UNIQUE WELL ID
 DICO. A2D Technologies, Inc.:   DIGITIZING COMPANY
~OTHER INFORMATION
~A   DEPT        ASN      CILD         ILD      SPR         GR   
# ...
  141.0000     4.5737   240.3405     3.5928   -73.2363  -999.2500
  141.5000     4.7633   216.8037     4.0513   -73.0719  -999.2500
  142.0000     4.9149   207.6610     4.5842   -73.0045  -999.2500
  142.5000     4.9910   204.5788     4.8039   -72.8540  -999.2500
  143.0000     5.1125   203.7693     4.8057   -72.7312  -999.2500
  143.5000     5.2188   200.6872     4.8826   -72.4144  -999.2500
  144.0000     5.3251   196.0899     4.9595   -72.8598  -999.2500
  144.5000     5.5825   191.4695     5.1872   -73.1527  -999.2500
  145.0000     5.8852   185.0759     5.4904   -72.6829  -999.2500
  145.5000     6.1124   176.2243     5.7181   -72.8239  -999.2500
  146.0000     6.2640   170.8694     6.0212   -73.2693  -999.2500
  146.5000     6.3880   167.0297     6.1735   -74.0165  -999.2500
  147.0000     6.5120   163.9475     6.0996   -74.9192  -999.2500
  147.5000     6.6285   160.1078     6.1011   -75.2122  -999.2500
  148.0000     6.7046   160.0559     6.0271   -75.2002  -999.2500
  148.5000     6.7505   160.0041     6.0287   -75.0358  -999.2500
  149.0000     6.7511   160.7121     6.0302   -74.4141  -999.2500
  149.5000     6.7366   160.6579     5.9562   -73.4876  -999.2500
  150.0000     6.6919   160.6061     5.9580   -73.3232  -999.2500
  150.5000     6.6623   163.5845     5.9595   -73.1585  -999.2500
  151.0000     6.6326   164.4243     5.9610   -73.1463  -999.2500
  151.5000     6.6332   165.7535     5.9625   -73.1319  -999.2500
  152.0000     6.6338   166.4592     5.9639   -73.1200  -999.2500
  152.5000     6.6357   167.1520     5.8896   -73.2605  -999.2500
  153.0000     6.6678   167.1001     5.8915   -73.5564  -999.2500
  153.5000     6.6962   167.8188     5.8175   -73.6969  -999.2500
  154.0000     6.7119   167.7539     5.7436   -73.0722  -999.2500
  154.5000     6.6974   168.4726     5.7451   -72.4505  -999.2500
  155.0000     6.6677   168.4078     5.7466   -72.2861  -999.2500
  155.5000     6.5928   169.1136     5.7614   -72.2741  -999.2500
  156.0000     6.5481   168.3030     5.8253   -72.2622  -999.2500
  156.5000     6.5334   167.3636     5.9022   -72.4177  -999.2500
  157.0000     6.6248   164.3995     5.9037   -72.4633  -999.2500
  157.5000     6.7613   162.0749     6.0560   -72.7998  -999.2500
  158.0000     6.9039   158.2352     6.2083   -72.7480  -999.2500
  158.5000     7.0120   154.3954     6.3606   -72.2769  -999.2500
  159.0000     7.1188   150.5557     6.5129   -72.6025  -999.2500
  159.5000     7.1803   145.2008     6.6652   -73.0538  -999.2500
  160.0000     7.3021   140.6035     6.8930   -73.6575  -999.2500
  160.5000     7.3787   135.2486     7.1198   -74.2628  -999.2500
  161.0000     7.4402   132.1664     7.4740   -74.7141  -999.2500
  161.5000     7.5017   130.5985     7.5531   -74.8605  -999.2500
  162.0000     7.5027   129.0303     7.5568   -74.8530  -999.2500
  162.5000     7.4886   129.7251     7.5606   -74.8469  -999.2500
  163.0000     7.4292   131.1884     7.4879   -74.5360  -999.2500
  163.5000     7.3097   133.4093     7.4926   -74.2251  -999.2500
  164.0000     7.0388   137.9029     7.1947   -73.6094  -999.2500
  164.5000     6.8284   143.9116     6.8968   -73.2985  -999.2500
  165.0000     6.5878   157.7194     6.2972   -72.9876  -999.2500
  165.5000     6.1658   192.5229     5.6938   -72.9639  -999.2500
  166.0000     5.4569   245.5083     4.1016   -72.9756  -999.2500
  166.5000     4.8839   283.3421     3.2019   -73.5792  -999.2500
  167.0000     4.4016   343.1456     2.5852   -74.9452  -999.2500
  167.5000     4.0401   387.0400     2.0513   -74.4563  -999.2500
  168.0000     3.6484   452.9041     1.4939   -73.5000  -999.2500
  168.5000     3.4531   488.4652     1.2714   -72.3074  -999.2500
  169.0000     3.3332   499.7951     1.1988   -71.7184  -999.2500
  169.5000     3.2586   498.2238     1.2035   -71.2550  -999.2500
  170.0000     3.1843   489.8455     1.2826   -71.0966  -999.2500
  170.5000     3.2024   464.0429     1.5126   -71.2430  -999.2500
  171.0000     3.4176   403.3919     1.8180   -71.5433  -999.2500
  171.5000     4.0789   335.1651     2.2742   -71.9931  -999.2500
  172.0000     4.6086   270.7262     3.0321   -72.9017  -999.2500
  172.5000     5.6973   188.8631     4.5441   -73.6579  -999.2500
  173.0000     7.4657   145.6363     6.6594   -73.6519  -999.2500
  173.5000     8.3278   112.8486     9.3027   -73.4934  -999.2500
  174.0000     9.6883    90.5147    10.7312   -73.4874  -999.2500
  174.5000    11.0792    73.1568    11.9500   -73.7863  -999.2500
  175.0000    12.5908    65.7828    13.4620   -74.0854  -999.2500
  175.5000    13.9514    66.6123    13.6156   -75.1462  -999.2500
  176.0000    14.7077    72.6280    12.4137   -76.9694  -999.2500
  176.5000    14.2556    91.5224     9.9287   -78.4878  -999.2500
  177.0000    13.0970   114.9623     8.4995   -77.8669  -999.2500
  177.5000    10.1791   131.5840     7.1458   -76.9258  -999.2500
  178.0000     9.0746   158.8117     6.0183   -75.8171  -999.2500
  178.5000     7.4524   170.8880     5.2679   -74.4162  -999.2500
  179.0000     6.6198   179.9339     5.0454   -72.5110  -999.2500
  179.5000     6.6206   185.9496     4.8983   -72.0477  -999.2500
  180.0000     6.6363   188.1886     4.7512   -72.3466  -999.2500
  180.5000     6.8342   188.1324     4.7549   -73.4076  -999.2500
  181.0000     7.5471   178.9965     5.0633   -74.4687  -999.2500
  181.5000     8.5478   163.8000     6.1390   -75.3773  -999.2500
  182.0000     9.3213   139.5126     7.5133   -75.2188  -999.2500
  182.5000     9.6705   115.2252     8.3484   -74.7555  -999.2500
  183.0000     9.9440   103.0590     9.1486   -74.2921  -999.2500
  183.5000    10.2781    93.9232     9.6802   -73.9812  -999.2500
  184.0000    10.7334    92.3630     9.9856   -74.5850  -999.2500
  184.5000    11.1887    92.3181     9.9130   -75.3411  -999.2500
  185.0000    11.4925    92.2475     9.8413   -76.2497  -999.2500
  185.5000    11.7963    89.0807    10.2230   -76.7010  -999.2500
  186.0000    12.1001    83.5759    10.8301   -77.1523  -999.2500
  186.5000    12.1766    80.7727    11.2863   -77.4512  -999.2500
  187.0000    12.3288    79.9608    11.5163   -77.4451  -999.2500
  187.5000    12.3296    78.4007    11.5954   -77.4390  -999.2500
  188.0000    12.4061    78.3557    11.5991   -77.4126  -999.2500
  188.5000    12.5583    78.3107    11.6029   -77.2744  -999.2500
  189.0000    12.5591    79.0346    11.5303   -76.9623  -999.2500
  189.5000    12.6356    81.2511    11.4586   -76.8038  -999.2500
  190.0000    12.7172    81.2061    11.5386   -76.4929  -999.2500
  190.5000    12.8730    81.1612    11.5424   -76.3344  -999.2500
  191.0000    13.0167    81.1162    11.6215   -76.3284  -999.2500
  191.5000    13.0176    80.3137    11.6253   -76.3224  -999.2500
  192.0000    13.1698    78.7535    11.7798   -76.0115  -999.2500
  192.5000    13.2463    77.9510    11.9344   -76.0055  -999.2500
  193.0000    13.3229    77.1484    12.0181   -75.9995  -999.2500
  193.5000    13.4751    75.5883    12.0928   -75.9934  -999.2500
  194.0000    13.6274    73.2706    12.1830   -76.5972  -999.2500
  194.5000    13.7796    71.7105    12.2655   -77.3533  -999.2500
  195.0000    13.9319    71.6655    12.5573   -78.1095  -999.2500
  195.5000    14.1599    70.8630    12.6364   -78.7132  -999.2500
  196.0000    14.3879    69.3029    12.8664   -79.3170  -999.2500
  196.5000    14.5402    68.5000    12.9455   -79.3110  -999.2500
  197.0000    14.7682    67.6970    13.1755   -79.1474  -999.2500
  197.5000    14.9963    67.6515    13.3301   -78.6890  -999.2500
  198.0000    15.1485    67.4848    13.4846   -78.6829  -999.2500
  198.5000    15.3008    66.0365    13.6392   -79.1621  -999.2500
  199.0000    15.4530    65.2340    13.7938   -79.8891  -999.2500
  199.5000    15.6053    64.4314    13.9483   -80.4928  -999.2500
  200.0000    15.7576    62.8713    14.2537   -80.6407  -999.2500
  200.5000    16.0649    62.0687    14.4837   -80.4808  -999.2500
  201.0000    16.3793    62.0238    14.7891   -80.1699  -999.2500
  201.5000    16.6902    61.2212    15.0945   -79.7065  -999.2500
