~VERSION INFORMATION
 VERS.                2.0:   CWLS LOG ASCII STANDARD - VERSION 2.0
 WRAP.                 NO:   ONE LINE PER DEPTH STEP
~WELL INFORMATION
#MNEM.UNIT      DATA TYPE    INFORMATION
#----------   ------------   ------------------------------
 STRT.F         1005.5000:   START DEPTH
 STOP.F         2315.0000:   STOP DEPTH
 STEP.F            0.5000:   STEP LENGTH
 NULL.          -999.2500:   NO VALUE
 COMP. LAWRENCE/ALLISON INC:   COMPANY
 WELL.  32 SHX 15 #32 -15:   WELL
 FLD .             TEAPOT:   FIELD
 LOC .      S15 T38N R78W:   LOCATION
 CNTY.            NATRONA:   COUNTY
 STAT.            WYOMING:   STATE
 CTRY. UNITED STATES OF AMERICA:   COUNTRY
 SRVC.            Unknown:   SERVICE COMPANY
 DATE.        10-SEP-1988:   LOGDATE
 API .       490251124500:   API NUMBER
~CURVE INFORMATION
#MNEM.UNIT       API CODE    CURVE DESCRIPTION
#----------   ------------   ------------------------------
 DEPT.F                  :   
 ROP .MIN/FT 91 810 01 00:   RATE OF DRILLING PENETRATION
 TGAS.UNITS  91 830 01 00:   TOTAL GAS FROM HOTWIRE
~PARAMETER INFORMATION
#MNEM.UNIT          VALUE    DESCRIPTION
#----------   ------------   ------------------------------
 EKB .F              5259:   KELLING BUSHING
 EGL .F              5249:   GROUND LEVEL
 DATE.        10-SEP-1988:   RUN DATE
 RUN .                  1:   RUN NUMBER
 DD  .F              2316:   DEPTH DRILLER
 TLI .F              1005:   TOP LOG INTERVAL
 CS  .IN                7:   CASING SIZE
 CBD .F               991:   CASING BOTTOM DRILLER
 ENGI. R. HUSK/D. PETERSON:   RECORDING ENGINEER
 CLNT.            A2DTECH:   CLIENT CODE
 ORIG.           5" PRINT:   ORIGIN OF DATA
 UWI .       490251124500:   UNIQUE WELL ID
 DICO. A2D Technologies, Inc.:   DIGITIZING COMPANY
~OTHER INFORMATION
~A  DEPT         ROP       TGAS 
# ...
 2099.0000     0.3430     5.0873
 2099.5000     0.3539     5.0848
 2100.0000     0.3859     5.0824
 2100.5000     0.4174     5.0760
 2101.0000     0.4171     5.0696
 2101.5000     0.4169     5.0633
 2102.0000     0.4273     5.0569
 2102.5000     0.4270     5.0506
 2103.0000     0.3951     5.0442
 2103.5000     0.3949     5.0379
 2104.0000     0.4264     5.0315
 2104.5000     0.4685     5.0252
 2105.0000     0.4789     5.0188
 2105.5000     0.5104     5.0125
 2106.0000     0.5101     5.0061
 2106.5000     0.4782     4.9998
 2107.0000     0.4251     4.9934
 2107.5000     0.3615     4.9871
 2108.0000     0.3401     4.9807
 2108.5000     0.3399     4.9744
 2109.0000     0.3397     4.9680
 2109.5000     0.3395     4.9616
 2110.0000     0.3499     4.9553
 2110.5000     0.4131     4.9489
 2111.0000     0.5503     4.9426
 2111.5000     0.6241     4.9362
 2112.0000     0.6450     4.9299
 2112.5000     0.6342     4.9235
 2113.0000     0.5494     4.9172
 2113.5000     0.4329     4.9108
 2114.0000     0.3799     4.9045
 2114.5000     0.3797     4.8981
 2115.0000     0.3901     4.8918
 2115.5000     0.3898     4.8854
 2116.0000     0.3896     4.8791
 2116.5000     0.3894     4.8727
 2117.0000     0.3892     4.8664
 2117.5000     0.3467     4.8600
 2118.0000     0.3148     4.8536
 2118.5000     0.3463     4.8473
 2119.0000     0.3884     4.8409
 2119.5000     0.4199     4.8346
 2120.0000     0.3879     4.8282
 2120.5000     0.3771     4.8219
 2121.0000     0.3346     4.8155
 2121.5000     0.3344     4.8092
 2122.0000     0.4082     4.8028
 2122.5000     0.5454     4.7965
 2123.0000     0.6298     4.7901
 2123.5000     0.6402     4.7838
 2124.0000     0.5131     4.7774
 2124.5000     0.4600     4.7711
 2125.0000     0.3858     4.7647
 2125.5000     0.3327     4.7584
 2126.0000     0.3008     4.7520
 2126.5000     0.3006     4.7456
 2127.0000     0.3321     4.7393
 2127.5000     0.3319     4.7329
 2128.0000     0.3740     4.7266
 2128.5000     0.4055     4.7202
 2129.0000     0.4475     4.7139
 2129.5000     0.4580     4.7075
 2130.0000     0.4683     4.7012
 2130.5000     0.4152     4.6948
 2131.0000     0.3727     4.6885
 2131.5000     0.3302     4.6821
 2132.0000     0.3406     4.6758
 2132.5000     0.3404     4.6694
 2133.0000     0.3613     4.6631
 2133.5000     0.3717     4.6567
 2134.0000     0.3714     4.6504
 2134.5000     0.3818     4.6440
 2135.0000     0.4133     4.6376
 2135.5000     0.4237     4.6313
 2136.0000     0.4551     4.6249
 2136.5000     0.4549     4.6186
 2137.0000     0.4124     4.6122
 2137.5000     0.3699     4.6059
 2138.0000     0.3380     4.5995
 2138.5000     0.3272     4.5932
 2139.0000     0.3270     4.5868
 2139.5000     0.3268     4.5805
 2140.0000     0.3583     4.5741
 2140.5000     0.4427     4.5678
 2141.0000     0.5482     4.5614
 2141.5000     0.6325     4.5551
 2142.0000     0.6746     4.5487
 2142.5000     0.7167     4.5424
 2143.0000     0.7587     4.5360
 2143.5000     0.8008     4.5296
 2144.0000     0.8641     4.5233
 2144.5000     0.7898     4.5169
 2145.0000     0.7367     4.5106
 2145.5000     0.6731     4.5042
 2146.0000     0.6201     4.4979
 2146.5000     0.6093     4.4915
 2147.0000     0.6197     4.4852
 2147.5000     0.5877     4.4788
 2148.0000     0.5241     4.4725
 2148.5000     0.4816     4.4661
 2149.0000     0.4602     4.4598
 2149.5000     0.4494     4.4534
 2150.0000     0.4175     4.4471
 2150.5000     0.4067     4.4407
 2151.0000     0.3959     4.4344
 2151.5000     0.3746     4.4280
 2152.0000     0.3956     4.4216
 2152.5000     0.3847     4.4153
 2153.0000     0.3317     4.4089
 2153.5000     0.3209     4.4026
 2154.0000     0.2890     4.3962
 2154.5000     0.3205     4.3899
 2155.0000     0.3626     4.3835
 2155.5000     0.3941     4.3772
 2156.0000     0.4045     4.3708
 2156.5000     0.3937     4.3645
 2157.0000     0.3934     4.3581
 2157.5000     0.4038     4.3518
 2158.0000     0.3930     4.3454
 2158.5000     0.3928     4.3391
 2159.0000     0.4032     4.3327
 2159.5000     0.3924     4.3264
 2160.0000     0.3921     4.3200
 2160.5000     0.3919     4.3136
 2161.0000     0.4129     4.3073
 2161.5000     0.4232     4.3009
 2162.0000     0.4442     4.2946
 2162.5000     0.4122     4.2882
 2163.0000     0.4015     4.2819
 2163.5000     0.3695     4.2755
 2164.0000     0.3587     4.2692
 2164.5000     0.3585     4.2628
 2165.0000     0.3477     4.2565
 2165.5000     0.3370     4.2501
 2166.0000     0.3474     4.2438
 2166.5000     0.3577     4.2374
 2167.0000     0.3575     4.2311
 2167.5000     0.3679     4.2247
 2168.0000     0.3676     4.2184
 2168.5000     0.3674     4.2120
 2169.0000     0.3566     4.2056
 2169.5000     0.3141     4.1993
 2170.0000     0.3139     4.1929
 2170.5000     0.3031     4.1866
 2171.0000     0.3136     4.1802
 2171.5000     0.3239     4.1739
 2172.0000     0.3554     4.1675
 2172.5000     0.3551     4.1612
 2173.0000     0.3656     4.1548
 2173.5000     0.3653     4.1485
 2174.0000     0.3651     4.1421
 2174.5000     0.3649     4.1358
 2175.0000     0.3541     4.1294
 2175.5000     0.3116     4.1231
 2176.0000     0.3114     4.1167
 2176.5000     0.3218     4.1104
 2177.0000     0.3533     4.1040
 2177.5000     0.3953     4.0976
 2178.0000     0.4057     4.0913
 2178.5000     0.4372     4.0849
 2179.0000     0.4475     4.0786
 2179.5000     0.4685     4.0722
 2180.0000     0.4789     4.0659
 2180.5000     0.4786     4.0595
 2181.0000     0.4784     4.0532
 2181.5000     0.4782     4.0468
 2182.0000     0.4674     4.0405
 2182.5000     0.4355     4.0341
 2183.0000     0.3930     4.0278
 2183.5000     0.3928     4.0214
 2184.0000     0.3503     4.0151
 2184.5000     0.3184     4.0087
 2185.0000     0.2970     4.0024
 2185.5000     0.2651     3.9960
 2186.0000     0.2649     3.9896
 2186.5000     0.2647     3.9833
 2187.0000     0.2644     3.9769
 2187.5000     0.2960     3.9706
 2188.0000     0.3169     3.9642
 2188.5000     0.3378     3.9579
 2189.0000     0.3482     3.9515
 2189.5000     0.3374     3.9452
 2190.0000     0.3160     3.9388
 2190.5000     0.3052     3.9325
 2191.0000     0.2733     3.9261
 2191.5000     0.2625     3.9198
 2192.0000     0.2518     3.9134
 2192.5000     0.2198     3.9071
 2193.0000     0.2196     3.9007
 2193.5000     0.2300     3.8944
 2194.0000     0.2403     3.8880
 2194.5000     0.2613     3.8816
 2195.0000     0.3034     3.8753
 2195.5000     0.3137     3.8689
 2196.0000     0.3029     3.8626
 2196.5000     0.3027     3.8562
 2197.0000     0.2708     3.8499
 2197.5000     0.2600     3.8435
 2198.0000     0.2598     3.8372
 2198.5000     0.2596     3.8308
 2199.0000     0.2594     3.8245
 2199.5000     0.2592     3.8181
 2200.0000     0.2695     3.8118
 2200.5000     0.3010     3.8257
 2201.0000     0.3220     3.8397
 2201.5000     0.3535     3.8537
 2202.0000     0.3744     3.8677
 2202.5000     0.3777     3.8817
 2203.0000     0.3465     3.8956
 2203.5000     0.3047     3.9096
 2204.0000     0.2944     3.9236
 2204.5000     0.2951     3.9376
 2205.0000     0.2848     3.9516
 2205.5000     0.2960     3.9655
 2206.0000     0.2965     3.9795
 2206.5000     0.3075     3.9935
 2207.0000     0.3292     4.0075
 2207.5000     0.3507     4.0214
 2208.0000     0.3829     4.0354
 2208.5000     0.4151     4.0494
 2209.0000     0.4261     4.0634
 2209.5000     0.4372     4.0774
 2210.0000     0.4270     4.0913
 2210.5000     0.4276     4.1053
 2211.0000     0.4174     4.1193
 2211.5000     0.3967     4.1333
 2212.0000     0.3973     4.1473
 2212.5000     0.3978     4.1612
 2213.0000     0.4300     4.1752
 2213.5000     0.4305     4.1892
 2214.0000     0.4204     4.2032
 2214.5000     0.3996     4.2171
 2215.0000     0.3579     4.2311
 2215.5000     0.3055     4.2451
 2216.0000     0.2848     4.2591
 2216.5000     0.2746     4.2731
 2217.0000     0.2753     4.2870
 2217.5000     0.3074     4.3010
 2218.0000     0.3396     4.3150
 2218.5000     0.3929     4.3290
 2219.0000     0.4039     4.3430
 2219.5000     0.4362     4.3569
 2220.0000     0.4049     4.3709
