~VERSION INFORMATION
 VERS.                2.0:   CWLS LOG ASCII STANDARD - VERSION 2.0
 WRAP.                 NO:   ONE LINE PER DEPTH STEP
~WELL INFORMATION
#MNEM.UNIT      DATA TYPE    INFORMATION
#----------   ------------   ------------------------------
 STRT.F            0.0000:   START DEPTH
 STOP.F          533.0000:   STOP DEPTH
 STEP.F            0.5000:   STEP LENGTH
 NULL.          -999.2500:   NO VALUE
 COMP. LAWRENCE/ALLISON INC:   COMPANY
 WELL. NAVAL PETROLEUM RESERVE 3 SX-1 #56-66-SX-10:   WELL
 FLD .             TEAPOT:   FIELD
 LOC .      S10 T38N R78W:   LOCATION
 CNTY.            NATRONA:   COUNTY
 STAT.            WYOMING:   STATE
 CTRY. UNITED STATES OF AMERICA:   COUNTRY
 SRVC.           Gearhart:   SERVICE COMPANY
 DATE.        28-JUN-1987:   LOGDATE
 API .       490251114300:   API NUMBER
~CURVE INFORMATION
#MNEM.UNIT       API CODE    CURVE DESCRIPTION
#----------   ------------   ------------------------------
 DEPT.F                  :   
 RLL .OHMM   07 220 00 00:   LATEROLOG RESISTIVITY
 RILM.OHMM   07 120 44 00:   INDUCTION LOG MEDIUM RESISTIVITY
 RILD.OHMM   07 120 46 00:   INDUCTION LOG DEEP RESISTIVITY
 GRR .GAPI   07 310 01 00:   GAMMA RAY FROM RES. LOG.
 SPR .MV     07 010 01 00:   SPONTANEOUS POTENTIAL
~PARAMETER INFORMATION
#MNEM.UNIT          VALUE    DESCRIPTION
#----------   ------------   ------------------------------
 PD  .                 GL:   PERMANENT DATUM
 EPD .F              5198:   ELEVATION PERMANENT DATUM
 LMF .                 KB:   LOG MEASURED FROM
 DAPD.F                 8:   FEET ABOVE PERMANENT DATUM
 DMF .                 KB:   DRILLING MEASURED FROM
 EKB .F              5206:   KELLING BUSHING
 EDF .F              5204:   DRILLING FLOOR
 EGL .F              5198:   GROUND LEVEL
 DATE.            6-28-87:   RUN DATE
 RUN .                  1:   RUN NUMBER
 DD  .F               535:   DEPTH DRILLER
 DL  .F               536:   DEPTH LOGGER
 BLI .F               533:   BOTTOM LOG INTERVAL
 BS  .IN             7.87:   BIT SIZE
 BSD .F               535:   BIT SIZE AT DEPTH
 DFT .                MUD:   DRILLING FLUID TYPE
 RMS .OHMM            .84:   RESISTIVITY MUD SAMPLE
 MST .F                57:   MUD SAMPLE TEMPERATURE
 RMF .OHMM            .63:   RESISTIVITY MUD FILTRATE SAMPLE
 MFST.F                57:   MUD FILTRATE SAMPLE TEMPERATURE
 RMC .OHMM           1.05:   RESISTIVITY MUD CAKE
 MCST.F                57:   MUD CAKE SAMPLE TEMPERATURE
 MFSS.               CALC:   MUD FILTRATE SAMPLE SOURCE
 MCSS.               CALC:   MUD CAKE SAMPLE SOURCE
 RMB .OHMM            .59:   RESISTIVITY MUD AT BHT
 BHT .F                80:   BOTTOM HOLE TEMPERATURE
 TCS .HRS            1200:   TIME CURCULATED STOPPED
 TLAB.HRS            1322:   TIME LOGGER AT BOTTOM
 MRT .F                80:   MAXIMUM RECORDED TEMPERATURE
 LUN .               7650:   LOGGING UNIT NUMBER
 LUL .           GILLETTE:   LOGGING UNIT LOCATION
 ENGI. JOHNSTON/HUCKFELDT:   RECORDING ENGINEER
 WITN.             STRONG:   WITNESSED BY
 CLNT.            A2DTECH:   CLIENT CODE
 ORIG.       2", 5" PRINT:   ORIGIN OF DATA
 UWI .       490251114300:   UNIQUE WELL ID
 DICO. A2D Technologies, Inc.:   DIGITIZING COMPANY
~OTHER INFORMATION
~A    DEPT     RLL         RILM       RILD       GRR       SPR   
    0.0000  -999.2500     2.3384     1.4128    32.5911   -13.8384
    0.5000  -999.2500     2.1991     1.5509    34.2105   -14.7499
    1.0000  -999.2500     2.0543     1.9882    36.0413   -13.9684
    1.5000  -999.2500     1.9803     2.7512    37.6746    -9.5055
    2.0000  -999.2500     1.9584     5.0798    39.6838   -13.7483
    2.5000  -999.2500     2.4823     9.3896    41.5865   -16.6008
    3.0000  -999.2500     3.4658    17.5434    39.7652   -13.9000
    3.5000  -999.2500     6.2755    29.6451    37.2390   -15.2648
    4.0000  -999.2500    13.1419    29.6372    37.0980   -17.5700
    4.5000  -999.2500    21.3500    40.0543    39.2962   -19.8689
    5.0000  -999.2500    17.6698    34.4538    41.7684   -22.1363
    5.5000  -999.2500    10.7015    19.9272    44.2400   -24.3764
    6.0000  -999.2500     6.4929    12.6352    46.7083   -29.3917
    6.5000  -999.2500     5.0165     9.4153    50.2331   -34.4523
    7.0000  1583.5304     4.1704     8.0143    56.0885   -39.2546
    7.5000  1257.7646     3.7251     7.8627    61.9104   -43.5859
    8.0000   947.4185     3.7811     7.9363    67.7314   -48.0348
    8.5000   509.6965     4.2163     8.5308    73.6430   -48.8249
    9.0000    46.3203     5.0168     9.2141    81.0506   -48.1117
    9.5000   149.9483     6.3512    10.9351    89.1892   -44.5685
   10.0000   706.5707     8.3918    12.0833    94.3379   -41.1673
   10.5000   989.4105    11.0879    17.4405    97.1631   -39.2729
   11.0000  1364.3273    14.6991    23.8048   100.0251   -37.2998
   11.5000  1708.3311    21.7129    33.3080   101.0132   -35.3348
   12.0000  -999.2500    28.4910    48.5223    99.5927   -34.9837
   12.5000  -999.2500    34.3626    61.6946    98.0282   -37.8071
   13.0000  -999.2500    37.5928    74.1001    97.0504   -43.5832
   13.5000  -999.2500    40.1409    85.7529    97.3510   -63.1267
   14.0000  -999.2500    40.6475    92.0197    97.1969   -86.2924
   14.5000  -999.2500    40.6475    99.2533    96.0004   -93.4971
   15.0000  -999.2500    41.4133   105.2950    94.7512   -94.9200
   15.5000  -999.2500    44.4085    99.8593    95.8609   -95.1915
   16.0000  -999.2500    47.5554    85.6135    97.6002   -94.1817
   16.5000  -999.2500    49.4471    73.4000    99.3328   -92.9051
   17.0000  -999.2500    46.2829    66.2497    98.6808   -94.9417
   17.5000  -999.2500    41.4906    62.0443    97.4077   -96.2180
   18.0000  -999.2500    37.3732    58.4541    96.1466   -93.5910
   18.5000  -999.2500    36.4069    56.1066    95.3430   -84.8594
   19.0000  -999.2500    35.5046    53.8533    95.7683   -77.3233
   19.5000  -999.2500    34.6247    51.6905    96.2061   -76.2992
   20.0000  -999.2500    33.7666    49.6146    96.6102   -75.4457
   20.5000  -999.2500    32.9297    48.0820    94.8637   -72.4003
   21.0000  -999.2500    32.1897    46.8105    92.6981   -67.2952
   21.5000  -999.2500    31.3534    45.4639    90.3383   -60.7957
   22.0000  -999.2500    30.5907    42.1659    91.4438   -50.8054
   22.5000  -999.2500    29.8388    39.7188    94.3886   -64.6514
   23.0000  -999.2500    29.0893    36.5596    97.2787   -62.4544
   23.5000  -999.2500    27.9851    33.6517    96.8356   -58.3567
   24.0000  -999.2500    24.0184    30.9752    95.9111   -58.9083
   24.5000  -999.2500    20.8694    28.5115    95.3424   -59.5686
   25.0000  -999.2500    18.6798    26.0295    95.3235   -58.9090
   25.5000  -999.2500    17.2279    22.1281    94.6713   -58.8805
   26.0000  -999.2500    15.9869    18.8714    94.1185   -59.3822
   26.5000  -999.2500    14.1782    15.1932    94.2300   -60.1924
   27.0000  -999.2500    11.3494    12.2234    94.5166   -60.3708
   27.5000  -999.2500     8.5321    10.0861    93.8020   -59.6528
   28.0000  -999.2500     6.5979     8.5209    92.2005   -58.8130
   28.5000  -999.2500     5.4139     7.6225    90.7365   -57.4018
   29.0000  -999.2500     4.7368     6.9228    87.0560   -53.6687
   29.5000  -999.2500     4.3846     6.2873    83.2301   -49.6648
   30.0000  -999.2500     4.1427     5.7101    79.4127   -48.3642
   30.5000  -999.2500     3.9269     5.3859    77.0729   -47.1972
   31.0000  1463.5896     3.7636     5.1477    75.0204   -45.9016
   31.5000  1153.6954     3.7636     4.9201    74.7011   -44.8249
   32.0000   644.2888     3.7862     4.7025    74.3956   -43.7511
   32.5000   267.9101     3.8059     4.4945    74.0404   -42.9288
   33.0000    26.7093     3.8258     4.2888    73.6909   -43.4753
   33.5000    30.3896     3.8345     3.8832    73.6985   -44.0162
   34.0000    34.6847     3.4038     3.5029    75.6949   -44.5590
   34.5000    33.3392     3.0389     3.1599    78.8897   -44.7348
   35.0000    31.5945     2.7130     2.8446    82.0873   -44.5425
   35.5000    28.6197     2.4265     2.5621    85.3304   -44.8851
   36.0000    25.8730     2.1874     2.3028    86.7692   -45.2971
   36.5000    24.3297     1.9719     2.0698    87.5824   -45.0817
   37.0000    25.2550     1.8129     1.8776    88.3666   -44.6684
   37.5000    29.9503     1.7058     1.7275    89.1751   -44.2553
   38.0000    38.0165     1.6099     1.6446    88.2264   -43.9447
   38.5000    44.8738     1.5557     1.5916    86.6590   -43.7480
   39.0000    50.4491     1.4908     1.5365    86.3396   -43.8827
   39.5000    55.8246     1.4529     1.5223    86.1006   -44.2656
   40.0000    55.8246     1.4809     1.5223    85.5498   -44.5590
   40.5000    48.8782     1.5161     1.5655    83.3163   -44.0943
   41.0000    45.6460     1.5501     1.6507    81.1597   -43.4259
   41.5000    42.6078     1.6295     1.7384    79.2047   -42.7550
   42.0000    40.7511     1.7288     1.8308    78.7453   -42.0335
   42.5000    40.2700     1.8336     1.9044    78.8444   -41.5086
   43.0000    42.0977     1.9811     2.0766    78.9856   -41.7802
   43.5000    43.3913     2.1456     2.2570    79.1315   -42.3401
   44.0000    35.7987     2.3246     2.4530    79.2803   -42.7622
   44.5000    30.3305     2.5187     2.6660    79.4389   -41.8180
   45.0000    23.7845     2.7149     2.8976    79.4512   -40.3186
   45.5000    17.3876     2.8118     3.0266    77.3081   -38.2469
   46.0000    11.4253     2.9287     3.1289    75.1923   -36.1716
   46.5000    10.6035     3.0504     3.2347    73.0909   -34.1029
   47.0000    10.2519     3.1772     3.3440    70.9884   -32.0549
   47.5000     9.9381     3.3006     3.4571    68.9072   -35.7498
   48.0000     9.6582     3.4053     3.5745    67.4169   -38.2720
   48.5000     9.6579     3.5134     3.6881    67.6029   -39.1126
   49.0000     9.6587     3.6248     3.7929    68.7936   -39.8093
   49.5000     9.6587     3.7405     3.8992    69.9813   -40.2979
   50.0000     9.6587     3.8717     4.0088    71.0473   -40.4224
   50.5000     9.6137     3.8694     4.1215    70.5259   -40.2729
   51.0000     9.4682     3.9915     4.2373    69.4842   -40.1207
   51.5000     9.3249     4.0866     4.3564    69.6888   -39.9608
   52.0000     9.1838     4.1840     4.4789    70.4992   -39.9224
   52.5000     9.0449     4.2835     4.6537    71.3067   -40.8903
   53.0000     8.9080     4.3969     4.8783    71.1792   -41.8844
   53.5000     8.7732     4.5730     5.1136    69.5545   -41.7710
   54.0000     8.7165     4.7561     5.3654    67.9465   -41.3737
   54.5000     8.8661     4.9466     5.6965    66.3582   -41.2974
   55.0000     9.2357     5.2043     6.0553    65.3583   -41.6615
   55.5000     9.6207     5.6828     6.4367    65.6810   -44.4802
   56.0000     9.9330     6.2054     6.8422    66.0227   -43.6168
   56.5000     9.9330     6.6994     7.2732    65.2445   -41.6546
   57.0000     9.2702     7.1226     7.5658    63.3318   -40.1813
   57.5000     8.4364     7.3687     7.7217    61.4196   -39.1545
   58.0000     7.7456     7.3003     7.6618    61.3248   -40.1460
   58.5000     7.2947     7.3003     7.5816    60.7438   -41.2610
   59.0000     6.9028     6.9415     7.2873    59.7478   -41.6820
   59.5000     6.6772     6.5520     6.9675    59.9563   -42.1492
   60.0000     6.4302     6.0232     6.6617    60.3796   -42.0206
   60.5000     6.1923     5.5371     6.3693    60.1331   -41.5410
