~VERSION INFORMATION
 VERS.                2.0:   CWLS LOG ASCII STANDARD - VERSION 2.0
 WRAP.                 NO:   ONE LINE PER DEPTH STEP
~WELL INFORMATION
#MNEM.UNIT      DATA TYPE    INFORMATION
#----------   ------------   ------------------------------
 STRT.F           17.0000:   START DEPTH
 STOP.F          592.0000:   STOP DEPTH
 STEP.F            0.5000:   STEP LENGTH
 NULL.          -999.2500:   NO VALUE
 COMP.   FLUOR DANIEL INC:   COMPANY
 WELL. NAVAL PETROLEUM RESERVE SX-1 87 #2-10:   WELL
 FLD .             TEAPOT:   FIELD
 LOC .      S10 T38N R78W:   LOCATION
 CNTY.            NATRONA:   COUNTY
 STAT.            WYOMING:   STATE
 CTRY. UNITED STATES OF AMERICA:   COUNTRY
 SRVC.      Western Atlas:   SERVICE COMPANY
 DATE.        20-JUL-1995:   LOGDATE
 API .       490252274200:   API NUMBER
~CURVE INFORMATION
#MNEM.UNIT       API CODE    CURVE DESCRIPTION
#----------   ------------   ------------------------------
 DEPT.F                  :   
 GRR .GAPI   07 310 01 00:   GAMMA RAY FROM RES. LOG.
 RILD.OHMM   07 120 46 00:   INDUCTION LOG DEEP RESISTIVITY
 RILM.OHMM   07 120 44 00:   INDUCTION LOG MEDIUM RESISTIVITY
~PARAMETER INFORMATION
#MNEM.UNIT          VALUE    DESCRIPTION
#----------   ------------   ------------------------------
 PD  .                 GL:   PERMANENT DATUM
 EPD .F              5221:   ELEVATION PERMANENT DATUM
 LMF .                 KB:   LOG MEASURED FROM
 DAPD.F                10:   FEET ABOVE PERMANENT DATUM
 DMF .                 KB:   DRILLING MEASURED FROM
 EKB .F              5231:   KELLING BUSHING
 EDF .F              5230:   DRILLING FLOOR
 EGL .F              5221:   GROUND LEVEL
 DATE.            7-20-95:   RUN DATE
 RUN .                  1:   RUN NUMBER
 DD  .F               599:   DEPTH DRILLER
 DL  .F               600:   DEPTH LOGGER
 BLI .F               592:   BOTTOM LOG INTERVAL
 TLI .F                54:   TOP LOG INTERVAL
 CS  .IN            9.625:   CASING SIZE
 CBD .F                54:   CASING BOTTOM DRILLER
 CBL .F                54:   CASING BOTTOM LOGGER
 BS  .IN             8.75:   BIT SIZE
 BSD .F               599:   BIT SIZE AT DEPTH
 DFT .                AIR:   DRILLING FLUID TYPE
 BHT .F                98:   BOTTOM HOLE TEMPERATURE
 MRT .F                98:   MAXIMUM RECORDED TEMPERATURE
 LUN .            HL 6539:   LOGGING UNIT NUMBER
 LUL .          RK. SPGS.:   LOGGING UNIT LOCATION
 ENGI.               RALL:   RECORDING ENGINEER
 WITN.             STRONG:   WITNESSED BY
 CLNT.            A2DTECH:   CLIENT CODE
 ORIG.        2" 5" PRINT:   ORIGIN OF DATA
 UWI .       490252274200:   UNIQUE WELL ID
 DICO. A2D Technologies, Inc.:   DIGITIZING COMPANY
~OTHER INFORMATION
~A   DEPT       GRR      RILD       RILM   
   17.0000    62.4272  -999.2500  -999.2500
   17.5000    62.6520  -999.2500  -999.2500
   18.0000    64.6254  -999.2500  -999.2500
   18.5000    67.2306  -999.2500  -999.2500
   19.0000    68.5853  -999.2500  -999.2500
   19.5000    68.6470  -999.2500  -999.2500
   20.0000    67.3728  -999.2500  -999.2500
   20.5000    66.4326  -999.2500  -999.2500
   21.0000    69.3021  -999.2500  -999.2500
   21.5000    72.2678  -999.2500  -999.2500
   22.0000    74.9700  -999.2500  -999.2500
   22.5000    74.7117  -999.2500  -999.2500
   23.0000    74.3766  -999.2500  -999.2500
   23.5000    74.6978  -999.2500  -999.2500
   24.0000    75.1260  -999.2500  -999.2500
   24.5000    75.0288  -999.2500  -999.2500
   25.0000    73.2797  -999.2500  -999.2500
   25.5000    71.5387  -999.2500  -999.2500
   26.0000    69.8001  -999.2500  -999.2500
   26.5000    68.5717  -999.2500  -999.2500
   27.0000    70.2105  -999.2500  -999.2500
   27.5000    71.8623  -999.2500  -999.2500
   28.0000    71.1639  -999.2500  -999.2500
   28.5000    70.3553  -999.2500  -999.2500
   29.0000    70.9166  -999.2500  -999.2500
   29.5000    71.5457  -999.2500  -999.2500
   30.0000    68.4105  -999.2500  -999.2500
   30.5000    63.6658  -999.2500  -999.2500
   31.0000    62.7294  -999.2500  -999.2500
   31.5000    63.2467  -999.2500  -999.2500
   32.0000    66.3173  -999.2500  -999.2500
   32.5000    71.8284  -999.2500  -999.2500
   33.0000    77.2625  -999.2500  -999.2500
   33.5000    77.3457  -999.2500  -999.2500
   34.0000    70.4567  -999.2500  -999.2500
   34.5000    64.4047  -999.2500  -999.2500
   35.0000    58.7981  -999.2500  -999.2500
   35.5000    58.8318  -999.2500  -999.2500
   36.0000    61.7757  -999.2500  -999.2500
   36.5000    65.8579  -999.2500  -999.2500
   37.0000    69.9803  -999.2500  -999.2500
   37.5000    74.1311  -999.2500  -999.2500
   38.0000    76.1647  -999.2500  -999.2500
   38.5000    75.2642  -999.2500  -999.2500
   39.0000    74.1843  -999.2500  -999.2500
   39.5000    76.3602  -999.2500  -999.2500
   40.0000    79.1241  -999.2500  -999.2500
   40.5000    81.0393  -999.2500  -999.2500
   41.0000    79.4448  -999.2500  -999.2500
   41.5000    77.4525  -999.2500  -999.2500
   42.0000    75.4414  -999.2500  -999.2500
   42.5000    73.7038  -999.2500  -999.2500
   43.0000    75.8386  -999.2500  -999.2500
   43.5000    79.3586  -999.2500  -999.2500
   44.0000    82.1683  -999.2500  -999.2500
   44.5000    81.2892  -999.2500  -999.2500
   45.0000    81.7008  -999.2500  -999.2500
   45.5000    82.4113  -999.2500  -999.2500
   46.0000    80.7675  -999.2500  -999.2500
   46.5000    78.1585  -999.2500  -999.2500
   47.0000    75.5663  -999.2500  -999.2500
   47.5000    73.3974  -999.2500  -999.2500
   48.0000    74.0995  -999.2500  -999.2500
   48.5000    75.1221  -999.2500  -999.2500
   49.0000    75.2281  -999.2500  -999.2500
   49.5000    73.9944  -999.2500  -999.2500
   50.0000    75.1501  -999.2500  -999.2500
   50.5000    76.2418  -999.2500  -999.2500
   51.0000    78.7817  -999.2500  -999.2500
   51.5000    79.4864  -999.2500  -999.2500
   52.0000    79.6695  -999.2500  -999.2500
   52.5000    81.0696  -999.2500  -999.2500
   53.0000    82.5094  -999.2500  -999.2500
   53.5000    82.8972     4.9918  -999.2500
   54.0000    89.0073     4.6381  -999.2500
   54.5000    97.4681     5.9673  -999.2500
   55.0000   105.9804     6.5595  9474.1484
   55.5000   114.4266     5.3729   227.0555
   56.0000   119.4056     4.6288     3.1254
   56.5000   118.4146     4.7261     2.9737
   57.0000   116.9569   619.2801     3.5803
   57.5000   118.8157  9039.2422     4.3795
   58.0000   122.0469  9837.0918     5.3437
   58.5000   121.9717   124.3502     6.5180
   59.0000   119.8146    10.1432     8.0752
   59.5000   117.6500     8.0670     7.8666
   60.0000   117.4138     6.4446     7.5190
   60.5000   118.5394     6.9089     7.1867
   61.0000   119.2185     7.5171     6.9478
   61.5000   118.7014     7.8507     6.9403
   62.0000   118.2105     7.4229     6.9317
   62.5000   117.9295     7.0483     6.9231
   63.0000   118.6773     6.6926     6.9146
   63.5000   119.4054     6.3548     6.9060
   64.0000   120.1286     6.0304     6.8975
   64.5000   120.8579     5.8683     6.8888
   65.0000   121.3940     6.1613     6.8828
   65.5000   122.0565     6.3768     6.9553
   66.0000   123.4337     6.5983     7.0128
   66.5000   126.1125     6.8276     7.0707
   67.0000   126.8094     6.9252     7.1292
   67.5000   123.3720     6.9602     7.1881
   68.0000   119.4039     6.9812     7.2475
   68.5000   115.2965     7.0023     7.3074
   69.0000   114.8452     7.0234     7.3544
   69.5000   117.6862     7.0446     7.3671
   70.0000   120.5208     7.0659     7.3798
   70.5000   122.1238     7.0872     7.3925
   71.0000   121.7426     7.1086     7.4052
   71.5000   121.2861     7.1301     7.4180
   72.0000   123.0770     7.1516     7.4811
   72.5000   125.1333     7.1730     7.5553
   73.0000   124.5305     7.1946     7.6306
   73.5000   120.3156     7.2305     7.7066
   74.0000   116.1322     7.3713     7.7834
   74.5000   114.6540     7.4959     7.8608
   75.0000   119.5025     7.5288     7.9391
   75.5000   125.8897     7.5610     8.0182
   76.0000   131.5142     7.6686     8.0980
   76.5000   131.4009     7.8002     8.1786
   77.0000   132.6176     7.9996     8.2600
   77.5000   135.8153     7.9831     8.3423
   78.0000   138.9693     7.9513     8.4252
   78.5000   141.1985     7.9253     8.5093
   79.0000   138.3118     8.1035     8.6269
   79.5000   133.1595     8.2585     8.7699
   80.0000   128.1346     8.4164     8.9150
   80.5000   127.5590     8.5773     9.0626
   81.0000   127.3363     8.7413     9.2125
   81.5000   128.6447     8.8830     9.3650
   82.0000   130.5880     9.0169     9.5200
   82.5000   132.3149     9.1529     9.6775
   83.0000   129.5430     9.2909     9.8376
   83.5000   126.5209     9.4309     9.9526
   84.0000   123.5169     9.5636    10.0052
   84.5000   121.1550     9.6172    10.0581
   85.0000   121.6216     9.6677    10.1113
   85.5000   122.9138     9.7185    10.1647
   86.0000   125.1991     9.7696    10.2185
   86.5000   126.7585     9.8209    10.2725
   87.0000   126.1000     9.8725    10.3268
   87.5000   125.4144     9.9244    10.3814
   88.0000   122.4825     9.9765    10.4363
   88.5000   119.4397    10.0237    10.4915
   89.0000   119.4066    10.0236    10.5470
   89.5000   119.8503    10.0237    10.6052
   90.0000   119.7031    10.0237    10.5699
   90.5000   118.9338    10.0237    10.5237
   91.0000   121.1937    10.0238    10.4777
   91.5000   127.8129    10.0239    10.4319
   92.0000   129.6290    10.0237    10.3862
   92.5000   126.1495    10.0013    10.3408
   93.0000   121.7415     9.9273    10.2956
   93.5000   121.9185     9.8540    10.2506
   94.0000   123.3831     9.7812    10.2057
   94.5000   124.8062     9.7089    10.1611
   95.0000   126.2477     9.6372    10.1167
   95.5000   126.6703     9.5660    10.0724
   96.0000   124.9363     9.4953    10.0284
   96.5000   123.1083     9.4251     9.9845
   97.0000   124.6230     9.3554     9.9408
   97.5000   126.8860     9.2863     9.8974
   98.0000   126.3644     9.2177     9.8371
   98.5000   123.6719     9.1496     9.8782
   99.0000   122.1995     9.1243     9.9465
   99.5000   122.4236     9.1245    10.0152
  100.0000   121.6675     9.1246    10.1184
  100.5000   120.5672     9.1246    10.0661
  101.0000   118.6290     9.1246     9.9646
  101.5000   116.8421     9.1246     9.8642
  102.0000   116.5299     9.1246     9.7648
  102.5000   118.0252     9.1246     9.6663
  103.0000   119.5054     9.1246     9.5689
  103.5000   121.2740     9.1248     9.4725
  104.0000   124.3785     9.1254     9.3770
  104.5000   130.0073     9.1246     9.2825
  105.0000   135.5370     8.9253     9.1889
  105.5000   138.7566     8.7057     9.0963
  106.0000   137.8513     8.5500     8.9745
  106.5000   136.9444     8.3915     8.8060
  107.0000   136.0192     8.2359     8.6407
  107.5000   135.2915     8.0832     8.4784
