~VERSION INFORMATION
 VERS.                2.0:   CWLS LOG ASCII STANDARD - VERSION 2.0
 WRAP.                 NO:   ONE LINE PER DEPTH STEP
~WELL INFORMATION
#MNEM.UNIT      DATA TYPE    INFORMATION
#----------   ------------   ------------------------------
 STRT.F          350.0000:   START DEPTH
 STOP.F         2259.0000:   STOP DEPTH
 STEP.F            0.5000:   STEP LENGTH
 NULL.          -999.2500:   NO VALUE
 COMP. LAWRENCE/ALLISON INC:   COMPANY
 WELL.        45 X #33-33:   WELL
 FLD .             TEAPOT:   FIELD
 LOC .      S33 T39N R78W:   LOCATION
 CNTY.            NATRONA:   COUNTY
 STAT.            WYOMING:   STATE
 CTRY. UNITED STATES OF AMERICA:   COUNTRY
 SRVC.      NL McCullough:   SERVICE COMPANY
 DATE.        19-MAY-1988:   LOGDATE
 API .       490251119400:   API NUMBER
~CURVE INFORMATION
#MNEM.UNIT       API CODE    CURVE DESCRIPTION
#----------   ------------   ------------------------------
 DEPT.F                  :   
 ROP .MIN/FT 91 810 01 00:   RATE OF DRILLING PENETRATION
 GR  .GAPI   81 310 01 00:   GAMMA RAY
 TGAS.UNITS  91 830 01 00:   TOTAL GAS FROM HOTWIRE
~PARAMETER INFORMATION
#MNEM.UNIT          VALUE    DESCRIPTION
#----------   ------------   ------------------------------
 PD  .                 GL:   PERMANENT DATUM
 EPD .F              5198:   ELEVATION PERMANENT DATUM
 LMF .                 KB:   LOG MEASURED FROM
 DAPD.F                11:   FEET ABOVE PERMANENT DATUM
 DMF .                 KB:   DRILLING MEASURED FROM
 EKB .F              5209:   KELLING BUSHING
 EGL .F              5198:   GROUND LEVEL
 DATE.            5-19-88:   RUN DATE
 RUN .                  1:   RUN NUMBER
 DD  .F              2232:   DEPTH DRILLER
 DL  .F               750:   DEPTH LOGGER
 BLI .F               746:   BOTTOM LOG INTERVAL
 TLI .F               350:   TOP LOG INTERVAL
 CS  .IN                7:   CASING SIZE
 CBD .F               808:   CASING BOTTOM DRILLER
 DFT .              WATER:   DRILLING FLUID TYPE
 TCS .HRS            0830:   TIME CURCULATED STOPPED
 TLAB.HRS            0930:   TIME LOGGER AT BOTTOM
 ENGI.          SANGERTER:   RECORDING ENGINEER
 WITN.             NORMAN:   WITNESSED BY
 CLNT.            A2DTECH:   CLIENT CODE
 ORIG.           5" PRINT:   ORIGIN OF DATA
 UWI .       490251119400:   UNIQUE WELL ID
 DICO. A2D Technologies, Inc.:   DIGITIZING COMPANY
~OTHER INFORMATION
~A   DEPT      ROP          GR      TGAS   
# ...
 1533.0000     0.3356  -999.2500     1.4787
 1533.5000     0.3568  -999.2500     1.4960
 1534.0000     0.3570  -999.2500     1.5133
 1534.5000     0.3573  -999.2500     1.5306
 1535.0000     0.3576  -999.2500     1.5479
 1535.5000     0.3578  -999.2500     1.5652
 1536.0000     0.3581  -999.2500     1.5825
 1536.5000     0.3583  -999.2500     1.5998
 1537.0000     0.3586  -999.2500     1.6171
 1537.5000     0.3588  -999.2500     1.6344
 1538.0000     0.3591  -999.2500     1.6516
 1538.5000     0.3594  -999.2500     1.6689
 1539.0000     0.3701  -999.2500     1.6862
 1539.5000     0.3703  -999.2500     1.7035
 1540.0000     0.3706  -999.2500     1.7208
 1540.5000     0.3708  -999.2500     1.7381
 1541.0000     0.3711  -999.2500     1.7554
 1541.5000     0.3714  -999.2500     1.7727
 1542.0000     0.3821  -999.2500     1.7900
 1542.5000     0.4137  -999.2500     1.8073
 1543.0000     0.4452  -999.2500     1.8246
 1543.5000     0.4977  -999.2500     1.8419
 1544.0000     0.5084  -999.2500     1.8591
 1544.5000     0.5086  -999.2500     1.8764
 1545.0000     0.4880  -999.2500     1.8937
 1545.5000     0.4569  -999.2500     1.9110
 1546.0000     0.4154  -999.2500     1.9283
 1546.5000     0.3844  -999.2500     1.9456
 1547.0000     0.3638  -999.2500     1.9629
 1547.5000     0.3431  -999.2500     1.9802
 1548.0000     0.3330  -999.2500     1.9975
 1548.5000     0.3333  -999.2500     2.0148
 1549.0000     0.3335  -999.2500     2.0321
 1549.5000     0.3338  -999.2500     2.0494
 1550.0000     0.3341  -999.2500     2.0666
 1550.5000     0.3343  -999.2500     2.0839
 1551.0000     0.3450  -999.2500     2.1012
 1551.5000     0.3453  -999.2500     2.1185
 1552.0000     0.3769  -999.2500     2.1358
 1552.5000     0.3771  -999.2500     2.1531
 1553.0000     0.4192  -999.2500     2.1704
 1553.5000     0.4612  -999.2500     2.1877
 1554.0000     0.4927  -999.2500     2.2050
 1554.5000     0.5034  -999.2500     2.2223
 1555.0000     0.4723  -999.2500     2.2396
 1555.5000     0.4621  -999.2500     2.2569
 1556.0000     0.4311  -999.2500     2.2741
 1556.5000     0.4209  -999.2500     2.2914
 1557.0000     0.4108  -999.2500     2.3087
 1557.5000     0.4110  -999.2500     2.3260
 1558.0000     0.4008  -999.2500     2.3433
 1558.5000     0.4011  -999.2500     2.3606
 1559.0000     0.3909  -999.2500     2.3779
 1559.5000     0.3912  -999.2500     2.3952
 1560.0000     0.3915  -999.2500     2.4125
 1560.5000     0.3917  -999.2500     2.4298
 1561.0000     0.3920  -999.2500     2.4471
 1561.5000     0.3923  -999.2500     2.4644
 1562.0000     0.3925  -999.2500     2.4817
 1562.5000     0.3928  -999.2500     2.4989
 1563.0000     0.3825  -999.2500     2.5162
 1563.5000     0.3829  -999.2500     2.5335
 1564.0000     0.3831  -999.2500     2.5508
 1564.5000     0.3834  -999.2500     2.5681
 1565.0000     0.3837  -999.2500     2.5854
 1565.5000     0.3839  -999.2500     2.6027
 1566.0000     0.3842  -999.2500     2.6200
 1566.5000     0.4262  -999.2500     2.6373
 1567.0000     0.4682  -999.2500     2.6546
 1567.5000     0.5207  -999.2500     2.6719
 1568.0000     0.5417  -999.2500     2.6892
 1568.5000     0.4794  -999.2500     2.7064
 1569.0000     0.4379  -999.2500     2.7237
 1569.5000     0.4069  -999.2500     2.7410
 1570.0000     0.3862  -999.2500     2.7583
 1570.5000     0.3760  -999.2500     2.7756
 1571.0000     0.3554  -999.2500     2.7929
 1571.5000     0.3557  -999.2500     2.8102
 1572.0000     0.3560  -999.2500     2.8275
 1572.5000     0.3562  -999.2500     2.8448
 1573.0000     0.3565  -999.2500     2.8621
 1573.5000     0.3776  -999.2500     2.8794
 1574.0000     0.3779  -999.2500     2.8967
 1574.5000     0.3782  -999.2500     2.9139
 1575.0000     0.3889  -999.2500     2.9312
 1575.5000     0.3891  -999.2500     2.9485
 1576.0000     0.3894  -999.2500     2.9658
 1576.5000     0.3897  -999.2500     2.9831
 1577.0000     0.4317  -999.2500     3.0004
 1577.5000     0.4737  -999.2500     3.0177
 1578.0000     0.5157  -999.2500     3.0350
 1578.5000     0.5264  -999.2500     3.0523
 1579.0000     0.5161  -999.2500     3.0696
 1579.5000     0.4851  -999.2500     3.0869
 1580.0000     0.4645  -999.2500     3.1042
 1580.5000     0.4438  -999.2500     3.1214
 1581.0000     0.4337  -999.2500     3.1387
 1581.5000     0.4450  -999.2500     3.1560
 1582.0000     0.5178  -999.2500     3.1733
 1582.5000     0.5598  -999.2500     3.1906
 1583.0000     0.5705  -999.2500     3.2079
 1583.5000     0.5602  -999.2500     3.2252
 1584.0000     0.5606  -999.2500     3.2425
 1584.5000     0.5295  -999.2500     3.2598
 1585.0000     0.5193  -999.2500     3.2771
 1585.5000     0.5196  -999.2500     3.2944
 1586.0000     0.5094  -999.2500     3.3117
 1586.5000     0.4887  -999.2500     3.3289
 1587.0000     0.4891  -999.2500     3.3462
 1587.5000     0.4893  -999.2500     3.3635
 1588.0000     0.5209  -999.2500     3.3808
 1588.5000     0.5212  -999.2500     3.3981
 1589.0000     0.5528  -999.2500     3.4154
 1589.5000     0.5739  -999.2500     3.4327
 1590.0000     0.6054  -999.2500     3.4500
 1590.5000     0.6162  -999.2500     3.4673
 1591.0000     0.6164  -999.2500     3.4846
 1591.5000     0.6062  -999.2500     3.5019
 1592.0000     0.6065  -999.2500     3.5192
 1592.5000     0.5650  -999.2500     3.5364
 1593.0000     0.5235  -999.2500     3.5537
 1593.5000     0.4820  -999.2500     3.5710
 1594.0000     0.4405  -999.2500     3.5883
 1594.5000     0.4094  -999.2500     3.6056
 1595.0000     0.3992  -999.2500     3.6229
 1595.5000     0.3890  -999.2500     3.6402
 1596.0000     0.3685  -999.2500     3.6575
 1596.5000     0.3688  -999.2500     3.6748
 1597.0000     0.3585  -999.2500     3.6921
 1597.5000     0.3589  -999.2500     3.7094
 1598.0000     0.3591  -999.2500     3.7267
 1598.5000     0.3489  -999.2500     3.7440
 1599.0000     0.3492  -999.2500     3.7612
 1599.5000     0.3599  -999.2500     3.7785
 1600.0000     0.3706  -999.2500     3.7958
 1600.5000     0.4022  -999.2500     3.8131
 1601.0000     0.4442  -999.2500     3.8277
 1601.5000     0.5175  -999.2500     3.8073
 1602.0000     0.5700  -999.2500     3.7896
 1602.5000     0.5807  -999.2500     3.7718
 1603.0000     0.6122  -999.2500     3.7541
 1603.5000     0.5998  -999.2500     3.7364
 1604.0000     0.5789  -999.2500     3.7186
 1604.5000     0.5267  -999.2500     3.7009
 1605.0000     0.4849  -999.2500     3.6832
 1605.5000     0.4430  -999.2500     3.6654
 1606.0000     0.4326  -999.2500     3.6477
 1606.5000     0.4116  -999.2500     3.6300
 1607.0000     0.4011  -999.2500     3.6122
 1607.5000     0.3698  -999.2500     3.5945
 1608.0000     0.3697  -999.2500     3.5768
 1608.5000     0.3592  -999.2500     3.5590
 1609.0000     0.3592  -999.2500     3.5413
 1609.5000     0.3487  -999.2500     3.5236
 1610.0000     0.3278  -999.2500     3.5059
 1610.5000     0.3277  -999.2500     3.4881
 1611.0000     0.3172  -999.2500     3.4704
 1611.5000     0.3172  -999.2500     3.4527
 1612.0000     0.3171  -999.2500     3.4349
 1612.5000     0.3275  -999.2500     3.4172
 1613.0000     0.3588  -999.2500     3.3995
 1613.5000     0.3691  -999.2500     3.3817
 1614.0000     0.4004  -999.2500     3.3640
 1614.5000     0.4108  -999.2500     3.3463
 1615.0000     0.4421  -999.2500     3.3285
 1615.5000     0.4733  -999.2500     3.3108
 1616.0000     0.4837  -999.2500     3.2931
 1616.5000     0.4941  -999.2500     3.2754
 1617.0000     0.4836  -999.2500     3.2576
 1617.5000     0.4418  -999.2500     3.2399
 1618.0000     0.4310  -999.2500     3.2222
 1618.5000     0.4104  -999.2500     3.2044
 1619.0000     0.3999  -999.2500     3.1867
 1619.5000     0.3998  -999.2500     3.1690
 1620.0000     0.3998  -999.2500     3.1512
 1620.5000     0.3893  -999.2500     3.1335
 1621.0000     0.3684  -999.2500     3.1158
 1621.5000     0.3579  -999.2500     3.0980
 1622.0000     0.3578  -999.2500     3.0803
 1622.5000     0.3682  -999.2500     3.0626
 1623.0000     0.3682  -999.2500     3.0448
 1623.5000     0.3681  -999.2500     3.0271
