~VERSION INFORMATION
 VERS.                2.0:   CWLS LOG ASCII STANDARD - VERSION 2.0
 WRAP.                 NO:   ONE LINE PER DEPTH STEP
~WELL INFORMATION
#MNEM.UNIT      DATA TYPE    INFORMATION
#----------   ------------   ------------------------------
 STRT.F          610.5000:   START DEPTH
 STOP.F         2311.0000:   STOP DEPTH
 STEP.F            0.5000:   STEP LENGTH
 NULL.          -999.2500:   NO VALUE
 COMP. BROWN JOHN E&C INC:   COMPANY
 WELL.  48-1SHX-34 #48-34:   WELL
 FLD .             TEAPOT:   FIELD
 LOC .      S34 T39N R78W:   LOCATION
 CNTY.            NATRONA:   COUNTY
 STAT.            WYOMING:   STATE
 CTRY. UNITED STATES OF AMERICA:   COUNTRY
 SRVC.            Unknown:   SERVICE COMPANY
 DATE.        16-SEP-1991:   LOGDATE
 API .       490251109000:   API NUMBER
~CURVE INFORMATION
#MNEM.UNIT       API CODE    CURVE DESCRIPTION
#----------   ------------   ------------------------------
 DEPT.F                  :   
 ROP .MIN/FT 91 810 01 00:   RAT OF DRILLING PENETRATION
 TGAS.UNITS  91 830 01 00:   TOTAL GAS FROM HOTWIRE
~PARAMETER INFORMATION
#MNEM.UNIT          VALUE    DESCRIPTION
#----------   ------------   ------------------------------
 EKB .F              5163:   KELLING BUSHING
 EGL .F              5152:   GROUND LEVEL
 DATE.            9-16-91:   RUN DATE
 DD  .F              2311:   DEPTH DRILLER
 TCS .HRS            0200:   TIME CURCULATED STOPPED
 TLAB.HRS            0115:   TIME LOGGER AT BOTTOM
 ENGI.             HENDRY:   RECORDING ENGINEER
 WITN.               HUSK:   WITNESSED BY
 CLNT.            A2DTECH:   CLIENT CODE
 ORIG.           5" PRINT:   ORIGIN OF DATA
 UWI .       490251109000:   UNIQUE WELL ID
 DICO. A2D Technologies, Inc.:   DIGITIZING COMPANY
~OTHER INFORMATION
~A   DEPT        ROP       TGAS 
  610.5000     1.9355     1.7930
  611.0000     1.8914     1.8246
  611.5000     1.8599     1.8562
  612.0000     1.8266     1.8815
  612.5000     1.8244     1.9131
  613.0000     1.8218     1.9447
  613.5000     1.8191     1.9763
  614.0000     1.8168     2.0079
  614.5000     1.7476     2.0395
  615.0000     1.6200     2.0711
  615.5000     1.4921     2.1026
  616.0000     1.3645     2.1342
  616.5000     1.2379     2.1658
  617.0000     1.1603     2.1974
  617.5000     1.0793     2.2291
  618.0000     0.9982     2.2617
  618.5000     0.9223     2.2688
  619.0000     0.8812     2.2690
  619.5000     0.8421     2.2689
  620.0000     0.8031     2.2689
  620.5000     0.7938     2.2689
  621.0000     0.7890     2.2689
  621.5000     0.7871     2.2689
  622.0000     0.8320     2.2689
  622.5000     0.8765     2.2689
  623.0000     0.9578     2.2689
  623.5000     1.0447     2.2689
  624.0000     1.1319     2.2689
  624.5000     1.2190     2.2689
  625.0000     1.3062     2.2689
  625.5000     1.3930     2.2689
  626.0000     1.4659     2.2689
  626.5000     1.4298     2.2689
  627.0000     1.3748     2.2689
  627.5000     1.3285     2.2689
  628.0000     1.2837     2.2689
  628.5000     1.2387     2.2689
  629.0000     1.2117     2.2689
  629.5000     1.1679     2.2689
  630.0000     1.1099     2.2689
  630.5000     1.0498     2.2689
  631.0000     1.0366     2.2689
  631.5000     1.0361     2.2689
  632.0000     1.0203     2.2689
  632.5000     0.9671     2.2689
  633.0000     0.9146     2.2689
  633.5000     0.8619     2.2689
  634.0000     0.8324     2.2689
  634.5000     0.8265     2.2689
  635.0000     0.8207     2.2689
  635.5000     0.8146     2.2689
  636.0000     0.8005     2.2689
  636.5000     0.7576     2.2689
  637.0000     0.7174     2.2689
  637.5000     0.6413     2.2689
  638.0000     0.5920     2.2689
  638.5000     0.5879     2.2689
  639.0000     0.6766     2.2689
  639.5000     0.7290     2.2689
  640.0000     0.7505     2.2689
  640.5000     0.7568     2.2688
  641.0000     0.7635     2.2689
  641.5000     0.7697     2.2696
  642.0000     0.8044     2.3061
  642.5000     0.8567     2.3870
  643.0000     0.9095     2.4673
  643.5000     0.9636     2.5478
  644.0000     0.9594     2.6284
  644.5000     0.9212     2.7089
  645.0000     0.8438     2.7894
  645.5000     0.8064     2.8699
  646.0000     0.7977     2.9504
  646.5000     0.7896     3.0309
  647.0000     0.7817     3.1115
  647.5000     0.7737     3.1926
  648.0000     0.7654     3.2737
  648.5000     0.7388     3.2779
  649.0000     0.6700     3.2774
  649.5000     0.6069     3.2773
  650.0000     0.6025     3.2773
  650.5000     0.5971     3.2773
  651.0000     0.6307     3.2773
  651.5000     0.7032     3.2773
  652.0000     0.7799     3.2773
  652.5000     0.7882     3.2773
  653.0000     0.7705     3.2773
  653.5000     0.7514     3.2773
  654.0000     0.7560     3.2773
  654.5000     0.8156     3.2773
  655.0000     0.8913     3.2773
  655.5000     0.9700     3.2773
  656.0000     0.9599     3.2773
  656.5000     0.9253     3.2773
  657.0000     0.8900     3.2773
  657.5000     0.8549     3.2773
  658.0000     0.8202     3.2773
  658.5000     0.7974     3.2773
  659.0000     0.7978     3.2773
  659.5000     0.7977     3.2773
  660.0000     0.7977     3.2773
  660.5000     0.7977     3.2773
  661.0000     0.7974     3.2773
  661.5000     0.8102     3.2773
  662.0000     0.8261     3.2773
  662.5000     0.8545     3.2773
  663.0000     0.9034     3.2773
  663.5000     0.9523     3.2773
  664.0000     0.9738     3.2773
  664.5000     0.9897     3.2773
  665.0000     1.0054     3.2773
  665.5000     1.0214     3.2773
  666.0000     1.0241     3.2772
  666.5000     1.0238     3.2773
  667.0000     1.0090     3.2821
  667.5000     0.9350     3.3108
  668.0000     0.8630     3.3392
  668.5000     0.8220     3.3675
  669.0000     0.8211     3.3958
  669.5000     0.8197     3.4241
  670.0000     0.8185     3.4524
  670.5000     0.8173     3.4807
  671.0000     0.8160     3.5090
  671.5000     0.8147     3.5373
  672.0000     0.8135     3.5656
  672.5000     0.8122     3.5939
  673.0000     0.8111     3.6222
  673.5000     0.8179     3.6505
  674.0000     0.8336     3.6788
  674.5000     0.8496     3.7072
  675.0000     0.8758     3.7355
  675.5000     0.9371     3.7633
  676.0000     0.9952     3.7703
  676.5000     1.0371     3.7380
  677.0000     1.0362     3.7063
  677.5000     1.0435     3.6746
  678.0000     1.1026     3.6429
  678.5000     1.1623     3.6112
  679.0000     1.2240     3.5795
  679.5000     1.2305     3.5478
  680.0000     1.2021     3.5160
  680.5000     1.1316     3.4843
  681.0000     1.0620     3.4526
  681.5000     0.9920     3.4209
  682.0000     0.9459     3.3892
  682.5000     0.9164     3.3575
  683.0000     0.9198     3.3258
  683.5000     0.9315     3.2941
  684.0000     0.9434     3.2624
  684.5000     0.9553     3.2307
  685.0000     0.9672     3.1989
  685.5000     0.9785     3.1672
  686.0000     0.9654     3.1355
  686.5000     0.9095     3.1038
  687.0000     0.8545     3.0721
  687.5000     0.8072     3.0404
  688.0000     0.7968     3.0087
  688.5000     0.7858     2.9770
  689.0000     0.7747     2.9453
  689.5000     0.7636     2.9136
  690.0000     0.7525     2.8818
  690.5000     0.7408     2.8501
  691.0000     0.7057     2.8185
  691.5000     0.6368     2.7864
  692.0000     0.5847     2.7918
  692.5000     0.5944     2.8235
  693.0000     0.6285     2.8556
  693.5000     0.6663     2.8877
  694.0000     0.7042     2.9198
  694.5000     0.7423     2.9519
  695.0000     0.7808     2.9840
  695.5000     0.7582     3.0161
  696.0000     0.7256     3.0482
  696.5000     0.6927     3.0803
  697.0000     0.6597     3.1124
  697.5000     0.6269     3.1445
  698.0000     0.5963     3.1766
  698.5000     0.6373     3.2087
  699.0000     0.6949     3.2400
  699.5000     0.7469     3.2674
  700.0000     0.7531     3.4770
  700.5000     0.7588     3.7088
  701.0000     0.7647     3.9414
  701.5000     0.7708     4.1735
  702.0000     0.7718     4.4056
  702.5000     0.7708     4.6377
  703.0000     0.7697     4.8704
  703.5000     0.7687     5.1022
  704.0000     0.7676     5.2985
  704.5000     0.7665     5.2608
  705.0000     0.7654     5.2245
  705.5000     0.7643     5.1889
  706.0000     0.7633     5.1534
  706.5000     0.7620     5.1179
  707.0000     0.7610     5.0824
  707.5000     0.7611     5.0468
  708.0000     0.8909     5.0113
  708.5000     1.1863     4.9758
  709.0000     1.4807     4.9403
  709.5000     1.7714     4.9048
  710.0000     1.9096     4.8693
  710.5000     2.0415     4.8337
  711.0000     2.1768     4.7982
  711.5000     2.2368     4.7627
  712.0000     2.2552     4.7272
  712.5000     2.2319     4.6917
  713.0000     2.1789     4.6562
  713.5000     2.1018     4.6206
  714.0000     2.0652     4.5851
  714.5000     2.1582     4.5496
  715.0000     2.2835     4.5141
  715.5000     2.4121     4.4786
  716.0000     2.5028     4.4431
  716.5000     2.3123     4.4075
  717.0000     2.0680     4.3720
  717.5000     1.8172     4.3366
  718.0000     1.6424     4.3005
  718.5000     1.6126     4.3161
  719.0000     1.6824     4.3681
  719.5000     1.7482     4.4206
  720.0000     1.7792     4.4731
  720.5000     1.7076     4.5256
  721.0000     1.5241     4.5782
  721.5000     1.3507     4.6307
  722.0000     1.3506     4.6832
  722.5000     1.4519     4.7361
  723.0000     1.5513     4.7876
  723.5000     1.6520     4.7774
  724.0000     1.7660     4.7638
  724.5000     1.7721     4.7503
  725.0000     1.3958     4.7370
  725.5000     1.1422     4.7236
  726.0000     0.9393     4.7103
  726.5000     0.8217     4.6970
  727.0000     0.7741     4.6836
  727.5000     0.7747     4.6703
  728.0000     0.7760     4.6569
  728.5000     0.7775     4.6436
  729.0000     0.7788     4.6302
  729.5000     0.7802     4.6169
  730.0000     0.7815     4.6036
  730.5000     0.7829     4.5902
  731.0000     0.7843     4.5769
  731.5000     0.7856     4.5635
