~VERSION INFORMATION
 VERS.                2.0:   CWLS LOG ASCII STANDARD - VERSION 2.0
 WRAP.                 NO:   ONE LINE PER DEPTH STEP
~WELL INFORMATION
#MNEM.UNIT      DATA TYPE    INFORMATION
#----------   ------------   ------------------------------
 STRT.F            0.0000:   START DEPTH
 STOP.F          652.0000:   STOP DEPTH
 STEP.F            0.5000:   STEP LENGTH
 NULL.          -999.2500:   NO VALUE
 COMP. US DEPTMNT OF ENRGY:   COMPANY
 WELL. NPR ##3 14-14-SX-11:   WELL
 FLD .   TEAPOT NAVAL RES:   FIELD
 LOC .      S11 T38N R78W:   LOCATION
 CNTY.            NATRONA:   COUNTY
 STAT.            WYOMING:   STATE
 CTRY. UNITED STATES OF AMERICA:   COUNTRY
 SRVC.            Unknown:   SERVICE COMPANY
 DATE.        03-JAN-1985:   LOGDATE
 API .       490251102400:   API NUMBER
~CURVE INFORMATION
#MNEM.UNIT       API CODE    CURVE DESCRIPTION
#----------   ------------   ------------------------------
 DEPT.F                  :   
 CALD.IN     45 280 60 00:   CALIPER
 CORR.G/C3   45 356 01 00:   DENSITY CORRECTION
 PORD.DEC    45 890 12 00:   DENSITY POROSITY SANDSTONE
 CNC .DEC    42 890 03 00:   NEUTRON POROSITY SANDSTONE
 SPR .MV     11 010 01 00:   SPONTANEOUS POTENTIAL FROM RES.
 GRR .GAPI   11 310 01 00:   GAMMA RAY FROM RES.
 RS  .OHMM   11 220 09 00:   RESISTIVITY SHALLOW
 RD  .OHMM   11 220 10 00:   RESISTIVITY DEEP
 DEN .G/C3   45 350 01 00:   COMPENSATED BULK DENSTIY
~PARAMETER INFORMATION
#MNEM.UNIT          VALUE    DESCRIPTION
#----------   ------------   ------------------------------
 PD  .                 GL:   PERMANENT DATUM
 EPD .F            5197.3:   ELEVATION PERMANENT DATUM
 LMF .                 KB:   LOG MEASURED FROM
 DMF .                 KB:   DRILLING MEASURED FROM
 EKB .F            5197.3:   KELLING BUSHING
 EGL .F            5197.3:   GROUND LEVEL
 DATE.         3-JAN-1985:   RUN DATE
 RUN .                  1:   RUN NUMBER
 DD  .F               650:   DEPTH DRILLER
 DL  .F               653:   DEPTH LOGGER
 BLI .F               651:   BOTTOM LOG INTERVAL
 CS  .IN            8.625:   CASING SIZE
 CBD .F                20:   CASING BOTTOM DRILLER
 CBL .F                20:   CASING BOTTOM LOGGER
 BS  .IN             6.25:   BIT SIZE
 BSD .F               650:   BIT SIZE AT DEPTH
 DFT .                KCL:   DRILLING FLUID TYPE
 RMS .OHMM            .12:   RESISTIVITY MUD SAMPLE
 MST .F                70:   MUD SAMPLE TEMPERATURE
 RMF .OHMM            .09:   RESISTIVITY MUD FILTRATE SAMPLE
 MFST.F                70:   MUD FILTRATE SAMPLE TEMPERATURE
 RMC .OHMM            .15:   RESISTIVITY MUD CAKE
 MCST.F                70:   MUD CAKE SAMPLE TEMPERATURE
 MFSS.               CALC:   MUD FILTRATE SAMPLE SOURCE
 MCSS.               CALC:   MUD CAKE SAMPLE SOURCE
 RMB .OHMM             .1:   RESISTIVITY MUD AT BHT
 BHT .F                80:   BOTTOM HOLE TEMPERATURE
 TCS .HRS               3:   TIME CURCULATED STOPPED
 MRT .F                80:   MAXIMUM RECORDED TEMPERATURE
 LUN .               6274:   LOGGING UNIT NUMBER
 LUL .               GLTE:   LOGGING UNIT LOCATION
 ENGI.               MACK:   RECORDING ENGINEER
 WITN.               PAGE:   WITNESSED BY
 CLNT.            A2DTECH:   CLIENT CODE
 ORIG.       2", 5" PRINT:   ORIGIN OF DATA
 UWI .       490251102400:   UNIQUE WELL ID
 DICO. A2D Technologies, Inc.:   DIGITIZING COMPANY
~OTHER INFORMATION
~A    DEPT    CALD       CORR       PORD        CNC        SPR         GRR        RS         RD        DEN   
# ...
  219.0000     6.5276     0.0282     0.1198     0.2564   -48.6132   103.5835    12.4600    17.8598     2.4761
  219.5000     6.5273     0.0627     0.1161     0.2667   -48.6195   103.6445    12.3089    17.7067     2.4817
  220.0000     6.5271     0.0788     0.1127     0.2767   -48.6409   103.7890    12.1997    17.5548     2.4875
  220.5000     6.5268     0.0470     0.1161     0.2771   -48.6618   103.9385    12.1058    17.4043     2.4834
  221.0000     6.5265     0.0310     0.1205     0.2589   -48.6824   103.7095    12.0126    17.2550     2.4740
  221.5000     6.5262     0.0404     0.1248     0.2490   -48.7030   103.2893    11.9201    17.1071     2.4670
  222.0000     6.5259     0.0498     0.1279     0.2522   -48.7236   102.9059    11.8283    16.9604     2.4671
  222.5000     6.5256     0.0425     0.1271     0.2557   -48.7442   100.2183    11.7416    16.8149     2.4662
  223.0000     6.5254     0.0337     0.1274     0.2556   -48.7649    97.2526    11.6041    16.6707     2.4634
  223.5000     6.5251     0.0267     0.1294     0.2445   -48.7855    96.3695    11.6066    16.5278     2.4614
  224.0000     6.5248     0.0300     0.1289     0.2413   -48.8061    96.1992    11.6090    16.3283     2.4640
  224.5000     6.5245     0.0321     0.1281     0.2444   -48.8267    96.0587    11.6559    16.3603     2.4640
  225.0000     6.5242     0.0194     0.1296     0.2444   -48.8473    96.6250    11.7767    16.4146     2.4609
  225.5000     6.5240     0.0106     0.1310     0.2422   -48.8679    97.9830    11.8987    16.4690     2.4597
  226.0000     6.5237     0.0219     0.1302     0.2401   -48.8886    99.3323    12.0219    16.5237     2.4613
  226.5000     6.5234     0.0228     0.1287     0.2397   -48.9092    99.5428    12.0451    16.5785     2.4601
  227.0000     6.5231     0.0147     0.1337     0.2389   -48.9298    99.5732    11.7641    16.6322     2.4502
  227.5000     6.5228     0.0130     0.1386     0.2388   -48.9504   100.2913    11.5024    16.4149     2.4425
  228.0000     6.5225     0.0340     0.1402     0.2514   -48.9710   100.6735    11.3597    16.1553     2.4465
  228.5000     6.5223     0.0491     0.1341     0.2665   -48.9916   100.3254    11.2028    15.8998     2.4556
  229.0000     6.5220     0.0473     0.1298     0.2704   -49.0123    99.9902    11.0480    15.6483     2.4623
  229.5000     6.5217     0.0440     0.1259     0.2604   -49.0329    99.6530    10.8954    15.4009     2.4670
  230.0000     6.5214     0.0467     0.1223     0.2533   -49.0535    99.3163    10.7793    15.1573     2.4734
  230.5000     6.5211     0.0454     0.1188     0.2512   -49.0741    98.9795    10.6793    15.0282     2.4800
  231.0000     6.5208     0.0437     0.1155     0.2503   -49.0947    98.6396    10.6802    15.0579     2.4859
  231.5000     6.5206     0.0425     0.1158     0.2501   -49.1153    98.2908    10.7606    15.0859     2.4854
  232.0000     6.5202     0.0474     0.1170     0.2538   -49.1360    98.0538    10.8317    15.1139     2.4815
  232.5000     6.5108     0.0605     0.1191     0.2568   -49.1562   100.0298    10.8824    15.1419     2.4790
  233.0000     6.5004     0.0734     0.1183     0.2568   -49.1787   101.8344    10.6686    15.1674     2.4785
  233.5000     6.4901     0.0723     0.1187     0.2589   -49.2042    99.4100    10.5052    14.9172     2.4781
  234.0000     6.4802     0.0585     0.1219     0.2631   -49.4326    97.5794    10.3440    14.6418     2.4730
  234.5000     6.4850     0.0483     0.1259     0.2660   -49.4678    99.7242    10.1854    14.3534     2.4653
  235.0000     6.4905     0.0494     0.1286     0.2652   -49.5079   104.5925    10.0168    14.2705     2.4618
  235.5000     6.4959     0.0502     0.1276     0.2636   -49.5526   107.0895    10.0782    14.1621     2.4649
  236.0000     6.5013     0.0510     0.1255     0.2643   -49.5938   106.8059    10.1333    14.0530     2.4679
  236.5000     6.5068     0.0518     0.1263     0.2659   -49.7727   107.7347    10.2029    13.9448     2.4641
  237.0000     6.5121     0.0509     0.1271     0.2662   -50.0056   109.0780    10.0447    13.8375     2.4654
  237.5000     6.5176     0.0463     0.1253     0.2660   -50.2415   108.1909     9.8367    13.7309     2.4684
  238.0000     6.5207     0.0424     0.1230     0.2730   -50.4774   107.0511     9.7419    13.5788     2.4715
  238.5000     6.5219     0.0451     0.1213     0.2807   -50.7135   105.8636     9.8621    13.6317     2.4746
  239.0000     6.5229     0.0414     0.1228     0.2799   -50.9595   105.3146     9.9876    13.7268     2.4747
  239.5000     6.5240     0.0172     0.1300     0.2713   -50.9429   105.0415    10.0168    13.8227     2.4600
  240.0000     6.5251    -0.0066     0.1408     0.2625   -50.8479   103.0098    10.0168    13.9596     2.4423
  240.5000     6.5261    -0.0169     0.1490     0.2588   -50.7510   100.6283    10.0168    13.9361     2.4286
  241.0000     6.5272     0.0115     0.1415     0.2608   -50.6559    99.2176     9.8338    13.8958     2.4399
  241.5000     6.5283     0.0352     0.1337     0.2689   -50.7197    99.1671     9.8338    13.8556     2.4538
  242.0000     6.5294     0.0552     0.1277     0.2771   -51.0250    99.2299     9.9183    13.8156     2.4646
  242.5000     6.5304     0.0639     0.1288     0.2799   -51.3279   100.1451    10.0250    13.7760     2.4633
  243.0000     6.5315     0.0562     0.1291     0.2806   -51.6311   105.3119    10.1096    13.7350     2.4631
  243.5000     6.5326     0.0516     0.1282     0.2700   -51.9342   108.6766     9.7465    13.6154     2.4631
  244.0000     6.5336     0.0498     0.1285     0.2676   -52.2373   109.5543     9.3607    13.1931     2.4632
  244.5000     6.5347     0.0485     0.1294     0.2805   -52.5404   107.5717     8.9902    12.7819     2.4609
  245.0000     6.5358     0.0416     0.1315     0.2926   -52.8438   106.4284     8.6343    12.0155     2.4579
  245.5000     6.5368     0.0325     0.1355     0.2859   -53.1468   106.6844     8.2925    11.2951     2.4512
  246.0000     6.5379     0.0234     0.1396     0.2753   -53.4471   106.0233     7.9642    11.0916     2.4433
  246.5000     6.5390     0.0150     0.1422     0.2691   -53.5324   103.5442     7.6668    10.8834     2.4380
  247.0000     6.5401     0.0235     0.1446     0.2727   -53.3276   101.1676     8.0240    11.0969     2.4343
  247.5000     6.5405     0.0320     0.1458     0.2803   -53.1264   103.2661     8.3771    11.2697     2.4321
  248.0000     6.5405     0.0241     0.1426     0.2859   -52.9241   107.8700     8.6430    11.4454     2.4370
  248.5000     6.5405     0.0194     0.1385     0.2871   -52.7221   111.2910     8.5992    11.6251     2.4444
  249.0000     6.5405     0.0217     0.1344     0.2756   -52.5199   110.5296     8.5495    11.8004     2.4519
  249.5000     6.5405     0.0203     0.1307     0.2675   -52.3186   109.7475     8.4851    11.9867     2.4592
  250.0000     6.5405     0.0156     0.1282     0.2636   -52.1159   109.0344     8.8344    12.0628     2.4623
  250.5000     6.5354     0.0126     0.1256     0.2681   -52.0174   108.4313     9.3033    12.1393     2.4660
  251.0000     6.5298     0.0313     0.1229     0.2771   -52.0156   108.8004     9.2214    12.2163     2.4698
  251.5000     6.5242     0.0503     0.1211     0.2811   -52.0155   110.1680     9.1482    12.2692     2.4731
  252.0000     6.5202     0.0542     0.1207     0.2783   -52.0163   111.2760     9.0745    12.3216     2.4764
  252.5000     6.5202     0.0474     0.1207     0.2753   -52.0164   108.2192     8.9677    12.3829     2.4784
  253.0000     6.5202     0.0404     0.1203     0.2724   -51.9715   105.0471     9.0632    12.6214     2.4740
  253.5000     6.5202     0.0351     0.1229     0.2703   -51.6344   105.7641     9.2637    12.9994     2.4698
  254.0000     6.5202     0.0323     0.1256     0.2684   -51.2975   107.5628     9.5820    13.4542     2.4655
  254.5000     6.5202     0.0295     0.1282     0.2693   -51.0058   108.1270     9.9232    13.4947     2.4641
  255.0000     6.5202     0.0266     0.1281     0.2733   -51.0318   105.4018     9.9480    13.5685     2.4641
