~VERSION INFORMATION
 VERS.                2.0:   CWLS LOG ASCII STANDARD - VERSION 2.0
 WRAP.                 NO:   ONE LINE PER DEPTH STEP
~WELL INFORMATION
#MNEM.UNIT      DATA TYPE    INFORMATION
#----------   ------------   ------------------------------
 STRT.F           46.0000:   START DEPTH
 STOP.F          670.0000:   STOP DEPTH
 STEP.F            0.5000:   STEP LENGTH
 NULL.          -999.2500:   NO VALUE
 COMP. FENIX & SCISSON INC:   COMPANY
 WELL. TEAPOT #27 62SX 11WI-11:   WELL
 FLD .             TEAPOT:   FIELD
 LOC .      S11 T38N R78W:   LOCATION
 CNTY.            NATRONA:   COUNTY
 STAT.            WYOMING:   STATE
 CTRY. UNITED STATES OF AMERICA:   COUNTRY
 SRVC.      Dresser Atlas:   SERVICE COMPANY
 DATE.        27-JUL-1980:   LOGDATE
 API .       490251084000:   API NUMBER
~CURVE INFORMATION
#MNEM.UNIT       API CODE    CURVE DESCRIPTION
#----------   ------------   ------------------------------
 DEPT.F                  :   
 GRD .GAPI   45 310 01 00:   GAMMA RAY FROM DENSITY LOG
 RHOB.G/C3   45 350 01 00:   BULK DENSITY
 CORR.G/C3   45 356 01 00:   DENSITY CORRECTION
 CALD.IN     45 280 60 00:   CALIPER
 DPOR.DEC    45 890 12 00:   DENSITY POROSITY SANDSTONE
 SPR .MV     07 010 01 00:   SPONTANEOUS POTENTIAL
 SFL .OHMM   07 220 01 00:   SHALLOW FOCUSED LOG RESISTIVITY
 ILD .OHMM   07 120 46 00:   INDUCTION LOG DEEP
 ILM .OHMM   07 120 44 00:   INDUCTION LOG MEDIUM
~PARAMETER INFORMATION
#MNEM.UNIT          VALUE    DESCRIPTION
#----------   ------------   ------------------------------
 PD  .                 GL:   PERMANENT DATUM
 EPD .F              5186:   ELEVATION PERMANENT DATUM
 LMF .                 KB:   LOG MEASURED FROM
 DAPD.F                 5:   FEET ABOVE PERMANENT DATUM
 DMF .                 KB:   DRILLING MEASURED FROM
 EKB .F              5191:   KELLING BUSHING
 EGL .F              5186:   GROUND LEVEL
 DATE.            7-27-80:   RUN DATE
 RUN .                  1:   RUN NUMBER
 DD  .F               660:   DEPTH DRILLER
 DL  .F               663:   DEPTH LOGGER
 BLI .F               661:   BOTTOM LOG INTERVAL
 TLI .F                46:   TOP LOG INTERVAL
 BS  .IN            7.875:   BIT SIZE
 BSD .F               660:   BIT SIZE AT DEPTH
 DFT .           CHEM GEL:   DRILLING FLUID TYPE
 DFD .                9.5:   DRILLING FLUID DENSITY
 DFV .                 50:   DRILLING FLUID VISCOSITY
 DFPH.                 11:   DRILLING FLUID PH
 DFL .                  6:   DRILLING FLUID LOSS
 MSS .           FLOWLINE:   MUD SAMPLE SOURCE
 RMS .OHMM            .08:   RESISTIVITY MUD SAMPLE
 MST .F                70:   MUD SAMPLE TEMPERATURE
 RMC .OHMM            .08:   RESISTIVITY MUD CAKE
 MCST.F                70:   MUD CAKE SAMPLE TEMPERATURE
 MFSS.               MEAS:   MUD FILTRATE SAMPLE SOURCE
 MCSS.               MEAS:   MUD CAKE SAMPLE SOURCE
 RMB .OHMM            .06:   RESISTIVITY MUD AT BHT
 BHT .F                90:   BOTTOM HOLE TEMPERATURE
 TCS .HRS               5:   TIME CURCULATED STOPPED
 MRT .F                90:   MAXIMUM RECORDED TEMPERATURE
 LUN .               6145:   LOGGING UNIT NUMBER
 LUL .              GLTTE:   LOGGING UNIT LOCATION
 ENGI.              HENRY:   RECORDING ENGINEER
 WITN.              AMEND:   WITNESSED BY
 CLNT.            A2DTECH:   CLIENT CODE
 ORIG.       2", 5" PRINT:   ORIGIN OF DATA
 UWI .       490251084000:   UNIQUE WELL ID
 DICO. A2D Technologies, Inc.:   DIGITIZING COMPANY
~OTHER INFORMATION
~A   DEPT      GRD       RHOB       CORR       CALD       DPOR        SPR          SFL        ILD      ILM   
# ...
  630.0000    92.6297     2.5196     0.0244     8.4575     0.0953   -43.0734    15.0321     9.8752    10.9974
  630.5000    91.6191     2.5233     0.0262     8.4605     0.0936   -43.0517    15.1757     9.9757    11.1311
  631.0000    91.3792     2.5178     0.0269     8.4635     0.0936   -43.0300    15.1757    10.0773    11.2691
  631.5000    91.0884     2.5075     0.0234     8.4722     0.0996   -43.0084    15.1757    10.1798    11.4089
  632.0000    89.6709     2.4973     0.0200     8.4882     0.1100   -42.9868    15.0986    10.2279    11.5352
  632.5000    88.7230     2.4905     0.0182     8.5043     0.1132   -42.9651    15.0244    10.2441    11.6165
  633.0000    89.2362     2.4890     0.0215     8.5200     0.1127   -42.9435    14.9505    10.2606    11.6984
  633.5000    91.8643     2.4948     0.0247     8.5818     0.1076   -42.9233    14.8781    10.2772    11.7809
  634.0000    93.2826     2.5016     0.0275     8.5854     0.1052   -42.9334    14.8085    10.2939    11.8374
  634.5000    94.4206     2.5004     0.0233     8.5851     0.1087   -42.4041    14.7394    10.3105    11.6561
  635.0000    94.8152     2.4870     0.0187     8.5836     0.1147   -41.8994    14.6705    10.1660    11.5208
  635.5000    95.1140     2.4841     0.0154     8.5234     0.1164   -41.4199    14.6020    10.0142    11.3869
  636.0000    95.2426     2.4903     0.0190     8.5210     0.1113   -40.9548    14.5342     9.8645    11.2533
  636.5000    95.3392     2.5001     0.0234     8.5171     0.1062   -41.0421    14.4338     9.7170    11.0056
  637.0000    95.4346     2.5042     0.0216     8.5130     0.1049   -41.1585    14.2884     9.5716    10.6980
  637.5000    95.5321     2.5068     0.0182     8.5089     0.1043   -41.2708    14.1444     9.4796    10.4029
  638.0000    95.5167     2.5049     0.0152     8.5052     0.1042   -41.2741    14.0019     9.4519    10.1247
  638.5000    95.4341     2.5034     0.0134     8.5074     0.1054   -41.1461    13.8609     9.4243     9.8538
  639.0000    95.3678     2.4981     0.0116     8.5098     0.1082   -41.0206    13.7212     9.3842     9.6267
  639.5000    95.3689     2.4922     0.0099     8.5122     0.1114   -40.9207    13.5830     9.1836     9.4888
  640.0000    95.3696     2.4885     0.0081     8.5146     0.1144   -40.8793    13.4491     8.9872     9.3532
  640.5000    95.3662     2.4880     0.0069     8.5170     0.1143   -40.8368    13.3351     8.7950     9.2195
  641.0000    95.6329     2.4884     0.0058     8.5195     0.1141   -40.7940    13.2193     8.6069     9.0875
  641.5000    96.4444     2.4887     0.0062     8.5219     0.1139   -40.7539    13.2193     8.4218     8.8998
  642.0000    97.8186     2.4874     0.0073     8.5244     0.1136   -40.5876    12.8879     8.2153     8.7531
  642.5000    98.7753     2.4878     0.0079     8.5230     0.1185   -40.3675    12.5629     8.0126     8.6079
  643.0000    98.5218     2.5025     0.0085     8.5203     0.1073   -40.1448    12.3474     7.8242     8.4651
  643.5000    98.2890     2.4957     0.0091     8.5176     0.1104   -39.9225    12.1678     7.4497     8.3247
  644.0000    98.1873     2.4901     0.0093     8.5148     0.1136   -39.7002    12.0648     7.0395     8.1866
  644.5000    99.2672     2.4959     0.0079     8.5121     0.1104   -39.4743    11.9116     6.4843     7.9781
  645.0000   100.4356     2.4881     0.0066     8.5094     0.1132   -39.1053    11.6130     5.9753     7.6815
  645.5000   101.6010     2.4854     0.0052     8.5066     0.1164   -38.5284    11.1860     5.5013     7.1428
  646.0000   102.7177     2.4931     0.0039     8.5010     0.1116   -37.9543    10.2504     5.1241     6.6013
  646.5000   102.7977     2.4621    -0.0007     8.4908     0.1216   -37.3762     8.8921     5.0792     6.1006
  647.0000   104.8820     2.4300    -0.0043     8.4807     0.1478   -36.7901     7.6815     5.0307     5.6438
  647.5000   108.8929     2.4030    -0.0080     8.4707     0.1651   -36.4292     6.6357     5.1152     5.4150
  648.0000   111.7724     2.3972    -0.0060     8.4670     0.1694   -36.8357     6.1594     5.1633     5.5665
  648.5000   114.0628     2.4400    -0.0001     8.4765     0.1434   -37.4306     8.0642     5.3536     6.0755
  649.0000   114.9723     2.4755     0.0057     8.4857     0.1226   -38.0792    11.1526     5.5665     6.6155
  649.5000   109.4963     2.5021     0.0115     8.4949     0.1064   -38.8033    14.0988     6.0280     6.9998
  650.0000   105.0840     2.5153     0.0173     8.5041     0.1016   -39.5301    13.2167     6.5276     7.3809
  650.5000   100.6031     2.5186     0.0233     8.5050     0.0963   -39.9138    12.9102     7.3793     7.8524
  651.0000    97.8627     2.5222     0.0248     8.5050     0.0889   -40.1546    12.8130     8.2683     8.3541
  651.5000    96.3993     2.5394     0.0337     8.5050     0.0814   -40.4048    12.7416     8.4329     8.9350
  652.0000    96.1821     2.5579     0.0399     8.5050     0.0726   -40.7088    13.0983     8.4755     9.1489
  652.5000    96.3169     2.5716     0.0324     8.5026     0.0659   -41.0122    13.0604     8.5183     8.6575
  653.0000    96.2054     2.5575     0.0238     8.4895     0.0749   -41.3188    13.0014     8.5613     8.5782
  653.5000    96.5464     2.5387     0.0239     8.4814     0.0835  -999.2500    12.9783     8.6575     8.6549
  654.0000   100.8595     2.5402     0.0294     8.4756     0.0839  -999.2500    12.9762     8.7894     8.6584
  654.5000   103.5026     2.5480     0.0342     8.4700     0.0783  -999.2500    13.1483     9.0651     8.1938
  655.0000   102.9111     2.5558     0.0389     8.4649     0.0753  -999.2500    13.4503     9.1836     8.1933
  655.5000  -999.2500     2.5558     0.0436     8.4650     0.0750  -999.2500    13.8933     9.2310     8.1925
  656.0000  -999.2500     2.5555     0.0471     8.4651     0.0766  -999.2500    14.4716     9.2746     8.3173
  656.5000  -999.2500     2.5443     0.0423     8.4651     0.0823  -999.2500    14.6886     9.3121     8.7375
  657.0000  -999.2500     2.5351     0.0375     8.4651     0.0856  -999.2500    14.8066     9.5296     8.7375
  657.5000  -999.2500     2.5388     0.0368     8.4650     0.0840  -999.2500    14.9256  -999.2500     8.6575
  658.0000  -999.2500     2.5407     0.0386     8.4626     0.0832  -999.2500    15.0367  -999.2500  -999.2500
  658.5000  -999.2500     2.5389     0.0406     8.4572     0.0836  -999.2500    15.3002  -999.2500  -999.2500
  659.0000  -999.2500     2.5459     0.0417     8.4518     0.0821  -999.2500    15.5500  -999.2500  -999.2500
  659.5000  -999.2500     2.5541     0.0434     8.4461     0.0805  -999.2500    15.7458  -999.2500  -999.2500
  660.0000  -999.2500     2.5579     0.0452     8.4543     0.0803  -999.2500    15.6715  -999.2500  -999.2500
  660.5000  -999.2500     2.5526     0.0456     8.4665     0.0810  -999.2500    15.6005  -999.2500  -999.2500
  661.0000  -999.2500     2.5450     0.0417     8.4788     0.0833  -999.2500    15.6475  -999.2500  -999.2500
  661.5000  -999.2500     2.5392     0.0355     8.4912     0.0843  -999.2500    15.7068  -999.2500  -999.2500
  662.0000  -999.2500     2.5390     0.0339     8.5038     0.0840  -999.2500    15.7447  -999.2500  -999.2500
  662.5000  -999.2500     2.5351     0.0317     8.4891     0.0873  -999.2500  -999.2500  -999.2500  -999.2500
  663.0000  -999.2500     2.5252     0.0297     8.4705     0.0916  -999.2500  -999.2500  -999.2500  -999.2500
  663.5000  -999.2500  -999.2500  -999.2500     8.4519  -999.2500  -999.2500  -999.2500  -999.2500  -999.2500
  664.0000  -999.2500  -999.2500  -999.2500     8.4346  -999.2500  -999.2500  -999.2500  -999.2500  -999.2500
  664.5000  -999.2500  -999.2500  -999.2500     8.4195  -999.2500  -999.2500  -999.2500  -999.2500  -999.2500
  665.0000  -999.2500  -999.2500  -999.2500     8.3478  -999.2500  -999.2500  -999.2500  -999.2500  -999.2500
  665.5000  -999.2500  -999.2500  -999.2500     8.3453  -999.2500  -999.2500  -999.2500  -999.2500  -999.2500
  666.0000  -999.2500  -999.2500  -999.2500     8.3451  -999.2500  -999.2500  -999.2500  -999.2500  -999.2500
