~VERSION INFORMATION
 VERS.                2.0:   CWLS LOG ASCII STANDARD - VERSION 2.0
 WRAP.                 NO:   ONE LINE PER DEPTH STEP
~WELL INFORMATION
#MNEM.UNIT      DATA TYPE    INFORMATION
#----------   ------------   ------------------------------
 STRT.F            0.0000:   START DEPTH
 STOP.F          964.0000:   STOP DEPTH
 STEP.F            0.5000:   STEP LENGTH
 NULL.          -999.2500:   NO VALUE
 COMP. LAWRENCE/ALLISON INC:   COMPANY
 WELL.  NPR 3 #58-16-SX-2:   WELL
 FLD .           NPR NO.3:   FIELD
 LOC .       S2 T38N R78W:   LOCATION
 CNTY.            NATRONA:   COUNTY
 STAT.            WYOMING:   STATE
 CTRY. UNITED STATES OF AMERICA:   COUNTRY
 SRVC.           Gearhart:   SERVICE COMPANY
 DATE.        07-MAY-1987:   LOGDATE
 API .       490251113700:   API NUMBER
~CURVE INFORMATION
#MNEM.UNIT       API CODE    CURVE DESCRIPTION
#----------   ------------   ------------------------------
 DEPT.F                  :   
 GRR .GAPI   07 310 01 00:   GAMMA RAY FROM RES. LOG.
 RILD.OHMM   07 120 46 00:   INDUCTION LOG DEEP RESISTIVITY
 RILM.OHMM   07 120 44 00:   INDUCTION LOG MEDIUM RESISTIVITY
~PARAMETER INFORMATION
#MNEM.UNIT          VALUE    DESCRIPTION
#----------   ------------   ------------------------------
 PD  .                 GL:   PERMANENT DATUM
 EPD .F              5173:   ELEVATION PERMANENT DATUM
 LMF .                 GL:   LOG MEASURED FROM
 DMF .                 GL:   DRILLING MEASURED FROM
 EGL .F              5173:   GROUND LEVEL
 DATE.           5-7-1987:   RUN DATE
 RUN .                  1:   RUN NUMBER
 DD  .F               971:   DEPTH DRILLER
 DL  .F               971:   DEPTH LOGGER
 BLI .F               963:   BOTTOM LOG INTERVAL
 TLI .F                37:   TOP LOG INTERVAL
 CS  .IN            8.625:   CASING SIZE
 CBD .F                44:   CASING BOTTOM DRILLER
 CBL .F                37:   CASING BOTTOM LOGGER
 BS  .IN            7.875:   BIT SIZE
 BSD .F               971:   BIT SIZE AT DEPTH
 TCS .HRS            2100:   TIME CURCULATED STOPPED
 TLAB.HRS            2338:   TIME LOGGER AT BOTTOM
 MRT .F                80:   MAXIMUM RECORDED TEMPERATURE
 LUN .               7597:   LOGGING UNIT NUMBER
 LUL .           GILLETTE:   LOGGING UNIT LOCATION
 ENGI.         WEATHERMON:   RECORDING ENGINEER
 WITN. STRONG/TAYLOR/LOWE:   WITNESSED BY
 CLNT.            A2DTECH:   CLIENT CODE
 ORIG.           5" PRINT:   ORIGIN OF DATA
 UWI .       490251113700:   UNIQUE WELL ID
 DICO. A2D Technologies, Inc.:   DIGITIZING COMPANY
~OTHER INFORMATION
~A    DEPT      GRR      RILD       RILM   
# ...
  910.0000   112.7709     9.3815     8.9951
  910.5000   112.9360     9.2962     8.9066
  911.0000   113.7419     9.1806     8.7946
  911.5000   114.5772     9.0657     8.6840
  912.0000   114.0007     8.9523     8.6071
  912.5000   112.5493     8.8403     8.5393
  913.0000   112.0417     8.7296     8.4450
  913.5000   113.6233     8.6204     8.3125
  914.0000   116.1490     8.5125     8.1820
  914.5000   118.1735     8.4059     8.0535
  915.0000   117.9294     8.3007     7.9271
  915.5000   117.7003     8.1891     7.8026
  916.0000   116.3667     8.0744     7.6801
  916.5000   115.3174     7.9612     7.5596
  917.0000   115.5169     7.8496     7.4409
  917.5000   115.7106     7.7396     7.3484
  918.0000   114.9117     7.6312     7.2880
  918.5000   113.9511     7.5242     7.2281
  919.0000   112.9654     7.4451     7.1687
  919.5000   113.4947     7.4451     7.1097
  920.0000   115.8899     7.4451     6.8647
  920.5000   118.4998     7.4956     6.7734
  921.0000   121.1232     7.6058     6.8927
  921.5000   120.4878     7.7177     7.1550
  922.0000   119.3914     7.9486     7.4287
  922.5000   118.2920     8.1835     7.7147
  923.0000   118.1759     8.5260     7.9706
  923.5000   117.2791     8.8560     8.2230
  924.0000   116.0311     9.1683     8.4814
  924.5000   114.9361     9.2676     8.7479
  925.0000   115.5113     9.3605     8.9951
  925.5000   116.0877     9.4545     9.1133
  926.0000   116.6614     9.5366     9.2221
  926.5000   116.5646     9.5900     9.3322
  927.0000   115.8434     9.6437     9.4306
  927.5000   115.1209     9.7020     9.3923
  928.0000   114.5503     9.6760     9.3581
  928.5000   115.2117     9.6477     9.3240
  929.0000   115.8640     9.6196     9.2900
  929.5000   116.5050     9.5915     9.2561
  930.0000   116.9953     9.5635     9.2224
  930.5000   117.1322     9.5357     9.1886
  931.0000   117.2911     9.5078     9.1548
  931.5000   115.9873     9.4801     9.1194
  932.0000   113.5374     9.4524     9.0844
  932.5000   111.0779     9.4249     9.0496
  933.0000   108.6207     9.3978     9.0148
  933.5000   106.1386     9.3714     8.9802
  934.0000   105.1540     9.3415     8.9457
  934.5000   106.6095     8.9206     8.9105
  935.0000   108.1768     8.5070     8.7531
  935.5000   109.7449     8.1126     8.5947
  936.0000   111.3348     7.7365     8.2987
  936.5000   111.8123     7.3778     7.8021
  937.0000   112.0422     7.0358     7.4203
  937.5000   112.2595     6.7087     7.1785
  938.0000   112.4939     5.9399     6.9515
  938.5000   113.7781     5.2206     6.2873
  939.0000   115.1195     4.5667     5.6062
  939.5000   116.4639     3.9953     4.9647
  940.0000   117.6899     3.4954     4.1917
  940.5000   116.8047     3.0585     3.5391
  941.0000   115.8502     2.7584     2.9881
  941.5000   115.2255     2.6332     2.5214
  942.0000   115.0517     2.5334     2.2055
  942.5000   114.8731     2.5755     2.1153
  943.0000   114.7041     2.6431     2.2401
  943.5000   114.5821     2.8433     2.4738
  944.0000   112.0581     3.2427     2.7544
  944.5000   109.2297     3.6983     3.2001
  945.0000   106.8596     4.3352     3.7141
  945.5000   104.5894     5.0524     4.3107
  946.0000   103.8366     5.6603     5.0031
  946.5000   105.7099     6.2983     5.8067
  947.0000   108.2782     6.7730     6.4469
  947.5000   109.7877     7.1638     6.8141
  948.0000   109.7782     7.4599     7.1688
  948.5000   109.3459     7.6391     7.2928
  949.0000   108.7509     7.8056     7.4091
  949.5000  -999.2500     7.9167     7.5272
  950.0000  -999.2500     8.0296     7.6594
  950.5000  -999.2500     8.0050     7.6812
  951.0000  -999.2500     7.9758     7.7056
  951.5000  -999.2500     7.9471     7.7321
  952.0000  -999.2500     7.9187     7.7209
  952.5000  -999.2500     7.8903     7.7087
  953.0000  -999.2500     7.8621     7.6965
  953.5000  -999.2500     7.8339     7.6842
  954.0000  -999.2500     7.8059     7.6722
  954.5000  -999.2500     7.7779     7.6594
  955.0000  -999.2500     7.7501     7.5588
  955.5000  -999.2500     7.7122     7.4539
  956.0000  -999.2500     7.6561     7.3056
  956.5000  -999.2500     7.5875     7.3159
  957.0000  -999.2500     7.6142     7.3342
  957.5000  -999.2500     7.6491     7.3526
  958.0000  -999.2500     7.6844     7.3710
  958.5000  -999.2500     7.7198     7.3895
  959.0000  -999.2500     7.7555     7.4080
  959.5000  -999.2500     7.7910     7.4264
  960.0000  -999.2500  -999.2500     7.4449
  960.5000  -999.2500  -999.2500     7.4451
  961.0000  -999.2500  -999.2500     7.4451
  961.5000  -999.2500  -999.2500     7.4451
  962.0000  -999.2500  -999.2500     7.4451
  962.5000  -999.2500  -999.2500     7.4451
  963.0000  -999.2500  -999.2500     7.4451
  963.5000  -999.2500  -999.2500     7.4451
  964.0000  -999.2500  -999.2500     7.4451
