~VERSION INFORMATION
 VERS.                2.0:   CWLS LOG ASCII STANDARD - VERSION 2.0
 WRAP.                 NO:   ONE LINE PER DEPTH STEP
~WELL INFORMATION
#MNEM.UNIT      DATA TYPE    INFORMATION
#----------   ------------   ------------------------------
 STRT.F           23.0000:   START DEPTH
 STOP.F         1106.0000:   STOP DEPTH
 STEP.F            0.5000:   STEP LENGTH
 NULL.          -999.2500:   NO VALUE
 COMP. FENIX & SCISSON INC:   COMPANY
 WELL.       NPR-3 #67-11:   WELL
 FLD . TEAPOT DOME NPR #3:   FIELD
 LOC .      S11 T38N R78W:   LOCATION
 CNTY.            NATRONA:   COUNTY
 STAT.            WYOMING:   STATE
 CTRY. UNITED STATES OF AMERICA:   COUNTRY
 SRVC.            Unknown:   SERVICE COMPANY
 DATE.        06-MAR-1978:   LOGDATE
 API .       490251059100:   API NUMBER
~CURVE INFORMATION
#MNEM.UNIT       API CODE    CURVE DESCRIPTION
#----------   ------------   ------------------------------
 DEPT.F                  :   
 ILD .OHMM   05 120 46 00:   INDUCTION LOG DEEP
 SN  .OHMM   05 040 16 00:   SHORT NORMAL 16"
 SPR .MV     05 010 01 00:   SPONTANEOUS POTENTIAL FROM RES.
 CALD.IN     45 280 60 00:   CALIPER
 GRD .GAPI   45 310 01 00:   GAMMA RAY FROM DENSITY LOG
 CORR.G/C3   45 356 01 00:   DENSITY CORRECTION
 DPHI.DEC    45 890 12 00:   DENSITY POROSITY SANDSTONE
 RHOB.G/C3   45 350 01 00:   BULK DENSITY
~PARAMETER INFORMATION
#MNEM.UNIT          VALUE    DESCRIPTION
#----------   ------------   ------------------------------
 PD  .                 GL:   PERMANENT DATUM
 EPD .F              5243:   ELEVATION PERMANENT DATUM
 LMF .                 KB:   LOG MEASURED FROM
 DAPD.F                 4:   FEET ABOVE PERMANENT DATUM
 DMF .                 KB:   DRILLING MEASURED FROM
 EKB .F              5247:   KELLING BUSHING
 EGL .F              5243:   GROUND LEVEL
 DATE.           3-6-1978:   RUN DATE
 RUN .                  1:   RUN NUMBER
 DD  .F              1104:   DEPTH DRILLER
 DL  .F              1108:   DEPTH LOGGER
 BLI .F              1102:   BOTTOM LOG INTERVAL
 TLI .F                40:   TOP LOG INTERVAL
 CS  .IN            8.625:   CASING SIZE
 CBD .F                40:   CASING BOTTOM DRILLER
 CBL .F                40:   CASING BOTTOM LOGGER
 BS  .IN            7.875:   BIT SIZE
 BSD .F              1104:   BIT SIZE AT DEPTH
 DFT .         LIGNO/SULF:   DRILLING FLUID TYPE
 DFD .                8.6:   DRILLING FLUID DENSITY
 DFV .                 31:   DRILLING FLUID VISCOSITY
 DFL .                  8:   DRILLING FLUID LOSS
 MSS .            MUD PIT:   MUD SAMPLE SOURCE
 RMS .OHMM              2:   RESISTIVITY MUD SAMPLE
 MST .F                58:   MUD SAMPLE TEMPERATURE
 RMF .OHMM            1.2:   RESISTIVITY MUD FILTRATE SAMPLE
 MFST.F                64:   MUD FILTRATE SAMPLE TEMPERATURE
 RMC .OHMM              3:   RESISTIVITY MUD CAKE
 MCST.F                64:   MUD CAKE SAMPLE TEMPERATURE
 MFSS.               MEAS:   MUD FILTRATE SAMPLE SOURCE
 RMB .OHMM            1.5:   RESISTIVITY MUD AT BHT
 BHT .F                78:   BOTTOM HOLE TEMPERATURE
 TCS .HRS               4:   TIME CURCULATED STOPPED
 MRT .F                78:   MAXIMUM RECORDED TEMPERATURE
 LUN .               2959:   LOGGING UNIT NUMBER
 LUL .               CASP:   LOGGING UNIT LOCATION
 ENGI.             MILLER:   RECORDING ENGINEER
 WITN.           MCGINLEY:   WITNESSED BY
 CLNT.            A2DTECH:   CLIENT CODE
 ORIG.       2", 5" PRINT:   ORIGIN OF DATA
 UWI .       490251059100:   UNIQUE WELL ID
 DICO. A2D Technologies, Inc.:   DIGITIZING COMPANY
~OTHER INFORMATION
~A   DEPT      ILD         SN        SPR       CALD         GRD      CORR       DPHI       RHOB   
   23.0000  -999.2500  -999.2500  -999.2500  -999.2500    62.4104  -999.2500  -999.2500  -999.2500
   23.5000  -999.2500  -999.2500  -999.2500  -999.2500    62.0120  -999.2500  -999.2500  -999.2500
   24.0000  -999.2500  -999.2500  -999.2500  -999.2500    63.1815  -999.2500  -999.2500  -999.2500
   24.5000  -999.2500  -999.2500  -999.2500  -999.2500    64.3684  -999.2500  -999.2500  -999.2500
   25.0000  -999.2500  -999.2500  -999.2500  -999.2500    63.8308  -999.2500  -999.2500  -999.2500
   25.5000  -999.2500  -999.2500  -999.2500  -999.2500    62.2189  -999.2500  -999.2500  -999.2500
   26.0000  -999.2500  -999.2500  -999.2500  -999.2500    60.6227  -999.2500  -999.2500  -999.2500
   26.5000  -999.2500  -999.2500  -999.2500  -999.2500    60.7364  -999.2500  -999.2500  -999.2500
   27.0000  -999.2500  -999.2500  -999.2500  -999.2500    62.6628  -999.2500  -999.2500  -999.2500
   27.5000  -999.2500  -999.2500  -999.2500  -999.2500    64.1935  -999.2500  -999.2500  -999.2500
   28.0000  -999.2500  -999.2500  -999.2500  -999.2500    62.4932  -999.2500  -999.2500  -999.2500
   28.5000  -999.2500  -999.2500  -999.2500  -999.2500    61.0610  -999.2500  -999.2500  -999.2500
   29.0000  -999.2500  -999.2500  -999.2500  -999.2500    61.0086  -999.2500  -999.2500  -999.2500
   29.5000  -999.2500  -999.2500  -999.2500  -999.2500    61.3812  -999.2500  -999.2500  -999.2500
   30.0000  -999.2500  -999.2500  -999.2500  -999.2500    60.0499  -999.2500  -999.2500  -999.2500
   30.5000  -999.2500  -999.2500  -999.2500  -999.2500    59.0392  -999.2500  -999.2500  -999.2500
   31.0000  -999.2500  -999.2500  -999.2500  -999.2500    60.1264  -999.2500  -999.2500  -999.2500
   31.5000  -999.2500  -999.2500  -999.2500  -999.2500    61.0350  -999.2500  -999.2500  -999.2500
   32.0000  -999.2500  -999.2500  -999.2500  -999.2500    61.0245  -999.2500  -999.2500  -999.2500
   32.5000  -999.2500  -999.2500  -999.2500  -999.2500    61.2065  -999.2500  -999.2500  -999.2500
   33.0000  -999.2500  -999.2500  -999.2500  -999.2500    62.9710  -999.2500  -999.2500  -999.2500
   33.5000  -999.2500  -999.2500  -999.2500  -999.2500    65.3247  -999.2500  -999.2500  -999.2500
   34.0000  -999.2500  -999.2500  -999.2500  -999.2500    65.2747  -999.2500  -999.2500  -999.2500
   34.5000  -999.2500  -999.2500  -999.2500  -999.2500    64.8333  -999.2500  -999.2500  -999.2500
   35.0000  -999.2500  -999.2500  -999.2500  -999.2500    62.1132  -999.2500  -999.2500  -999.2500
   35.5000  -999.2500  -999.2500  -999.2500  -999.2500    62.4650  -999.2500  -999.2500  -999.2500
   36.0000  -999.2500  -999.2500  -999.2500  -999.2500    61.6102  -999.2500  -999.2500  -999.2500
   36.5000  -999.2500  -999.2500  -999.2500  -999.2500    60.4227  -999.2500  -999.2500  -999.2500
   37.0000  -999.2500  -999.2500  -999.2500  -999.2500    61.9104  -999.2500  -999.2500  -999.2500
   37.5000  -999.2500  -999.2500  -999.2500  -999.2500    65.0919  -999.2500  -999.2500  -999.2500
   38.0000  -999.2500  -999.2500  -999.2500  -999.2500    64.0866  -999.2500  -999.2500  -999.2500
   38.5000  -999.2500  -999.2500  -999.2500  -999.2500    62.9455  -999.2500  -999.2500  -999.2500
   39.0000  -999.2500  -999.2500  -999.2500  -999.2500    63.8838  -999.2500  -999.2500  -999.2500
   39.5000  -999.2500  -999.2500  -999.2500  -999.2500    65.1859  -999.2500  -999.2500  -999.2500
   40.0000  -999.2500  -999.2500  -999.2500     7.9327    65.3604    -0.3901     0.3000     2.1770
   40.5000  -999.2500  -999.2500  -999.2500     7.9105    60.7299    -0.3897     0.3191     2.1506
   41.0000  -999.2500  -999.2500  -999.2500     7.8883    60.4732    -0.3796     0.3382     2.1202
   41.5000  -999.2500  -999.2500  -999.2500     7.8706    60.5206    -0.3697     0.3566     2.0894
   42.0000  -999.2500  -999.2500  -999.2500     7.8563    60.0803    -0.3495     0.3707     2.0586
   42.5000  -999.2500  -999.2500  -999.2500     7.8515    59.6492    -0.3202     0.3848     2.0280
   43.0000  -999.2500  -999.2500  -999.2500     7.8467    59.2082    -0.2595     0.3918     2.0055
   43.5000  -999.2500  -999.2500  -999.2500     7.8418    58.8799    -0.1879     0.2709     2.0045
   44.0000  -999.2500  -999.2500  -999.2500     7.8370    59.6974    -0.0483     0.2289     2.0882
   44.5000  -999.2500  -999.2500  -999.2500     7.8322    69.5379     0.0488     0.1886     2.3642
   45.0000  -999.2500  -999.2500  -999.2500     7.8274    74.4813     0.0474     0.1888     2.3540
   45.5000  -999.2500  -999.2500  -999.2500     7.8225    76.2067     0.0481     0.1900     2.3509
   46.0000  -999.2500  -999.2500  -999.2500     7.8177    77.7243     0.0486     0.1889     2.3466
   46.5000  -999.2500     4.9113  -999.2500     7.8129    79.1218     0.0485     0.1854     2.3460
   47.0000     4.2130     5.0311   -15.4607     7.8080    80.5208     0.0437     0.1868     2.3469
   47.5000     4.1464     5.0962   -16.1241     7.8032    81.7474     0.0389     0.1883     2.3478
   48.0000     4.0809     5.1189   -16.2351     7.7988    78.7552     0.0341     0.1916     2.3470
   48.5000     4.0334     5.1070   -16.3319     7.7988    75.6346     0.0293     0.1965     2.3417
   49.0000     3.9683     5.1141   -16.4515     7.7988    78.6041     0.0261     0.2001     2.3364
   49.5000     3.9049     5.1212   -18.4659     7.7988    83.5837     0.0243     0.2023     2.3312
   50.0000     3.8256     5.1283   -18.4802     7.7988    80.2649     0.0232     0.2045     2.3254
   50.5000     3.8282     5.1355   -17.8587     7.7988    76.3221     0.0240     0.2067     2.3218
   51.0000     3.8272     5.1427   -17.6343     7.7988    74.3439     0.0247     0.2089     2.3181
   51.5000     3.8272     5.1507   -17.9723     7.7988    76.2358     0.0272     0.2111     2.3144
   52.0000     3.9220     5.1913   -19.4192     7.7988    77.9297     0.0303     0.2143     2.3104
   52.5000     4.0127     5.1435   -19.9752     7.7988    78.5629     0.0335     0.2185     2.3061
   53.0000     4.1406     5.4273   -20.3406     7.7988    79.8241     0.0365     0.2178     2.3018
   53.5000     4.2925     5.6650   -20.7022     7.7988    81.3347     0.0423     0.2156     2.3013
   54.0000     4.4500     5.9080   -20.3708     7.7988    80.5245     0.0532     0.2036     2.3022
   54.5000     4.6132     6.0182   -19.6745     7.7988    75.6149     0.0696     0.1822     2.3418
   55.0000     4.7825     6.5659   -19.8127     7.7988    75.3403     0.0753     0.1666     2.3682
   55.5000     4.9579     6.9431   -19.8245     7.7988    75.7247     0.0223     0.1594     2.3759
   56.0000     5.1435     6.9806   -19.8203     7.7988    74.3290     0.0292     0.1608     2.3940
   56.5000     5.1909     7.0012   -19.8205     7.7988    73.8475     0.0293     0.1631     2.3947
   57.0000     5.1976     7.0219   -19.8207     7.7988    74.9664     0.0214     0.1644     2.3925
   57.5000     5.2049     7.0426   -19.8207     7.7988    75.7343     0.0135     0.1653     2.3907
   58.0000     5.2125     7.0634   -19.8207     7.7988    75.5082     0.0116     0.1655     2.3933
   58.5000     5.2202     7.0841   -19.8206     7.7988    77.8714     0.0125     0.1595     2.3960
   59.0000     5.2279     7.1073   -19.8205     7.7988    81.1006     0.0134     0.1596     2.3986
   59.5000     5.2356     7.1066   -19.8213     7.7988    82.9647     0.0143     0.1601     2.3997
   60.0000     5.2516     7.1398   -19.8217     7.7988    83.5328     0.0151     0.1611     2.3958
   60.5000     5.3867     7.1732   -19.9429     7.7987    84.1349     0.0121     0.1640     2.3921
   61.0000     5.5857     7.1730   -20.1663     7.7967    83.1925     0.0091     0.1649     2.3885
   61.5000     5.7746     7.1729   -20.3904     7.7947    81.6669     0.0106     0.1644     2.3847
   62.0000     5.9699     7.1729   -20.6148     7.7927    80.6876     0.0121     0.1644     2.3865
   62.5000     6.1717     7.1729   -20.8155     7.7908    81.4141     0.0130     0.1650     2.3909
   63.0000     6.3014     7.1729   -20.8986     7.7888    82.1138     0.0130     0.1655     2.3892
