~VERSION INFORMATION
 VERS.                2.0:   CWLS LOG ASCII STANDARD - VERSION 2.0
 WRAP.                 NO:   ONE LINE PER DEPTH STEP
~WELL INFORMATION
#MNEM.UNIT      DATA TYPE    INFORMATION
#----------   ------------   ------------------------------
 STRT.F            8.0000:   START DEPTH
 STOP.F          500.0000:   STOP DEPTH
 STEP.F            0.5000:   STEP LENGTH
 NULL.          -999.2500:   NO VALUE
 COMP. FENIX & SCISSON INC:   COMPANY
 WELL. 65 12 SX 3FI #65-3:   WELL
 FLD .             TEAPOT:   FIELD
 LOC .       S3 T38N R78W:   LOCATION
 CNTY.            NATRONA:   COUNTY
 STAT.            WYOMING:   STATE
 CTRY. UNITED STATES OF AMERICA:   COUNTRY
 SRVC.              Welex:   SERVICE COMPANY
 DATE.        01-JUN-1980:   LOGDATE
 API .       490251082400:   API NUMBER
~CURVE INFORMATION
#MNEM.UNIT       API CODE    CURVE DESCRIPTION
#----------   ------------   ------------------------------
 DEPT.F                  :   
 GRD .GAPI   45 310 01 00:   GAMMA RAY FROM DENSITY LOG
 CALD.IN     45 280 60 00:   CALIPER
 RHOB.G/C3   45 350 01 00:   BULK DENSITY
 CORR.G/C3   45 356 01 00:   DENSITY CORRECTION
 DPHI.DEC    45 890 12 00:   DENSITY POROSITY SANDSTONE
 NPHI.DEC    42 890 03 00:   NEUTRON POROSITY SANDSTONE
 SPR .MV     07 010 01 00:   SPONTANEOUS POTENTIAL
 SGRD.OHMM   07 220 05 00:   SHALLOW GUARD RESISTIVITY
 ILD .OHMM   07 120 46 00:   INDUCTION LOG DEEP
 ILM .OHMM   07 120 44 00:   INDUCTION LOG MEDIUM
~PARAMETER INFORMATION
#MNEM.UNIT          VALUE    DESCRIPTION
#----------   ------------   ------------------------------
 PD  .                 GL:   PERMANENT DATUM
 EPD .F              5155:   ELEVATION PERMANENT DATUM
 LMF .                 KB:   LOG MEASURED FROM
 DAPD.F                 4:   FEET ABOVE PERMANENT DATUM
 DMF .                 KB:   DRILLING MEASURED FROM
 EKB .F              5159:   KELLING BUSHING
 EGL .F              5155:   GROUND LEVEL
 DATE.             6-1-80:   RUN DATE
 RUN .                  1:   RUN NUMBER
 DD  .F               505:   DEPTH DRILLER
 DL  .F               502:   DEPTH LOGGER
 BLI .F               500:   BOTTOM LOG INTERVAL
 TLI .F                20:   TOP LOG INTERVAL
 BS  .IN            9.875:   BIT SIZE
 BSD .F               505:   BIT SIZE AT DEPTH
 DFT .      OIL BASED MUD:   DRILLING FLUID TYPE
 MSS .            MUD PIT:   MUD SAMPLE SOURCE
 RMS .OHMM             .9:   RESISTIVITY MUD SAMPLE
 MST .F                65:   MUD SAMPLE TEMPERATURE
 RMF .OHMM            .72:   RESISTIVITY MUD FILTRATE SAMPLE
 MFST.F                65:   MUD FILTRATE SAMPLE TEMPERATURE
 RMC .OHMM           1.08:   RESISTIVITY MUD CAKE
 MCST.F                65:   MUD CAKE SAMPLE TEMPERATURE
 MFSS.           MEASURED:   MUD FILTRATE SAMPLE SOURCE
 MCSS.           MEASURED:   MUD CAKE SAMPLE SOURCE
 RMB .OHMM            .71:   RESISTIVITY MUD AT BHT
 BHT .F                76:   BOTTOM HOLE TEMPERATURE
 TCS .HRS               2:   TIME CURCULATED STOPPED
 MRT .F                76:   MAXIMUM RECORDED TEMPERATURE
 LUN .               9685:   LOGGING UNIT NUMBER
 LUL .             CASPER:   LOGGING UNIT LOCATION
 ENGI.               REIN:   RECORDING ENGINEER
 WITN.            RHOADES:   WITNESSED BY
 CLNT.            A2DTECH:   CLIENT CODE
 ORIG.        2" 5" PRINT:   ORIGIN OF DATA
 UWI .       490251082400:   UNIQUE WELL ID
 DICO. A2D Technologies, Inc.:   DIGITIZING COMPANY
~OTHER INFORMATION
~A    DEPT     GRD       CALD       RHOB       CORR       DPHI       NPHI        SPR        SGRD         ILD        ILM 
# ...
  443.5000   100.9579    10.1579     2.4313    -0.0014     0.1396     0.2940   -10.8019     9.7556     6.8262     8.7989
  444.0000   101.1891    10.1616     2.4422     0.0040     0.1405     0.2995   -10.9087     9.0549     6.3889     8.0948
  444.5000   102.6289    10.1652     2.4426     0.0091     0.1391     0.3050   -10.7968     7.9895     6.0316     7.4469
  445.0000   104.5171    10.1689     2.4446     0.0154     0.1358     0.3105   -10.6885     7.0429     5.7596     6.8510
  445.5000   106.4301    10.1725     2.4508     0.0285     0.1438     0.3113   -10.5796     6.2101     5.4999     6.3027
  446.0000   108.2531    10.1744     2.4368     0.0324     0.1483     0.3147   -10.4709     5.5115     5.2519     5.8234
  446.5000   107.0318    10.1731     2.4295     0.0182     0.1381     0.3155   -10.3621     5.8104     5.1183     6.3193
  447.0000   103.8469    10.1719     2.4423     0.0159     0.1300     0.3091   -10.2534     8.7082     5.1167     6.8291
  447.5000   100.6889    10.1706     2.4601     0.0299     0.1247     0.3026   -10.1446    11.3373     5.1725     7.3841
  448.0000    97.5543    10.1693     2.4704     0.0102     0.1192     0.2843   -10.0359    12.1347     5.5393     7.9176
  448.5000    95.1212    10.1680     2.4797    -0.0100     0.1128     0.2812    -9.9271    11.8637     5.9143     8.3321
  449.0000    95.1179    10.1668     2.4873    -0.0073     0.1198     0.2838    -9.8184    11.4607     6.3128     8.7322
  449.5000    95.0670    10.1655     2.4743    -0.0168     0.1246     0.2824    -9.7097    10.9667     6.7376     9.0639
  450.0000    94.9969    10.1642     2.4706    -0.0182     0.1155     0.2751    -9.6009    11.1297     7.1911     9.4081
  450.5000    93.9163    10.1630     2.4882    -0.0056     0.1072     0.2713    -9.4922    11.3682     7.6751     9.7338
  451.0000    92.6728    10.1617     2.5004     0.0069     0.1023     0.2756    -9.3857    11.6118     8.1917     9.8407
  451.5000    92.3851    10.1604     2.5066     0.0120     0.1038     0.2786    -9.2731    11.9201     8.5720     9.9401
  452.0000    92.1243    10.1592     2.5017     0.0090     0.1049     0.2847    -9.1627    12.1790     8.7680    10.0405
  452.5000    90.4424    10.1579     2.4981     0.0078     0.1080     0.2907    -9.0520    12.4434     8.9624    10.1419
  453.0000    89.4796    10.1567     2.4991     0.0085     0.1079     0.2919    -8.9415    12.7136     9.1156    10.2447
  453.5000    89.8742    10.1556     2.4933     0.0092     0.1096     0.2871    -8.8309    12.9897     9.2668    10.3911
  454.0000    90.3128    10.1481     2.4867     0.0062     0.1157     0.2800    -8.7204    13.2718     9.4204    10.5693
  454.5000    90.7581    10.1400     2.4801    -0.0011     0.1188     0.2738    -8.6098    13.5599     9.5766    10.7501
  455.0000    91.2069    10.1318     2.4735    -0.0083     0.1215     0.2723    -8.4992    13.8544     9.7354    10.9340
  455.5000    90.9434    10.1239     2.4732    -0.0106     0.1207     0.2717    -8.3887    14.0833     9.8969    11.1210
  456.0000    90.5780    10.1179     2.4830    -0.0008     0.1160     0.2729    -8.2781    14.1816    10.0609    11.3112
  456.5000    90.1992    10.0632     2.4926     0.0087     0.1107     0.2732    -8.1676    14.2806    10.2278    11.5047
  457.0000    90.4406    10.0122     2.5016     0.0181     0.1024     0.2717    -8.0570    14.3803    10.3892    11.7015
  457.5000    90.9833     9.9609     2.5058     0.0252     0.1024     0.2716    -7.9465    14.4808    10.4832    11.8252
  458.0000    91.5400     9.9094     2.5025     0.0121     0.1085     0.2700    -7.8359    14.5819    10.5789    11.8725
  458.5000    92.3141     9.8600     2.4859     0.0109     0.1169     0.2720    -7.7253    14.6837    10.6750    11.9199
  459.0000    93.4011     9.9078     2.4725    -0.0072     0.1206     0.2697    -7.6144    14.7862    10.7720    11.9676
  459.5000    94.4827     9.9513     2.4859    -0.0020     0.1158     0.2685    -7.5333    14.8894    10.8699    12.0154
  460.0000    95.5658     9.9274     2.4980     0.0085     0.1080     0.2688    -7.4586    14.9934    10.9667    12.0635
  460.5000    96.6524     9.8019     2.5004     0.0127     0.0979     0.2695    -7.3839    15.1203    11.0436    12.1311
  461.0000    97.7387     9.7970     2.5030     0.0104     0.1013     0.2715    -7.3096    15.0766    11.1195    12.1070
  461.5000    98.9521     9.8152     2.4974     0.0157     0.1065     0.2737    -7.2342    14.9728    11.1960    12.0670
  462.0000   100.7848     9.8340     2.4861     0.0029     0.1126     0.2707    -7.2810    14.8687    11.2730    12.0271
  462.5000   101.9995     9.8525     2.4746    -0.0097     0.1200     0.2653    -7.4345    14.7655    11.3505    11.9874
  463.0000   103.1454     9.8711     2.4627    -0.0207     0.1271     0.2660    -7.5888    14.6632    11.4285    11.9478
  463.5000   104.3075     9.8896     2.4612    -0.0204     0.1297     0.2689    -7.7433    14.5740    11.4814    11.9082
  464.0000   105.4743     9.9079     2.4675    -0.0175     0.1266     0.2713    -7.8977    14.5946    11.3980    11.8687
  464.5000   106.8441     9.9140     2.4746    -0.0122     0.1229     0.2710    -8.0521    14.6130    11.3082    11.8302
  465.0000   108.5702     9.8989     2.4736    -0.0091     0.1215     0.2706    -8.2067    14.6313    11.2190    11.8026
  465.5000   110.3206     9.8841     2.4699    -0.0145     0.1235     0.2710    -8.3605    14.6497    11.1306    11.9859
  466.0000   111.9129     9.8693     2.4741    -0.0158     0.1231     0.2737    -8.5175    14.6682    11.0428    12.1313
  466.5000   106.1068     9.8544     2.4810    -0.0066     0.1194     0.2780    -8.4424    14.6871    10.9558    12.2429
  467.0000   100.9162     9.8395     2.4880     0.0013     0.1156     0.2797    -8.2119    14.7077    10.8694    12.1422
  467.5000    98.2692     9.8237     2.4882     0.0080     0.1119     0.2812    -7.9787    14.5720    10.7837    12.0618
  468.0000    90.0113     9.8491     2.4843     0.0130     0.1147     0.2738    -7.7458    14.4088    10.6987    11.9817
  468.5000    91.0665     9.8836     2.4902     0.0110     0.1149     0.2646    -7.5127    14.2466    10.6144    11.9024
  469.0000    92.6798     9.9017     2.4917     0.0216     0.1143     0.2574    -7.4845    14.0862    10.5307    11.8236
  469.5000    92.8108     9.9204     2.4867     0.0209     0.1136     0.2497    -7.6611    13.9214    10.4477    11.7455
  470.0000    91.7289     9.9394     2.4865     0.0205     0.1129     0.2423    -7.8373    13.7104    10.3653    11.5978
  470.5000    93.8122     9.9569     2.4870     0.0201     0.1152     0.2377    -8.0140    13.4933    10.2837    11.3234
  471.0000    92.8104     9.8957     2.4884     0.0197     0.1190     0.2395    -8.1904    13.2796    10.2029    11.0555
  471.5000    92.5983     9.8285     2.4900     0.0207     0.1134     0.2707    -8.3669    13.0693    10.1221    10.7944
  472.0000    93.8087     9.7819     2.4833     0.0228     0.1126     0.2877    -8.5434    12.8624     9.9883    10.6819
  472.5000    95.1090     9.7853     2.4780     0.0102     0.1177     0.2954    -8.7195    12.6587     9.8328    10.5891
  473.0000    94.2010     9.7876     2.4857     0.0057     0.1194     0.2979    -8.8966    12.4696     9.6797    10.4965
  473.5000    93.3134     9.7901     2.4932     0.0108     0.1133  -999.2500    -9.0149    12.3682     9.5290    10.4046
  474.0000    93.9959     9.7925     2.5008     0.0162     0.1090  -999.2500    -9.0906    12.2731     9.3806    10.3135
  474.5000    91.8557     9.7949     2.4984     0.0211     0.1061  -999.2500    -9.1653    12.1787     9.2346    10.2232
  475.0000    90.9363     9.7974     2.4952     0.0170     0.1072  -999.2500    -9.2400    12.0850     9.0908    10.1337
  475.5000    92.6771     9.7999     2.5036     0.0149     0.1087  -999.2500    -9.3144    11.9920     8.9493    10.0539
  476.0000    94.1824     9.8015     2.5122     0.0243     0.1045  -999.2500    -9.3700    11.8998     8.8100     9.9808
  476.5000    93.8873     9.7993     2.5206     0.0335     0.1000  -999.2500    -9.3689    11.8083     8.6728     9.9083
