~VERSION INFORMATION
 VERS.                2.0:   CWLS LOG ASCII STANDARD - VERSION 2.0
 WRAP.                 NO:   ONE LINE PER DEPTH STEP
~WELL INFORMATION
#MNEM.UNIT      DATA TYPE    INFORMATION
#----------   ------------   ------------------------------
 STRT.F           85.5000:   START DEPTH
 STOP.F         1080.5000:   STOP DEPTH
 STEP.F            0.5000:   STEP LENGTH
 NULL.          -999.2500:   NO VALUE
 COMP.         U.S.  NAVY:   COMPANY
 WELL.  N.P.R. #3 #67-S-2:   WELL
 FLD .             TEAPOT:   FIELD
 LOC .       S2 T38N R78W:   LOCATION
 CNTY.            NATRONA:   COUNTY
 STAT.            WYOMING:   STATE
 CTRY. UNITED STATES OF AMERICA:   COUNTRY
 SRVC.       Schlumberger:   SERVICE COMPANY
 DATE.        20-JUL-1964:   LOGDATE
 API .       490250639700:   API NUMBER
~CURVE INFORMATION
#MNEM.UNIT       API CODE    CURVE DESCRIPTION
#----------   ------------   ------------------------------
 DEPT.F                  :   
 GR  .GAPI   30 310 01 00:   GAMMA RAY
 DT  .US/F   60 520 33 00:   INTERVAL TRANSIT TIME
 SPR .MV     06 010 01 00:   SPONTANEOUS POTENTIAL
 CILD.MMHO   06 110 46 00:   CONDUCTIVITY INDUCTION LOG DEEP
 ASN .OHMM   06 041 16 00:   AMPLIFIED SHORT NORMAL 16"
 ILD .OHMM   06 120 46 00:   INDUCTION LOG DEEP
~PARAMETER INFORMATION
#MNEM.UNIT          VALUE    DESCRIPTION
#----------   ------------   ------------------------------
 PD  .                 GL:   PERMANENT DATUM
 EPD .F              5207:   ELEVATION PERMANENT DATUM
 LMF .                 KB:   LOG MEASURED FROM
 DAPD.F                 5:   FEET ABOVE PERMANENT DATUM
 DMF .                 KB:   DRILLING MEASURED FROM
 EKB .F              5212:   KELLING BUSHING
 EGL .F              5207:   GROUND LEVEL
 DATE.          7-20-1964:   RUN DATE
 RUN .                  1:   RUN NUMBER
 DD  .F              1080:   DEPTH DRILLER
 DL  .F              1081:   DEPTH LOGGER
 BLI .F              1080:   BOTTOM LOG INTERVAL
 TLI .F                86:   TOP LOG INTERVAL
 CS  .IN            8.625:   CASING SIZE
 CBD .F                10:   CASING BOTTOM DRILLER
 BS  .IN             6.75:   BIT SIZE
 BSD .F              1080:   BIT SIZE AT DEPTH
 DFT .            GEL-OIL:   DRILLING FLUID TYPE
 DFD .                9.5:   DRILLING FLUID DENSITY
 DFV .                 43:   DRILLING FLUID VISCOSITY
 MSS .           FLOWLINE:   MUD SAMPLE SOURCE
 RMS .OHMM           1.85:   RESISTIVITY MUD SAMPLE
 MST .F                83:   MUD SAMPLE TEMPERATURE
 RMF .OHMM           1.29:   RESISTIVITY MUD FILTRATE SAMPLE
 MFST.F                83:   MUD FILTRATE SAMPLE TEMPERATURE
 RMC .OHMM           2.49:   RESISTIVITY MUD CAKE
 MCST.F                83:   MUD CAKE SAMPLE TEMPERATURE
 MFSS.                 FP:   MUD FILTRATE SAMPLE SOURCE
 MCSS.                 FP:   MUD CAKE SAMPLE SOURCE
 TCS .HRS               2:   TIME CURCULATED STOPPED
 LUN .               4507:   LOGGING UNIT NUMBER
 LUL .               CSPR:   LOGGING UNIT LOCATION
 ENGI.             DANNER:   RECORDING ENGINEER
 WITN.          JORGENSEN:   WITNESSED BY
 CLNT.            A2DTECH:   CLIENT CODE
 ORIG.           2" PRINT:   ORIGIN OF DATA
 UWI .       490250639700:   UNIQUE WELL ID
 DICO. A2D Technologies, Inc.:   DIGITIZING COMPANY
~OTHER INFORMATION
~A   DEPT       GR         DT        SPR       CILD        ASN        ILD   
# ...
  345.5000  -999.2500  -999.2500   -24.9345   158.0467     7.3602     6.5132
  346.0000  -999.2500  -999.2500   -24.9979   157.4082     7.3030     6.4480
  346.5000  -999.2500  -999.2500   -25.0548   155.1713     7.2603     6.5068
  347.0000  -999.2500  -999.2500   -25.1094   152.9341     7.2616     6.6375
  347.5000  -999.2500  -999.2500   -25.3079   150.6975     7.3559     6.7678
  348.0000  -999.2500  -999.2500   -25.5997   148.4605     7.4431     6.8985
  348.5000  -999.2500  -999.2500   -25.8933   146.2240     7.6037     7.0287
  349.0000  -999.2500  -999.2500   -26.1851   143.9869     7.8247     7.1595
  349.5000  -999.2500  -999.2500   -26.3244   142.9285     8.0441     7.1384
  350.0000  -999.2500  -999.2500   -26.3236   146.7467     8.2651     6.9823
  350.5000  -999.2500  -999.2500   -26.3243   150.4976     8.3524     6.8252
  351.0000  -999.2500  -999.2500   -26.2252   154.2488     8.3036     6.6690
  351.5000  -999.2500  -999.2500   -26.0177   158.0001     8.1186     6.5121
  352.0000  -999.2500  -999.2500   -25.8090   161.7513     7.7723     6.3558
  352.5000  -999.2500  -999.2500   -25.6013   165.8367     7.4255     6.1989
  353.0000  -999.2500  -999.2500   -25.3927   163.4761     7.0417     6.0260
  353.5000  -999.2500  -999.2500   -25.1849   157.6046     7.0221     6.2659
  354.0000  -999.2500  -999.2500   -24.9765   151.7331     7.2805     6.5353
  354.5000  -999.2500  -999.2500   -24.7352   145.8616     7.8741     6.8040
  355.0000  -999.2500  -999.2500   -24.8288   141.9323     8.5645     7.1212
  355.5000  -999.2500  -999.2500   -24.9403   141.9323     9.3926     7.1209
  356.0000  -999.2500  -999.2500   -25.0521   141.9323     9.9886     7.1213
  356.5000  -999.2500  -999.2500   -25.0422   141.9323     9.9947     7.1209
  357.0000  -999.2500  -999.2500   -24.7174   141.9323     9.9984     7.2210
  357.5000  -999.2500  -999.2500   -24.3917   147.6752    10.0060     7.1209
  358.0000  -999.2500  -999.2500   -24.1399   155.3260    10.0083     6.6599
  358.5000  -999.2500  -999.2500   -24.2302   162.9768     8.5828     6.2875
  359.0000  -999.2500  -999.2500   -24.3052   170.6274     7.4151     5.9165
  359.5000  -999.2500  -999.2500   -24.3787   178.2777     6.9450     5.5439
  360.0000  -999.2500  -999.2500   -24.4537   184.7599     6.8003     5.2298
  360.5000  -999.2500  -999.2500   -24.5273   183.8604     6.6578     5.2410
  361.0000  -999.2500  -999.2500   -24.6022   182.4618     6.5832     5.2608
  361.5000  -999.2500  -999.2500   -24.6760   181.0642     6.5695     5.2790
  362.0000  -999.2500  -999.2500   -24.7507   179.7798     6.5436     5.2987
  362.5000  -999.2500  -999.2500   -24.8246   180.3846     6.6470     5.3170
  363.0000  -999.2500  -999.2500   -24.8993   180.9441     6.7417     5.3366
  363.5000  -999.2500  -999.2500   -24.8954   181.5029     6.8371     5.3550
  364.0000  -999.2500  -999.2500   -24.8246   181.7728     6.8216     5.3743
  364.5000  -999.2500  -999.2500   -24.7535   180.7831     6.7043     5.3929
  365.0000  -999.2500  -999.2500   -24.6826   179.7818     6.5868     5.4120
  365.5000  -999.2500  -999.2500   -24.6115   180.7759     6.4644     5.4308
  366.0000  -999.2500  -999.2500   -24.5406   180.7789     6.4424     5.4496
  366.5000  -999.2500  -999.2500   -24.4697   180.7769     6.3934     5.4686
  367.0000  -999.2500  -999.2500   -24.3987   180.9572     6.3763     5.4873
  367.5000  -999.2500  -999.2500   -24.3279   181.1529     6.4047     5.5064
  368.0000  -999.2500  -999.2500   -24.2568   181.3486     6.4331     5.5276
  368.5000  -999.2500  -999.2500   -24.1860   181.5443     6.4615     5.4599
  369.0000  -999.2500  -999.2500   -24.1149   181.7729     6.4901     5.3815
  369.5000  -999.2500  -999.2500   -24.0441   185.8441     6.5237     5.3034
  370.0000  -999.2500  -999.2500   -23.9730   190.7370     6.4185     5.2250
  370.5000  -999.2500  -999.2500   -23.9021   196.7132     6.2889     5.1469
  371.0000  -999.2500  -999.2500   -23.8311   199.6086     6.1597     5.0685
  371.5000  -999.2500  -999.2500   -23.7602   203.3272     6.0301     4.9904
  372.0000  -999.2500  -999.2500   -23.8143   207.0458     5.9008     4.9120
  372.5000  -999.2500  -999.2500   -23.9120   210.7644     5.7712     4.8339
  373.0000  -999.2500  -999.2500   -24.0095   214.4831     5.6676     4.7555
  373.5000  -999.2500  -999.2500   -24.1071   215.4447     5.6077     4.7313
  374.0000  -999.2500  -999.2500   -24.2046   215.1651     5.6078     4.7611
  374.5000  -999.2500  -999.2500   -24.3022   214.8855     5.6179     4.7864
  375.0000  -999.2500  -999.2500   -24.2825   214.6414     5.6266     4.8116
  375.5000  -999.2500  -999.2500   -24.1958   212.9868     5.6354     4.8369
  376.0000  -999.2500  -999.2500   -24.1090   211.5189     5.6440     4.8621
  376.5000  -999.2500  -999.2500   -24.0224   210.0511     5.6705     4.8874
  377.0000  -999.2500  -999.2500   -23.9356   208.5832     5.7096     4.9126
  377.5000  -999.2500  -999.2500   -23.8489   207.1153     5.7488     4.9379
  378.0000  -999.2500  -999.2500   -23.7621   205.6474     5.7878     4.9631
  378.5000  -999.2500  -999.2500   -23.6754   204.1795     5.7985     4.9883
  379.0000  -999.2500  -999.2500   -23.5885   202.6892     5.7816     5.0136
  379.5000  -999.2500  -999.2500   -23.5432   202.3680     5.7649     5.0388
  380.0000  -999.2500  -999.2500   -23.5945   202.0418     5.7471     5.0639
  380.5000  -999.2500  -999.2500   -23.6479   201.6932     5.7472     5.0891
  381.0000  -999.2500  -999.2500   -23.7009   200.1309     5.8117     5.1143
  381.5000  -999.2500  -999.2500   -23.7544   198.4533     5.8811     5.1519
  382.0000  -999.2500  -999.2500   -23.8073   196.7765     5.9504     5.2077
  382.5000  -999.2500  -999.2500   -23.8608   194.2771     6.0196     5.2636
  383.0000  -999.2500  -999.2500   -23.9137   190.3603     6.0890     5.3194
  383.5000  -999.2500  -999.2500   -23.9672   186.4509     6.1581     5.3754
  384.0000  -999.2500  -999.2500   -24.0201   182.5324     6.2277     5.4311
  384.5000  -999.2500  -999.2500   -24.0736   177.7981     6.2967     5.4871
  385.0000  -999.2500  -999.2500   -24.1387   176.9094     6.3666     5.5429
  385.5000  -999.2500  -999.2500   -24.0763   175.7985     6.4349     5.5990
  386.0000  -999.2500  -999.2500   -23.9947   174.6706     6.5053     5.6548
  386.5000  -999.2500  -999.2500   -23.9137   173.8150     6.5516     5.7108
  387.0000  -999.2500  -999.2500   -23.8322   176.6840     6.5454     5.6270
  387.5000  -999.2500  -999.2500   -23.7511   179.0437     6.5226     5.3315
  388.0000  -999.2500  -999.2500   -23.6696   187.0221     6.4080     5.0870
  388.5000  -999.2500  -999.2500   -23.5885   197.6587     6.3081     4.8425
  389.0000  -999.2500  -999.2500   -23.5071   208.2675     6.2127     4.5981
  389.5000  -999.2500  -999.2500   -23.4258   217.6349     6.1247     4.3534
  390.0000  -999.2500  -999.2500   -23.3445   234.1521     5.7145     4.1092
  390.5000  -999.2500  -999.2500   -23.2632   248.9336     5.3449     3.8644
  391.0000  -999.2500  -999.2500   -23.1820   263.6846     5.0869     3.6203
  391.5000  -999.2500  -999.2500   -23.1843   278.4656     4.9050     3.3753
  392.0000  -999.2500  -999.2500   -23.2533   293.2178     4.7324     3.1387
  392.5000  -999.2500  -999.2500   -23.3220   300.9749     4.6708     3.2727
  393.0000  -999.2500  -999.2500   -23.3911   302.2744     3.6819     3.4037
  393.5000  -999.2500  -999.2500   -23.4597   286.0978     3.1773     3.5336
  394.0000  -999.2500  -999.2500   -23.5288   275.3260     4.2209     3.6646
  394.5000  -999.2500  -999.2500   -23.5974   264.5688     5.3483     3.7357
  395.0000  -999.2500  -999.2500   -23.6665   253.8014     5.2903     3.9780
  395.5000  -999.2500  -999.2500   -23.7416   240.8951     5.1522     4.2340
  396.0000  -999.2500  -999.2500   -23.7332   224.9599     5.2009     4.4915
  396.5000  -999.2500  -999.2500   -23.7236   209.0230     5.5290     4.7473
  397.0000  -999.2500  -999.2500   -23.7144   190.7398     5.9066     5.0049
