~VERSION INFORMATION
 VERS.                2.0:   CWLS LOG ASCII STANDARD - VERSION 2.0
 WRAP.                 NO:   ONE LINE PER DEPTH STEP
~WELL INFORMATION
#MNEM.UNIT      DATA TYPE    INFORMATION
#----------   ------------   ------------------------------
 STRT.F           28.0000:   START DEPTH
 STOP.F          884.0000:   STOP DEPTH
 STEP.F            0.5000:   STEP LENGTH
 NULL.          -999.2500:   NO VALUE
 COMP. U S NAVY-INTEX OIL:   COMPANY
 WELL. NPR 3 TEAPOT DOM #43-SX-2:   WELL
 FLD .             TEAPOT:   FIELD
 LOC .       S2 T38N R78W:   LOCATION
 CNTY.            NATRONA:   COUNTY
 STAT.            WYOMING:   STATE
 CTRY. UNITED STATES OF AMERICA:   COUNTRY
 SRVC.       Schlumberger:   SERVICE COMPANY
 DATE.        19-JUL-1963:   LOGDATE
 API .       490250967900:   API NUMBER
~CURVE INFORMATION
#MNEM.UNIT       API CODE    CURVE DESCRIPTION
#----------   ------------   ------------------------------
 DEPT.F                  :   
 ASN .OHMM   05 041 16 00:   AMPLIFIED SHORT NORMAL 16"
 CILD.MMHO   05 110 46 00:   CONDUCTIVITY INDUCTION LOG DEEP
 ILD .OHMM   05 120 46 00:   INDUCTION LOG DEEP
 SPR .MV     05 010 01 00:   SPONTANEOUS POTENTIAL FROM RES.
 GR  .GAPI   30 310 01 00:   GAMMA RAY
~PARAMETER INFORMATION
#MNEM.UNIT          VALUE    DESCRIPTION
#----------   ------------   ------------------------------
 LMF .                 KB:   LOG MEASURED FROM
 DMF .                 KB:   DRILLING MEASURED FROM
 EKB .F              5151:   KELLING BUSHING
 EGL .F              5146:   GROUND LEVEL
 DATE.        19-JUL-1963:   RUN DATE
 RUN .                  1:   RUN NUMBER
 DD  .F               881:   DEPTH DRILLER
 DL  .F               885:   DEPTH LOGGER
 BLI .F               884:   BOTTOM LOG INTERVAL
 TLI .F                30:   TOP LOG INTERVAL
 CS  .IN            8.625:   CASING SIZE
 CBD .F                12:   CASING BOTTOM DRILLER
 BS  .IN             6.75:   BIT SIZE
 BSD .F               881:   BIT SIZE AT DEPTH
 DFT .           GEL- OIL:   DRILLING FLUID TYPE
 DFD .                9.6:   DRILLING FLUID DENSITY
 DFV .                 39:   DRILLING FLUID VISCOSITY
 DFPH.                8.5:   DRILLING FLUID PH
 DFL .                4.4:   DRILLING FLUID LOSS
 RMS .OHMM           2.58:   RESISTIVITY MUD SAMPLE
 MST .F                72:   MUD SAMPLE TEMPERATURE
 RMF .OHMM           2.26:   RESISTIVITY MUD FILTRATE SAMPLE
 MFST.F                72:   MUD FILTRATE SAMPLE TEMPERATURE
 TCS .HRS               3:   TIME CURCULATED STOPPED
 LUN .               4507:   LOGGING UNIT NUMBER
 LUL .             CASPER:   LOGGING UNIT LOCATION
 ENGI.            WINKLER:   RECORDING ENGINEER
 WITN.          JORGENSEN:   WITNESSED BY
 CLNT.            A2DTECH:   CLIENT CODE
 ORIG.      2.5" 5" PRINT:   ORIGIN OF DATA
 UWI .       490250967900:   UNIQUE WELL ID
 DICO. A2D Technologies, Inc.:   DIGITIZING COMPANY
~OTHER INFORMATION
~A   DEPT      ASN         CILD       ILD       SPR         GR   
# ...
  638.0000     9.2102   123.3140     8.3910   -33.0603    65.1016
  638.5000     9.3608   123.3364     8.5432   -33.3645    64.2033
  639.0000     9.4510   121.8390     8.5440   -33.3675    64.0572
  639.5000     9.5412   121.8617     8.5447   -33.3705    63.1580
  640.0000     9.6012   121.8845     8.5455   -33.3735    65.3092
  640.5000     9.6310   121.9073     8.5462   -33.6777    68.6991
  641.0000     9.5395   121.9301     8.3955   -33.3792    72.6999
  641.5000     9.4173   121.9529     8.3962   -33.3825    73.6220
  642.0000     9.3529   123.4954     8.3970   -33.3855    70.7391
  642.5000     9.2631   125.4305     8.3977   -33.3886    70.2866
  643.0000     9.2011   126.5806     8.3985   -33.3916    64.1026
  643.5000     9.1449   126.6033     8.3992   -33.3946    63.3484
  644.0000     9.1142   126.6261     8.2484   -33.3976    68.6274
  644.5000     9.1440   126.6489     8.2492   -33.4006    69.6833
  645.0000     9.1526   126.6717     8.2500   -33.4036    69.3816
  645.5000     9.2238   125.1748     8.2508   -33.4072    68.3258
  646.0000     9.3162   123.6794     8.2515   -33.4101    66.8175
  646.5000     9.3962   123.7017     8.4038   -33.4131    66.2142
  647.0000     9.4875   122.2036     8.4045   -33.4160    66.8175
  647.5000     9.4892   122.2267     8.4053   -33.4190    68.6274
  648.0000     9.3511   123.7690     8.4061   -33.4219    62.8959
  648.5000     9.2444   123.7918     8.4068   -33.4249    62.4434
  649.0000     9.2002   123.8146     8.4077   -33.4278    61.9910
  649.5000     9.1696   123.8374     8.4085   -33.1296    61.3876
  650.0000     9.1389   123.8602     8.2576   -33.1325    60.7843
  650.5000     9.1082   125.4027     8.2584   -33.1355    65.6109
  651.0000     9.0474   125.4255     8.2592   -33.1386    64.1026
  651.5000     9.0167   125.8764     8.2599   -33.1416    62.4434
  652.0000     8.9861   127.4772     8.2607   -33.1446    59.7952
  652.5000     8.9252   130.0532     8.1098   -33.1476    60.2610
  653.0000     8.8945   130.0760     7.9591   -33.1506    61.9566
  653.5000     8.8337   130.0988     7.9599   -33.1537    59.3482
  654.0000     8.7728   130.1216     7.9606   -33.1566    57.8436
  654.5000     8.6817   133.9617     7.8098   -33.1596    57.5435
  655.0000     8.6188   137.0823     7.6540   -33.1627    61.0092
  655.5000     8.5234   141.0971     7.3356   -33.1657    64.0228
  656.0000     8.3416   146.9343     6.8707   -32.8672    63.8732
  656.5000     8.1792   151.5159     6.4275   -32.8705    64.3269
  657.0000     7.9381   157.6173     6.1197   -32.5719    61.6175
  657.5000     7.7228   163.7187     5.8446   -32.5753    59.2094
  658.0000     7.5301   168.3003     5.8455   -32.5783    59.2108
  658.5000     7.2835   169.8425     5.8023   -32.5813    60.9066
  659.0000     7.0567   168.3451     5.6953   -32.5843    63.3555
  659.5000     6.9332   166.8465     6.0543   -32.5873    66.1433
  660.0000     6.9607   163.8305     6.3636   -32.5904    71.1147
  660.5000     7.1449   160.8134     6.6068   -32.5934    71.7182
  661.0000     7.3147   159.3010     6.9025   -32.5969    70.3643
  661.5000     7.4675   154.7791     7.0629   -32.5999    70.2151
  662.0000     7.6203   153.0195     7.2152   -32.6028    67.5061
  662.5000     7.7908   148.5564     7.2159   -32.6058    60.1281
  663.0000     7.9489   143.9616     7.2168   -32.6087    58.6235
  663.5000     8.0995   140.8863     7.2176   -32.6117    59.0768
  664.0000     8.0688   136.6539     7.2183   -32.3133    59.5301
  664.5000     8.0382   136.6793     7.2190   -32.3164    59.3810
  665.0000     8.0679   137.1835     7.2198   -32.3193    60.0101
  665.5000     8.0977   139.7644     7.2205   -32.3223    60.5888
  666.0000     8.0368   141.9046     7.2213   -32.3253    58.3316
  666.5000     7.9155   143.5056     7.2220   -32.2992    58.0315
  667.0000     7.8245   146.6262     7.0712   -32.3313    59.3887
  667.5000     7.7334   148.2269     6.9205   -32.3343    58.0348
  668.0000     7.6725   152.8673     6.7697   -32.3373    56.0784
  668.5000     7.6109   155.0988     6.6189   -32.4217    56.3811
  669.0000     7.5133   159.6851     6.4408   -32.6446    57.7380
  669.5000     7.2638   164.2667     5.6821   -32.6476    61.3539
  670.0000     6.9255   171.8878     5.2374   -32.6506    64.3675
  670.5000     6.5872   179.5090     4.9296   -32.6536    69.8159
  671.0000     6.2613   200.8080     4.7732   -32.6566    70.8464
  671.5000     6.0689   216.0279     4.6537   -32.6596    72.3542
  672.0000     5.8912   225.1688     4.6545   -32.6627    73.5601
  672.5000     5.6362   226.7109     4.7033   -32.3645    73.4110
  673.0000     5.4607   225.2135     5.0126   -32.3680    75.2201
  673.5000     5.3714   222.1964     5.2629   -32.0693    72.2095
  674.0000     5.4830   217.6392     5.4798   -32.0727    69.3492
  674.5000     5.8450   209.8783     5.8705   -32.0756    71.0076
  675.0000     6.3822   200.4826     6.1742   -32.0786    72.6657
  675.5000     6.8404   188.1129     6.5593   -32.0815    73.8720
  676.0000     7.0823   174.2250     6.7818   -32.0845    74.7771
  676.5000     7.3492   163.6779     7.0858   -32.0874    74.9292
  677.0000     7.4813   156.2868     7.0865   -32.0924    73.4999
  677.5000     7.6548   149.0122     7.2388   -32.3946    71.7699
  678.0000     7.7774   145.9373     7.3910   -32.3976    68.0063
  678.5000     7.9000   142.8620     7.3918   -32.7430    66.8026
  679.0000     7.9924   139.7870     7.5440   -33.0060    67.4064
  679.5000     8.1151   137.3632     7.6963   -33.0090    64.6971
  680.0000     8.2075   135.1572     7.6970   -33.0120    68.1628
  680.5000     8.3301   134.3693     7.6978   -33.0151    66.9594
  681.0000     8.4461   133.5666     7.6985   -33.0181    63.9489
  681.5000     8.5363   132.0110     7.8508   -32.9016    62.7329
  682.0000     8.6265   131.3982     7.8515   -32.7229    61.0904
  682.5000     8.7469   129.9012     7.8523   -32.4247    61.5813
  683.0000     8.8371   128.4043     8.0045   -32.2691    65.1347
  683.5000     8.9575   126.9073     8.0053   -32.1295    67.8723
  684.0000     9.0779   125.4103     8.0061   -31.8319    71.6388
  684.5000     9.2285   123.9155     8.1583   -31.8348    70.2849
  685.0000     9.2281   122.4181     8.1591   -31.8378    69.2321
  685.5000     9.2578   122.4405     8.3114   -31.8407    68.9324
  686.0000     9.2876   123.9826     8.3586   -31.8437    68.1808
  686.5000     9.3482   124.0050     8.4644   -32.1478    66.2241
  687.0000     9.4982   125.5471     8.3135   -32.1508    68.6356
  687.5000     9.4600   125.5699     8.2513   -32.1537    69.8419
  688.0000     9.3052   127.1125     8.0121   -32.4579    67.2831
  688.5000     9.1456   126.9553     7.8614   -32.7620    65.1762
  689.0000     8.9653   125.6365     7.7106   -32.7651    65.8304
  689.5000     8.8476   124.1392     7.6260   -33.0693    66.2337
  690.0000     8.7321   127.9123     7.2577   -33.0723    65.9336
  690.5000     8.6399   132.6116     7.1070   -33.0221    70.3029
  691.0000     8.5375   138.3587     6.9562   -32.7768    69.2502
  691.5000     8.3724   141.4792     6.6539   -32.4785    66.2396
  692.0000     8.1446   145.1874     6.5031   -32.4819    65.3373
  692.5000     7.9282   152.0516     6.3524   -32.1832    65.6527
  693.0000     7.7119   162.0717     5.7470   -31.8850    65.4405
  693.5000     7.4653   172.2040     5.2932   -31.8886    60.0707
  694.0000     7.1716   185.5032     4.8394   -31.5904    59.6207
  694.5000     6.7118   207.6254     4.0826   -31.2922    58.7186
  695.0000     5.2008   241.4177     3.1743   -30.9940    59.6237
  695.5000     4.5659   279.4340     2.7200   -31.2988    65.6492
  696.0000     4.3842   326.5688     2.4182   -31.3017    73.1808
  696.5000     4.0817   364.5851     2.2674   -31.3047    70.1703
  697.0000     3.7791   419.3187     2.2510   -31.3076    71.3766
  697.5000     3.5068   436.0583     2.1174   -31.3106    72.2817
  698.0000     3.3250   454.3178     2.1182   -31.3135    74.0904
  698.5000     3.2642   436.1031     2.2705   -31.0153    71.6822
