~VERSION INFORMATION
 VERS.                2.0:   CWLS LOG ASCII STANDARD - VERSION 2.0
 WRAP.                 NO:   ONE LINE PER DEPTH STEP
~WELL INFORMATION
#MNEM.UNIT      DATA TYPE    INFORMATION
#----------   ------------   ------------------------------
 STRT.F           32.0000:   START DEPTH
 STOP.F          757.0000:   STOP DEPTH
 STEP.F            0.5000:   STEP LENGTH
 NULL.          -999.2500:   NO VALUE
 COMP. FENIX & SCISSON INC:   COMPANY
 WELL.     88 S 34 #88-34:   WELL
 FLD .             NPR #3:   FIELD
 LOC .      S34 T39N R78W:   LOCATION
 CNTY.            NATRONA:   COUNTY
 STAT.            WYOMING:   STATE
 CTRY. UNITED STATES OF AMERICA:   COUNTRY
 SRVC.              Welex:   SERVICE COMPANY
 DATE.        10-MAY-1977:   LOGDATE
 API .       490251035800:   API NUMBER
~CURVE INFORMATION
#MNEM.UNIT       API CODE    CURVE DESCRIPTION
#----------   ------------   ------------------------------
 DEPT.F                  :   
 GURD.OHMM   07 220 05 00:   SHALLOW GUARD RESISTIVITY
 ILD .OHMM   07 120 46 00:   INDUCTION LOG DEEP
 ILM .OHMM   07 120 44 00:   INDUCTION LOG MEDIUM
 SPR .MV     07 010 01 00:   SPONTANEOUS POTENTIAL FROM RES.
 CALD.IN     45 280 60 00:   CALIPER FROM DENSITY LOG
 CORR.G/C3   45 356 01 00:   DENSITY CORRECTION
 DPHI.DEC    45 890 12 00:   DENSITY POROSITY SANDSTONE
 GRD .GAPI   45 310 01 00:   GAMMA RAY FROM DENSITY LOG
 RHOB.G/C3   45 350 01 00:   BULK DENSITY
~PARAMETER INFORMATION
#MNEM.UNIT          VALUE    DESCRIPTION
#----------   ------------   ------------------------------
 PD  .                 GL:   PERMANENT DATUM
 EPD .F              5094:   ELEVATION PERMANENT DATUM
 LMF .                 GL:   LOG MEASURED FROM
 DMF .                 GL:   DRILLING MEASURED FROM
 EGL .F              5094:   GROUND LEVEL
 DATE.        10-MAY-1977:   RUN DATE
 RUN .                  1:   RUN NUMBER
 DD  .F               760:   DEPTH DRILLER
 DL  .F               759:   DEPTH LOGGER
 BLI .F               757:   BOTTOM LOG INTERVAL
 TLI .F                30:   TOP LOG INTERVAL
 CS  .IN            8.625:   CASING SIZE
 CBD .F                40:   CASING BOTTOM DRILLER
 CBL .F                45:   CASING BOTTOM LOGGER
 BS  .IN            7.875:   BIT SIZE
 BSD .F               760:   BIT SIZE AT DEPTH
 DFT .            KCL MUD:   DRILLING FLUID TYPE
 DFD .                9.0:   DRILLING FLUID DENSITY
 DFV .                 33:   DRILLING FLUID VISCOSITY
 DFPH.                7.5:   DRILLING FLUID PH
 DFL .                7.4:   DRILLING FLUID LOSS
 MSS .           FLOWLINE:   MUD SAMPLE SOURCE
 RMS .OHMM           0.33:   RESISTIVITY MUD SAMPLE
 MST .F                70:   MUD SAMPLE TEMPERATURE
 RMF .OHMM           0.28:   RESISTIVITY MUD FILTRATE SAMPLE
 MFST.F                70:   MUD FILTRATE SAMPLE TEMPERATURE
 RMC .OHMM           0.40:   RESISTIVITY MUD CAKE
 MCST.F                70:   MUD CAKE SAMPLE TEMPERATURE
 MFSS.           FANN KIT:   MUD FILTRATE SAMPLE SOURCE
 MCSS.           FANN KIT:   MUD CAKE SAMPLE SOURCE
 RMB .OHMM           0.26:   RESISTIVITY MUD AT BHT
 BHT .F                86:   BOTTOM HOLE TEMPERATURE
 TCS .HRS             1.5:   TIME CURCULATED STOPPED
 MRT .F                86:   MAXIMUM RECORDED TEMPERATURE
 LUN .               8611:   LOGGING UNIT NUMBER
 LUL .             CASPER:   LOGGING UNIT LOCATION
 ENGI.            C. DOAK:   RECORDING ENGINEER
 WITN.         D. RHOADES:   WITNESSED BY
 CLNT.            A2DTECH:   CLIENT CODE
 ORIG.           5" PRINT:   ORIGIN OF DATA
 UWI .       490251035800:   UNIQUE WELL ID
 DICO. A2D Technologies, Inc.:   DIGITIZING COMPANY
~OTHER INFORMATION
~A   DEPT     GURD        ILD        ILM        SPR         CALD      CORR      DPHI         GRD        RHOB 
   32.0000  -999.2500  -999.2500  -999.2500  -999.2500     7.9094    -0.5266  -999.2500    89.6396     2.0638
   32.5000  -999.2500  -999.2500  -999.2500  -999.2500     7.9243    -0.5280  -999.2500    86.9369     2.0545
   33.0000  -999.2500  -999.2500  -999.2500  -999.2500     7.9241    -0.5280  -999.2500    85.2853     2.0515
   33.5000  -999.2500  -999.2500  -999.2500  -999.2500     7.9240    -0.5265  -999.2500    86.7868     2.0463
   34.0000  -999.2500  -999.2500  -999.2500  -999.2500     7.9388    -0.5234  -999.2500    88.6366     2.0426
   34.5000  -999.2500  -999.2500  -999.2500  -999.2500     7.9387    -0.5174  -999.2500    91.1411     2.0448
   35.0000  -999.2500  -999.2500  -999.2500  -999.2500     7.9385    -0.5065  -999.2500    91.4414     2.0542
   35.5000  -999.2500  -999.2500  -999.2500  -999.2500     7.9684    -0.4934  -999.2500    90.6907     2.0719
   36.0000  -999.2500  -999.2500  -999.2500  -999.2500     7.9532    -0.4843  -999.2500    90.0901     2.0861
   36.5000  -999.2500  -999.2500  -999.2500  -999.2500     7.9381    -0.4618  -999.2500    89.9399     2.0966
   37.0000  -999.2500  -999.2500  -999.2500  -999.2500     7.9379    -0.4348  -999.2500    90.5405     2.1019
   37.5000  -999.2500  -999.2500  -999.2500  -999.2500     7.9228    -0.4153  -999.2500    91.9294     2.0959
   38.0000  -999.2500  -999.2500  -999.2500  -999.2500     7.9226    -0.3868  -999.2500    93.5435     2.0846
   38.5000  -999.2500  -999.2500  -999.2500  -999.2500     7.9075    -0.3406  -999.2500    94.8949     2.0817
   39.0000  -999.2500  -999.2500  -999.2500  -999.2500     7.9073    -0.2908  -999.2500    95.9459     2.0847
   39.5000  -999.2500  -999.2500  -999.2500  -999.2500     7.9072    -0.2233  -999.2500    96.3964     2.0832
   40.0000  -999.2500  -999.2500  -999.2500  -999.2500     7.9220    -0.1423  -999.2500    94.8949     2.0802
   40.5000  -999.2500  -999.2500  -999.2500  -999.2500     7.9069    -0.0853  -999.2500    91.5916     2.0817
   41.0000  -999.2500  -999.2500  -999.2500  -999.2500     7.9067    -0.0043  -999.2500    91.9570     2.0918
   41.5000  -999.2500  -999.2500  -999.2500  -999.2500     7.8315     0.0272  -999.2500    96.9970     2.1320
   42.0000  -999.2500  -999.2500  -999.2500  -999.2500     7.7541     0.0334     0.2463   101.0510     2.1711
   42.5000  -999.2500  -999.2500  -999.2500  -999.2500     7.7564     0.0408     0.2328   102.2523     2.2904
   43.0000  -999.2500  -999.2500  -999.2500  -999.2500     7.8012     0.0438     0.2186   103.7538     2.3077
   43.5000  -999.2500  -999.2500  -999.2500  -999.2500     7.8310     0.0423     0.2172   107.6577     2.3167
   44.0000  -999.2500  -999.2500  -999.2500  -999.2500     7.8908     0.0394     0.2211   112.1622     2.3136
   44.5000  -999.2500  -999.2500  -999.2500  -999.2500     7.9207     0.0334     0.2244   111.6712     2.3010
   45.0000     5.0675     0.3981     3.2332    -3.5915     7.9205     0.0229     0.2256   107.9580     2.2980
   45.5000     5.3562     0.6029     3.3461    -3.5901     7.9054     0.0200     0.2211   106.4565     2.3085
   46.0000     5.3569     1.4204     3.4406    -3.7377     7.8602     0.0230     0.2114   108.1081     2.3235
   46.5000     5.0695     2.7343     3.5133    -4.3321     7.8301     0.0215     0.2091   111.8619     2.3273
   47.0000     5.0006     2.9101     3.6125    -4.7781     7.8000     0.0201     0.2082   108.4084     2.3280
   47.5000     5.2856     2.9309     3.7437    -5.3725     7.7849     0.0201     0.2064   110.0601     2.3310
   48.0000     5.5101     2.9316     3.7154    -5.8181     7.7697     0.0201     0.2001   112.9129     2.3416
   48.5000     5.5490     2.9525     3.5899    -6.2752     7.7846     0.0187     0.1908   109.7598     2.3536
   49.0000     5.6660     3.0149     3.4687    -6.8582     7.7994     0.0172     0.1866   108.2583     2.3626
   49.5000     5.8255     3.1648     3.4218    -7.1552     7.7992     0.0172     0.1884   111.8619     2.3611
   50.0000     5.6676     3.3222     3.5184    -7.3028     7.7841     0.0142     0.1986   116.8168     2.3461
   50.5000     3.7968     3.4397     3.6682    -7.3010     7.7840     0.0113     0.2067   120.5706     2.3331
   51.0000     4.0131     3.3697     3.7717    -7.1416     7.7838     0.0098     0.2091   120.4204     2.3296
   51.5000     5.6699     3.3241     3.8515    -6.5526     7.7687     0.0128     0.2079   118.0811     2.3296
   52.0000     6.3335     3.4417     3.9329    -5.9551     7.7835     0.0174     0.1913   113.8138     2.3379
   52.5000     6.6945     3.7149     3.9885    -5.5066     7.7834     0.0234     0.1667   112.7628     2.3927
   53.0000     6.8830     3.9259     4.0728    -5.0581     7.7832     0.0264     0.1490   111.7117     2.4235
   53.5000     6.5138     3.9813     4.1880    -4.4541     7.7831     0.0295     0.1457   109.4595     2.4313
   54.0000     6.9807     4.0374     4.2471    -4.1607     7.7829     0.0265     0.1481   110.9610     2.4370
   54.5000     6.3381     4.0662     4.3369    -3.8612     7.7828     0.0220     0.1589   110.8108     2.4160
   55.0000     6.5617     4.0952     4.3981    -3.7107     7.7826     0.0160     0.1715   109.5646     2.3972
   55.5000     6.6081     4.1532     4.4602    -3.5603     7.7825     0.0086     0.1745   108.2583     2.3860
   56.0000     6.5180     4.1540     4.4613    -3.2608     7.7973     0.0086     0.1661   110.2102     2.3912
   56.5000     6.5643     4.1548     4.4931    -3.1100     7.7971     0.0119     0.1601   111.5616     2.4065
   57.0000     6.6109     4.0986     4.4940    -2.9596     7.7970     0.0177     0.1577   112.3123     2.4153
   57.5000     6.0438     4.0432     4.4949    -2.9581     7.7969     0.0222     0.1571   113.3634     2.4183
   58.0000     5.9614     3.9885     4.4620    -2.6587     7.7817     0.0252     0.1589   112.7628     2.4190
   58.5000     6.3887     3.8809     4.3440    -2.6572     7.7815     0.0282     0.1622   111.6962     2.4130
   59.0000     5.8409     3.7241     4.2266    -2.6555     7.7814     0.0298     0.1637   110.8108     2.4070
   59.5000     5.9231     3.5247     4.0278    -2.9521     7.7812     0.0298     0.1634   108.8589     2.4048
   60.0000     6.0480     3.2646     3.7858    -3.1001     7.7811     0.0328     0.1649   106.0060     2.4041
   60.5000     5.9247     2.9468     3.5538    -3.6944     7.7810     0.0329     0.1718   104.9550     2.3936
   61.0000     5.4540     2.7130     3.0361    -4.2891     7.7808     0.0344     0.1811   105.4054     2.3748
   61.5000     4.3362     2.5151     2.7378    -5.9267     7.7806     0.0359     0.1970   105.2553     2.3515
   62.0000     2.9294     2.2997     2.4858    -6.8198     7.7805     0.0405     0.2047   103.6577     2.3283
   62.5000     2.7914     2.2221     2.4521    -6.9674     7.7803     0.0465     0.2192   104.9550     2.3078
   63.0000     3.0542     2.2691     2.5575    -6.2205     7.7952     0.0510     0.2282   106.3063     2.2841
   63.5000     4.9889     2.3493     2.8169    -5.1758     7.7951     0.0479     0.2501   105.5556     2.2603
   64.0000     6.0162     2.5352     3.1036    -3.9818     7.7949     0.0346     0.2615   100.7507     2.2322
   64.5000     6.0975     2.7169     3.4195    -3.0862     7.7947     0.0211     0.2622    97.1471     2.2637
   65.0000     6.4005     2.9789     3.7675    -2.6377     7.7946     0.0121     0.2388    95.1952     2.2900
   65.5000     6.4455     3.2978     4.0378    -2.4872     7.7794     0.0047     0.2045    94.1441     2.3216
   66.0000     6.2277     3.5587     4.1520    -2.4858     7.7793     0.0002     0.1754    97.1471     2.3629
   66.5000     5.8461     3.7357     4.2106    -2.6334     7.7792     0.0002     0.1739    99.5496     2.3840
   67.0000     4.9938     3.8945     4.2406    -2.7807     7.7790     0.0064     0.1733   101.5015     2.3899
   67.5000     5.5399     4.0076     4.2709    -2.9287     7.7789     0.0108     0.1751   102.5526     2.3884
   68.0000     5.8961     4.0610     4.3312    -3.0763     7.7787     0.0108     0.1778   103.9039     2.3839
