~VERSION INFORMATION
 VERS.                2.0:   CWLS LOG ASCII STANDARD - VERSION 2.0
 WRAP.                 NO:   ONE LINE PER DEPTH STEP
~WELL INFORMATION
#MNEM.UNIT      DATA TYPE    INFORMATION
#----------   ------------   ------------------------------
 STRT.F            0.0000:   START DEPTH
 STOP.F          500.0000:   STOP DEPTH
 STEP.F            0.5000:   STEP LENGTH
 NULL.          -999.2500:   NO VALUE
 COMP. Fluor Daniel (NPOSR) Inc:   COMPANY
 WELL.  NPR ##3 72-4-X-10:   WELL
 FLD .             TEAPOT:   FIELD
 LOC .      S10 T38N R78W:   LOCATION
 CNTY.            NATRONA:   COUNTY
 STAT.            WYOMING:   STATE
 CTRY. UNITED STATES OF AMERICA:   COUNTRY
 SRVC.      Western Atlas:   SERVICE COMPANY
 DATE.        28-APR-1996:   LOGDATE
 API .       490252278000:   API NUMBER
~CURVE INFORMATION
#MNEM.UNIT       API CODE    CURVE DESCRIPTION
#----------   ------------   ------------------------------
 DEPT.F                  :   
 GRR .GAPI   07 310 01 00:   GAMMA RAY FROM RES. LOG.
 RILD.OHMM   07 120 46 00:   INDUCTION LOG DEEP RESISTIVITY
 RILM.OHMM   07 120 44 00:   INDUCTION LOG MEDIUM RESISTIVITY
~PARAMETER INFORMATION
#MNEM.UNIT          VALUE    DESCRIPTION
#----------   ------------   ------------------------------
 PD  .                 GL:   PERMANENT DATUM
 EPD .F            5165.5:   ELEVATION PERMANENT DATUM
 LMF .                 KB:   LOG MEASURED FROM
 DAPD.F                10:   FEET ABOVE PERMANENT DATUM
 DMF .                 KB:   DRILLING MEASURED FROM
 EKB .F            5175.5:   KELLING BUSHING
 EDF .F            5174.5:   DRILLING FLOOR
 EGL .F            5165.5:   GROUND LEVEL
 DATE.        28-APR-1996:   RUN DATE
 RUN .                  1:   RUN NUMBER
 DD  .F               505:   DEPTH DRILLER
 DL  .F               506:   DEPTH LOGGER
 BLI .F               497:   BOTTOM LOG INTERVAL
 CS  .IN            9.625:   CASING SIZE
 CBD .F                95:   CASING BOTTOM DRILLER
 CBL .F                96:   CASING BOTTOM LOGGER
 BS  .IN             8.75:   BIT SIZE
 BSD .F               505:   BIT SIZE AT DEPTH
 DFT .                AIR:   DRILLING FLUID TYPE
 MRT .F                80:   MAXIMUM RECORDED TEMPERATURE
 LUN .            HL-6530:   LOGGING UNIT NUMBER
 LUL .             CASPER:   LOGGING UNIT LOCATION
 ENGI.             RAUTIO:   RECORDING ENGINEER
 WITN.              HARDY:   WITNESSED BY
 CLNT.            A2DTECH:   CLIENT CODE
 ORIG.       2", 5" PRINT:   ORIGIN OF DATA
 UWI .       490252278000:   UNIQUE WELL ID
 DICO. A2D Technologies, Inc.:   DIGITIZING COMPANY
~OTHER INFORMATION
~A    DEPT      GRR      RILD       RILM   
# ...
   91.0000    88.0420  -999.2500  -999.2500
   91.5000    87.9063  -999.2500  -999.2500
   92.0000    87.7754  -999.2500  -999.2500
   92.5000    87.8616  -999.2500  -999.2500
   93.0000    88.5471  -999.2500  -999.2500
   93.5000    89.2460  -999.2500  -999.2500
   94.0000    88.8674  -999.2500  -999.2500
   94.5000    88.2640  -999.2500  -999.2500
   95.0000    89.3105  -999.2500  -999.2500
   95.5000    92.8722  -999.2500  -999.2500
   96.0000   105.0285  -999.2500  -999.2500
   96.5000   116.1338  -999.2500  -999.2500
   97.0000   126.7923  -999.2500  -999.2500
   97.5000   132.2153  -999.2500  -999.2500
   98.0000   132.9012     2.4502     2.8664
   98.5000   133.6823     2.4502     3.4262
   99.0000   135.3465     3.7023     4.5291
   99.5000   135.4133     5.2961     6.6422
  100.0000   132.8809     7.6362    10.5311
  100.5000   130.7251     9.8336    11.0825
  101.0000   132.9062     7.1555    11.4431
  101.5000   135.5290     6.0457    10.2750
  102.0000   134.1863     6.0309     8.8373
  102.5000   132.2929     6.0162     9.1005
  103.0000   133.0067     6.0015    10.2435
  103.5000   134.4483     5.9977    10.2435
  104.0000   134.4508     6.7206     9.0776
  104.5000   132.6677     7.6328     8.0659
  105.0000   131.6207     7.6318     8.2086
  105.5000   133.1884     7.6248     8.0747
  106.0000   136.5282     7.6256     7.9377
  106.5000   139.3148     7.3360     7.8031
  107.0000   139.3043     7.2116     7.6948
  107.5000   137.8270     7.4342     7.7363
  108.0000   136.3120     7.6007     7.7787
  108.5000   135.1709     7.7662     7.8213
  109.0000   138.3222     7.7911     7.8837
  109.5000   142.3558     7.9126     7.9971
  110.0000   142.2120     8.0360     8.1122
  110.5000   139.1004     8.1074     8.2289
  111.0000   137.5665     8.1870     8.3473
  111.5000   138.4687     8.2674     8.4388
  112.0000   135.4190     8.3486     8.6185
  112.5000   131.8012     8.5060     8.7954
  113.0000   129.2102     8.6802     8.9758
  113.5000   127.5742     8.8595     9.1600
  114.0000   127.8541     9.0316     9.3479
  114.5000   128.3703     9.2058     9.5397
  115.0000   129.2950     9.3821     9.7354
  115.5000   130.7075     9.5620     9.9352
  116.0000   130.6177     9.6917    10.1390
  116.5000   127.3609    10.0035    10.3470
  117.0000   124.0600    10.2980    10.5593
  117.5000   120.8861    10.6287    10.7759
  118.0000   119.7854    10.8168    11.0319
  118.5000   123.9946    11.1932    11.3811
  119.0000   127.6109    11.5827    11.7377
  119.5000   125.1465    11.9858    12.1109
  120.0000   121.6101    12.1450    12.2547
  120.5000   118.0210    12.2393    12.3236
  121.0000   118.2806    12.3210    12.3905
  121.5000   122.7343    12.1791    12.4342
  122.0000   127.6373    12.0323    12.2602
  122.5000   126.0247    11.8873    12.1336
  123.0000   119.5367    11.7442    12.0080
  123.5000   117.9174    11.6239    11.8838
  124.0000   120.6358    11.5390    11.7610
  124.5000   123.7319    11.4548    11.6394
  125.0000   125.1052    11.3711    11.5190
  125.5000   123.8839    11.2881    11.4000
  126.0000   121.7205    11.2056    11.2821
  126.5000   119.5506    11.1237    11.1654
  127.0000   117.4293    11.0426    11.0500
  127.5000   115.9534    10.9933    10.9355
  128.0000   115.5865    10.9508    10.8257
  128.5000   119.1941    10.9271    10.9324
  129.0000   123.1081    11.2438    11.0600
  129.5000   125.7576    11.4708    11.1891
  130.0000   125.9126    11.7034    11.3197
  130.5000   118.5148    11.8735    11.4431
  131.0000   112.1882    11.6271    11.3039
  131.5000   109.7074    11.4708    11.1453
  132.0000   113.2780    11.3165    10.9889
  132.5000   119.4916    11.1643    10.8348
  133.0000   122.5741    11.0284    10.6671
  133.5000   121.7220    10.7333    10.4651
  134.0000   120.0230    10.4709    10.2670
  134.5000   119.4901    10.2301    10.0562
  135.0000   119.4599    10.1120     9.9884
  135.5000   118.2424     9.9953     9.9168
  136.0000   114.6158     9.8723     9.8450
  136.5000   113.8508     9.8316     9.7736
  137.0000   116.1015     9.7764     9.7027
  137.5000   117.2164     9.7216     9.6323
  138.0000   117.4096     9.6670     9.5624
  138.5000   120.0852     9.6127     9.4930
  139.0000   123.0998     9.5590     9.4241
  139.5000   123.4341     9.5115     9.3558
  140.0000   120.6871     9.4967     9.3032
  140.5000   118.3665     9.4814     9.2553
  141.0000   118.8760     9.4663     9.2077
  141.5000   118.5393     9.4511     9.1697
  142.0000   116.6952     9.4359     9.1803
  142.5000   113.9734     9.4274     9.1909
  143.0000   112.1743     9.4491     9.2016
  143.5000   113.0951     9.4648     9.2123
  144.0000   116.1782     9.4805     9.2230
  144.5000   117.4420     9.4964     9.2336
  145.0000   117.4873     9.5132     9.2444
  145.5000   117.8293     9.4404     9.2557
  146.0000   118.7570     9.3532     9.1888
  146.5000   118.1709     9.2668     9.1115
  147.0000   116.7462     8.9304     8.8583
  147.5000   116.4561     8.5670     8.5251
  148.0000   118.3124     8.2185     8.2043
  148.5000   123.8934     7.9109     7.8957
  149.0000   128.2957     7.7593     7.6242
  149.5000   129.2638     7.6218     7.4671
  150.0000   127.3816     7.4867     7.3255
  150.5000   124.9118     7.3540     7.1454
  151.0000   123.4071     7.2135     7.1456
  151.5000   122.4998     7.3236     7.3740
  152.0000   124.6396     7.4447     7.5825
  152.5000   129.4376     7.5685     7.7857
  153.0000   131.8186     7.6940     7.9057
  153.5000   129.7443     7.8216     8.0299
  154.0000   125.8716     7.9513     8.1556
  154.5000   125.0242     8.0714     8.2837
  155.0000   126.1648     8.1417     8.3826
  155.5000   127.0532     8.2126     8.4377
  156.0000   126.8443     8.2841     8.4926
  156.5000   127.6012     8.3562     8.5480
  157.0000   128.3359     8.4290     8.6038
  157.5000   129.4508     8.5024     8.6599
  158.0000   131.1137     8.5765     8.7164
  158.5000   132.5055     8.6512     8.7733
  159.0000   133.1866     8.6939     8.8371
  159.5000   134.3387     8.7209     8.8010
  160.0000   134.9867     8.7561     8.7602
  160.5000   134.2664     8.6989     8.7194
  161.0000   133.0061     8.6182     8.6789
  161.5000   131.1620     8.5383     8.6385
  162.0000   130.0906     8.4591     8.5984
  162.5000   129.9072     8.3806     8.5584
  163.0000   130.5530     8.3613     8.5170
  163.5000   132.0484     8.3613     8.5352
  164.0000   131.7998     8.4416     8.5542
  164.5000   131.7180     8.4367     8.5732
  165.0000   132.0122     8.4359     8.5922
  165.5000   132.3725     8.3578     8.6113
  166.0000   133.9170     8.4354     8.6305
  166.5000   135.3408     8.5094     8.6496
  167.0000   134.9933     8.5960     8.6757
  167.5000   131.1281     8.5594     8.6271
  168.0000   127.1507     8.5162     8.5520
  168.5000   126.5094     8.4732     8.4776
  169.0000   130.2656     8.4303     8.4038
  169.5000   132.9040     8.3877     8.3308
  170.0000   132.6284     8.3454     8.2576
  170.5000   130.9899     8.3032     8.1959
  171.0000   129.8707     8.2613     8.1528
  171.5000   129.1022     8.2194     8.1109
  172.0000   129.2440     8.1496     8.0691
  172.5000   130.1251     8.0700     8.0273
  173.0000   130.0155     7.9912     7.9842
  173.5000   126.8705     7.9109     7.7726
  174.0000   121.8466     7.8524     7.5583
  174.5000   120.3523     7.5324     7.3499
  175.0000   122.4731     7.2256     7.1472
  175.5000   124.5729     6.9306     6.9501
  176.0000   125.4274     6.6478     6.7585
  176.5000   127.8799     6.3767     6.5721
  177.0000   133.2730     6.2809     6.3985
  177.5000   135.8721     6.3906     6.5009
  178.0000   133.4341     6.4404     6.6037
  178.5000   129.1763     6.5083     6.7056
  179.0000   129.3006     6.7027     6.8753
  179.5000   129.5047     6.9029     7.1140
  180.0000   128.4272     7.1074     7.3641
  180.5000   125.8534     7.3668     7.6222
  181.0000   123.9286     7.6922     7.9109
  181.5000   119.0072     7.7599     7.9438
