~VERSION INFORMATION
 VERS.                2.0:   CWLS LOG ASCII STANDARD - VERSION 2.0
 WRAP.                 NO:   ONE LINE PER DEPTH STEP
~WELL INFORMATION
#MNEM.UNIT      DATA TYPE    INFORMATION
#----------   ------------   ------------------------------
 STRT.F          520.5000:   START DEPTH
 STOP.F         3119.5000:   STOP DEPTH
 STEP.F            0.5000:   STEP LENGTH
 NULL.          -999.2500:   NO VALUE
 COMP.   FLUOR DANIEL INC:   COMPANY
 WELL. NAVAL PETROLEUM RESERVE 3 X-10 #52-10:   WELL
 FLD .            WILDCAT:   FIELD
 LOC .      S10 T38N R78W:   LOCATION
 CNTY.            NATRONA:   COUNTY
 STAT.            WYOMING:   STATE
 CTRY. UNITED STATES OF AMERICA:   COUNTRY
 SRVC.            Unknown:   SERVICE COMPANY
 DATE.        16-AUG-1995:   LOGDATE
 API .       490252275200:   API NUMBER
~CURVE INFORMATION
#MNEM.UNIT       API CODE    CURVE DESCRIPTION
#----------   ------------   ------------------------------
 DEPT.F                  :   
 ROP .MIN/FT 91 810 01 00:   RAT OF DRILLING PENETRATION
 TGAS.UNITS  91 830 01 00:   TOTAL GAS FROM HOTWIRE
~PARAMETER INFORMATION
#MNEM.UNIT          VALUE    DESCRIPTION
#----------   ------------   ------------------------------
 EKB .F              5206:   KELLING BUSHING
 EGL .F              5196:   GROUND LEVEL
 DATE.            8-16-95:   RUN DATE
 DD  .F              3120:   DEPTH DRILLER
 CS  .IN            9.625:   CASING SIZE
 CBD .F               508:   CASING BOTTOM DRILLER
 BS  .IN             8.75:   BIT SIZE
 BSD .F              3120:   BIT SIZE AT DEPTH
 ENGI.               HUSK:   RECORDING ENGINEER
 WITN.              TOWER:   WITNESSED BY
 CLNT.            A2DTECH:   CLIENT CODE
 ORIG.           5" PRINT:   ORIGIN OF DATA
 UWI .       490252275200:   UNIQUE WELL ID
 DICO. A2D Technologies, Inc.:   DIGITIZING COMPANY
~OTHER INFORMATION
~A   DEPT        ROP     TGAS   
# ...
 2343.0000     0.4417    52.7111
 2343.5000     0.4411    52.6847
 2344.0000     0.4406    52.6583
 2344.5000     0.4401    52.6319
 2345.0000     0.4396    52.6055
 2345.5000     0.4390    52.5791
 2346.0000     0.4385    52.5527
 2346.5000     0.4380    52.5263
 2347.0000     0.4375    52.5000
 2347.5000     0.4370    52.4736
 2348.0000     0.4364    52.4472
 2348.5000     0.4359    52.4208
 2349.0000     0.4354    52.3944
 2349.5000     0.4348    52.3680
 2350.0000     0.4343    52.3416
 2350.5000     0.4338    52.3152
 2351.0000     0.4333    52.2888
 2351.5000     0.4434    52.2624
 2352.0000     0.4427    52.2360
 2352.5000     0.4422    52.2096
 2353.0000     0.4522    52.1832
 2353.5000     0.4517    52.1568
 2354.0000     0.4619    52.1304
 2354.5000     0.4613    52.1040
 2355.0000     0.4607    52.0776
 2355.5000     0.4602    52.0512
 2356.0000     0.4597    52.0248
 2356.5000     0.4592    51.9984
 2357.0000     0.4587    51.9720
 2357.5000     0.4475    51.9456
 2358.0000     0.4470    51.9192
 2358.5000     0.4465    51.8928
 2359.0000     0.4460    51.8665
 2359.5000     0.4454    51.8401
 2360.0000     0.4449    51.8137
 2360.5000     0.4025    51.7873
 2361.0000     0.4025    51.7609
 2361.5000     0.4025    51.7345
 2362.0000     0.5191    51.7081
 2362.5000     0.5191    51.6817
 2363.0000     0.5297    51.6553
 2363.5000     0.5297    51.6289
 2364.0000     0.5297    51.6025
 2364.5000     0.5297    51.5761
 2365.0000     0.5297    51.5497
 2365.5000     0.5297    51.5233
 2366.0000     0.5297    51.4969
 2366.5000     0.5403    51.4705
 2367.0000     0.5508    51.4441
 2367.5000     0.5508    51.4177
 2368.0000     0.5508    51.3913
 2368.5000     0.5508    51.3649
 2369.0000     0.5508    51.3385
 2369.5000     0.5508    51.3121
 2370.0000     0.5508    51.2857
 2370.5000     0.5508    51.2593
 2371.0000     0.5508    51.2329
 2371.5000     0.5508    51.2066
 2372.0000     0.5508    51.1802
 2372.5000     0.5508    51.1538
 2373.0000     0.5508    51.1274
 2373.5000     0.5516    51.1010
 2374.0000     0.5614    51.0746
 2374.5000     0.5508    51.0482
 2375.0000     0.5508    51.0218
 2375.5000     0.5508    50.9954
 2376.0000     0.5508    50.9690
 2376.5000     0.5508    50.9426
 2377.0000     0.5508    50.9162
 2377.5000     0.5508    50.8898
 2378.0000     0.5508    50.8634
 2378.5000     0.5508    50.8370
 2379.0000     0.5508    50.8106
 2379.5000     0.5508    50.7842
 2380.0000     0.5508    50.7578
 2380.5000     0.5508    50.7314
 2381.0000     0.5508    50.7050
 2381.5000     0.5508    50.6786
 2382.0000     0.5508    50.6522
 2382.5000     0.5508    50.6258
 2383.0000     0.5508    50.5994
 2383.5000     0.5508    50.5731
 2384.0000     0.5403    50.5467
 2384.5000     0.5403    50.5203
 2385.0000     0.5297    50.4939
 2385.5000     0.5297    50.4675
 2386.0000     0.5191    50.4411
 2386.5000     0.5191    50.4147
 2387.0000     0.5085    50.3883
 2387.5000     0.5085    50.3619
 2388.0000     0.5085    50.3355
 2388.5000     0.5085    50.3091
 2389.0000     0.5085    50.2827
 2389.5000     0.5085    50.2563
 2390.0000     0.5085    50.2299
 2390.5000     0.5085    50.2035
 2391.0000     0.5085    50.1771
 2391.5000     0.5085    50.1507
 2392.0000     0.5085    50.1243
 2392.5000     0.5085    50.0979
 2393.0000     0.5191    50.0715
 2393.5000     0.5191    50.0451
 2394.0000     0.5191    50.0187
 2394.5000     0.4343    49.9923
 2395.0000     0.4449    49.9660
 2395.5000     0.4555    49.9396
 2396.0000     0.4661    49.9132
 2396.5000     0.4661    49.8868
 2397.0000     0.4661    49.8604
 2397.5000     0.4767    49.8340
 2398.0000     0.4873    49.8076
 2398.5000     0.4873    49.7812
 2399.0000     0.4979    49.7548
 2399.5000     0.4979    49.7284
 2400.0000     0.4979    49.7020
 2400.5000     0.4870    49.1640
 2401.0000     0.4867    48.7500
 2401.5000     0.4759    50.2225
 2402.0000     0.4756    51.0211
 2402.5000     0.4647    51.1004
 2403.0000     0.4645    49.6252
 2403.5000     0.4642    47.5381
 2404.0000     0.4640    46.2817
 2404.5000     0.4637    45.0937
 2405.0000     0.4634    45.1710
 2405.5000     0.4632    45.2483
 2406.0000     0.4629    44.2692
 2406.5000     0.4627    43.2901
 2407.0000     0.4623    43.3674
 2407.5000     0.4621    43.4446
 2408.0000     0.4618    43.5219
 2408.5000     0.4616    43.6004
 2409.0000     0.4613    43.6796
 2409.5000     0.4611    43.7588
 2410.0000     0.4608    43.8380
 2410.5000     0.4711    43.9090
 2411.0000     0.4709    43.9165
 2411.5000     0.4706    43.9239
 2412.0000     0.4703    43.9313
 2412.5000     0.4700    43.9387
 2413.0000     0.4698    43.9461
 2413.5000     0.4695    43.9535
 2414.0000     0.4693    43.9609
 2414.5000     0.4690    43.9683
 2415.0000     0.4687    43.9758
 2415.5000     0.4685    43.9832
 2416.0000     0.4788    43.9906
 2416.5000     0.4785    43.9980
 2417.0000     0.4783    44.0054
 2417.5000     0.4780    44.0128
 2418.0000     0.4777    44.0202
 2418.5000     0.4775    44.0276
 2419.0000     0.4772    44.0351
 2419.5000     0.4769    44.0425
 2420.0000     0.4767    44.0499
 2420.5000     0.4764    44.0573
 2421.0000     0.4762    44.0647
 2421.5000     0.4759    44.0721
 2422.0000     0.4862    44.0795
 2422.5000     0.4860    44.0869
 2423.0000     0.4856    44.0944
 2423.5000     0.4854    44.1018
 2424.0000     0.4851    44.1092
 2424.5000     0.4849    44.1166
 2425.0000     0.4846    44.1240
 2425.5000     0.4950    44.1813
 2426.0000     0.4417    44.1735
 2426.5000     0.4415    44.1318
 2427.0000     0.4518    44.0902
 2427.5000     0.4626    44.0485
 2428.0000     0.4831    44.0068
 2428.5000     0.4827    43.9651
 2429.0000     0.4931    43.9234
 2429.5000     0.5034    43.8817
 2430.0000     0.5138    43.8400
 2430.5000     0.5241    43.7983
 2431.0000     0.5238    43.7566
 2431.5000     0.5341    43.7149
 2432.0000     0.5339    43.6733
 2432.5000     0.5336    43.6316
 2433.0000     0.5334    43.5899
 2433.5000     0.5225    43.5482
 2434.0000     0.5222    43.5065
 2434.5000     0.5219    43.4697
 2435.0000     0.5111    43.4479
 2435.5000     0.5108    43.4261
 2436.0000     0.5106    43.4043
 2436.5000     0.4997    43.3825
 2437.0000     0.4995    43.3607
 2437.5000     0.4992    43.3389
 2438.0000     0.4989    43.3171
 2438.5000     0.4987    43.2953
 2439.0000     0.4984    43.2735
 2439.5000     0.4875    43.2518
 2440.0000     0.4767    43.2300
 2440.5000     0.4766    43.2082
 2441.0000     0.4764    43.1864
 2441.5000     0.4763    43.1646
 2442.0000     0.4761    43.1428
 2442.5000     0.4760    43.1210
 2443.0000     0.4759    43.0992
 2443.5000     0.4652    43.0774
 2444.0000     0.4650    43.0556
 2444.5000     0.4649    43.0338
 2445.0000     0.4754    43.0120
 2445.5000     0.4752    42.9902
 2446.0000     0.4645    42.9684
 2446.5000     0.4644    42.9466
 2447.0000     0.4748    42.9248
 2447.5000     0.4747    42.9030
 2448.0000     0.4746    42.8812
 2448.5000     0.4744    42.8594
 2449.0000     0.4743    42.8376
 2449.5000     0.6331    42.8158
 2450.0000     0.6435    42.7913
 2450.5000     0.6434    50.2630
 2451.0000     0.6433    54.5656
 2451.5000     0.6431    53.5865
 2452.0000     0.6430    52.6074
 2452.5000     0.6429    52.6849
 2453.0000     0.6427    52.7620
 2453.5000     0.6426    51.7829
 2454.0000     0.5895    51.8662
 2454.5000     0.5152    51.9374
 2455.0000     0.5151    50.9583
 2455.5000     0.5150    51.0476
 2456.0000     0.5148    50.9368
 2456.5000     0.5147    49.9324
 2457.0000     0.5252    49.1725
 2457.5000     0.5250    48.9811
 2458.0000     0.5249    48.2746
 2458.5000     0.5247    48.6783
 2459.0000     0.5246    49.4894
 2459.5000     0.5245    49.5687
 2460.0000     2.0180    49.6479
 2460.5000     2.0285    49.7271
 2461.0000     2.0283    48.8896
 2461.5000     2.0388    46.3170
 2462.0000     1.6997    43.1454
 2462.5000     1.5830    41.5933
 2463.0000     1.5829    40.5406
 2463.5000     1.5828    38.4537
 2464.0000     1.5826    36.9859
