~VERSION INFORMATION
 VERS.                2.0:   CWLS LOG ASCII STANDARD - VERSION 2.0
 WRAP.                 NO:   ONE LINE PER DEPTH STEP
~WELL INFORMATION
#MNEM.UNIT      DATA TYPE    INFORMATION
#----------   ------------   ------------------------------
 STRT.F           30.0000:   START DEPTH
 STOP.F          634.0000:   STOP DEPTH
 STEP.F            0.5000:   STEP LENGTH
 NULL.          -999.2500:   NO VALUE
 COMP. FENIX & SCISSON INC:   COMPANY
 WELL.     26-S-11 #26-11:   WELL
 FLD .             TEAPOT:   FIELD
 LOC .      S11 T38N R78W:   LOCATION
 CNTY.            NATRONA:   COUNTY
 STAT.            WYOMING:   STATE
 CTRY. UNITED STATES OF AMERICA:   COUNTRY
 SRVC.              Welex:   SERVICE COMPANY
 DATE.        26-APR-1977:   LOGDATE
 API .       490251034300:   API NUMBER
~CURVE INFORMATION
#MNEM.UNIT       API CODE    CURVE DESCRIPTION
#----------   ------------   ------------------------------
 DEPT.F                  :   
 SPR .MV     07 010 01 00:   SPONTANEOUS POTENTIAL
 ILD .OHMM   07 120 46 00:   INDUCTION LOG DEEP
 ILM .OHMM   07 120 44 00:   INDUCTION LOG MEDIUM
 SGRD.OHMM   07 221 05 00:   SHALLOW SHORT GUARD RESISTIVITY
 CALD.IN     45 280 60 00:   CALIPER FROM DENSITY LOG
 GRD .GAPI   45 310 01 00:   GAMMA RAY FROM DENSITY LOG
 CORR.G/C3   45 356 01 00:   DENSITY CORRECTION
 DPHI.DEC    45 890 12 00:   DENSITY POROSITY SANDSTONE
 RHOB.G/C3   45 350 01 00:   BULK DENSITY
~PARAMETER INFORMATION
#MNEM.UNIT          VALUE    DESCRIPTION
#----------   ------------   ------------------------------
 PD  .                 GL:   PERMANENT DATUM
 EPD .F              5179:   ELEVATION PERMANENT DATUM
 LMF .                 GL:   LOG MEASURED FROM
 DMF .                 GL:   DRILLING MEASURED FROM
 EGL .F              5179:   GROUND LEVEL
 DATE.          4-24-1977:   RUN DATE
 RUN .                  1:   RUN NUMBER
 DD  .F               645:   DEPTH DRILLER
 DL  .F               634:   DEPTH LOGGER
 BLI .F               632:   BOTTOM LOG INTERVAL
 TLI .F                40:   TOP LOG INTERVAL
 CS  .IN            8.625:   CASING SIZE
 CBD .F                40:   CASING BOTTOM DRILLER
 CBL .F                42:   CASING BOTTOM LOGGER
 BS  .IN            7.875:   BIT SIZE
 BSD .F               645:   BIT SIZE AT DEPTH
 DFT .            KCL MUD:   DRILLING FLUID TYPE
 DFD .                8.8:   DRILLING FLUID DENSITY
 DFV .                 33:   DRILLING FLUID VISCOSITY
 DFPH.                7.5:   DRILLING FLUID PH
 DFL .                 96:   DRILLING FLUID LOSS
 MSS .           FLOWLINE:   MUD SAMPLE SOURCE
 RMS .OHMM            .17:   RESISTIVITY MUD SAMPLE
 MST .F                81:   MUD SAMPLE TEMPERATURE
 RMF .OHMM            .16:   RESISTIVITY MUD FILTRATE SAMPLE
 MFST.F                81:   MUD FILTRATE SAMPLE TEMPERATURE
 RMC .OHMM            .21:   RESISTIVITY MUD CAKE
 MCST.F                81:   MUD CAKE SAMPLE TEMPERATURE
 MFSS.           FANN KIT:   MUD FILTRATE SAMPLE SOURCE
 MCSS.           FANN KIT:   MUD CAKE SAMPLE SOURCE
 RMB .OHMM            .19:   RESISTIVITY MUD AT BHT
 BHT .F                72:   BOTTOM HOLE TEMPERATURE
 TCS .HRS             1.5:   TIME CURCULATED STOPPED
 MRT .F                72:   MAXIMUM RECORDED TEMPERATURE
 LUN .                861:   LOGGING UNIT NUMBER
 LUL .           GILLETTE:   LOGGING UNIT LOCATION
 ENGI.             JOYNER:   RECORDING ENGINEER
 WITN.           ROB LYON:   WITNESSED BY
 CLNT.            A2DTECH:   CLIENT CODE
 ORIG.         2.5" PRINT:   ORIGIN OF DATA
 UWI .       490251034300:   UNIQUE WELL ID
 DICO. A2D Technologies, Inc.:   DIGITIZING COMPANY
~OTHER INFORMATION
~A   DEPT      SPR        ILD        ILM       SGRD       CALD        GRD       CORR       DPHI       RHOB   
# ...
  395.0000   -33.8520     5.1475     6.0647     7.8817     7.9387   127.4605     0.0230     0.1123     2.4708
  395.5000   -33.8505     4.9353     6.1515     8.4688     7.9386   129.3250     0.0229     0.1147     2.4619
  396.0000   -34.1511     4.7988     6.0347     8.5458     7.9385   129.9061     0.0228     0.1129     2.4589
  396.5000   -34.1495     4.6893     5.8680     8.5458     7.9384   130.5816     0.0228     0.1123     2.4692
  397.0000   -34.1480     4.6009     5.7060     8.3180     7.9383   132.1378     0.0286     0.1129     2.4766
  397.5000   -34.1465     4.5368     5.6273     7.6324     7.9382   131.7595     0.0315     0.1153     2.4810
  398.0000   -34.1450     4.4326     5.4990     6.5149     7.9381   129.6989     0.0255     0.1213     2.4558
  398.5000   -34.1435     4.4323     5.6056     5.9198     7.9380   128.6109     0.0186     0.1272     2.4321
  399.0000   -34.1420     4.4681     5.7948     5.7598     7.9371   130.3607     0.0105     0.1326     2.4202
  399.5000   -33.8384     4.5914     6.0161     7.4438     7.9362   131.5294     0.0104     0.1320     2.4083
  400.0000   -33.8369     4.7398     6.3066     9.1474     7.9352   132.6989     0.0109     0.1141     2.4393
  400.5000   -33.2364     4.9146     6.5491     8.7815     7.9336   129.4667     0.0125     0.1031     2.4671
  401.0000   -33.2417     5.0501     6.7371     8.9425     7.9320   127.3893     0.0133     0.0941     2.4852
  401.5000   -33.2462     5.2605     6.8338     9.1474     7.9304   122.9956     0.0132     0.0933     2.4915
  402.0000   -33.2508     5.3783     6.9913     9.1892     7.9288   120.9462     0.0132     0.0965     2.4925
  402.5000   -33.2553     5.4797     6.8928     9.2727     7.9271   120.3544     0.0131     0.1012     2.4855
  403.0000   -33.2598     5.6008     6.7555     9.3912     7.9255   120.0616     0.0131     0.1060     2.4801
  403.5000   -33.2643     5.4941     6.6590     9.5284     7.9239   120.3573     0.0160     0.1102     2.4756
  404.0000   -33.2689     5.3156     6.4720     9.5143     7.9223   120.6471     0.0160     0.1084     2.4691
  404.5000   -33.5755     5.0607     6.2902     9.3783     7.9207   120.9282     0.0159     0.1060     2.4642
  405.0000   -33.7211     4.9235     6.2003     9.2441     7.9190   120.6207     0.0159     0.1072     2.4708
  405.5000   -33.8867     4.8189     6.0262     8.9614     7.9174   120.0288     0.0158     0.1132     2.4804
  406.0000   -34.0403     4.7240     5.9401     8.4192     7.9158   119.4252     0.0160     0.1168     2.4610
  406.5000   -34.1979     4.6589     5.7732     7.2623     7.9142   118.8579     0.0187     0.1197     2.4432
  407.0000   -34.0453     4.6243     5.7344     6.3372     7.9125   120.6677     0.0187     0.1199     2.4389
  407.5000   -33.7438     4.6870     5.9448     5.8981     7.9109   122.6906     0.0186     0.1168     2.4570
  408.0000   -33.3052     4.7827     6.1659     7.1656     7.9093   123.8612     0.0186     0.1079     2.4808
  408.5000   -33.1405     4.9146     6.5261     8.7532     7.9077   125.0152     0.0182     0.0960     2.4912
  409.0000   -33.0121     5.0502     6.8864     8.3547     7.9061   126.1848     0.0155     0.0931     2.4921
  409.5000   -33.0166     5.2605     7.1835     8.1560     7.9044   127.0427     0.0151     0.0961     2.4844
  410.0000   -32.7190     5.4454     7.3886     8.8347     7.9028   123.1281     0.0125     0.1008     2.4787
  410.5000   -32.7244     5.7507     7.7074     9.5808     7.9012   120.2890     0.0124     0.0985     2.4843
  411.0000   -32.7289     6.1197     7.9273    10.2718     7.8996   120.5779     0.0094     0.0961     2.4887
  411.5000   -32.7334     6.5015     8.1536    10.5675     7.8980   120.2576     0.0123     0.0973     2.4892
  412.0000   -32.7379     6.7202     8.2689    10.6589     7.8963   119.2552     0.0118     0.0997     2.4827
  412.5000   -32.4403     7.0001     8.3857    10.8094     7.8947   115.1882     0.0093     0.1021     2.4773
  413.0000   -32.4448     7.1932     8.5042    10.9622     7.8931   114.4019     0.0092     0.1068     2.4724
  413.5000   -32.4493     7.3308     8.5036    10.9614     7.8915   117.2478     0.0092     0.1092     2.4645
  414.0000   -32.1511     7.3299     8.5030    10.9606     7.8899   120.6334     0.0091     0.1080     2.4607
  414.5000   -32.1562     7.3289     8.5024    10.9599     7.8882   121.7202     0.0056     0.1033     2.4753
  415.0000   -32.1607     7.4282     8.5018    10.9591     7.8866   120.7771     0.0031     0.0980     2.4790
  415.5000   -32.1652     7.4272     8.5012    10.9583     7.8850   119.3651     0.0060     0.0938     2.4841
  416.0000   -32.1697     7.3259     8.5006    10.9575     7.8834   120.3031     0.0090     0.0891     2.4926
  416.5000   -31.8716     7.4252     8.6207    10.9568     7.8818   121.7991     0.0096     0.0921     2.4933
  417.0000   -31.8766     7.4242     8.7426    10.9560     7.8801   121.9914     0.0125     0.0963     2.4880
  417.5000   -31.8811     7.3229     8.7420    11.1109     7.8785   118.5900     0.0148     0.0986     2.4857
  418.0000   -31.8856     7.3219     8.7414    11.1099     7.8769   118.4636     0.0147     0.0992     2.4850
  418.5000   -31.8901     7.2220     8.7408    11.1091     7.8753   120.6203     0.0117     0.1010     2.4820
  419.0000   -31.8946     7.2210     8.4970    10.7994     7.8737   122.0479     0.0087     0.1028     2.4796
  419.5000   -31.8991     7.1225     8.3774    10.6474     7.8720   122.9633     0.0086     0.1082     2.4760
  420.0000   -31.9036     7.1215     8.2595    10.4975     7.8704   124.4282     0.0086     0.1084     2.4708
  420.5000   -31.9081     7.1206     8.0292    10.6459     7.8688   124.8933     0.0086     0.1052     2.4677
  421.0000   -31.9126     7.0234     7.8053    10.9497     7.8672   122.7126     0.0085     0.1052     2.4706
  421.5000   -31.9171     6.8339     7.4814    11.2623     7.8656   120.9877     0.0085     0.1064     2.4757
  422.0000   -31.9216     6.6496     7.1710    11.5837     7.8639   121.1534     0.0093     0.1094     2.4838
  422.5000   -31.9261     6.2966     6.7763    11.9142     7.8636   121.9868     0.0122     0.1118     2.4876
  423.0000   -31.9306     6.0439     6.4917    11.9134     7.8633   121.8935     0.0152     0.1136     2.4765
  423.5000   -32.2373     5.8014     6.2197    11.7457     7.8630   120.9624     0.0172     0.1112     2.4683
  424.0000   -32.2418     5.5687     5.8800    11.2583     7.8628   119.5366     0.0181     0.1095     2.4660
  424.5000   -32.2463     5.3452     5.6347     9.9154     7.8625   118.9930     0.0201     0.1119     2.4727
  425.0000   -32.2508     5.2011     5.5479     8.7327     7.8622   119.7214     0.0200     0.1184     2.4645
  425.5000   -31.6510     5.0608     5.3227     7.0670     7.8619   121.7728     0.0200     0.1238     2.4363
  426.0000   -31.3454     5.0601     5.1731     5.5599     7.8616   123.8748     0.0199     0.1285     2.4103
  426.5000   -31.0439     5.4155     5.2739     6.7733     7.8613   126.2723     0.0199     0.1374     2.4016
  427.0000   -30.7422     6.0374     5.5820     9.2370     7.8610   128.9120     0.0188     0.1303     2.4224
  427.5000   -30.1386     6.4615     6.0058    11.4126     7.8607   131.8699     0.0168     0.1101     2.4655
  428.0000   -29.8368     6.6388     6.4321    13.1404     7.8604   126.1133     0.0198     0.0918     2.5096
  428.5000   -29.5352     6.7289     6.8079    13.5154     7.8601   118.9458     0.0238     0.0775     2.5161
  429.0000   -28.9315     6.7279     7.2056    13.7065     7.8598   112.6246     0.0286     0.0799     2.5145
  429.5000   -28.6299     6.7270     7.4962    13.7055     7.8595   110.8577     0.0315     0.0829     2.5093
  430.0000   -28.0662     6.7261     7.8213    13.7045     7.8592   111.3783     0.0315     0.0847     2.5019
  430.5000   -27.7246     6.9107     8.0180    13.7003     7.8589   113.6637     0.0314     0.0871     2.4989
  431.0000   -27.1209     7.3961     8.1617    13.5107     7.8587   115.1281     0.0284     0.0901     2.4959
