~VERSION INFORMATION
 VERS.                2.0:   CWLS LOG ASCII STANDARD - VERSION 2.0
 WRAP.                 NO:   ONE LINE PER DEPTH STEP
~WELL INFORMATION
#MNEM.UNIT      DATA TYPE    INFORMATION
#----------   ------------   ------------------------------
 STRT.F          610.5000:   START DEPTH
 STOP.F         2311.0000:   STOP DEPTH
 STEP.F            0.5000:   STEP LENGTH
 NULL.          -999.2500:   NO VALUE
 COMP. BROWN JOHN E&C INC:   COMPANY
 WELL.  48-1SHX-34 #48-34:   WELL
 FLD .             TEAPOT:   FIELD
 LOC .      S34 T39N R78W:   LOCATION
 CNTY.            NATRONA:   COUNTY
 STAT.            WYOMING:   STATE
 CTRY. UNITED STATES OF AMERICA:   COUNTRY
 SRVC.            Unknown:   SERVICE COMPANY
 DATE.        16-SEP-1991:   LOGDATE
 API .       490251109000:   API NUMBER
~CURVE INFORMATION
#MNEM.UNIT       API CODE    CURVE DESCRIPTION
#----------   ------------   ------------------------------
 DEPT.F                  :   
 ROP .MIN/FT 91 810 01 00:   RAT OF DRILLING PENETRATION
 TGAS.UNITS  91 830 01 00:   TOTAL GAS FROM HOTWIRE
~PARAMETER INFORMATION
#MNEM.UNIT          VALUE    DESCRIPTION
#----------   ------------   ------------------------------
 EKB .F              5163:   KELLING BUSHING
 EGL .F              5152:   GROUND LEVEL
 DATE.            9-16-91:   RUN DATE
 DD  .F              2311:   DEPTH DRILLER
 TCS .HRS            0200:   TIME CURCULATED STOPPED
 TLAB.HRS            0115:   TIME LOGGER AT BOTTOM
 ENGI.             HENDRY:   RECORDING ENGINEER
 WITN.               HUSK:   WITNESSED BY
 CLNT.            A2DTECH:   CLIENT CODE
 ORIG.           5" PRINT:   ORIGIN OF DATA
 UWI .       490251109000:   UNIQUE WELL ID
 DICO. A2D Technologies, Inc.:   DIGITIZING COMPANY
~OTHER INFORMATION
~A   DEPT        ROP       TGAS 
# ...
 1582.5000     1.0637     7.8151
 1583.0000     1.0591     7.8151
 1583.5000     1.0545     7.8151
 1584.0000     1.0492     7.8151
 1584.5000     1.0853     7.8151
 1585.0000     1.1411     7.8151
 1585.5000     1.1974     7.8151
 1586.0000     1.2535     7.8151
 1586.5000     1.2746     7.8151
 1587.0000     1.2624     7.8151
 1587.5000     1.2335     7.8151
 1588.0000     1.2047     7.8151
 1588.5000     1.1759     7.8151
 1589.0000     1.1472     7.8151
 1589.5000     1.1184     7.8151
 1590.0000     1.0896     7.8151
 1590.5000     1.0706     7.8151
 1591.0000     1.0633     7.8151
 1591.5000     1.0561     7.8151
 1592.0000     1.0477     7.8151
 1592.5000     1.0188     7.8151
 1593.0000     0.9918     7.8151
 1593.5000     0.9155     7.8151
 1594.0000     0.8601     7.8151
 1594.5000     0.8358     7.8151
 1595.0000     0.8468     7.8151
 1595.5000     0.8970     7.8151
 1596.0000     0.9453     7.8151
 1596.5000     0.9931     7.8151
 1597.0000     1.0023     7.8151
 1597.5000     1.0062     7.8151
 1598.0000     1.0101     7.8151
 1598.5000     1.0140     7.8151
 1599.0000     1.0180     7.8151
 1599.5000     1.0223     7.8151
 1600.0000     1.0442     7.8154
 1600.5000     1.0850     7.8306
 1601.0000     1.1255     7.8618
 1601.5000     1.1663     7.8927
 1602.0000     1.1876     7.9238
 1602.5000     1.1850     7.9549
 1603.0000     1.1393     7.9859
 1603.5000     1.0942     8.0170
 1604.0000     1.0494     8.0481
 1604.5000     1.0046     8.0791
 1605.0000     0.9987     8.1102
 1605.5000     0.9987     8.1412
 1606.0000     0.9987     8.1723
 1606.5000     0.9988     8.2034
 1607.0000     0.9990     8.2344
 1607.5000     0.9972     8.2655
 1608.0000     0.9579     8.2965
 1608.5000     0.9180     8.3276
 1609.0000     0.8787     8.3587
 1609.5000     0.8540     8.3897
 1610.0000     0.8893     8.4208
 1610.5000     0.9234     8.4519
 1611.0000     0.9573     8.4829
 1611.5000     0.9909     8.5140
 1612.0000     1.0098     8.5450
 1612.5000     1.0050     8.5761
 1613.0000     1.0006     8.6072
 1613.5000     0.9961     8.6382
 1614.0000     0.9916     8.6693
 1614.5000     0.9872     8.7003
 1615.0000     0.9827     8.7314
 1615.5000     0.9784     8.7625
 1616.0000     0.9705     8.7937
 1616.5000     0.9661     8.8229
 1617.0000     0.9718     8.8237
 1617.5000     0.9779     8.8236
 1618.0000     0.9841     8.8235
 1618.5000     0.9902     8.8235
 1619.0000     0.9963     8.8235
 1619.5000     1.0024     8.8235
 1620.0000     1.0085     8.8235
 1620.5000     1.0113     8.8235
 1621.0000     1.0116     8.8235
 1621.5000     0.9999     8.8235
 1622.0000     0.9842     8.8235
 1622.5000     0.9571     8.8235
 1623.0000     0.9037     8.8235
 1623.5000     0.8486     8.8235
 1624.0000     0.8289     8.8235
 1624.5000     0.8192     8.8235
 1625.0000     0.8100     8.8235
 1625.5000     0.8002     8.8235
 1626.0000     0.8124     8.8235
 1626.5000     0.8318     8.8235
 1627.0000     0.8755     8.8235
 1627.5000     0.9208     8.8235
 1628.0000     0.9657     8.8235
 1628.5000     0.9883     8.8235
 1629.0000     0.9382     8.8235
 1629.5000     0.8903     8.8235
 1630.0000     0.8425     8.8235
 1630.5000     0.7984     8.8235
 1631.0000     0.7961     8.8235
 1631.5000     0.7950     8.8235
 1632.0000     0.7937     8.8235
 1632.5000     0.7923     8.8235
 1633.0000     0.7910     8.8235
 1633.5000     0.7897     8.8235
 1634.0000     0.7883     8.8235
 1634.5000     0.7870     8.8235
 1635.0000     0.7856     8.8235
 1635.5000     0.7916     8.8235
 1636.0000     0.8021     8.8235
 1636.5000     0.8206     8.8235
 1637.0000     0.8759     8.8235
 1637.5000     0.9301     8.8235
 1638.0000     0.9747     8.8235
 1638.5000     0.9737     8.8235
 1639.0000     0.9735     8.8235
 1639.5000     0.9736     8.8235
 1640.0000     0.9846     8.8235
 1640.5000     1.0520     8.8235
 1641.0000     1.1189     8.8235
 1641.5000     1.1852     8.8235
 1642.0000     1.2086     8.8235
 1642.5000     1.2301     8.8235
 1643.0000     1.2517     8.8235
 1643.5000     1.2736     8.8235
 1644.0000     1.3082     8.8235
 1644.5000     1.3682     8.8235
 1645.0000     1.4279     8.8235
 1645.5000     1.4877     8.8235
 1646.0000     1.5500     8.8235
 1646.5000     1.6476     8.8235
 1647.0000     1.7503     8.8235
 1647.5000     1.8549     8.8235
 1648.0000     1.8753     8.8235
 1648.5000     1.7606     8.8235
 1649.0000     1.6431     8.8235
 1649.5000     1.5263     8.8235
 1650.0000     1.4085     8.8235
 1650.5000     1.3265     8.8235
 1651.0000     1.2373     8.8235
 1651.5000     1.1504     8.8235
 1652.0000     1.0721     8.8235
 1652.5000     1.0936     8.8235
 1653.0000     1.1597     8.8235
 1653.5000     1.2246     8.8235
 1654.0000     1.2896     8.8235
 1654.5000     1.3545     8.8235
 1655.0000     1.4194     8.8235
 1655.5000     1.4847     8.8235
 1656.0000     1.5075     8.8235
 1656.5000     1.4638     8.8235
 1657.0000     1.3836     8.8235
 1657.5000     1.3103     8.8269
 1658.0000     1.3073     8.8532
 1658.5000     1.3031     8.8796
 1659.0000     1.2986     8.9059
 1659.5000     1.2940     8.9322
 1660.0000     1.2900     8.9585
 1660.5000     1.2408     8.9848
 1661.0000     1.1615     9.0111
 1661.5000     1.0808     9.0374
 1662.0000     1.0586     9.0638
 1662.5000     1.0758     9.0901
 1663.0000     1.1465     9.1164
 1663.5000     1.2194     9.1427
 1664.0000     1.2760     9.1690
 1664.5000     1.2875     9.1953
 1665.0000     1.2877     9.2216
 1665.5000     1.2877     9.2480
 1666.0000     1.2877     9.2746
 1666.5000     1.2877     9.3023
 1667.0000     1.2877     9.3207
 1667.5000     1.2877     9.0577
 1668.0000     1.2877     8.7758
 1668.5000     1.2877     8.4947
 1669.0000     1.2877     8.2140
 1669.5000     1.2877     7.9252
 1670.0000     1.2877     7.5900
 1670.5000     1.2877     7.2800
 1671.0000     1.2876    14.6047
 1671.5000     1.2886    42.3968
 1672.0000     1.2454    64.9775
 1672.5000     1.1802    59.6437
 1673.0000     1.0220    52.8783
 1673.5000     0.8931    48.1711
 1674.0000     0.8297    44.7330
 1674.5000     0.7853    41.3275
 1675.0000     0.7906    37.8908
 1675.5000     0.7948    36.5169
 1676.0000     0.7978    36.3414
 1676.5000     0.7977    36.1834
 1677.0000     0.7977    36.1097
 1677.5000     0.7976    37.8760
 1678.0000     0.8028    38.8658
 1678.5000     0.8439    39.6394
 1679.0000     0.8853    40.0888
 1679.5000     0.9266    40.0619
 1680.0000     0.9681    40.0416
 1680.5000     1.0095    40.0200
 1681.0000     1.0117    39.9988
 1681.5000     1.0088    39.9776
 1682.0000     0.9897    39.9563
 1682.5000     0.9596    39.9351
 1683.0000     0.8673    39.9139
 1683.5000     0.8262    39.8927
 1684.0000     0.7971    39.8714
 1684.5000     0.7853    39.8502
 1685.0000     0.7849    39.8290
 1685.5000     0.7864    39.8077
 1686.0000     0.8315    39.7865
 1686.5000     0.8790    39.7653
 1687.0000     0.9267    39.7441
 1687.5000     0.9615    39.7228
 1688.0000     0.9977    39.7016
 1688.5000     0.9994    39.6804
 1689.0000     0.9998    39.6591
 1689.5000     1.0004    39.6379
 1690.0000     1.0011    39.6165
 1690.5000     1.0017    39.5950
 1691.0000     1.0024    39.5829
 1691.5000     1.0030    39.6582
 1692.0000     1.0037    39.7331
 1692.5000     1.0043    39.8075
 1693.0000     1.0050    39.8818
 1693.5000     1.0056    39.9562
 1694.0000     1.0063    40.0302
 1694.5000     1.0069    40.0852
 1695.0000     1.0076    40.0841
 1695.5000     1.0082    40.0841
 1696.0000     1.0089    40.0840
 1696.5000     1.0096    40.0840
 1697.0000     1.0103    40.0840
 1697.5000     1.0107    40.0840
 1698.0000     0.9986    40.0840
 1698.5000     0.9439    40.0840
 1699.0000     0.8913    40.0840
 1699.5000     0.8382    40.0840
 1700.0000     0.8146    40.0840
 1700.5000     0.8026    40.0840
 1701.0000     0.7907    40.0840
 1701.5000     0.7789    40.0840
 1702.0000     0.7809    40.0840
 1702.5000     0.7994    40.0840
 1703.0000     0.8402    40.0840
 1703.5000     0.9219    40.0840
