~VERSION INFORMATION
 VERS.                2.0:   CWLS LOG ASCII STANDARD - VERSION 2.0
 WRAP.                 NO:   ONE LINE PER DEPTH STEP
~WELL INFORMATION
#MNEM.UNIT      DATA TYPE    INFORMATION
#----------   ------------   ------------------------------
 STRT.F           30.0000:   START DEPTH
 STOP.F         2423.0000:   STOP DEPTH
 STEP.F            0.5000:   STEP LENGTH
 NULL.          -999.2500:   NO VALUE
 COMP. DEPARTMENT OF ENERGY:   COMPANY
 WELL.   NPR-3 #35-1 X 10:   WELL
 FLD .        TEAPOT DOME:   FIELD
 LOC .      S10 T38N R78W:   LOCATION
 CNTY.            NATRONA:   COUNTY
 STAT.            WYOMING:   STATE
 CTRY. UNITED STATES OF AMERICA:   COUNTRY
 SRVC.       Schlumberger:   SERVICE COMPANY
 DATE.        15-JAN-1999:   LOGDATE
 API .       490252282200:   API NUMBER
~CURVE INFORMATION
#MNEM.UNIT       API CODE    CURVE DESCRIPTION
#----------   ------------   ------------------------------
 DEPT.F                  :   
 GRR .GAPI   06 310 01 00:   GAMMA RAY FROM RESISTIVITY
 SPR .MV     06 010 01 00:   SPONTANEOUS POTENTIAL FROM RES.
 HD  .IN     06 280 01 00:   HOLE DIAMETER
 AT90.OHMM   06 120 90 00:   90-IN. RESISTIVITY, 2-FT RESOLUTION
 AT30.OHMM   06 120 30 00:   30-IN. RESISTIVITY, 2-FT RESOLUTION
 AT10.OHMM   06 120 10 00:   10-IN. RESISTIVITY, 2-FT RESOLUTION
~PARAMETER INFORMATION
#MNEM.UNIT          VALUE    DESCRIPTION
#----------   ------------   ------------------------------
 PD  .                 GL:   PERMANENT DATUM
 EPD .F              5228:   ELEVATION PERMANENT DATUM
 LMF .                 KB:   LOG MEASURED FROM
 DAPD.F                10:   FEET ABOVE PERMANENT DATUM
 DMF .                 KB:   DRILLING MEASURED FROM
 EKB .F              5238:   KELLING BUSHING
 EDF .F              5237:   DRILLING FLOOR
 EGL .F              5228:   GROUND LEVEL
 DATE.        15-JAN-1999:   RUN DATE
 RUN .                  1:   RUN NUMBER
 DD  .F              2400:   DEPTH DRILLER
 DL  .F              2421:   DEPTH LOGGER
 BLI .F              2393:   BOTTOM LOG INTERVAL
 TLI .F                30:   TOP LOG INTERVAL
 CS  .IN            9.625:   CASING SIZE
 CBD .F               778:   CASING BOTTOM DRILLER
 CBL .F               773:   CASING BOTTOM LOGGER
 BS  .IN              8.5:   BIT SIZE
 BSD .F              2400:   BIT SIZE AT DEPTH
 DFT .            GEL/KCL:   DRILLING FLUID TYPE
 DFD .                8.9:   DRILLING FLUID DENSITY
 DFV .                 39:   DRILLING FLUID VISCOSITY
 DFPH.                  9:   DRILLING FLUID PH
 DFL .                8.8:   DRILLING FLUID LOSS
 MSS .            MUD PIT:   MUD SAMPLE SOURCE
 RMS .OHMM            .29:   RESISTIVITY MUD SAMPLE
 MST .F                65:   MUD SAMPLE TEMPERATURE
 RMF .OHMM            .22:   RESISTIVITY MUD FILTRATE SAMPLE
 MFST.F                65:   MUD FILTRATE SAMPLE TEMPERATURE
 RMC .OHMM            .43:   RESISTIVITY MUD CAKE
 MCST.F                65:   MUD CAKE SAMPLE TEMPERATURE
 MFSS.          MUD PRESS:   MUD FILTRATE SAMPLE SOURCE
 MCSS.         CALCULATED:   MUD CAKE SAMPLE SOURCE
 RMB .OHMM           .195:   RESISTIVITY MUD AT BHT
 BHT .F               100:   BOTTOM HOLE TEMPERATURE
 TCS .HRS            2015:   TIME CURCULATED STOPPED
 TLAB.HRS            2315:   TIME LOGGER AT BOTTOM
 MRT .F               100:   MAXIMUM RECORDED TEMPERATURE
 LUN .               2102:   LOGGING UNIT NUMBER
 LUL .             CASPER:   LOGGING UNIT LOCATION
 ENGI.    TISOVEC/PIERSON:   RECORDING ENGINEER
 WITN.           ESMERSON:   WITNESSED BY
 CLNT.            A2DTECH:   CLIENT CODE
 ORIG.       2", 5" PRINT:   ORIGIN OF DATA
 UWI .       490252282200:   UNIQUE WELL ID
 DICO. A2D Technologies, Inc.:   DIGITIZING COMPANY
~OTHER INFORMATION
~A   DEPT       GRR       SPR         HD       AT90       AT30       AT10   
# ...
 2162.0000    97.6405   -10.1306     8.3962     9.7205     9.2181     8.9460
 2162.5000   103.6329   -10.1446     8.3941    10.0680     9.3480     9.0999
 2163.0000   107.1602   -10.1580     8.3954    10.0225     9.3480     9.1290
 2163.5000   108.6638   -10.1724     8.3962     9.9588     9.3480     9.1581
 2164.0000   109.0428   -10.1854     8.3973     9.8830     9.3480     9.1762
 2164.5000   109.3269   -10.2001     8.3982     9.2066     8.6234     8.3416
 2165.0000   108.3350   -10.1651     8.3992     8.4280     7.6225     7.3449
 2165.5000   106.4730   -10.1151     8.4002     7.9106     7.6935     7.4133
 2166.0000   104.6831   -10.0633     8.4012     8.5657     8.2304     7.9746
 2166.5000   103.4094   -10.0206     8.4021     9.2149     8.7563     8.5272
 2167.0000   103.5705    -9.9461     8.4031     9.9132     9.4351     9.1181
 2167.5000   105.3958    -9.8507     8.4041    10.3521     9.8008     9.6117
 2168.0000   108.2783    -9.7661     8.4051    10.4486    10.0680     9.7917
 2168.5000   109.4613    -9.6790     8.4060    10.6578    10.0680     9.9018
 2169.0000   108.7724    -9.5901     8.4070    10.9445    10.1991    10.0680
 2169.5000   109.0724    -9.5076     8.4080    10.7494    10.3219     9.9765
 2170.0000   110.4543    -9.4133     8.4089    10.5410    10.2486     9.8517
 2170.5000   106.8844    -9.4426     8.4099    10.3366    10.1132     9.7283
 2171.0000   102.5685    -9.5467     8.4109    10.0680     9.9797     9.6117
 2171.5000   102.1619    -9.6414     8.4119    10.1003     9.7917     9.8524
 2172.0000   109.0334    -9.7605     8.4128    10.2219     9.8859    10.1436
 2172.5000   115.2602    -9.8818     8.4139    10.3449     9.9994    10.4435
 2173.0000   116.2317    -9.9992     8.4137    10.4694    10.1096    10.7522
 2173.5000   115.1733   -10.1291     8.4126    10.5459    10.2531    10.9445
 2174.0000   112.0088   -10.2427     8.4118    10.4486    10.0447    10.4568
 2174.5000   113.1402   -10.3404     8.4109     9.9358     9.5481     9.7113
 2175.0000   116.2861   -10.4440     8.4100     9.3588     9.0752     9.0189
 2175.5000   118.1319   -10.5552     8.4091     9.0914     8.4491     7.9843
 2176.0000   116.2382   -10.6124     8.4082     9.0914     8.5420     8.1007
 2176.5000   113.3220   -10.6050     8.4073     8.9961     8.7603     8.4326
 2177.0000   114.4285   -10.6081     8.4064     8.9243     8.6795     8.3633
 2177.5000   117.4555   -10.6051     8.4056     9.1953     8.9102     8.6978
 2178.0000   119.4875   -10.5582     8.4047     9.4351     9.1762     8.9374
 2178.5000   118.6362   -10.4879     8.4038     9.2558     8.9822     8.7208
 2179.0000   115.4380   -10.4219     8.4029     9.0075     8.5993     8.2767
 2179.5000   111.4708   -10.3539     8.4020     9.1762     8.6795     8.2931
 2180.0000   106.9124   -10.2870     8.4011     8.9876     8.5708     8.2781
 2180.5000   105.8467   -10.2194     8.4002     8.6822     8.3094     8.1266
 2181.0000   110.8354   -10.1524     8.3993     8.3872     8.0560     7.8804
 2181.5000   117.1832   -10.0843     8.3984     8.1338     7.8376     7.6225
 2182.0000   119.7910   -10.0185     8.3975     8.7266     8.4494     8.1780
 2182.5000   116.3529    -9.9485     8.3967     9.4211     9.0400     8.8288
 2183.0000   114.1150    -9.8859     8.3958    10.1618     9.7917     9.5230
 2183.5000   115.8310    -9.8110     8.3948     9.8571     9.5395     9.2475
 2184.0000   122.5502    -9.8488     8.3941     9.5230     9.2617     9.0075
 2184.5000   126.8636    -9.9498     8.3959     9.6330     9.3534     9.1642
 2185.0000   128.1512   -10.0314     8.3981     9.7917     9.4886     9.3375
 2185.5000   128.6484   -10.1208     8.4002     9.5341     9.0251     8.7947
 2186.0000   127.7274   -10.2070     8.4023     8.8544     8.2861     8.2528
 2186.5000   125.7626   -10.2937     8.4045     8.3633     8.3845     8.0556
 2187.0000   124.5467   -10.3802     8.4065     8.8121     8.5465     8.1990
 2187.5000   125.3529   -10.4073     8.4087     9.0075     8.7117     8.3181
 2188.0000   126.6683   -10.4043     8.4108     9.1861     8.9886     8.4451
 2188.5000   125.4058   -10.4048     8.4131     9.5364     9.2800     8.8316
 2189.0000   117.2349   -10.4057     8.4138    10.1664     9.5809     9.5267
 2189.5000   105.4179   -10.4027     8.4123    10.1640     9.8830     9.5252
 2190.0000    94.2040   -10.4092     8.4111     9.5490     9.2512     8.9004
 2190.5000    92.0282   -10.3537     8.4097     8.9856     8.6750     8.3326
 2191.0000    92.3688   -10.2351     8.4085     8.4552     8.1346     7.8045
 2191.5000    93.3427   -10.1300     8.4072     7.9539     7.6279     7.3117
 2192.0000    94.9319   -10.0127     8.4059     7.4959     7.1528     6.8407
 2192.5000    96.7253   -10.0233     8.4046     7.0556     6.6325     6.2734
 2193.0000    97.7903   -10.0590     8.4033     6.8196     6.5712     6.3319
 2193.5000    97.7271   -10.0905     8.4020     7.6306     6.9637     7.2057
 2194.0000    98.4404   -10.1232     8.4008     8.9148     8.3128     8.1494
 2194.5000    99.7079   -10.1572     8.3995     9.8830     9.3480     8.8420
 2195.0000    99.8498   -10.1851     8.3982     9.0914     8.5899     8.1338
 2195.5000    98.0788   -10.2254     8.3969     8.4508     7.9843     7.7652
 2196.0000    96.6757   -10.4222     8.3956     8.0302     7.0899     6.5067
 2196.5000    98.0354   -10.6767     8.3943     6.6391     6.1257     5.4632
 2197.0000    99.9515   -10.8134     8.3943     5.6974     5.2953     4.5871
 2197.5000   102.1507   -10.7660     8.3950     4.8867     4.5800     3.8514
 2198.0000   102.7672   -10.7481     8.3956     4.2979     4.2576     3.5628
 2198.5000    99.5307   -10.7142     8.3962     5.6337     5.1695     4.6179
 2199.0000    98.6580   -10.6894     8.3968     7.3687     7.8717     7.3449
 2199.5000    99.7787   -10.6588     8.3975     8.3397     7.6723     7.1234
 2200.0000    99.7290   -10.6335     8.3981     7.3207     6.6601     6.3310
 2200.5000    98.1135   -10.5897     8.3987     5.5965     5.4586     5.2112
 2201.0000    98.8820   -10.4087     8.3993     5.6206     5.5197     5.3116
 2201.5000   103.5114   -10.2387     8.4000     5.8997     5.6983     5.6126
 2202.0000   110.4293   -10.0597     8.4006     6.0922     5.8791     5.6649
 2202.5000   113.7901    -9.9935     8.4012     5.9134     5.7710     5.6649
 2203.0000   113.4529   -10.0018     8.4018     6.1283     5.9009     5.8464
 2203.5000   114.4166    -9.9980     8.4024     6.4689     6.2734     6.3385
 2204.0000   115.3763   -10.0000     8.4031     7.5617     7.3444     7.2380
 2204.5000   115.9419    -9.9990     8.4037     9.1936     8.7288     8.2636
 2205.0000   115.0798    -9.9998     8.4043     9.9750     9.7013     9.4548
 2205.5000   113.0589    -9.9998     8.4049     9.2123     8.7874     8.7814
 2206.0000   106.6846   -10.0000     8.4055     8.3463     7.9595     7.8196
 2206.5000    98.2842   -10.0001     8.4062     7.4824     7.3707     7.1734
 2207.0000    94.8843   -10.0000     8.4068     7.4824     7.2099     7.0703
 2207.5000    93.0447   -10.0003     8.4074     7.1433     7.0787     6.8604
 2208.0000    93.6278    -9.9998     8.4080     7.1004     6.9392     6.6204
 2208.5000    94.3541   -10.0010     8.4086     7.0774     6.8832     6.7041
 2209.0000    95.4762    -9.9921     8.4093     7.6051     7.2861     7.3385
 2209.5000    95.8959    -9.9633     8.4099     8.3062     8.5199     7.9080
 2210.0000    95.1412    -9.9345     8.4105     8.8420     8.3763     8.2145
 2210.5000    91.2569    -9.9056     8.4111     8.0587     7.9012     7.7895
 2211.0000    88.7430    -9.8761     8.4117     8.0955     7.6935     7.6174
 2211.5000    89.8876    -9.8482     8.4124     8.2017     8.0587     7.8519
 2212.0000    94.0754    -9.8161     8.4130     8.2861     8.0587     7.8268
 2212.5000   100.0450    -9.7921     8.4136     8.0587     7.6935     7.4308
 2213.0000   103.8105    -9.7811     8.4141     8.2625     7.8723     7.6949
 2213.5000   103.5251    -9.7665     8.4142     9.0575     8.5666     8.3694
