~VERSION INFORMATION
 VERS.                2.0:   CWLS LOG ASCII STANDARD - VERSION 2.0
 WRAP.                 NO:   ONE LINE PER DEPTH STEP
~WELL INFORMATION
#MNEM.UNIT      DATA TYPE    INFORMATION
#----------   ------------   ------------------------------
 STRT.F            2.0000:   START DEPTH
 STOP.F          522.0000:   STOP DEPTH
 STEP.F            0.5000:   STEP LENGTH
 NULL.          -999.2500:   NO VALUE
 COMP. LAWRENCE/ALLISON INC:   COMPANY
 WELL.      47-45 SX #3-3:   WELL
 FLD .             TEAPOT:   FIELD
 LOC .       S3 T38N R78W:   LOCATION
 CNTY.            NATRONA:   COUNTY
 STAT.            WYOMING:   STATE
 CTRY. UNITED STATES OF AMERICA:   COUNTRY
 SRVC.           Gearhart:   SERVICE COMPANY
 DATE.        17-JUN-1988:   LOGDATE
 API .       490251123600:   API NUMBER
~CURVE INFORMATION
#MNEM.UNIT       API CODE    CURVE DESCRIPTION
#----------   ------------   ------------------------------
 DEPT.F                  :   
 GRR .GAPI   07 310 01 00:   GAMMA RAY
 RILD.OHMM   07 120 46 00:   INDUCTION LOG DEEP RESISTIVITY
 RILM.OHMM   07 120 44 00:   INDUCTION LOG MEDIUM RESISTIVITY
~PARAMETER INFORMATION
#MNEM.UNIT          VALUE    DESCRIPTION
#----------   ------------   ------------------------------
 PD  .                 GL:   PERMANENT DATUM
 EPD .F              5197:   ELEVATION PERMANENT DATUM
 LMF .                 KB:   LOG MEASURED FROM
 DAPD.F                10:   FEET ABOVE PERMANENT DATUM
 DMF .                 KB:   DRILLING MEASURED FROM
 EKB .F              5207:   KELLING BUSHING
 EGL .F              5197:   GROUND LEVEL
 DATE.        17-JUN-1988:   RUN DATE
 RUN .                  1:   RUN NUMBER
 DD  .F               530:   DEPTH DRILLER
 DL  .F               530:   DEPTH LOGGER
 BLI .F             521.5:   BOTTOM LOG INTERVAL
 TLI .F                48:   TOP LOG INTERVAL
 CS  .IN            9.625:   CASING SIZE
 CBD .F                48:   CASING BOTTOM DRILLER
 CBL .F                48:   CASING BOTTOM LOGGER
 BS  .IN             8.75:   BIT SIZE
 BSD .F               530:   BIT SIZE AT DEPTH
 DFT .                AIR:   DRILLING FLUID TYPE
 TLAB.HRS            0600:   TIME LOGGER AT BOTTOM
 MRT .F                70:   MAXIMUM RECORDED TEMPERATURE
 LUN .               7597:   LOGGING UNIT NUMBER
 LUL .           GILLETTE:   LOGGING UNIT LOCATION
 ENGI.          HUCKFELDT:   RECORDING ENGINEER
 WITN.             STRONG:   WITNESSED BY
 CLNT.            A2DTECH:   CLIENT CODE
 ORIG.           5" PRINT:   ORIGIN OF DATA
 UWI .       490251123600:   UNIQUE WELL ID
 DICO. A2D Technologies, Inc.:   DIGITIZING COMPANY
~OTHER INFORMATION
~A    DEPT      GRR      RILD       RILM   
# ...
  366.0000    93.9283    18.8166    15.4369
  366.5000    91.5129    20.3040    17.9808
  367.0000    86.0672    21.6069    20.9438
  367.5000    77.8943    23.6407    24.0585
  368.0000    68.5092    27.3428    26.7083
  368.5000    69.7515    29.5041    29.2563
  369.0000    72.1655    31.8362    31.0814
  369.5000    74.5985    32.7236    32.3953
  370.0000    77.6377    33.4031    33.5333
  370.5000    77.0405    33.8608    34.2278
  371.0000    74.3221    34.5638    34.4593
  371.5000    71.9067    34.7951    34.6901
  372.0000    70.7030    35.0256    35.1634
  372.5000    70.4091    35.2599    35.3992
  373.0000    71.0606    35.0066    35.1443
  373.5000    72.9030    34.5146    34.6372
  374.0000    74.6804    34.0296    33.8915
  374.5000    75.5983    33.5513    33.4469
  375.0000    75.9102    33.5422    33.2064
  375.5000    76.2199    33.0708    33.1974
  376.0000    75.9257    32.8332    33.6526
  376.5000    75.9367    32.8241    33.8780
  377.0000    75.6425    32.3608    34.1072
  377.5000    74.7272    31.6853    33.6252
  378.0000    73.2360    30.8094    32.4687
  378.5000    72.9418    30.1663    31.5704
  379.0000    73.8620    29.9495    30.6629
  379.5000    75.0829    29.9414    29.7759
  380.0000    76.9100    29.3164    29.0200
  380.5000    78.4340    28.5060    28.2172
  381.0000    79.6549    27.7179    27.4365
  381.5000    79.9668    27.1388    26.8634
  382.0000    80.2788    26.5556    26.3023
  382.5000    79.6815    25.8365    25.7529
  383.0000    79.3873    25.2973    25.2150
  383.5000    79.3984    24.7692    24.6883
  384.0000    81.5284    24.4211    23.8391
  384.5000    84.2645    23.9114    23.3409
  385.0000    83.9704    23.7396    23.1717
  385.5000    81.8580    23.5690    22.6877
  386.0000    80.6545    23.3996    22.6815
  386.5000    79.7545    23.3932    22.5184
  387.0000    82.8786    23.3869    22.5123
  387.5000    85.5320    23.3804    22.5062
  388.0000    86.4499    23.3739    22.6585
  388.5000    85.2466    23.5306    23.1277
  389.0000    84.6472    23.6881    23.1214
  389.5000    85.5674    23.8466    23.6019
  390.0000    86.4853    24.1717    23.9256
  390.5000    86.5213    24.3351    24.4211
  391.0000    85.2789    24.1586    24.4144
  391.5000    83.4424    24.1520    24.4078
  392.0000    83.1873    23.9785    24.4012
  392.5000    83.8045    23.9719    24.2257
  393.0000    83.2073    23.7996    23.8850
  393.5000    81.3979    23.6016    23.7132
  394.0000    80.7985    23.1339    23.0572
  394.5000    83.2338    22.8088    22.7329
  395.0000    85.0608    22.6449    22.5693
  395.5000    86.8879    22.4821    22.4069
  396.0000    86.8606    22.1662    22.2445
  396.5000    85.6934    22.0069    21.9316
  397.0000    86.0075    21.8487    21.6232
  397.5000    86.6224    21.3927    21.1715
  398.0000    87.2373    21.2390    20.7293
  398.5000    88.1553    20.6517    20.4378
  399.0000    89.0732    20.0807    20.0109
  399.5000    89.1152    19.5244    19.4573
  400.0000    88.4848    18.9485    18.9190
  400.5000    87.9454    18.4875    18.3812
  401.0000    87.5816    18.0265    17.7619
  401.5000    87.8875    17.5655    17.3909
  402.0000    86.6790    17.0831    17.2660
  402.5000    84.5607    16.6220    17.1419
  403.0000    83.6545    16.5037    17.0068
  403.5000    85.7793    16.3863    16.8953
  404.0000    88.5095    16.3831    16.7739
  404.5000    89.7245    16.3798    16.5381
  405.0000    90.3335    16.1500    16.4193
  405.5000    90.9425    16.0351    16.0764
  406.0000    91.5880    15.9210    15.9598
  406.5000    91.8581    15.6984    15.8451
  407.0000    90.6489    15.5867    15.6224
  407.5000    87.6215    15.4751    15.5101
  408.0000    85.5032    15.2587    15.5060
  408.5000    85.5071    15.1502    15.3945
  409.0000    86.1157    15.1472    15.1772
  409.5000    87.0277    15.0394    15.0681
  410.0000    87.9397    14.8290    15.0641
  410.5000    88.2457    14.8254    14.8523
  411.0000    88.2486    14.7200    14.7456
  411.5000    88.2515    14.7171    14.7407
  412.0000    89.7702    14.7141    14.7368
  412.5000    91.2883    14.7111    14.7329
  413.0000    90.6852    14.7075    14.7290
  413.5000    89.4759    14.7046    14.7251
  414.0000    87.6606    14.7017    14.7211
  414.5000    88.3442    14.6988    14.7163
  415.0000    90.6975    14.6959    14.7124
  415.5000    91.6095    14.6922    14.7084
  416.0000    92.5215    14.6893    14.7045
  416.5000    93.4335    14.6864    14.5988
  417.0000    94.6505    14.6834    14.4930
  417.5000    95.8642    14.5790    14.2893
  418.0000    96.7762    14.5239    14.2855
  418.5000    96.4761    14.3352    14.1828
  419.0000    94.3571    14.0726    14.1791
  419.5000    94.2938    13.9725    14.1752
  420.0000    96.5051    13.9697    14.0725
  420.5000    98.3066    13.8703    13.8747
  421.0000    99.5216    13.7710    13.8710
  421.5000    99.5245    13.6730    13.8673
  422.0000    99.8305    13.6703    13.8635
  422.5000    99.8334    13.7629    13.8590
  423.0000    99.7979    13.8559    13.8553
  423.5000    98.6278    13.8524    13.8517
  424.0000    97.4186    13.8497    13.8480
  424.5000    96.8147    13.8469    13.8443
  425.0000    97.1213    13.8442    13.8397
  425.5000    96.8152    13.8414    13.7403
  426.0000    95.6120    13.8380    13.7366
  426.5000    95.6156    13.7396    13.6379
  427.0000    98.9519    13.5475    13.6343
  427.5000   100.7729    13.4511    13.5285
  428.0000   101.9880    13.4484    13.4381
  428.5000   102.5969    13.1680    13.4346
  429.0000   102.2975    13.0743    13.4310
  429.5000   100.4822    12.8915    13.4274
  430.0000    98.3639    12.7998    13.3309
  430.5000    97.1547    12.7088    13.1427
  431.0000    97.1576    12.6182    12.9579
  431.5000    98.0697    12.4413    12.8648
  432.0000    98.9823    12.3528    12.6840
  432.5000    99.5913    12.0958    12.5928
  433.0000    99.5942    12.0098    12.3297
  433.5000    99.9001    11.9243    12.2404
  434.0000   100.8121    11.7570    11.9848
  434.5000   101.4218    11.6734    11.8987
  435.0000   100.8186    11.4306    11.5696
  435.5000    99.6087    11.2708    11.3280
  436.0000    98.0972    10.9580    11.0139
  436.5000    96.8880    10.7315    10.9348
  437.0000    98.4728    10.5082    10.7064
  437.5000   102.9551    10.2896    10.4829
  438.0000   105.3822     9.7319    10.1224
  438.5000   106.5973     9.0776     9.5497
  439.0000   106.2971     8.3240     8.2707
  439.5000   106.6031     7.4709     7.6602
  440.0000   108.2427     6.5013     6.6649
  440.5000   122.3672     6.4107     5.6400
  441.0000   129.6428     6.5440     5.2956
  441.5000   135.7063     6.6804     5.1503
  442.0000   135.8548     6.8667     5.7538
  442.5000   121.1207     7.2573     6.5638
  443.0000   109.3521     7.7236     7.4360
  443.5000   103.9005     8.1065     8.0243
  444.0000   100.8731     8.8833     8.7440
  444.5000   100.2692     9.7054     9.6068
  445.0000   102.0910    10.3289    10.0828
  445.5000   105.1708    10.7660    10.5823
  446.0000   107.8551    10.9909    10.9534
  446.5000   109.3731    11.2196    11.1076
  447.0000   110.2851    11.5323    11.2552
  447.5000   110.8941    11.8546    11.4892
  448.0000   109.9879    12.0179    11.7280
  448.5000   107.4838    12.2684    12.0552
  449.0000   105.4490    12.4374    12.2206
  449.5000   104.2398    12.6965    12.4746
  450.0000   103.9389    12.9728    12.5852
  450.5000   105.6827    13.1205    12.9241
  451.0000   106.6667    13.2681    13.2630
  451.5000   106.9697    13.4157    13.5418
  452.0000   106.9697    13.5633    13.9174
  452.5000   106.9697    13.6871    13.9128
  453.0000   106.9697    13.8749    14.0050
  453.5000   106.6667    14.0661    14.1962
  454.0000   105.1146    14.1612    14.2891
  454.5000   100.8060    14.1576    14.2843
  455.0000    99.0909    14.3526    14.3802
  455.5000    99.3939    14.3497    14.3742
  456.0000   100.6061    14.3468    14.3694
  456.5000   100.6061    14.3439    14.3644
