~VERSION INFORMATION
 VERS.                2.0:   CWLS LOG ASCII STANDARD - VERSION 2.0
 WRAP.                 NO:   ONE LINE PER DEPTH STEP
~WELL INFORMATION
#MNEM.UNIT      DATA TYPE    INFORMATION
#----------   ------------   ------------------------------
 STRT.F           38.5000:   START DEPTH
 STOP.F          606.0000:   STOP DEPTH
 STEP.F            0.5000:   STEP LENGTH
 NULL.          -999.2500:   NO VALUE
 COMP. FENIX & SCISSON INC:   COMPANY
 WELL.      NPR-X3 #185-2:   WELL
 FLD .             TEAPOT:   FIELD
 LOC .       S2 T38N R78W:   LOCATION
 CNTY.            NATRONA:   COUNTY
 STAT.            WYOMING:   STATE
 CTRY. UNITED STATES OF AMERICA:   COUNTRY
 SRVC.            Unknown:   SERVICE COMPANY
 DATE.        30-JAN-1978:   LOGDATE
 API .       490251056200:   API NUMBER
~CURVE INFORMATION
#MNEM.UNIT       API CODE    CURVE DESCRIPTION
#----------   ------------   ------------------------------
 DEPT.F                  :   
 CALD.IN     45 280 60 00:   CALIPER
 GRD .GAPI   45 310 01 00:   GAMMA RAY FROM DENSITY LOG
 CORR.G/C3   45 356 01 00:   DENSITY CORRECTION
 RHOB.G/C3   45 350 01 00:   BULK DENSITY
 DPHI.DEC    45 890 12 00:   DENSITY POROSITY SANDSTONE
 SPR .MV     05 010 01 00:   SPONTANEOUS POTENTIAL FROM RES.
 SN  .OHMM   05 040 16 00:   SHORT NORMAL 16"
 ILD .OHMM   05 120 46 00:   INDUCTION LOG DEEP
~PARAMETER INFORMATION
#MNEM.UNIT          VALUE    DESCRIPTION
#----------   ------------   ------------------------------
 PD  .                 GL:   PERMANENT DATUM
 EPD .F              5134:   ELEVATION PERMANENT DATUM
 LMF .                 KB:   LOG MEASURED FROM
 DAPD.F                 4:   FEET ABOVE PERMANENT DATUM
 DMF .                 KB:   DRILLING MEASURED FROM
 EKB .F              5138:   KELLING BUSHING
 EGL .F              5134:   GROUND LEVEL
 DATE.            1-30-78:   RUN DATE
 RUN .                  1:   RUN NUMBER
 DD  .F               600:   DEPTH DRILLER
 DL  .F               604:   DEPTH LOGGER
 BLI .F               598:   BOTTOM LOG INTERVAL
 TLI .F                40:   TOP LOG INTERVAL
 CS  .IN            8.625:   CASING SIZE
 CBD .F                40:   CASING BOTTOM DRILLER
 CBL .F                41:   CASING BOTTOM LOGGER
 BS  .IN            7.875:   BIT SIZE
 BSD .F               600:   BIT SIZE AT DEPTH
 DFT .                KCL:   DRILLING FLUID TYPE
 DFD .                8.6:   DRILLING FLUID DENSITY
 DFV .                 34:   DRILLING FLUID VISCOSITY
 DFPH.                 10:   DRILLING FLUID PH
 DFL .                  7:   DRILLING FLUID LOSS
 MSS .                PIT:   MUD SAMPLE SOURCE
 RMS .OHMM            .65:   RESISTIVITY MUD SAMPLE
 MST .F                70:   MUD SAMPLE TEMPERATURE
 RMF .OHMM            1.2:   RESISTIVITY MUD FILTRATE SAMPLE
 MFST.F                64:   MUD FILTRATE SAMPLE TEMPERATURE
 MFSS.               MEAS:   MUD FILTRATE SAMPLE SOURCE
 RMB .OHMM            .64:   RESISTIVITY MUD AT BHT
 BHT .F                71:   BOTTOM HOLE TEMPERATURE
 TCS .HRS               3:   TIME CURCULATED STOPPED
 MRT .F                71:   MAXIMUM RECORDED TEMPERATURE
 LUN .               2958:   LOGGING UNIT NUMBER
 LUL .                CAS:   LOGGING UNIT LOCATION
 ENGI.           REYNOLDS:   RECORDING ENGINEER
 WITN.         HARRINGTON:   WITNESSED BY
 CLNT.            A2DTECH:   CLIENT CODE
 ORIG.        2" 5" PRINT:   ORIGIN OF DATA
 UWI .       490251056200:   UNIQUE WELL ID
 DICO. A2D Technologies, Inc.:   DIGITIZING COMPANY
~OTHER INFORMATION
~A   DEPT     CALD        GRD        CORR      RHOB       DPHI        SPR         SN        ILD   
# ...
  322.0000     8.1062   115.8592     0.0928     2.4668     0.1206   -64.1165     5.7031     5.1649
  322.5000     8.1055   117.7194     0.0893     2.4734     0.1125   -64.1155     6.1721     5.5850
  323.0000     8.1049   119.9882     0.0857     2.4768     0.1144   -64.1162     6.6797     6.0394
  323.5000     8.1043   122.0608     0.0821     2.4715     0.1195   -64.0674     6.9660     6.5306
  324.0000     8.1037   123.2699     0.0816     2.4608     0.1252   -63.6848     7.1079     6.7729
  324.5000     8.1031   123.3287     0.0848     2.4501     0.1257   -63.4575     7.2521     6.7706
  325.0000     8.1025   123.0100     0.0880     2.4497     0.1230   -63.3414     7.3993     6.7679
  325.5000     8.1018   124.6034     0.0913     2.4536     0.1205   -63.2276     7.5495     6.7677
  326.0000     8.1012   117.6057     0.0938     2.4500     0.1260   -63.1274     7.6962     6.7677
  326.5000     8.1006   113.9044     0.0964     2.4490     0.1235   -63.2343     7.7197     6.7677
  327.0000     8.0999   115.3979     0.0971     2.4571     0.1203   -63.3455     7.7424     6.7677
  327.5000     8.0994   117.0441     0.0963     2.4694     0.1171   -63.4555     7.7652     6.7677
  328.0000     8.1044   118.6988     0.0957     2.4698     0.1141   -63.5653     7.7880     6.7677
  328.5000     8.1165   119.8740     0.0906     2.4709     0.1132   -63.6752     7.8108     6.7677
  329.0000     8.1284   121.0150     0.0864     2.4735     0.1129   -63.7854     7.8388     6.7677
  329.5000     8.1389   123.7890     0.0835     2.4733     0.1140   -63.8984     7.7816     6.7677
  330.0000     8.1386   125.1029     0.0834     2.4720     0.1136   -63.8216     7.7089     6.7677
  330.5000     8.1386   126.3047     0.0820     2.4745     0.1112   -63.7451     7.6369     6.7677
  331.0000     8.1386   127.5855     0.0799     2.4769     0.1088   -64.3698     7.5655     6.7677
  331.5000     8.1386   131.3328     0.0774     2.4783     0.1066   -64.5516     7.4949     6.7677
  332.0000     8.1386   131.3926     0.0748     2.4763     0.1066   -64.2114     7.4788     6.7677
  332.5000     8.1386   128.2574     0.0771     2.4747     0.1121   -63.8735     7.4696     6.7608
  333.0000     8.1386   130.5397     0.0838     2.4723     0.1161   -63.5374     7.4604     6.7477
  333.5000     8.1386   129.5941     0.0897     2.4690     0.1154   -63.3173     7.4512     6.7345
  334.0000     8.1386   128.3954     0.0914     2.4716     0.1169   -63.3202     7.4420     6.7214
  334.5000     8.1386   127.7383     0.0908     2.4708     0.1142   -63.3214     7.4328     6.7082
  335.0000     8.1386   126.6042     0.0902     2.4662     0.1121   -63.1913     7.4236     6.7059
  335.5000     8.1386   123.3615     0.0895     2.4648     0.1205   -62.9898     7.3403     6.3395
  336.0000     8.1386   122.3699     0.0934     2.4629     0.1282   -62.7838     7.1701     5.9959
  336.5000     8.1386   123.3880     0.1010     2.4471     0.1369   -62.7211     7.0038     5.6709
  337.0000     8.1386   123.1871     0.1058     2.4312     0.1455   -62.8683     6.7059     5.4792
  337.5000     8.1386   124.1088     0.0942     2.4151     0.1483   -63.0713     6.2538     5.4763
  338.0000     8.1386   125.4879     0.0886     2.4129     0.1465   -63.2800     5.7895     5.4722
  338.5000     8.1385   124.7225     0.0919     2.4150     0.1439   -63.3203     5.6238     5.4682
  339.0000     8.1306   121.9827     0.0929     2.4218     0.1352   -63.3207     5.4291     5.4642
  339.5000     8.1136   120.1834     0.0922     2.4468     0.1268   -63.3200     5.6857     5.4602
  340.0000     8.0966   122.2615     0.0915     2.4529     0.1212   -63.3205     6.0150     5.4562
  340.5000     8.0799   121.3492     0.0945     2.4496     0.1274   -63.3173     6.1856     5.4522
  341.0000     8.0840   120.3531     0.0981     2.4471     0.1349   -63.4877     6.2309     5.4482
  341.5000     8.0892   123.0827     0.1165     2.4340     0.1476   -63.7241     6.1931     5.4442
  342.0000     8.0943   127.4359     0.1156     2.4052     0.1528   -63.9596     6.1175     5.4402
  342.5000     8.0990   133.6343     0.1092     2.4014     0.1423   -64.0221     5.6249     5.4363
  343.0000     8.0980   140.2921     0.1303     2.4220     0.1444   -63.7466     5.5808     5.4320
  343.5000     8.0964   140.4905     0.1515     2.4190     0.1455   -63.4723     5.6322     5.4291
  344.0000     8.0949   140.3190     0.1552     2.4186     0.1344   -63.0480     5.9207     5.4854
  344.5000     8.0933   132.7248     0.1694     2.4531     0.1253   -62.4055     6.2197     5.5297
  345.0000     8.0918   126.6382     0.1835     2.4507     0.1268   -62.4697     6.5338     5.7835
  345.5000     8.0902   122.7814     0.1971     2.4490     0.1253   -62.6401     6.8301     6.0343
  346.0000     8.0887   122.8331     0.2048     2.4514     0.1198   -62.8080     6.8433     6.2960
  346.5000     8.0871   120.4090     0.1908     2.4545     0.1045   -62.8459     6.8579     6.5838
  347.0000     8.0856   125.7592     0.1174     2.4672     0.0861   -62.6019     6.8726     6.5838
  347.5000     8.0841   124.7088     0.0990     2.5075     0.0732   -62.3616     6.8931     6.3533
  348.0000     8.0825   123.7849     0.0972     2.5339     0.1099   -62.1360     6.8655     5.9729
  348.5000     8.0810   125.3822     0.0985     2.4765     0.1305   -62.2189     6.8008     5.6155
  349.0000     8.0794   125.9330     0.1097     2.4388     0.1439   -62.3143     6.6744     5.2753
  349.5000     8.0792   124.3974     0.1359     2.4155     0.1618   -62.2929     6.4591     5.1712
  350.0000     8.0792   122.2293     0.1429     2.3923     0.1534   -62.2537     6.0205     5.1362
  350.5000     8.0792   118.0969     0.1323     2.3911     0.1386   -62.2142     5.6118     5.1556
  351.0000     8.0792   110.1332     0.1291     2.4227     0.1296   -62.1748     5.3303     5.1675
  351.5000     8.0792   102.6101     0.1411     2.4330     0.1170   -62.1309     5.3303     5.1802
  352.0000     8.0792   102.8016     0.1421     2.4476     0.1101   -62.3239     5.7366     5.3583
  352.5000     8.0792   105.0101     0.1257     2.4617     0.1173   -62.5720     6.1613     5.6762
  353.0000     8.0792   107.2999     0.1254     2.4745     0.1241   -62.5302     6.5950     6.0130
  353.5000     8.0792   107.8221     0.1409     2.4757     0.1305   -62.0666     6.9361     6.3697
  354.0000     8.0792   106.7416     0.1739     2.4455     0.1345   -61.7670     7.2949     6.7477
  354.5000     8.0792   108.5537     0.2407     2.4369     0.1348   -61.9654     7.7604     7.0287
  355.0000     8.0792   109.8845     0.2639     2.4377     0.1316   -62.0916     7.9996     7.2312
  355.5000     8.0792   110.5118     0.2751     2.4552     0.1186   -61.7541     8.2470     7.2798
  356.0000     8.0792   109.0029     0.2968     2.4540     0.1256   -61.5694     8.5166     7.3286
  356.5000     8.0792   105.5795     0.2708     2.4524     0.1208   -61.6936     8.5128     7.3778
  357.0000     8.0792   102.0734     0.2158     2.4774     0.1148   -61.8136     8.5152     7.4186
  357.5000     8.0791   102.1572     0.2103     2.5035     0.1109   -61.9332     8.6550     7.3778
  358.0000     8.0828   103.5764     0.1907     2.5080     0.1169   -61.6453     8.8327     7.3508
  358.5000     8.0873    99.6704     0.1725     2.4674     0.1177   -61.3413     8.8533     7.5630
  359.0000     8.0918   102.9137     0.2175     2.4634     0.1325   -61.4440     8.8736     7.7672
  359.5000     8.0963   104.2669     0.2318     2.4192     0.1439   -61.5530     8.8939     7.7430
  360.0000     8.1008   106.7932     0.2409     2.4337     0.1324   -61.6607     8.9142     7.7155
  360.5000     8.1053   109.1276     0.2350     2.4649     0.1192   -61.8182     8.9346     7.6874
  361.0000     8.1097   105.1163     0.2246     2.4731     0.1058   -62.0747     8.9550     7.6595
  361.5000     8.1143   104.4730     0.2182     2.4839     0.1160   -62.3279     8.9755     7.6250
  362.0000     8.1187   105.4070     0.2111     2.4705     0.1181   -62.4877     8.9960     7.7188
