~VERSION INFORMATION
 VERS.                2.0:   CWLS LOG ASCII STANDARD - VERSION 2.0
 WRAP.                 NO:   ONE LINE PER DEPTH STEP
~WELL INFORMATION
#MNEM.UNIT      DATA TYPE    INFORMATION
#----------   ------------   ------------------------------
 STRT.F            8.5000:   START DEPTH
 STOP.F          509.0000:   STOP DEPTH
 STEP.F            0.5000:   STEP LENGTH
 NULL.          -999.2500:   NO VALUE
 COMP. LAWRENCE-ALLISON &AS:   COMPANY
 WELL. NPR 3 #68-26SX3LP2:   WELL
 FLD .             TEAPOT:   FIELD
 LOC .       S3 T38N R78W:   LOCATION
 CNTY.            NATRONA:   COUNTY
 STAT.            WYOMING:   STATE
 CTRY. UNITED STATES OF AMERICA:   COUNTRY
 SRVC.      Dresser Atlas:   SERVICE COMPANY
 DATE.        12-DEC-1984:   LOGDATE
 API .       490251099600:   API NUMBER
~CURVE INFORMATION
#MNEM.UNIT       API CODE    CURVE DESCRIPTION
#----------   ------------   ------------------------------
 DEPT.F                  :   
 CNC .DEC    42 890 03 00:   NEUTRON POROSITY SANDSTONE
 CALD.IN     45 280 60 00:   CALIPER FROM DENSITY LOG
 CORR.G/C3   45 356 01 00:   DENSITY CORRECTION
 GRD .GAPI   45 310 01 00:   GAMMA RAY FROM DENSITY LOG
 PORD.DEC    45 890 12 00:   POROSITY DENSITY SANDSTONE
 RHOB.G/C3   45 350 01 00:   BULK DENSITY
 DT  .US/F   60 520 00 00:   INTERVAL TRANSIT TIME
 SPR .MV     11 010 01 00:   SPONTANEOUS POTENTIAL FROM RES.
 RS  .OHMM   11 220 09 00:   RESISTIVITY SHALLOW
 RD  .OHMM   11 220 10 00:   RESISTIVITY DEEP
~PARAMETER INFORMATION
#MNEM.UNIT          VALUE    DESCRIPTION
#----------   ------------   ------------------------------
 PD  .                 GL:   PERMANENT DATUM
 EPD .F              5158:   ELEVATION PERMANENT DATUM
 LMF .                 GL:   LOG MEASURED FROM
 DMF .                 GL:   DRILLING MEASURED FROM
 EGL .F              5158:   GROUND LEVEL
 DATE.        12-DEC-1984:   RUN DATE
 RUN .                  1:   RUN NUMBER
 DD  .F               510:   DEPTH DRILLER
 DL  .F               510:   DEPTH LOGGER
 BLI .F               501:   BOTTOM LOG INTERVAL
 TLI .F                20:   TOP LOG INTERVAL
 CS  .IN            8.625:   CASING SIZE
 CBD .F                20:   CASING BOTTOM DRILLER
 CBL .F                20:   CASING BOTTOM LOGGER
 BS  .IN            7.875:   BIT SIZE
 BSD .F               510:   BIT SIZE AT DEPTH
 DFT .          KCL/WATER:   DRILLING FLUID TYPE
 MSS .            MUDTANK:   MUD SAMPLE SOURCE
 RMS .OHMM           0.21:   RESISTIVITY MUD SAMPLE
 MST .F                70:   MUD SAMPLE TEMPERATURE
 RMF .OHMM           0.16:   RESISTIVITY MUD FILTRATE SAMPLE
 MFST.F                70:   MUD FILTRATE SAMPLE TEMPERATURE
 RMC .OHMM           0.26:   RESISTIVITY MUD CAKE
 MCST.F                70:   MUD CAKE SAMPLE TEMPERATURE
 MFSS.               CALC:   MUD FILTRATE SAMPLE SOURCE
 MCSS.               CALC:   MUD CAKE SAMPLE SOURCE
 RMB .OHMM           0.17:   RESISTIVITY MUD AT BHT
 BHT .F                85:   BOTTOM HOLE TEMPERATURE
 TCS .HRS               6:   TIME CURCULATED STOPPED
 MRT .F               100:   MAXIMUM RECORDED TEMPERATURE
 LUN .               6270:   LOGGING UNIT NUMBER
 LUL .                 FM:   LOGGING UNIT LOCATION
 ENGI.           E.GOVETT:   RECORDING ENGINEER
 WITN.              LUERS:   WITNESSED BY
 CLNT.            A2DTECH:   CLIENT CODE
 ORIG.           5" PRINT:   ORIGIN OF DATA
 UWI .       490251099600:   UNIQUE WELL ID
 DICO. A2D Technologies, Inc.:   DIGITIZING COMPANY
~OTHER INFORMATION
~A    DEPT     CNC       CALD       CORR        GRD       PORD       RHOB          DT       SPR         RS         RD   
# ...
  444.0000     0.2650     7.6718     0.0651   107.7766     0.1116     2.4968   100.6996   -35.9361    11.2595    10.8771
  444.5000     0.2625     7.6735     0.0381   111.5004     0.1134     2.4921   100.8379   -35.9234    11.1869    10.5857
  445.0000     0.2601     7.6899     0.0338   111.8080     0.1134     2.4894   100.9016   -35.9132    10.9629    10.4443
  445.5000     0.2592     7.7064     0.0506   106.7817     0.1121     2.4903   101.1898   -35.9031    10.8175    10.3791
  446.0000     0.2664     7.7228     0.0748    99.8230     0.1089     2.4963   102.0795   -35.7443    10.7483    10.3131
  446.5000     0.2763     7.7248     0.0869    98.9437     0.1079     2.4987   102.2179   -35.7340    10.6795    10.2476
  447.0000     0.2929     7.7112     0.0615    99.1103     0.1130     2.4943   102.2059   -35.7239    10.6112    10.1088
  447.5000     0.3120     7.7132     0.0166    99.5699     0.1141     2.4898   102.1941   -36.0110    10.1152     9.8330
  448.0000     0.3173     7.6995     0.0032   100.3263     0.1117     2.4907   102.5795   -35.9982     9.3775     9.2530
  448.5000     0.3070     7.7164     0.0003    97.0110     0.1132     2.4907   103.8954   -36.1392     9.0001     8.7590
  449.0000     0.2985     7.7180     0.0035    93.1810     0.1195     2.4788   105.1608   -36.1265     9.0674     8.6421
  449.5000     0.2907     7.7196     0.0156    91.4679     0.1327     2.4556   106.5013   -36.1163     9.3270     9.0149
  450.0000     0.2852     7.7064     0.0338    92.5247     0.1297     2.4595   106.3391   -36.1061    10.0014     9.4678
  450.5000     0.2812     7.6927     0.0538    94.3197     0.1213     2.4703   104.6743   -35.9474    10.8743    10.0821
  451.0000     0.2800     7.6795     0.0647    96.5597     0.1103     2.4851   103.5355   -35.9372    11.5001    10.6622
  451.5000     0.2782     7.6666     0.0629    99.9867     0.1055     2.4995   102.3966   -35.7784    11.8294    11.3541
  452.0000     0.2653     7.6683     0.0480   100.7395     0.1115     2.5011   101.4080   -35.4710    12.0954    11.8422
  452.5000     0.2585     7.6996     0.0421    99.2740     0.1145     2.4899   100.5697   -35.2947    12.4316    12.1710
  453.0000     0.2731     7.7012     0.0558    99.1366     0.1148     2.4870    99.8817   -35.1510    12.6993    12.3581
  453.5000     0.2850     7.7028     0.0635    99.3031     0.1129     2.4871    99.1936   -34.9923    12.8831    12.6244
  454.0000     0.2801     7.7196     0.0636    99.7628     0.1105     2.4909    98.4304   -35.1307    13.0696    12.7280
  454.5000     0.2777     7.7212     0.0555   100.8195     0.1078     2.4962    97.8926   -35.1205    13.2587    12.9037
  455.0000     0.2795     7.7228     0.0415   102.3142     0.1093     2.4993    97.5050   -35.1103    13.4506    13.0019
  455.5000     0.2816     7.7244     0.0252    98.9080     0.1102     2.4927    97.3429   -34.9516    13.4575    13.0994
  456.0000     0.2764     7.7108     0.0103    93.4403     0.1143     2.4875    97.3310   -35.0900    13.4644    13.2087
  456.5000     0.2740     7.7126    -0.0016    94.3487     0.1157     2.4868    97.3944   -35.0798    13.4712    13.2965
  457.0000     0.2748     7.7144    -0.0089    96.5888     0.1123     2.4892    97.4575   -35.0697    13.4781    13.2119
  457.5000     0.2803     7.7160     0.0017    93.6360     0.1087     2.4933    97.5208   -34.9108    13.4850    13.3110
  458.0000     0.2771     7.7325     0.0215    92.1633     0.1056     2.4998    97.5086   -34.7519    13.4919    13.3182
  458.5000     0.2714     7.7341     0.0382    93.8136     0.1104     2.4954    97.4966   -34.5908    13.3957    13.3255
  459.0000     0.2657     7.7505     0.0368    96.7955     0.1125     2.4902    97.3964   -34.4321    13.1364    13.3327
  459.5000     0.2641     7.7521     0.0430    97.9970     0.1110     2.4911    97.0946   -34.4219    13.0523    13.4327
  460.0000     0.2732     7.7537     0.0462    98.1600     0.1094     2.4964    96.8573   -34.5629    13.0607    13.7221
  460.5000     0.2762     7.7553     0.0305    97.2443     0.1112     2.4912    96.6200   -34.6987    13.0673    13.9284
  461.0000     0.2601     7.7379     0.0089    95.6705     0.1145     2.4861    96.5330   -34.8371    13.0740    14.1232
  461.5000     0.2483     7.7144     0.0000    94.6466     0.1163     2.4854    96.8217   -34.9781    12.9887    14.1325
  462.0000     0.2438     7.7008     0.0213    93.9193     0.1147     2.4877    97.7865   -35.1140    12.8164    13.9457
  462.5000     0.2760     7.7176     0.0305    93.3404     0.1165     2.4879    98.0781   -35.1038    12.6481    13.8551
  463.0000     0.2839     7.7341     0.0397    93.2030     0.1219     2.4804    98.1414   -35.0936    12.5655    13.5794
  463.5000     0.2763     7.7357     0.0639    93.3696     0.1213     2.4767    98.5780   -35.0832    12.1453    13.2156
  464.0000     0.2829     7.7373     0.0700    93.3842     0.1203     2.4799    98.7916   -34.9979    11.5761    12.6847
  464.5000     0.2980     7.7401     0.0417    92.2118     0.1194     2.4821    99.1555   -34.8914    10.9567    11.8424
  465.0000     0.3004     7.7451    -0.0048    91.0394     0.1239     2.4710    99.6043   -34.8588    10.5045    11.1329
  465.5000     0.2840     7.7329    -0.0079    91.6475     0.1275     2.4643   100.3556   -34.9962    10.0128    10.6856
  466.0000     0.2738     7.7045     0.0000    98.1903     0.1298     2.4636   101.4463   -35.1301     9.4235    10.1855
  466.5000     0.2740     7.7058     0.0182    99.3918     0.1292     2.4652   102.7868   -35.1184     9.2343     9.7088
  467.0000     0.2857     7.7071     0.0322    99.4065     0.1286     2.4668   103.9772   -35.4038     8.9864     9.0580
  467.5000     0.3011     7.6936     0.0520    99.2557     0.1285     2.4661   105.0923   -35.6892     8.3310     8.5657
  468.0000     0.3057     7.6950     0.0563    99.8843     0.1291     2.4639   105.9821   -35.9776     7.3574     7.6856
  468.5000     0.3181     7.6814     0.0355   100.4923     0.1378     2.4558   107.7735   -35.9629     6.5886     6.3784
  469.0000     0.3299     7.6679     0.0086   101.3971     0.1516     2.4318   111.5934   -36.2513     5.2732     5.1489
  469.5000     0.3431     7.6695    -0.0048   101.8531     0.1706     2.4071   114.5869   -36.2366     3.8820     3.8783
  470.0000     0.3555     7.6857    -0.0107    99.4975     0.1944     2.3622   123.0650   -36.3764     2.9810     3.0664
  470.5000     0.3699     7.7018     0.0151    94.0225     0.2263     2.2909   131.3928   -36.3617     2.8150     2.8035
  471.0000     0.3932     7.7031     0.0303    91.8115     0.2573     2.2152   135.1435   -36.0528     2.9773     2.8445
  471.5000     0.4091     7.7193     0.0349    90.3424     0.3004     2.1687   135.5014   -35.7439     3.3981     3.1576
  472.0000     0.3898     7.7206     0.0501    89.9083     0.3076     2.1635   132.5566   -35.5836     4.4549     3.8620
  472.5000     0.3314     7.7367     0.0593    91.1134     0.2861     2.1941   126.6094   -35.4232     5.5638     5.5009
  473.0000     0.2945     7.7380     0.0565    93.0568     0.2255     2.2906   118.7088   -35.5602     8.1496     7.4645
  473.5000     0.2870     7.7393     0.0506    94.7097     0.1637     2.3748   111.5595   -35.6969     8.4999     8.1172
  474.0000     0.2842     7.7258     0.0538    93.3827     0.1347     2.4529   107.6409   -35.6850     8.6229     8.3600
  474.5000     0.2811     7.7123     0.0457    93.5603     0.1241     2.4703   104.9244   -35.6731     8.7478     8.6578
  475.0000     0.2730     7.7137     0.0261    94.0554     0.1232     2.4748   104.0110   -35.6612     8.9982     9.0827
  475.5000     0.2518     7.7001     0.0032    95.2105     0.1223     2.4737   103.2479   -35.6470     9.2559     9.4732
  476.0000     0.2475     7.7015     0.0094    95.8186     0.1231     2.4727   102.7102   -35.4867     9.5254    10.0183
  476.5000     0.2682     7.7179     0.0261    95.3844     0.1249     2.4706   102.6917   -35.4750     9.8715    10.3769
  477.0000     0.2822     7.7192     0.0368    95.5510     0.1264     2.4677   102.9121   -35.6147    10.1453    10.6005
