~VERSION INFORMATION
 VERS.                2.0:   CWLS LOG ASCII STANDARD - VERSION 2.0
 WRAP.                 NO:   ONE LINE PER DEPTH STEP
~WELL INFORMATION
#MNEM.UNIT      DATA TYPE    INFORMATION
#----------   ------------   ------------------------------
 STRT.F          217.0000:   START DEPTH
 STOP.F         3170.0000:   STOP DEPTH
 STEP.F            0.5000:   STEP LENGTH
 NULL.          -999.2500:   NO VALUE
 COMP. FENIX & SCISSON INC:   COMPANY
 WELL.    51 TX 33 #51-33:   WELL
 FLD .             TEAPOT:   FIELD
 LOC .      S33 T39N R78W:   LOCATION
 CNTY.            NATRONA:   COUNTY
 STAT.            WYOMING:   STATE
 CTRY. UNITED STATES OF AMERICA:   COUNTRY
 SRVC.            Unknown:   SERVICE COMPANY
 DATE.        02-APR-1978:   LOGDATE
 API .       490251068600:   API NUMBER
~CURVE INFORMATION
#MNEM.UNIT       API CODE    CURVE DESCRIPTION
#----------   ------------   ------------------------------
 DEPT.F                  :   
 TGAS.UNITS  91 830 01 00:   TOTAL GAS FROM HOTWIRE
 ROP .MIN/FT 91 810 01 00:   RATE OF DRILLING PENETRATION
~PARAMETER INFORMATION
#MNEM.UNIT          VALUE    DESCRIPTION
#----------   ------------   ------------------------------
 DATE.         2-APR-1978:   RUN DATE
 RUN .                  1:   RUN NUMBER
 BLI .F              3150:   BOTTOM LOG INTERVAL
 TLI .F               250:   TOP LOG INTERVAL
 DFT .       CHEMICAL GEL:   DRILLING FLUID TYPE
 ENGI.            R. CABS:   RECORDING ENGINEER
 CLNT.            A2DTECH:   CLIENT CODE
 ORIG.           5" PRINT:   ORIGIN OF DATA
 UWI .       490251068600:   UNIQUE WELL ID
 DICO. A2D Technologies, Inc.:   DIGITIZING COMPANY
~OTHER INFORMATION
~A   DEPT       TGAS      ROP   
# ...
  460.0000     0.6938  -999.2500
  460.5000     0.6938  -999.2500
  461.0000     0.6937  -999.2500
  461.5000     0.6936  -999.2500
  462.0000     0.6935  -999.2500
  462.5000     0.6934  -999.2500
  463.0000     0.6933  -999.2500
  463.5000     0.6932  -999.2500
  464.0000     0.6931  -999.2500
  464.5000     0.6930  -999.2500
  465.0000     0.6929  -999.2500
  465.5000     0.6928  -999.2500
  466.0000     0.6927  -999.2500
  466.5000     0.6926  -999.2500
  467.0000     0.6925  -999.2500
  467.5000     0.6924  -999.2500
  468.0000     0.6923  -999.2500
  468.5000     0.6922  -999.2500
  469.0000     0.6921  -999.2500
  469.5000     0.6920  -999.2500
  470.0000     0.6919  -999.2500
  470.5000     0.6918  -999.2500
  471.0000     0.6917  -999.2500
  471.5000     0.6916  -999.2500
  472.0000     0.6915  -999.2500
  472.5000     0.6914  -999.2500
  473.0000     0.6913  -999.2500
  473.5000     0.6912  -999.2500
  474.0000     0.6911  -999.2500
  474.5000     0.6910  -999.2500
  475.0000     0.6909  -999.2500
  475.5000     0.6908  -999.2500
  476.0000     0.6907  -999.2500
  476.5000     0.6906  -999.2500
  477.0000     0.6905  -999.2500
  477.5000     0.6904  -999.2500
  478.0000     0.6903  -999.2500
  478.5000     0.6902  -999.2500
  479.0000     0.6901  -999.2500
  479.5000     0.6900  -999.2500
  480.0000     0.6899  -999.2500
  480.5000     0.6899  -999.2500
  481.0000     0.6898  -999.2500
  481.5000     0.6897  -999.2500
  482.0000     0.6896  -999.2500
  482.5000     0.6895  -999.2500
  483.0000     0.6894  -999.2500
  483.5000     0.6893  -999.2500
  484.0000     0.6892  -999.2500
  484.5000     0.6891  -999.2500
  485.0000     0.6890  -999.2500
  485.5000     0.6889  -999.2500
  486.0000     0.6888  -999.2500
  486.5000     0.6887  -999.2500
  487.0000     0.6886  -999.2500
  487.5000     0.6885  -999.2500
  488.0000     0.6884  -999.2500
  488.5000     0.6883  -999.2500
  489.0000     0.6882  -999.2500
  489.5000     0.6881  -999.2500
  490.0000     0.6880  -999.2500
  490.5000     0.6879  -999.2500
  491.0000     0.6878  -999.2500
  491.5000     0.6877  -999.2500
  492.0000     0.6876  -999.2500
  492.5000     0.6875  -999.2500
  493.0000     0.6874  -999.2500
  493.5000     0.6873  -999.2500
  494.0000     0.6872  -999.2500
  494.5000     0.6871  -999.2500
  495.0000     0.6870  -999.2500
  495.5000     0.6869  -999.2500
  496.0000     0.6868  -999.2500
  496.5000     0.6867  -999.2500
  497.0000     0.6866  -999.2500
  497.5000     0.7040  -999.2500
  498.0000     0.7803  -999.2500
  498.5000     0.8645  -999.2500
  499.0000     0.7788  -999.2500
  499.5000     0.7809  -999.2500
  500.0000     0.7826  -999.2500
  500.5000     0.8234  -999.2500
  501.0000     0.8733  -999.2500
  501.5000     0.9290  -999.2500
  502.0000     0.9963  -999.2500
  502.5000     1.0523  -999.2500
  503.0000     1.0539  -999.2500
  503.5000     1.0557  -999.2500
  504.0000     1.1478  -999.2500
  504.5000     1.1796  -999.2500
  505.0000     1.2114  -999.2500
  505.5000     1.2366  -999.2500
  506.0000     1.3373  -999.2500
  506.5000     1.3868  -999.2500
  507.0000     1.4362  -999.2500
  507.5000     1.4856  -999.2500
  508.0000     1.5350  -999.2500
  508.5000     1.5845  -999.2500
  509.0000     1.5031  -999.2500
  509.5000     1.3747  -999.2500
  510.0000     1.3739  -999.2500
  510.5000     1.3623  -999.2500
  511.0000     1.3375  -999.2500
  511.5000     1.3128  -999.2500
  512.0000     1.2880  -999.2500
  512.5000     1.2633  -999.2500
  513.0000     1.2385  -999.2500
  513.5000     1.2138  -999.2500
  514.0000     1.1930  -999.2500
  514.5000     1.1319  -999.2500
  515.0000     1.0659  -999.2500
  515.5000     1.0165  -999.2500
  516.0000     0.9287  -999.2500
  516.5000     0.9159  -999.2500
  517.0000     0.8935  -999.2500
  517.5000     0.8711  -999.2500
  518.0000     0.8488  -999.2500
  518.5000     0.8374  -999.2500
  519.0000     0.8364  -999.2500
  519.5000     0.8391  -999.2500
  520.0000     0.8796  -999.2500
  520.5000     0.9201  -999.2500
  521.0000     0.9605  -999.2500
  521.5000     1.0060  -999.2500
  522.0000     1.0051  -999.2500
  522.5000     1.0006  -999.2500
  523.0000     0.9787  -999.2500
  523.5000     0.9567  -999.2500
  524.0000     0.9348  -999.2500
  524.5000     0.9137  -999.2500
  525.0000     0.8259  -999.2500
  525.5000     0.8373  -999.2500
  526.0000     0.8567  -999.2500
  526.5000     0.8761  -999.2500
  527.0000     0.8955  -999.2500
  527.5000     0.9088  -999.2500
  528.0000     0.9353  -999.2500
  528.5000     0.9818  -999.2500
  529.0000     1.0284  -999.2500
  529.5000     1.0749  -999.2500
  530.0000     1.1215  -999.2500
  530.5000     1.1644  -999.2500
  531.0000     1.2505  -999.2500
  531.5000     1.2650  -999.2500
  532.0000     1.2821  -999.2500
  532.5000     1.2991  -999.2500
  533.0000     1.3162  -999.2500
  533.5000     1.3331  -999.2500
  534.0000     1.3322  -999.2500
  534.5000     1.3065  -999.2500
  535.0000     1.2745  -999.2500
  535.5000     1.2425  -999.2500
  536.0000     1.2104  -999.2500
  536.5000     1.1784  -999.2500
  537.0000     1.1530  -999.2500
  537.5000     1.1522  -999.2500
  538.0000     1.1513  -999.2500
  538.5000     1.1504  -999.2500
  539.0000     1.1496  -999.2500
  539.5000     1.1487  -999.2500
  540.0000     1.1477  -999.2500
  540.5000     1.1468  -999.2500
  541.0000     1.1633  -999.2500
  541.5000     1.1828  -999.2500
  542.0000     1.2022  -999.2500
  542.5000     1.2216  -999.2500
  543.0000     1.2296  -999.2500
  543.5000     1.2286  -999.2500
  544.0000     1.2367  -999.2500
  544.5000     1.2502  -999.2500
  545.0000     1.2637  -999.2500
  545.5000     1.2771  -999.2500
  546.0000     1.2906  -999.2500
  546.5000     1.3040  -999.2500
  547.0000     1.3096  -999.2500
  547.5000     1.2475  -999.2500
  548.0000     1.1725  -999.2500
  548.5000     1.2200  -999.2500
  549.0000     1.2191  -999.2500
  549.5000     1.2183  -999.2500
  550.0000     1.2174  -999.2500
  550.5000     1.2165  -999.2500
  551.0000     1.2925  -999.2500
  551.5000     1.2697  -999.2500
  552.0000     1.2469  -999.2500
  552.5000     1.2241  -999.2500
  553.0000     1.2174  -999.2500
  553.5000     1.2174  -999.2500
  554.0000     1.2174  -999.2500
  554.5000     1.2174  -999.2500
  555.0000     1.2174  -999.2500
  555.5000     1.2174  -999.2500
  556.0000     1.1983  -999.2500
  556.5000     1.1615  -999.2500
  557.0000     1.0435  -999.2500
  557.5000     1.0435  -999.2500
  558.0000     1.0506  -999.2500
  558.5000     1.0582  -999.2500
  559.0000     1.0659  -999.2500
  559.5000     1.0735  -999.2500
  560.0000     1.0811  -999.2500
  560.5000     1.0887  -999.2500
  561.0000     1.0964  -999.2500
  561.5000     1.1040  -999.2500
  562.0000     1.1116  -999.2500
  562.5000     1.1193  -999.2500
  563.0000     1.1269  -999.2500
  563.5000     1.1304  -999.2500
  564.0000     1.1300  -999.2500
  564.5000     1.1233  -999.2500
  565.0000     1.1166  -999.2500
  565.5000     1.1100  -999.2500
  566.0000     1.1033  -999.2500
  566.5000     1.0966  -999.2500
  567.0000     1.0899  -999.2500
  567.5000     1.0833  -999.2500
  568.0000     1.0766  -999.2500
  568.5000     1.0699  -999.2500
  569.0000     1.0632  -999.2500
  569.5000     1.0566  -999.2500
  570.0000     1.0499  -999.2500
  570.5000     1.0435  -999.2500
  571.0000     1.0518  -999.2500
  571.5000     1.0624  -999.2500
  572.0000     1.0729  -999.2500
  572.5000     1.0834  -999.2500
  573.0000     1.0939  -999.2500
  573.5000     1.1044  -999.2500
  574.0000     1.1150  -999.2500
  574.5000     1.1255  -999.2500
  575.0000     1.1360  -999.2500
  575.5000     1.1465  -999.2500
  576.0000     1.1570  -999.2500
  576.5000     1.1676  -999.2500
  577.0000     1.1781  -999.2500
  577.5000     1.1886  -999.2500
  578.0000     1.1991  -999.2500
  578.5000     1.2096  -999.2500
  579.0000     1.2243  -999.2500
  579.5000     1.3043  -999.2500
  580.0000     1.2946  -999.2500
  580.5000     1.2823  -999.2500
  581.0000     1.2700  -999.2500
