~VERSION INFORMATION
 VERS.                2.0:   CWLS LOG ASCII STANDARD - VERSION 2.0
 WRAP.                 NO:   ONE LINE PER DEPTH STEP
~WELL INFORMATION
#MNEM.UNIT      DATA TYPE    INFORMATION
#----------   ------------   ------------------------------
 STRT.F           16.0000:   START DEPTH
 STOP.F          474.0000:   STOP DEPTH
 STEP.F            0.5000:   STEP LENGTH
 NULL.          -999.2500:   NO VALUE
 COMP. FENIX & SCISSON INCORPORATED:   COMPANY
 WELL.    NPR #3 #58-SX-3:   WELL
 FLD .             TEAPOT:   FIELD
 LOC .       S3 T38N R78W:   LOCATION
 CNTY.            NATRONA:   COUNTY
 STAT.            WYOMING:   STATE
 CTRY. UNITED STATES OF AMERICA:   COUNTRY
 SRVC.           BIRDWELL:   SERVICE COMPANY
 DATE.        19-OCT-1978:   LOGDATE
 API .       490251072000:   API NUMBER
~CURVE INFORMATION
#MNEM.UNIT       API CODE    CURVE DESCRIPTION
#----------   ------------   ------------------------------
 DEPT.F                  :   
 CALD.IN     45 280 60 00:   CALIPER FROM DENSITY LOG
 CORR.G/C3   45 356 01 00:   DENSITY CORRECTION
 DPHI.DEC    45 890 12 00:   DENSITY POROSITY SANDSTONE
 GRD .GAPI   45 310 01 00:   GAMMA RAY FROM DENSITY LOG
 RHOB.G/C3   45 350 01 00:   BULK DENSITY
 ILD .OHMM   05 120 46 00:   INDUCTION LOG DEEP
 SN  .OHMM   05 040 16 00:   SHORT NORMAL 16"
 SPR .MV     05 010 01 00:   SPONTANEOUS POTENTIAL FROM RES.
~PARAMETER INFORMATION
#MNEM.UNIT          VALUE    DESCRIPTION
#----------   ------------   ------------------------------
 PD  .                 GL:   PERMANENT DATUM
 EPD .F              5198:   ELEVATION PERMANENT DATUM
 LMF .                 KB:   LOG MEASURED FROM
 DAPD.F                 4:   FEET ABOVE PERMANENT DATUM
 DMF .                 KB:   DRILLING MEASURED FROM
 EKB .F              5202:   KELLING BUSHING
 EGL .F              5198:   GROUND LEVEL
 DATE.        19-OCT-1978:   RUN DATE
 RUN .                  1:   RUN NUMBER
 DD  .F               474:   DEPTH DRILLER
 DL  .F               474:   DEPTH LOGGER
 BLI .F               474:   BOTTOM LOG INTERVAL
 TLI .F                30:   TOP LOG INTERVAL
 CBD .F                40:   CASING BOTTOM DRILLER
 CBL .F                38:   CASING BOTTOM LOGGER
 BS  .IN            7.875:   BIT SIZE
 BSD .F               474:   BIT SIZE AT DEPTH
 DFT .                KCL:   DRILLING FLUID TYPE
 DFD .                8.7:   DRILLING FLUID DENSITY
 DFV .                 38:   DRILLING FLUID VISCOSITY
 DFPH.                9.0:   DRILLING FLUID PH
 DFL .                 13:   DRILLING FLUID LOSS
 MSS .           FLOWLINE:   MUD SAMPLE SOURCE
 RMS .OHMM            .25:   RESISTIVITY MUD SAMPLE
 MST .F                58:   MUD SAMPLE TEMPERATURE
 RMF .OHMM             .2:   RESISTIVITY MUD FILTRATE SAMPLE
 MFST.F                60:   MUD FILTRATE SAMPLE TEMPERATURE
 RMC .OHMM            .24:   RESISTIVITY MUD CAKE
 MCST.F                60:   MUD CAKE SAMPLE TEMPERATURE
 MFSS.               MEAS:   MUD FILTRATE SAMPLE SOURCE
 MCSS.               MEAS:   MUD CAKE SAMPLE SOURCE
 RMB .OHMM            .23:   RESISTIVITY MUD AT BHT
 BHT .F                70:   BOTTOM HOLE TEMPERATURE
 TCS .HRS               3:   TIME CURCULATED STOPPED
 MRT .F                70:   MAXIMUM RECORDED TEMPERATURE
 LUN .               2958:   LOGGING UNIT NUMBER
 LUL .               CASP:   LOGGING UNIT LOCATION
 ENGI.           REYNOLDS:   RECORDING ENGINEER
 WITN.           DINSMORE:   WITNESSED BY
 CLNT.            A2DTECH:   CLIENT CODE
 ORIG.           5" PRINT:   ORIGIN OF DATA
 UWI .       490251072000:   UNIQUE WELL ID
 DICO. A2D Technologies, Inc.:   DIGITIZING COMPANY
~OTHER INFORMATION
~A   DEPT     CALD       CORR       DPHI         GRD      RHOB        ILD         SN        SPR   
# ...
  380.5000     7.8960     0.0173     0.1846    32.5479     2.3637    23.7366    14.1732   -31.2110
  381.0000     7.8956     0.0157     0.1819    35.1390     2.3762    23.7404    14.1748   -30.9174
  381.5000     7.9099     0.0125     0.1805    37.7907     2.3850    23.7435    14.1390   -30.6239
  382.0000     7.9095     0.0083     0.1817    39.5560     2.3791    23.7467    14.0828   -30.4778
  382.5000     7.9239     0.0052     0.1823    40.1415     2.3783    23.7503    14.0545   -30.4795
  383.0000     7.9233     0.0037     0.1826    39.6895     2.3827    23.7534    13.9912   -30.4809
  383.5000     7.9229     0.0036     0.1820    39.9778     2.3864    23.7564    13.9934   -30.6298
  384.0000     7.9225     0.0035     0.1805    40.1183     2.3767    23.2510    13.9006   -30.9265
  384.5000     7.9072     0.0033     0.1776    39.0772     2.3834    21.9032    13.8084   -31.3704
  385.0000     7.8919     0.0019     0.1756    41.2839     2.3907    21.1746    13.7168   -32.6992
  385.5000     7.7732     0.0018     0.1900    45.1172     2.3811    20.6097    13.6258   -34.6356
  386.0000     7.6248     0.0017     0.1980    46.5890     2.3700    20.4728    13.4444   -36.0946
  386.5000     7.6835     0.0016     0.2001    42.1487     2.3582    20.4761    13.3745   -36.3910
  387.0000     7.8015     0.0015     0.1997    40.8122     2.3507    20.6183    13.1774   -36.3924
  387.5000     7.8898     0.0029     0.1943    39.6233     2.3493    20.6209    13.0604   -36.3938
  388.0000     7.9485     0.0028     0.1881    37.6366     2.3552    20.6236    12.8627   -36.3955
  388.5000     7.7705     0.0038     0.1825    36.5053     2.3691    20.6269    12.6506   -36.2491
  389.0000     7.7257     0.0041     0.1757    36.3505     2.3809    20.3512    12.4883   -36.1033
  389.5000     7.7106     0.0043     0.1692    35.4571     2.3927    20.0791    12.4054   -36.1047
  390.0000     7.8136     0.0054     0.1678    34.1205     2.4002    19.6766    12.2399   -36.1065
  390.5000     7.8871     0.0053     0.1672    33.8180     2.4059    19.2829    12.1284   -36.1079
  391.0000     7.9163     0.0067     0.1646    33.6631     2.4080    18.8963    11.9825   -36.2567
  391.5000     7.9307     0.0066     0.1602    33.4983     2.4102    18.3922    11.8650   -36.2581
  392.0000     7.9450     0.0065     0.1561    33.0562     2.4146    17.9015    11.7582   -36.4074
  392.5000     7.9444     0.0079     0.1528    32.6059     2.4198    17.2924    11.6802   -36.4088
  393.0000     7.9440     0.0078     0.1493    32.0079     2.4278    16.7308    11.5247   -36.5576
  393.5000     7.9288     0.0077     0.1476    31.4099     2.4322    16.2845    11.4479   -37.0015
  394.0000     7.9284     0.0085     0.1464    32.1413     2.4366    15.9580    11.3720   -38.2183
  394.5000     7.9131     0.0090     0.1458    33.6113     2.4403    15.6382    11.2949   -38.3317
  395.0000     7.9127     0.0089     0.1458    33.7518     2.4432    15.4291    11.1462   -37.8906
  395.5000     7.7613     0.0088     0.1408    34.0792     2.4461    15.2234    11.0629   -37.4499
  396.0000     7.6899     0.0087     0.1397    36.2468     2.4490    15.1218    10.9713   -37.3038
  396.5000     7.7043     0.0086     0.1397    37.5691     2.4505    15.0208    10.9019   -37.3055
  397.0000     7.7630     0.0100     0.1418    38.4482     2.4497    14.8211    10.7803   -37.7494
  397.5000     7.8217     0.0104     0.1445    38.7383     2.4461    14.7226    10.7092   -38.1933
  398.0000     7.8657     0.0113     0.1483    38.8788     2.4415    14.6248    10.6382   -38.6372
  398.5000     7.9096     0.0112     0.1493    38.1313     2.4354    14.5282    10.5676   -38.9339
  399.0000     7.9240     0.0126     0.1466    37.5332     2.4297    14.3344    10.4975   -38.7874
  399.5000     7.9234     0.0140     0.1401    37.3767     2.4385    14.1424    10.4279   -38.6413
  400.0000     7.9230     0.0168     0.1389    36.9276     2.4399    13.8589    10.2192   -38.6431
  400.5000     7.7007     0.0200     0.1407    37.5185     2.4482    13.3964    10.1518   -38.9381
  401.0000     7.8627     0.0230     0.1410    37.5185     2.4488    13.3964    10.0848   -39.3871
  401.5000     7.9065     0.0230     0.1354    37.5185     2.4495    13.3964    10.0186   -40.1180
  402.0000     7.9207     0.0230     0.1300    37.6662     2.4562    13.3964     9.9526   -40.5605
  402.5000     7.9201     0.0230     0.1271    37.3708     2.4657    13.3057     9.9546   -41.0029
  403.0000     7.9194     0.0230     0.1277    36.9092     2.4702    13.3057     9.9560   -41.5929
  403.5000     7.9189     0.0230     0.1280    36.3368     2.4716    13.2157     9.9577   -41.8879
  404.0000     7.9035     0.0230     0.1254    28.6558     2.4672    13.1262     9.8918   -42.1829
  404.5000     7.6366     0.0231     0.1236    25.2585     2.4702    13.1262     9.8268   -42.3304
  405.0000     7.8284     0.0231     0.1214    23.7814     2.4746    13.0373     9.8957   -42.3304
  405.5000     7.8261     0.0231     0.1194    22.4520     2.4805    13.0373     9.8902   -42.3304
  406.0000     7.6792     0.0231     0.1180    30.2806     2.4834    12.9491     9.8316   -42.3304
  406.5000     7.6786     0.0231     0.1177    37.6662     2.4864    12.9450     9.8038   -42.3304
  407.0000     7.8556     0.0231     0.1174    45.0517     2.4855    12.7744     9.7687   -42.1829
  407.5000     7.9439     0.0231     0.1159    51.2555     2.4812    12.7744     9.7043   -42.1829
  408.0000     7.9432     0.0232     0.1129    54.8006     2.4878    12.6879     9.7060   -42.3304
  408.5000     7.9426     0.0246     0.1112    50.8124     2.4945    12.6020     9.6418   -42.4779
  409.0000     7.9420     0.0247     0.1126    47.5628     2.4959    12.6020     9.6437   -42.7729
  409.5000     7.9413     0.0247     0.1165    44.9040     2.4856    12.5167     9.6453   -43.0678
  410.0000     7.9408     0.0247     0.1191    43.2792     2.4775    12.4320     9.6469   -43.1580
  410.5000     7.9402     0.0247     0.1200    40.7681     2.4775    12.4320     9.6485   -43.3628
  411.0000     7.9396     0.0247     0.1188    43.5749     2.4783    12.4320     9.6441   -43.5103
  411.5000     7.9390     0.0262     0.1182    47.4151     2.4805    12.4320     9.5866   -43.6951
  412.0000     7.9385     0.0262     0.1182    48.7445     2.4842    12.4320     9.5884   -43.8053
  412.5000     7.9378     0.0262     0.1135    49.3353     2.4877    12.4320     9.5898   -43.9528
  413.0000     7.9372     0.0262     0.1100    49.6307     2.4923    12.5167     9.5914   -44.1003
  413.5000     7.9366     0.0262     0.1091    49.6399     2.4946    12.5167     9.5931   -44.2478
  414.0000     7.9361     0.0263     0.1129    49.7784     2.4967    12.5167     9.5947   -44.2478
  414.5000     7.9355     0.0248     0.1147    47.4151     2.4982    12.5167     9.6471   -44.3322
  415.0000     7.9349     0.0234     0.1150    42.8360     2.4982    12.4320     9.6633   -44.3953
  415.5000     7.9342     0.0219     0.1135    42.5406     2.4974    12.4129     9.6651   -44.3953
  416.0000     7.9336     0.0205     0.1123    42.6883     2.4959    12.2642     9.6012   -44.3953
  416.5000     7.9331     0.0190     0.1129    42.2452     2.4945    12.1812     9.6031   -44.5428
  417.0000     7.9325     0.0176     0.1141    41.9498     2.4923    12.0438     9.6045   -44.5428
  417.5000     7.9319     0.0161     0.1159    41.3589     2.4908    11.9355     9.5413   -44.5428
  418.0000     7.9314     0.0147     0.1200    41.8021     2.4856    11.7745     9.4969   -44.5428
  418.5000     7.9456     0.0132     0.1268    51.5510     2.4790    11.6948     9.4161   -44.5428
  419.0000     7.9450     0.0118     0.1247    54.0620     2.4724    11.6156     9.3536   -44.5428
  419.5000     7.9466     0.0118     0.1268    52.5849     2.4738    11.4589     9.2922   -44.5428
  420.0000     7.9586     0.0118     0.1327    51.6987     2.4646    11.3813     9.2309   -44.5428
  420.5000     7.9580     0.0118     0.1265    50.6647     2.4569    11.3043     9.1080   -44.5428
