~VERSION INFORMATION
 VERS.                2.0:   CWLS LOG ASCII STANDARD - VERSION 2.0
 WRAP.                 NO:   ONE LINE PER DEPTH STEP
~WELL INFORMATION
#MNEM.UNIT      DATA TYPE    INFORMATION
#----------   ------------   ------------------------------
 STRT.F           90.5000:   START DEPTH
 STOP.F          836.0000:   STOP DEPTH
 STEP.F            0.5000:   STEP LENGTH
 NULL.          -999.2500:   NO VALUE
 COMP.          U.S. NAVY:   COMPANY
 WELL.    NPR #3 #38-S-35:   WELL
 FLD .           TEAPOT E:   FIELD
 LOC .      S35 T39N R78W:   LOCATION
 CNTY.            NATRONA:   COUNTY
 STAT.            WYOMING:   STATE
 CTRY. UNITED STATES OF AMERICA:   COUNTRY
 SRVC. Schlumberger Well Surveying Corp:   SERVICE COMPANY
 DATE.        21-JUL-1963:   LOGDATE
 API .       490250649100:   API NUMBER
~CURVE INFORMATION
#MNEM.UNIT       API CODE    CURVE DESCRIPTION
#----------   ------------   ------------------------------
 DEPT.F                  :   
 SPR .MV     05 010 01 00:   SPONTANEOUS POTENTIAL FROM RES.
 ASN .OHMM   05 041 16 00:   AMPLIFIED SHORT NORMAL 16"
 ILD .OHMM   05 120 46 00:   INDUCTION LOG DEEP
 CILD.MMHO   05 110 46 00:   CONDUCTIVITY INDUCTION LOG DEEP
 DT  .US/F   60 520 33 00:   INTERVAL TRANSIT TIME
 GR  .GAPI   30 310 01 00:   GAMMA RAY
~PARAMETER INFORMATION
#MNEM.UNIT          VALUE    DESCRIPTION
#----------   ------------   ------------------------------
 LMF .                 KB:   LOG MEASURED FROM
 DMF .                 KB:   DRILLING MEASURED FROM
 EKB .F              5119:   KELLING BUSHING
 EGL .F              5114:   GROUND LEVEL
 DATE.          7-21-1963:   RUN DATE
 RUN .                  1:   RUN NUMBER
 DD  .F               836:   DEPTH DRILLER
 DL  .F               837:   DEPTH LOGGER
 BLI .F               836:   BOTTOM LOG INTERVAL
 TLI .F                90:   TOP LOG INTERVAL
 CBD .F                12:   CASING BOTTOM DRILLER
 BS  .IN             6.75:   BIT SIZE
 BSD .F               836:   BIT SIZE AT DEPTH
 DFT .            GEL-OIL:   DRILLING FLUID TYPE
 DFD .                9.2:   DRILLING FLUID DENSITY
 DFV .                 85:   DRILLING FLUID VISCOSITY
 DFPH.                  8:   DRILLING FLUID PH
 DFL .                3.6:   DRILLING FLUID LOSS
 MSS .           FLOWLINE:   MUD SAMPLE SOURCE
 RMS .OHMM           2.95:   RESISTIVITY MUD SAMPLE
 MST .F                88:   MUD SAMPLE TEMPERATURE
 RMF .OHMM           2.31:   RESISTIVITY MUD FILTRATE SAMPLE
 MFST.F                88:   MUD FILTRATE SAMPLE TEMPERATURE
 RMC .OHMM           2.65:   RESISTIVITY MUD CAKE
 MCST.F                88:   MUD CAKE SAMPLE TEMPERATURE
 MFSS.                  M:   MUD FILTRATE SAMPLE SOURCE
 MCSS.                  M:   MUD CAKE SAMPLE SOURCE
 TCS .HRS               1:   TIME CURCULATED STOPPED
 LUN .               2523:   LOGGING UNIT NUMBER
 LUL .              CSPR.:   LOGGING UNIT LOCATION
 ENGI.             KNOBEL:   RECORDING ENGINEER
 WITN.          JORGENSON:   WITNESSED BY
 CLNT.            A2DTECH:   CLIENT CODE
 ORIG.      2" , 5" PRINT:   ORIGIN OF DATA
 UWI .       490250649100:   UNIQUE WELL ID
 DICO. A2D Technologies, Inc.:   DIGITIZING COMPANY
~OTHER INFORMATION
~A   DEPT      SPR        ASN        ILD       CILD         DT         GR   
# ...
  142.5000   -39.0229     5.7504     5.3988   184.6847  -999.2500  -999.2500
  143.0000   -38.9825     5.7854     5.5125   180.6156  -999.2500  -999.2500
  143.5000   -38.9422     5.8204     5.6261   178.3183  -999.2500  -999.2500
  144.0000   -38.9020     5.8538     5.7396   177.6058  -999.2500  -999.2500
  144.5000   -38.8618     5.8186     5.8533   176.8933  -999.2500  -999.2500
  145.0000   -38.8215     5.6729     5.9670   176.1807  -999.2500  -999.2500
  145.5000   -38.7814     5.6924     6.0795   175.1358  -999.2500  -999.2500
  146.0000   -38.7416     6.0581     6.1741   173.2817  -999.2500  -999.2500
  146.5000   -38.6985     6.1712     6.2256   171.4276  -999.2500  -999.2500
  147.0000   -38.5776     6.1184     6.2781   169.5734  -999.2500  -999.2500
  147.5000   -38.4517     6.0759     6.3306   167.7193  -999.2500  -999.2500
  148.0000   -38.3256     6.1137     6.3824   165.8652  -999.2500  -999.2500
  148.5000   -38.2001     6.2401     6.4364   165.6184  -999.2500  -999.2500
  149.0000   -38.1098     6.3105     6.2971   168.3241  -999.2500  -999.2500
  149.5000   -38.1832     6.2511     6.0302   171.0298  -999.2500  -999.2500
  150.0000   -38.2531     6.0368     5.7607   173.7355  -999.2500  -999.2500
  150.5000   -38.3230     5.8274     5.4913   176.4413  -999.2500  -999.2500
  151.0000   -38.3928     5.7536     5.2225   179.4895  -999.2500  -999.2500
  151.5000   -38.4608     5.8592     4.9504   184.1742  -999.2500  -999.2500
  152.0000   -38.4355     5.7983     4.8254   188.8589  -999.2500  -999.2500
  152.5000   -38.2925     5.6491     4.7542   193.5435  -999.2500  -999.2500
  153.0000   -38.1501     5.5338     4.6849   197.0370  -999.2500  -999.2500
  153.5000   -38.0079     5.5200     4.6844   197.6977  -999.2500  -999.2500
  154.0000   -37.9075     5.5268     4.7355   196.1211  -999.2500  -999.2500
  154.5000   -37.9587     5.5324     4.7877   192.2172  -999.2500  -999.2500
  155.0000   -38.0067     5.6112     4.8398   188.6887  -999.2500  -999.2500
  155.5000   -38.0566     5.7201     4.8919   186.1924  -999.2500  -999.2500
  156.0000   -38.0873     5.8323     4.9440   183.9152  -999.2500  -999.2500
  156.5000   -37.7454     5.7940     4.9962   181.6379  -999.2500  -999.2500
  157.0000   -37.4071     5.6578     5.0483   179.3606  -999.2500  -999.2500
  157.5000   -37.1108     5.6934     5.0552   177.0833  -999.2500  -999.2500
  158.0000   -37.0977     5.8029     5.0552   174.6747  -999.2500  -999.2500
  158.5000   -37.0997     5.8859     5.0551   174.6747  -999.2500  -999.2500
  159.0000   -37.1000     5.9113     5.0551   174.6747  -999.2500  -999.2500
  159.5000   -37.1000     5.9375     5.0551   175.1799  -999.2500  -999.2500
  160.0000   -37.1000     5.9635     5.0551   175.6757  -999.2500  -999.2500
  160.5000   -37.1000     5.9911     5.0554   176.1714  -999.2500  -999.2500
  161.0000   -37.1000     5.9613     5.0377   176.6777  -999.2500  -999.2500
  161.5000   -37.1000     5.9152     5.0146   178.5284  -999.2500  -999.2500
  162.0000   -37.1000     5.8689     4.9914   180.4246  -999.2500  -999.2500
  162.5000   -37.1000     5.8245     4.9683   182.3186  -999.2500  -999.2500
  163.0000   -37.1000     5.7800     4.9452   184.2133  -999.2500  -999.2500
  163.5000   -37.1001     5.7357     4.9220   186.1103  -999.2500  -999.2500
  164.0000   -37.0999     5.6744     4.8988   187.9971  -999.2500  -999.2500
  164.5000   -37.1009     5.6117     4.8755   188.2168  -999.2500  -999.2500
  165.0000   -36.9999     5.5556     4.8551   187.4732  -999.2500  -999.2500
  165.5000   -36.8341     5.5559     4.8874   186.7296  -999.2500  -999.2500
  166.0000   -36.6667     5.6004     4.9239   185.9860  -999.2500  -999.2500
  166.5000   -36.4991     5.6495     4.9603   185.2424  -999.2500  -999.2500
  167.0000   -36.3252     5.7256     4.9966   184.5003  -999.2500  -999.2500
  167.5000   -36.4568     5.8385     5.0329   183.7600  -999.2500  -999.2500
  168.0000   -36.6526     5.9526     5.0692   183.0132  -999.2500  -999.2500
  168.5000   -36.8601     5.9848     5.1057   180.8158  -999.2500  -999.2500
  169.0000   -36.7071     5.9670     5.1412   177.4483  -999.2500  -999.2500
  169.5000   -36.4472     5.9490     5.2363   174.0314  -999.2500  -999.2500
  170.0000   -36.1829     5.9726     5.3619   169.4241  -999.2500  -999.2500
  170.5000   -35.9128     6.1292     5.4887   161.3029  -999.2500  -999.2500
  171.0000   -35.8977     6.3773     5.6153   154.1243  -999.2500  -999.2500
  171.5000   -35.8998     6.7025     5.7422   151.3981  -999.2500  -999.2500
  172.0000   -35.8995     6.8536     5.8684   148.6220  -999.2500  -999.2500
  172.5000   -35.9363     6.9696     5.9953   146.6467  -999.2500  -999.2500
  173.0000   -35.9903     7.0865     5.9994   146.6467  -999.2500  -999.2500
  173.5000   -36.0438     7.0475     5.8941   147.1105  -999.2500  -999.2500
  174.0000   -36.1084     6.8911     5.7873   149.9193  -999.2500  -999.2500
  174.5000   -36.4285     6.7326     5.6803   152.7690  -999.2500  -999.2500
  175.0000   -36.7599     6.5741     5.5735   157.4577  -999.2500  -999.2500
  175.5000   -37.0833     6.4112     5.4666   163.2750  -999.2500  -999.2500
  176.0000   -36.8568     6.3554     5.3594   167.5767  -999.2500  -999.2500
  176.5000   -36.5917     6.3274     5.2572   170.9460  -999.2500  -999.2500
  177.0000   -36.3307     6.3000     5.2880   172.2473  -999.2500  -999.2500
  177.5000   -36.2990     6.2722     5.3401   171.3102  -999.2500  -999.2500
  178.0000   -36.2995     6.2438     5.3922   169.2859  -999.2500  -999.2500
  178.5000   -36.3000     6.2189     5.4423   167.2617  -999.2500  -999.2500
  179.0000   -36.3000     6.2877     5.5894   164.6956  -999.2500  -999.2500
  179.5000   -36.3000     6.4344     5.7595   160.1101  -999.2500  -999.2500
  180.0000   -36.3000     6.6174     5.9299   155.5246  -999.2500  -999.2500
  180.5000   -36.3000     6.8006     6.1001   150.9390  -999.2500  -999.2500
  181.0000   -36.3000     6.9451     6.2703   146.3535  -999.2500  -999.2500
  181.5000   -36.3000     7.1315     6.4405   141.7680  -999.2500  -999.2500
  182.0000   -36.3000     7.3270     6.6107   137.1824  -999.2500  -999.2500
  182.5000   -36.3000     7.5232     6.7810   132.6130  -999.2500  -999.2500
  183.0000   -36.3000     7.6702     6.9517   128.6836  -999.2500  -999.2500
  183.5000   -36.3000     7.7759     7.1312   129.5298  -999.2500  -999.2500
  184.0000   -36.3001     7.8816     6.9212   130.3380  -999.2500  -999.2500
  184.5000   -36.3005     7.8659     6.6213   133.4935  -999.2500  -999.2500
  185.0000   -36.3063     7.7812     6.3198   138.0047  -999.2500  -999.2500
  185.5000   -36.0509     7.5453     6.0191   142.5159  -999.2500  -999.2500
  186.0000   -35.7347     7.2872     5.7120   147.0270  -999.2500  -999.2500
  186.5000   -35.4176     7.0288     5.6541   151.5382  -999.2500  -999.2500
  187.0000   -35.1007     6.7738     5.6913   156.0494  -999.2500  -999.2500
  187.5000   -34.7841     6.6091     5.7364   157.4074  -999.2500  -999.2500
  188.0000   -34.4712     6.4612     5.7809   156.8779  -999.2500  -999.2500
  188.5000   -34.4218     6.4598     5.8252   155.7821  -999.2500  -999.2500
  189.0000   -34.6841     6.6408     5.8695   154.6863  -999.2500  -999.2500
  189.5000   -34.9113     6.8089     5.9138   153.6537  -999.2500  -999.2500
  190.0000   -34.9440     6.6956     5.9582   152.2773  -999.2500  -999.2500
  190.5000   -34.9809     6.5980     6.0024   150.9760  -999.2500  -999.2500
  191.0000   -35.0182     6.8624     6.0485   149.6496  -999.2500  -999.2500
  191.5000   -35.0558     7.1258     5.9718   149.6496  -999.2500  -999.2500
  192.0000   -35.0979     6.9923     5.8327   152.9974  -999.2500  -999.2500
  192.5000   -34.9326     6.8481     5.6922   157.0459  -999.2500  -999.2500
  193.0000   -34.7238     6.6432     5.5522   161.0944  -999.2500  -999.2500
  193.5000   -34.5141     6.4812     5.4112   164.4561  -999.2500  -999.2500
  194.0000   -34.3035     6.4443     5.3527   166.6250  -999.2500  -999.2500
