~VERSION INFORMATION
 VERS.                2.0:   CWLS LOG ASCII STANDARD - VERSION 2.0
 WRAP.                 NO:   ONE LINE PER DEPTH STEP
~WELL INFORMATION
#MNEM.UNIT      DATA TYPE    INFORMATION
#----------   ------------   ------------------------------
 STRT.F           30.0000:   START DEPTH
 STOP.F          634.0000:   STOP DEPTH
 STEP.F            0.5000:   STEP LENGTH
 NULL.          -999.2500:   NO VALUE
 COMP. FENIX & SCISSON INC:   COMPANY
 WELL.     26-S-11 #26-11:   WELL
 FLD .             TEAPOT:   FIELD
 LOC .      S11 T38N R78W:   LOCATION
 CNTY.            NATRONA:   COUNTY
 STAT.            WYOMING:   STATE
 CTRY. UNITED STATES OF AMERICA:   COUNTRY
 SRVC.              Welex:   SERVICE COMPANY
 DATE.        26-APR-1977:   LOGDATE
 API .       490251034300:   API NUMBER
~CURVE INFORMATION
#MNEM.UNIT       API CODE    CURVE DESCRIPTION
#----------   ------------   ------------------------------
 DEPT.F                  :   
 SPR .MV     07 010 01 00:   SPONTANEOUS POTENTIAL
 ILD .OHMM   07 120 46 00:   INDUCTION LOG DEEP
 ILM .OHMM   07 120 44 00:   INDUCTION LOG MEDIUM
 SGRD.OHMM   07 221 05 00:   SHALLOW SHORT GUARD RESISTIVITY
 CALD.IN     45 280 60 00:   CALIPER FROM DENSITY LOG
 GRD .GAPI   45 310 01 00:   GAMMA RAY FROM DENSITY LOG
 CORR.G/C3   45 356 01 00:   DENSITY CORRECTION
 DPHI.DEC    45 890 12 00:   DENSITY POROSITY SANDSTONE
 RHOB.G/C3   45 350 01 00:   BULK DENSITY
~PARAMETER INFORMATION
#MNEM.UNIT          VALUE    DESCRIPTION
#----------   ------------   ------------------------------
 PD  .                 GL:   PERMANENT DATUM
 EPD .F              5179:   ELEVATION PERMANENT DATUM
 LMF .                 GL:   LOG MEASURED FROM
 DMF .                 GL:   DRILLING MEASURED FROM
 EGL .F              5179:   GROUND LEVEL
 DATE.          4-24-1977:   RUN DATE
 RUN .                  1:   RUN NUMBER
 DD  .F               645:   DEPTH DRILLER
 DL  .F               634:   DEPTH LOGGER
 BLI .F               632:   BOTTOM LOG INTERVAL
 TLI .F                40:   TOP LOG INTERVAL
 CS  .IN            8.625:   CASING SIZE
 CBD .F                40:   CASING BOTTOM DRILLER
 CBL .F                42:   CASING BOTTOM LOGGER
 BS  .IN            7.875:   BIT SIZE
 BSD .F               645:   BIT SIZE AT DEPTH
 DFT .            KCL MUD:   DRILLING FLUID TYPE
 DFD .                8.8:   DRILLING FLUID DENSITY
 DFV .                 33:   DRILLING FLUID VISCOSITY
 DFPH.                7.5:   DRILLING FLUID PH
 DFL .                 96:   DRILLING FLUID LOSS
 MSS .           FLOWLINE:   MUD SAMPLE SOURCE
 RMS .OHMM            .17:   RESISTIVITY MUD SAMPLE
 MST .F                81:   MUD SAMPLE TEMPERATURE
 RMF .OHMM            .16:   RESISTIVITY MUD FILTRATE SAMPLE
 MFST.F                81:   MUD FILTRATE SAMPLE TEMPERATURE
 RMC .OHMM            .21:   RESISTIVITY MUD CAKE
 MCST.F                81:   MUD CAKE SAMPLE TEMPERATURE
 MFSS.           FANN KIT:   MUD FILTRATE SAMPLE SOURCE
 MCSS.           FANN KIT:   MUD CAKE SAMPLE SOURCE
 RMB .OHMM            .19:   RESISTIVITY MUD AT BHT
 BHT .F                72:   BOTTOM HOLE TEMPERATURE
 TCS .HRS             1.5:   TIME CURCULATED STOPPED
 MRT .F                72:   MAXIMUM RECORDED TEMPERATURE
 LUN .                861:   LOGGING UNIT NUMBER
 LUL .           GILLETTE:   LOGGING UNIT LOCATION
 ENGI.             JOYNER:   RECORDING ENGINEER
 WITN.           ROB LYON:   WITNESSED BY
 CLNT.            A2DTECH:   CLIENT CODE
 ORIG.         2.5" PRINT:   ORIGIN OF DATA
 UWI .       490251034300:   UNIQUE WELL ID
 DICO. A2D Technologies, Inc.:   DIGITIZING COMPANY
~OTHER INFORMATION
~A   DEPT      SPR        ILD        ILM       SGRD       CALD        GRD       CORR       DPHI       RHOB   
# ...
  577.5000   -20.4759     8.9886    10.0129    14.0913     7.9606   102.3015     0.0295     0.1042     2.4854
  578.0000   -20.1753     8.7389     9.8713    13.8911     7.9605   103.7591     0.0295     0.1024     2.5016
  578.5000   -20.1768     8.4961     9.7317    13.8881     7.9604   105.2166     0.0295     0.1007     2.4927
  579.0000   -19.8761     8.2600     9.5940    13.6907     7.9604   105.2336     0.0294     0.1066     2.4794
  579.5000   -19.5756     8.0305     9.4583    13.4961     7.9603   103.4395     0.0294     0.1102     2.4631
  580.0000   -19.5771     7.8074     9.3245    13.1180     7.9602   101.0848     0.0294     0.1138     2.4808
  580.5000   -19.2764     7.5905     9.1926    12.9315     7.9602    99.6097     0.0323     0.1167     2.4659
  581.0000   -18.9759     7.4820     9.0626    12.5692     7.9601    97.8414     0.0323     0.1197     2.4511
  581.5000   -18.6753     7.3734     8.8093    12.2170     7.9600    97.5394     0.0323     0.1221     2.4422
  582.0000   -18.6768     7.1702     8.5630    11.7083     7.9599    99.8767     0.0322     0.1239     2.4348
  582.5000   -18.3762     7.0727     8.4419    11.2209     7.9599   102.2140     0.0322     0.1263     2.4377
  583.0000   -18.0756     6.9732     8.5606    10.6031     7.9598   104.5513     0.0322     0.1287     2.4362
  583.5000   -17.7750     6.9723     8.9294     9.8790     7.9597   108.0691     0.0321     0.1299     2.4228
  584.0000   -17.4744     6.9713     9.0549    10.1595     7.9596   108.9326     0.0321     0.1317     2.4139
  584.5000   -17.1738     7.0688     9.0537    11.0544     7.9596   105.3773     0.0321     0.1311     2.4243
  585.0000   -17.1753     7.0677     9.0524    11.6935     7.9595   103.3040     0.0320     0.1264     2.4347
  585.5000   -17.1768     7.0667     9.0511    12.1964     7.9594   100.9503     0.0320     0.1228     2.4451
  586.0000   -17.4804     7.0657     9.0498    12.3672     7.9593   101.1044     0.0290     0.1181     2.4569
  586.5000   -17.4819     7.0648     9.0485    12.3644     7.9593   104.5269     0.0290     0.1139     2.4673
  587.0000   -18.0876     7.0638     9.0473    12.3618     7.9592   105.3610     0.0290     0.1080     2.4773
  587.5000   -18.3913     7.0628     9.1747    12.3592     7.9591   104.1055     0.0289     0.1145     2.4625
  588.0000   -18.6949     7.0618     9.1732    12.3566     7.9591   102.9971     0.0289     0.1147     2.4657
  588.5000   -18.9985     7.0608     9.1719    12.1809     7.9590   103.3421     0.0289     0.1113     2.4716
  589.0000   -19.3021     7.0598     9.1706    12.0078     7.9580   104.5123     0.0288     0.1078     2.4788
  589.5000   -19.6058     7.0588     9.1693    11.6713     7.9569   105.6462     0.0288     0.1039     2.4801
  590.0000   -19.9094     7.0578     9.1680    11.5054     7.9559   106.8525     0.0288     0.1045     2.4767
  590.5000   -20.2130     7.0568     9.1667    11.3419     7.9549   108.6512     0.0288     0.1063     2.4694
  591.0000   -20.5166     7.0741     9.0371    11.5006     7.9539   109.9831     0.0287     0.1069     2.4681
  591.5000   -20.8203     7.1545     8.9092    11.6616     7.9528   109.0460     0.0287     0.1063     2.4715
  592.0000   -21.1239     7.1737     8.9080    11.9926     7.9518   108.7918     0.0287     0.1040     2.4774
  592.5000   -21.7296     7.2535     8.6590    11.9901     7.9508   108.8367     0.0257     0.1004     2.4821
  593.0000   -22.0333     7.2305     8.5365    12.1579     7.9498   109.1241     0.0256     0.0963     2.4893
  593.5000   -22.3369     7.1504     8.5353    12.1552     7.9488   109.9981     0.0256     0.0915     2.4952
  594.0000   -22.3384     7.1494     8.5341    11.9825     7.9477   111.2277     0.0256     0.0933     2.4960
  594.5000   -22.9441     7.1244     8.4134    11.8122     7.9467   112.6911     0.0255     0.1028     2.4795
  595.0000   -22.9456     7.0479     8.4122    11.6443     7.9457   114.3597     0.0255     0.1076     2.4716
  595.5000   -23.2493     7.0469     8.2932    11.4788     7.9447   117.2982     0.0225     0.1089     2.4678
  596.0000   -23.5529     7.0460     8.2920    11.3156     7.9437   119.5730     0.0195     0.1052     2.4774
  596.5000   -24.1586     7.0450     8.1748    11.3132     7.9133   116.9081     0.0195     0.1005     2.4796
  597.0000   -24.1601     7.0440     8.1736    11.3108     7.9123   114.1681     0.0165     0.0993     2.4795
  597.5000   -24.4638     7.0430     8.0580    11.3084     7.9113   113.0951     0.0165     0.0982     2.4803
  598.0000   -24.4653     6.9440     8.0568    11.3060     7.9102   114.8459     0.0164     0.0970     2.4862
  598.5000   -24.1647     6.9430     7.9429    11.3037     7.9092   113.8670     0.0194     0.0946     2.4926
  599.0000   -23.5619     6.9420     7.9418    11.1430     7.9082   112.8837     0.0193     0.0887     2.4980
  599.5000   -23.2613     6.8135     7.9406    11.1406     7.9072   110.9289     0.0193     0.0840     2.5035
  600.0000   -23.2628     6.7482     7.8283    10.9823     7.9355   108.5606     0.0193     0.0846     2.5059
  600.5000   -23.2644     6.6533     7.8272    10.6746     7.9406   108.0066     0.0220     0.0899     2.5000
  601.0000   -23.2659     6.6524     7.7165    10.5228     7.9456   107.7126     0.0252     0.0899     2.4985
  601.5000   -23.2689     6.5589     7.7154    10.5206     7.9507   107.0968     0.0252     0.0905     2.4925
  602.0000   -23.5710     6.4337     7.6063    10.3711     7.9558   106.7742     0.0252     0.0929     2.4895
  602.5000   -23.5725     6.3425     7.6052    10.3689     7.9608   107.2581     0.0252     0.0970     2.4866
  603.0000   -23.5770     6.2526     7.6041    10.3667     7.9648   108.5337     0.0252     0.0964     2.4895
  603.5000   -23.8776     6.1977     7.4966    10.3645     7.9516   110.3226     0.0252     0.0958     2.4910
  604.0000   -23.8791     6.0766     7.4955    10.3623     7.9355   111.7009     0.0252     0.0947     2.4894
  604.5000   -23.8807     6.0247     7.4945    10.3601     7.9355   112.8885     0.0252     0.0941     2.4894
  605.0000   -24.1843     5.9400     7.4934    10.3507     7.9501   113.9296     0.0252     0.0935     2.4909
  605.5000   -24.1858     5.9040     7.3874    10.2106     7.9648   114.9706     0.0252     0.0923     2.4953
  606.0000   -24.1873     5.8556     7.3864    10.2085     7.9648   116.0968     0.0252     0.0941     2.4982
  606.5000   -24.1888     5.8548     7.2819    10.0634     7.9355   117.2556     0.0252     0.0982     2.4864
  607.0000   -24.1903     5.8540     7.1789    10.0514     7.9355   117.9179     0.0252     0.0994     2.4849
  607.5000   -24.1918     5.8158     7.1779     9.7590     7.9355   115.7607     0.0223     0.0994     2.4819
  608.0000   -24.1933     5.7709     7.0764     9.0812     7.9355   114.5734     0.0193     0.1030     2.4789
  608.5000   -24.1948     5.8088     7.2778     8.3705     7.9355   115.1456     0.0193     0.1071     2.4730
  609.0000   -24.1964     5.8507     7.4850     9.2852     7.9355   116.3043     0.0163     0.1095     2.4670
  609.5000   -24.1979     5.9737     7.6980    10.0919     7.9355   115.1169     0.0163     0.1083     2.4729
  610.0000   -24.5015     6.2301     7.9172    10.6623     7.9355   113.3431     0.0163     0.1030     2.4891
  610.5000   -24.5030     6.4534     8.0285    11.2632     7.9355   116.2904     0.0193     0.0887     2.5010
  611.0000   -24.5045     6.6822     8.1414    11.5839     7.9355   117.1554     0.0193     0.0840     2.5039
  611.5000   -24.5060     6.8720     8.2559    11.7467     7.9355   116.6423     0.0193     0.0840     2.5024
  612.0000   -24.5075     7.0672     8.3720    12.0607     7.9355   114.6334     0.0193     0.0834     2.5112
  612.5000   -24.5090     7.2680     8.3708    12.2294     7.9355   113.3431     0.0193     0.0798     2.5131
  613.0000   -24.5105     7.4169     8.3696    12.2267     7.9355   112.6708     0.0193     0.0804     2.5082
  613.5000   -24.5121     7.4743     8.4875    12.2241     7.9355   115.7919     0.0193     0.0858     2.5052
