~VERSION INFORMATION
 VERS.                2.0:   CWLS LOG ASCII STANDARD - VERSION 2.0
 WRAP.                 NO:   ONE LINE PER DEPTH STEP
~WELL INFORMATION
#MNEM.UNIT      DATA TYPE    INFORMATION
#----------   ------------   ------------------------------
 STRT.F           30.0000:   START DEPTH
 STOP.F         1358.0000:   STOP DEPTH
 STEP.F            0.5000:   STEP LENGTH
 NULL.          -999.2500:   NO VALUE
 COMP. FENIX & SCISSON INC:   COMPANY
 WELL.      3 SX14 #85-14:   WELL
 FLD .             TEAPOT:   FIELD
 LOC .      S14 T38N R78W:   LOCATION
 CNTY.            NATRONA:   COUNTY
 STAT.            WYOMING:   STATE
 CTRY. UNITED STATES OF AMERICA:   COUNTRY
 SRVC.              Welex:   SERVICE COMPANY
 DATE.        10-FEB-1977:   LOGDATE
 API .       490251027500:   API NUMBER
~CURVE INFORMATION
#MNEM.UNIT       API CODE    CURVE DESCRIPTION
#----------   ------------   ------------------------------
 DEPT.F                  :   
 ILM .OHMM   07 120 44 00:   INDUCTION LOG MEDIUM
 ILD .OHMM   07 120 46 00:   INDUCTION LOG DEEP
 CALD.IN     45 280 60 00:   CALIPER
 GRD .GAPI   45 310 01 00:   GAMMA RAY FROM DENSITY LOG
 RHOB.G/C3   45 350 01 00:   BULK DENSITY
 DPHI.DEC    45 890 12 00:   DENSITY POROSITY SANDSTONE
 CORR.G/C3   45 356 01 00:   DENSITY CORRECTION
~PARAMETER INFORMATION
#MNEM.UNIT          VALUE    DESCRIPTION
#----------   ------------   ------------------------------
 PD  .                 GL:   PERMANENT DATUM
 EPD .F              5345:   ELEVATION PERMANENT DATUM
 LMF .                 GL:   LOG MEASURED FROM
 DMF .                 GL:   DRILLING MEASURED FROM
 EGL .F              5345:   GROUND LEVEL
 DATE.          2-10-1977:   RUN DATE
 RUN .                  1:   RUN NUMBER
 DD  .F              1362:   DEPTH DRILLER
 DL  .F              1361:   DEPTH LOGGER
 BLI .F              1359:   BOTTOM LOG INTERVAL
 TLI .F                43:   TOP LOG INTERVAL
 CS  .IN            8.625:   CASING SIZE
 CBD .F                43:   CASING BOTTOM DRILLER
 CBL .F                43:   CASING BOTTOM LOGGER
 BS  .IN            7.875:   BIT SIZE
 BSD .F              1362:   BIT SIZE AT DEPTH
 DFT .           AIR MIST:   DRILLING FLUID TYPE
 TCS .HRS               4:   TIME CURCULATED STOPPED
 MRT .F               104:   MAXIMUM RECORDED TEMPERATURE
 LUN .               8611:   LOGGING UNIT NUMBER
 LUL .           GILLETTE:   LOGGING UNIT LOCATION
 ENGI.               DOAK:   RECORDING ENGINEER
 WITN. PETTINGILL/STUEBINGER:   WITNESSED BY
 CLNT.            A2DTECH:   CLIENT CODE
 ORIG.       2", 5" PRINT:   ORIGIN OF DATA
 UWI .       490251027500:   UNIQUE WELL ID
 DICO. A2D Technologies, Inc.:   DIGITIZING COMPANY
~OTHER INFORMATION
~A   DEPT      ILM        ILD         CALD      GRD         RHOB     DPHI        CORR  
# ...
 1031.0000     8.7527     7.7948     8.0998   107.6319     2.4953     0.1078     0.0114
 1031.5000     8.7750     7.8051     8.1094   108.2324     2.4934     0.1069     0.0124
 1032.0000     8.7974     7.8155     8.1188   109.2510     2.4951     0.1060     0.0135
 1032.5000     8.8198     7.8273     8.1281   110.2729     2.4981     0.1051     0.0148
 1033.0000     8.8423     7.8459     8.1420   109.9933     2.5005     0.1042     0.0161
 1033.5000     8.8649     7.8646     8.1555   107.9603     2.5030     0.1035     0.0175
 1034.0000     8.8875     7.8835     8.1386   105.9435     2.5037     0.1047     0.0189
 1034.5000     8.9101     7.9158     8.1207   103.9234     2.5015     0.1059     0.0202
 1035.0000     8.9329     7.9793     8.1028   101.9145     2.4992     0.1069     0.0216
 1035.5000     8.9556     8.0430     8.0850   100.8009     2.4970     0.1081     0.0230
 1036.0000     8.9821     8.1175     8.0673   102.8437     2.4954     0.1092     0.0244
 1036.5000     8.7968     7.9594     8.0555   104.9576     2.4979     0.1092     0.0257
 1037.0000     8.5834     7.7220     8.0589   107.1046     2.5004     0.1069     0.0267
 1037.5000     8.3739     7.4917     8.0629   109.0051     2.5029     0.1047     0.0277
 1038.0000     8.1698     7.2682     8.0670   110.6287     2.5053     0.1057     0.0272
 1038.5000     7.9707     7.0514     8.0711   112.5790     2.5044     0.1072     0.0260
 1039.0000     7.7764     6.8411     8.0751   115.4110     2.4988     0.1088     0.0248
 1039.5000     7.5869     6.6370     8.0792   117.5515     2.4932     0.1103     0.0236
 1040.0000     7.4020     6.4390     8.0833   119.1125     2.4876     0.1126     0.0224
 1040.5000     7.2216     6.3318     8.0873   120.6775     2.4821     0.1151     0.0212
 1041.0000     7.0456     6.2643     8.0914   122.2457     2.4774     0.1144     0.0198
 1041.5000     6.8739     6.1794     8.0955   123.8052     2.4862     0.1126     0.0225
 1042.0000     6.6912     6.0956     8.0996   124.8514     2.4984     0.1075     0.0259
 1042.5000     6.6299     6.0130     8.1036   122.5844     2.5106     0.1014     0.0293
 1043.0000     6.7129     5.9316     8.1077   120.3016     2.5203     0.0980     0.0321
 1043.5000     6.7766     5.8825     8.1118   118.6075     2.5238     0.0977     0.0314
 1044.0000     6.8409     5.9798     8.1158   118.1294     2.5275     0.0974     0.0308
 1044.5000     6.9058     6.0505     8.1160   118.0569     2.5254     0.0973     0.0300
 1045.0000     6.9714     6.1224     8.1096   117.9722     2.5215     0.0990     0.0258
 1045.5000     7.0375     6.1950     8.1034   117.5831     2.5130     0.1026     0.0214
 1046.0000     7.1043     6.2685     8.0972   116.8230     2.5046     0.1069     0.0170
 1046.5000     7.1717     6.3428     8.0910   115.8556     2.4962     0.1111     0.0124
 1047.0000     7.2397     6.4180     8.0848   114.8814     2.4893     0.1118     0.0132
 1047.5000     7.3084     6.4941     8.0787   114.0192     2.5012     0.1058     0.0154
 1048.0000     7.3777     6.5711     8.0725   114.0298     2.5145     0.1011     0.0178
 1048.5000     7.4477     6.6490     8.0662   114.5036     2.5282     0.0965     0.0201
 1049.0000     7.5184     6.7279     8.0601   115.9181     2.5314     0.0919     0.0224
 1049.5000     7.5898     6.8077     8.0574   117.2536     2.5368     0.0907     0.0247
 1050.0000     7.6616     6.8887     8.0728   118.5809     2.5422     0.0903     0.0270
 1050.5000     7.7522     7.0062     8.0883   119.8070     2.5452     0.0898     0.0293
 1051.0000     7.7260     6.9892     8.1038   120.4428     2.5383     0.0921     0.0317
 1051.5000     7.6914     6.9588     8.1192   121.3748     2.5317     0.0936     0.0339
 1052.0000     7.6566     6.9285     8.1347   122.2786     2.5251     0.0951     0.0312
 1052.5000     7.6220     6.8984     8.1502   123.0856     2.5186     0.0966     0.0278
 1053.0000     7.5876     6.8684     8.1657   123.1114     2.5154     0.0981     0.0243
 1053.5000     7.5534     6.8385     8.1799   122.4375     2.5169     0.0996     0.0209
 1054.0000     7.5193     6.8088     8.1684   121.4988     2.5155     0.1001     0.0177
 1054.5000     7.4854     6.7792     8.1518   120.5780     2.5119     0.1005     0.0193
 1055.0000     7.4515     6.7497     8.1351   119.7592     2.5108     0.1009     0.0219
 1055.5000     7.4181     6.7203     8.1185   119.0917     2.5130     0.1014     0.0236
 1056.0000     7.4037     6.6911     8.1019   118.4317     2.5154     0.1018     0.0222
 1056.5000     7.4040     6.6620     8.0853   117.7732     2.5073     0.1044     0.0208
 1057.0000     7.4030     6.6330     8.0765   117.0925     2.4932     0.1075     0.0195
 1057.5000     7.4071     6.5764     8.0720   117.1396     2.4890     0.1106     0.0181
 1058.0000     7.3290     6.5008     8.0668   118.8077     2.4935     0.1110     0.0168
 1058.5000     7.3007     6.4260     8.0616   120.4194     2.4989     0.1074     0.0154
 1059.0000     7.2756     6.3519     8.0565   122.0285     2.5044     0.1040     0.0140
 1059.5000     7.2502     6.2792     8.0513   123.1353     2.5099     0.1010     0.0141
 1060.0000     7.2248     6.2145     8.0462   122.0207     2.5143     0.0996     0.0176
 1060.5000     7.1995     6.2003     8.0410   120.5840     2.5189     0.0977     0.0210
 1061.0000     7.1743     6.1862     8.0359   120.0847     2.5235     0.0958     0.0245
 1061.5000     7.1492     6.1721     8.0350   120.3440     2.5280     0.0940     0.0279
 1062.0000     7.1242     6.1580     8.0346   120.1533     2.5327     0.0931     0.0298
 1062.5000     7.0992     6.1439     8.0390   119.4164     2.5306     0.0941     0.0274
 1063.0000     7.0744     6.1299     8.0550   118.6565     2.5252     0.0959     0.0250
 1063.5000     7.0496     6.1160     8.0608   117.9409     2.5197     0.0977     0.0227
 1064.0000     7.0249     6.1020     8.0718   118.5016     2.5161     0.0978     0.0203
 1064.5000     7.0005     6.0881     8.0828   119.3786     2.5194     0.0964     0.0200
 1065.0000     6.9764     6.0742     8.0939   120.1854     2.5230     0.0951     0.0220
 1065.5000     6.9507     6.0604     8.1049   119.8365     2.5255     0.0948     0.0238
 1066.0000     6.7967     6.0471     8.1160   118.0845     2.5252     0.0982     0.0229
 1066.5000     6.5679     5.8747     8.1178   116.3620     2.5207     0.1017     0.0218
 1067.0000     6.3468     5.7139     8.1178   114.6307     2.5109     0.1051     0.0207
 1067.5000     6.1332     5.5575     8.1178   113.3598     2.5015     0.1085     0.0196
 1068.0000     5.9267     5.4054     8.1178   114.6086     2.4911     0.1120     0.0172
 1068.5000     5.7272     5.2573     8.1179   116.2259     2.4845     0.1154     0.0149
 1069.0000     5.5344     5.1135     8.1179   117.8312     2.4787     0.1189     0.0126
 1069.5000     5.2676     4.9390     8.1166   119.3548     2.4810     0.1193     0.0121
 1070.0000     5.3672     4.9954     8.1009   118.9273     2.4852     0.1164     0.0136
 1070.5000     5.5094     5.0985     8.0737   118.1771     2.4922     0.1115     0.0157
 1071.0000     5.6553     5.2036     8.0731   117.4297     2.4994     0.1066     0.0179
 1071.5000     5.8052     5.3110     8.0707   116.7216     2.5066     0.1017     0.0200
 1072.0000     5.9590     5.4205     8.0676   117.0878     2.5139     0.0969     0.0222
 1072.5000     6.1168     5.5324     8.0646   118.0427     2.5213     0.0965     0.0243
 1073.0000     6.2789     5.6465     8.0616   118.9723     2.5167     0.0994     0.0255
 1073.5000     6.4452     5.7629     8.0585   119.9982     2.5100     0.1030     0.0233
 1074.0000     6.6299     5.8820     8.0565   120.5657     2.5030     0.1066     0.0211
 1074.5000     6.6912     6.0030     8.0803   121.5129     2.5017     0.1064     0.0190
 1075.0000     6.6817     6.1089     8.1050   122.4355     2.5061     0.1045     0.0186
 1075.5000     6.6722     6.1348     8.1292   123.3621     2.5106     0.1025     0.0211
 1076.0000     6.6632     6.1617     8.1543   123.9004     2.5152     0.1005     0.0235
