~VERSION INFORMATION
 VERS.                2.0:   CWLS LOG ASCII STANDARD - VERSION 2.0
 WRAP.                 NO:   ONE LINE PER DEPTH STEP
~WELL INFORMATION
#MNEM.UNIT      DATA TYPE    INFORMATION
#----------   ------------   ------------------------------
 STRT.F            6.0000:   START DEPTH
 STOP.F          534.0000:   STOP DEPTH
 STEP.F            0.5000:   STEP LENGTH
 NULL.          -999.2500:   NO VALUE
 COMP. LAWRENCE/ALLISON INC:   COMPANY
 WELL.     NPR3 #33-66 SX:   WELL
 FLD .          MPR NO. 3:   FIELD
 LOC .      S10 T38N R78W:   LOCATION
 CNTY.            NATRONA:   COUNTY
 STAT.            WYOMING:   STATE
 CTRY. UNITED STATES OF AMERICA:   COUNTRY
 SRVC.           Gearhart:   SERVICE COMPANY
 DATE.        20-JUN-1986:   LOGDATE
 API .       490251109300:   API NUMBER
~CURVE INFORMATION
#MNEM.UNIT       API CODE    CURVE DESCRIPTION
#----------   ------------   ------------------------------
 DEPT.F                  :   
 GRR .GAPI   07 310 01 00:   GAMMA RAY
 RILD.OHMM   07 120 46 00:   INDUCTION LOG DEEP
 RILM.OHMM   07 120 44 00:   INDUCTION LOG MEDIUM
~PARAMETER INFORMATION
#MNEM.UNIT          VALUE    DESCRIPTION
#----------   ------------   ------------------------------
 PD  .                 GL:   PERMANENT DATUM
 EPD .F              5213:   ELEVATION PERMANENT DATUM
 LMF .                 KB:   LOG MEASURED FROM
 DMF .                 KB:   DRILLING MEASURED FROM
 EKB .F              5218:   KELLING BUSHING
 EGL .F              5213:   GROUND LEVEL
 DATE.        20-JUN-1986:   RUN DATE
 RUN .                  1:   RUN NUMBER
 DD  .F               555:   DEPTH DRILLER
 DL  .F               548:   DEPTH LOGGER
 BLI .F               539:   BOTTOM LOG INTERVAL
 CS  .IN            8.625:   CASING SIZE
 CBD .F                47:   CASING BOTTOM DRILLER
 CBL .F                39:   CASING BOTTOM LOGGER
 BS  .IN            7.875:   BIT SIZE
 BSD .F               555:   BIT SIZE AT DEPTH
 DFT .                AIR:   DRILLING FLUID TYPE
 TCS .HRS            0300:   TIME CURCULATED STOPPED
 TLAB.HRS            0500:   TIME LOGGER AT BOTTOM
 MRT .F                64:   MAXIMUM RECORDED TEMPERATURE
 LUN .               7609:   LOGGING UNIT NUMBER
 LUL .           GILLETTE:   LOGGING UNIT LOCATION
 ENGI.            WANGLER:   RECORDING ENGINEER
 WITN.              FIVAS:   WITNESSED BY
 CLNT.            A2DTECH:   CLIENT CODE
 ORIG.           5" PRINT:   ORIGIN OF DATA
 UWI .       490251109300:   UNIQUE WELL ID
 DICO. A2D Technologies, Inc.:   DIGITIZING COMPANY
~OTHER INFORMATION
~A    DEPT     GRR       RILD       RILM   
# ...
  461.0000    93.5935    12.8391    12.8106
  461.5000    95.3988    12.7442    12.7167
  462.0000    94.1599    12.6501    12.6189
  462.5000    94.1387    12.3821    12.4436
  463.0000    95.0307    12.1197    12.3524
  463.5000    95.3192    11.9463    12.0792
  464.0000    94.9883    11.7753    11.9046
  464.5000    94.9122    11.5259    11.5848
  465.0000    96.1635    11.3609    11.3400
  465.5000    97.4064    11.1202    11.1004
  466.0000    95.2078    11.0381    10.8658
  466.5000    93.6645    10.7289    10.6361
  467.0000    95.1654    10.2116    10.4114
  467.5000    97.2751     9.3851    10.0496
  468.0000    97.6195     8.6255     9.3011
  468.5000    96.6238     7.9831     8.5484
  469.0000    97.5158     7.4403     7.7472
  469.5000   103.5829     6.9345     7.1703
  470.0000   110.8676     6.6933     6.6363
  470.5000   115.7170     6.5058     6.4057
  471.0000   113.2200     6.6877     6.3588
  471.5000   105.7808     6.9716     6.4462
  472.0000    95.1557     7.4217     6.8154
  472.5000    91.8621     7.9010     7.4104
  473.0000    91.2572     8.3525     8.0573
  473.5000    91.8803     8.9543     8.8223
  474.0000    93.6905     9.5994     9.5256
  474.5000    95.8509    10.1480    10.1419
  475.0000    98.6809    10.5787    10.6478
  475.5000    99.9797    10.8766    10.9466
  476.0000    99.9531    11.0273    11.2536
  476.5000    99.6275    11.2587    11.4886
  477.0000    98.3886    11.4147    11.5654
  477.5000    98.3674    11.6434    11.8068
  478.0000    97.1285    11.8157    11.9692
  478.5000    98.6294    12.0636    12.2191
  479.0000   100.7391    12.3836    12.4806
  479.5000   101.9408    12.6424    12.7438
  480.0000    99.7834    12.8140    12.9218
  480.5000    99.1533    12.9892    13.1943
  481.0000    99.4418    13.2592    13.3786
  481.5000    99.4153    13.4405    13.6384
  482.0000    96.3499    13.7200    13.7307
  482.5000    91.4581    13.9076    13.9196
  483.0000    92.6545    14.0009    14.0125
  483.5000    94.4598    14.0933    14.2040
  484.0000    97.4827    14.0860    14.3002
  484.5000    99.5977    14.1790    14.3957
  485.0000    99.8756    14.2736    14.4918
  485.5000    99.5499    14.3679    14.4855
  486.0000    98.9199    14.4633    14.4805
  486.5000    97.9854    14.4557    14.4754
  487.0000    97.3554    14.4497    14.5734
  487.5000    95.8121    14.4437    14.6707
  488.0000    94.2688    14.4376    14.6643
  488.5000    93.0299    14.4316    14.6592
  489.0000    93.6175    14.5284    14.6541
  489.5000    93.9060    14.4196    14.6491
  490.0000    93.5751    14.4136    14.6440
  490.5000    92.9450    14.3071    14.5367
  491.0000    92.9238    14.2014    14.5317
  491.5000    93.5114    14.0964    14.4252
  492.0000    94.1043    14.0906    14.4202
  492.5000    93.1646    13.9865    14.4152
  493.0000    92.8389    13.9806    14.3096
  493.5000    93.1274    13.9748    14.3046
  494.0000    97.9715    13.6774    14.0023
  494.5000   100.0812    13.3851    13.8998
  495.0000    98.5379    13.1911    13.6984
  495.5000    96.3858    12.9176    13.5003
  496.0000    95.4513    12.8114    13.1285
  496.5000    97.2566    12.6386    12.7504
  497.0000    99.6707    12.4577    12.3912
  497.5000   103.6069    12.3277    12.0575
  498.0000   106.6298    12.0941    11.8019
  498.5000   106.6086    11.8605    11.7154
  499.0000   103.5432    11.6269    11.5484
  499.5000   100.7822    11.4280    11.4639
  500.0000    99.5434    11.1879    11.3726
  500.5000    99.5198    11.1073    11.2730
  501.0000    97.9776    10.9504    11.1734
  501.5000    98.5662    10.8715    11.0622
  502.0000   100.0681    10.8689    10.9070
  502.5000   101.2656    10.8664    10.8296
  503.0000   102.1637    10.8639    10.8284
  503.5000   102.4479    10.8613    10.7515
  504.0000   102.1183    10.8588    10.7503
  504.5000   101.7937    10.8563    10.7490
  505.0000   102.0830    10.8537    10.7478
  505.5000   103.2754    10.7755    10.6715
  506.0000   105.6905    10.7290    10.5958
  506.5000   108.1057    10.5614    10.5206
  507.0000   109.3082    10.3937    10.3731
  507.5000   110.5056    10.2260    10.1562
  508.0000   109.8716    10.0583    10.0138
  508.5000   109.5470     9.8907     9.8733
  509.0000   109.5268     9.7230     9.8722
  509.5000   110.4199     9.6089     9.8021
  510.0000   111.3129     9.4728     9.6646
  510.5000   112.5104     9.3462     9.5291
  511.0000   114.0123     9.3440     9.3954
  511.5000   116.4282     9.2684     9.1990
  512.0000   116.7530     9.0818     9.0700
  512.5000   113.6473     9.0164     9.0056
  513.0000   110.2786     8.8890     8.9417
  513.5000   110.2384     8.8249     8.8163
  514.0000   111.7603     8.8229     8.8153
  514.5000   112.3491     8.8208     8.8143
  515.0000   111.7199     8.8187     8.8133
  515.5000   111.3885     8.8787     8.8748
  516.0000   110.4481     9.0018     9.0644
  516.5000   109.8326     9.1500     9.4516
  517.0000   111.0570     9.5282     9.7881
  517.5000   112.5993    10.0185    10.1365
  518.0000   114.3386    10.5635    10.4974
  518.5000   112.7482    10.7851    10.7952
  519.0000   109.8191    11.0120    11.0241
  519.5000   108.7935    11.3213    11.3289
  520.0000   108.7733    11.3187    11.5771
  520.5000   107.2311    11.4756    11.7299
  521.0000   105.6114    11.5535    11.8110
  521.5000  -999.2500    11.6319    11.8096
  522.0000  -999.2500    11.6292    11.8082
  522.5000  -999.2500    11.6265    11.8068
  523.0000  -999.2500    11.6238    11.8054
  523.5000  -999.2500    11.6211    11.8041
  524.0000  -999.2500    11.6184    11.8024
  524.5000  -999.2500    11.6157    11.7187
  525.0000  -999.2500    11.6130    11.7173
  525.5000  -999.2500    11.4489    11.9651
  526.0000  -999.2500    11.2871    12.3032
  526.5000  -999.2500    11.1276    12.3018
  527.0000  -999.2500    10.9029    12.3004
  527.5000  -999.2500    10.6301    12.2989
  528.0000  -999.2500    10.3572    12.1264
  528.5000  -999.2500    10.0800    11.9564
  529.0000  -999.2500     9.7152    11.7887
  529.5000  -999.2500     9.3713    11.3022
  530.0000  -999.2500     9.0275    10.6851
  530.5000  -999.2500     8.6837     9.9611
  531.0000  -999.2500     8.2740     9.2863
  531.5000  -999.2500     7.5515     8.7397
  532.0000  -999.2500     6.6097     8.0749
  532.5000  -999.2500     6.2476     7.4023
  533.0000  -999.2500     6.0772     6.3001
  533.5000  -999.2500     6.2973     5.5540
  534.0000  -999.2500     6.7118     4.9221
