~VERSION INFORMATION
 VERS.                2.0:   CWLS LOG ASCII STANDARD - VERSION 2.0
 WRAP.                 NO:   ONE LINE PER DEPTH STEP
~WELL INFORMATION
#MNEM.UNIT      DATA TYPE    INFORMATION
#----------   ------------   ------------------------------
 STRT.F           30.0000:   START DEPTH
 STOP.F          744.0000:   STOP DEPTH
 STEP.F            0.5000:   STEP LENGTH
 NULL.          -999.2500:   NO VALUE
 COMP. FENIX & SCISSON INC:   COMPANY
 WELL.   NPR 3 #53 S - 34:   WELL
 FLD .             TEAPOT:   FIELD
 LOC .      S34 T39N R78W:   LOCATION
 CNTY.            NATRONA:   COUNTY
 STAT.            WYOMING:   STATE
 CTRY. UNITED STATES OF AMERICA:   COUNTRY
 SRVC.       Schlumberger:   SERVICE COMPANY
 DATE.        28-MAR-1977:   LOGDATE
 API .       490251031700:   API NUMBER
~CURVE INFORMATION
#MNEM.UNIT       API CODE    CURVE DESCRIPTION
#----------   ------------   ------------------------------
 DEPT.F                  :   
 CALD.IN     45 280 60 00:   CALIPER FROM DENSITY LOG
 GRD .GAPI   45 310 01 00:   GAMMA RAY FROM DENSITY LOG
 CORR.G/C3   45 356 01 00:   DENSITY CORRECTION
 DPHI.DEC    45 890 12 00:   DENSITY POROSITY SANDSTONE
 RHOB.G/C3   45 350 01 00:   BULK DENSITY
~PARAMETER INFORMATION
#MNEM.UNIT          VALUE    DESCRIPTION
#----------   ------------   ------------------------------
 PD  .                 GL:   PERMANENT DATUM
 EPD .F              5081:   ELEVATION PERMANENT DATUM
 LMF .                 GL:   LOG MEASURED FROM
 DAPD.F                 5:   FEET ABOVE PERMANENT DATUM
 DMF .                 KB:   DRILLING MEASURED FROM
 EKB .F              5086:   KELLING BUSHING
 EGL .F              5081:   GROUND LEVEL
 DATE.        20-MAR-1977:   RUN DATE
 RUN .                  1:   RUN NUMBER
 DD  .F               751:   DEPTH DRILLER
 DL  .F               745:   DEPTH LOGGER
 BLI .F               744:   BOTTOM LOG INTERVAL
 TLI .F                30:   TOP LOG INTERVAL
 CBL .F                38:   CASING BOTTOM LOGGER
 BS  .IN            7.875:   BIT SIZE
 BSD .F               751:   BIT SIZE AT DEPTH
 DFT .             5% KCL:   DRILLING FLUID TYPE
 MSS .           MUD TANK:   MUD SAMPLE SOURCE
 RMS .OHMM            .23:   RESISTIVITY MUD SAMPLE
 MST .F                68:   MUD SAMPLE TEMPERATURE
 RMF .OHMM            .18:   RESISTIVITY MUD FILTRATE SAMPLE
 MFST.F                68:   MUD FILTRATE SAMPLE TEMPERATURE
 RMC .OHMM            .35:   RESISTIVITY MUD CAKE
 MCST.F                68:   MUD CAKE SAMPLE TEMPERATURE
 MFSS.               MEAS:   MUD FILTRATE SAMPLE SOURCE
 MCSS.               CALC:   MUD CAKE SAMPLE SOURCE
 RMB .OHMM            .24:   RESISTIVITY MUD AT BHT
 BHT .F                60:   BOTTOM HOLE TEMPERATURE
 TCS .HRS            0300:   TIME CURCULATED STOPPED
 MRT .F                60:   MAXIMUM RECORDED TEMPERATURE
 LUN .               7680:   LOGGING UNIT NUMBER
 LUL .               CSPR:   LOGGING UNIT LOCATION
 ENGI.                FIX:   RECORDING ENGINEER
 WITN.              BURKE:   WITNESSED BY
 CLNT.            A2DTECH:   CLIENT CODE
 ORIG.           5" PRINT:   ORIGIN OF DATA
 UWI .       490251031700:   UNIQUE WELL ID
 DICO. A2D Technologies, Inc.:   DIGITIZING COMPANY
~OTHER INFORMATION
~A   DEPT     CALD        GRD       CORR       DPHI       RHOB   
# ...
  457.0000     8.3672    76.6432     0.0188     0.2454     2.2451
  457.5000     8.3533    75.7340     0.0259     0.2426     2.2514
  458.0000     8.3394    77.9065     0.0072     0.2283     2.2856
  458.5000     8.3410    80.3871     0.0301     0.1652     2.3663
  459.0000     8.3426    82.2476     0.0748     0.1366     2.4238
  459.5000     8.3441    80.2598     0.0547     0.1295     2.4218
  460.0000     8.3460    87.6749     0.0417     0.1214     2.4526
  460.5000     8.3475    89.8473     0.0350     0.1061     2.4868
  461.0000     8.3491    89.8626     0.0258     0.1034     2.4898
  461.5000     8.3660    88.0289     0.0147     0.1142     2.4566
  462.0000     8.3676    87.2700     0.0061     0.1186     2.4575
  462.5000     8.3691    88.6758     0.0138     0.1132     2.4730
  463.0000     8.3707    88.2251     0.0180     0.1110     2.4723
  463.5000     8.3722    89.1687     0.0391     0.1042     2.4857
  464.0000     8.3737    90.5707     0.0468     0.1073     2.4918
  464.5000     8.3753    91.5105     0.0151     0.1132     2.4715
  465.0000     8.3768    92.4503     0.0094     0.1147     2.4632
  465.5000     8.3784    91.2329     0.0103     0.1174     2.4581
  466.0000     8.3799    89.7074     0.0141     0.1224     2.4447
  466.5000     8.3656    89.5670     0.0179     0.1186     2.4580
  467.0000     8.3675    91.5964     0.0209     0.1174     2.4524
  467.5000     8.3691    94.2680     0.0030     0.1220     2.4445
  468.0000     8.3706    97.5842    -0.0060     0.1260     2.4332
  468.5000     8.3722   100.8766     0.0256     0.1322     2.4326
  469.0000     8.3737    98.5832     0.0451     0.1381     2.4283
  469.5000     8.3752    93.5137     0.0392     0.1514     2.3986
  470.0000     8.3768    85.9789     0.0182     0.1666     2.3218
  470.5000     8.3783    83.5289     0.0100     0.1505     2.4165
  471.0000     8.3799    86.9340     0.0168     0.1290     2.4329
  471.5000     8.3814    91.4177     0.0244     0.1250     2.4407
  472.0000     8.3828    88.9677     0.0364     0.1212     2.4493
  472.5000     8.3843    87.2881     0.0372     0.1144     2.4679
  473.0000     8.3860    89.6292     0.0328     0.1092     2.4773
  473.5000     8.3875    91.0406     0.0283     0.1174     2.4517
  474.0000     8.3891    92.4520     0.0246     0.1212     2.4487
  474.5000     8.3906    93.7303     0.0202     0.1155     2.4643
  475.0000     8.3764    94.2983     0.0150     0.1109     2.4729
  475.5000     8.3783    92.1602     0.0121     0.1080     2.4799
  476.0000     8.3798    90.7888     0.0151     0.1040     2.4862
  476.5000     8.3814    90.0337     0.0242     0.1024     2.4955
  477.0000     8.3983    89.2785     0.0220     0.0981     2.5064
  477.5000     8.3999    88.6775     0.0183     0.1061     2.4754
  478.0000     8.4014    88.5349     0.0131     0.1098     2.4786
  478.5000     8.4184    89.4785     0.0071     0.1132     2.4624
  479.0000     8.4199    91.3428     0.0192     0.1064     2.4834
  479.5000     8.4215    93.8234     0.0230     0.1098     2.4757
  480.0000     8.4076    94.7594     0.0283     0.1076     2.4796
  480.5000     8.3937    88.3070     0.0328     0.0995     2.5022
  481.0000     8.3952    82.4671     0.0254     0.1075     2.4727
  481.5000     8.3967    85.7182     0.0157     0.1190     2.4557
  482.0000     8.3829    94.3621     0.0090     0.1240     2.4371
  482.5000     8.3844    93.7611     0.0165     0.1184     2.4512
  483.0000     8.3859    94.0846     0.0263     0.1155     2.4621
  483.5000     8.3875    95.7948     0.0316     0.1149     2.4559
  484.0000     8.3890    96.4226     0.0324     0.1267     2.4381
  484.5000     8.3906    93.3600     0.0287     0.1335     2.4219
  485.0000     8.3921    93.2174     0.0258     0.1546     2.3948
  485.5000     8.3936    94.7774     0.0184     0.1685     2.3739
  486.0000     8.3952    96.7957     0.0101     0.1406     2.3949
  486.5000     8.3967    97.5814     0.0289     0.1083     2.4741
  487.0000     8.3982    96.5182     0.0327     0.1082     2.4881
  487.5000     8.3998    94.0681     0.0178     0.1048     2.4827
  488.0000     8.4013    89.9232     0.0284     0.1004     2.5006
  488.5000     8.3870    91.0170     0.0359     0.0945     2.5147
  489.0000     8.3890    92.8834     0.0405     0.1037     2.4852
  489.5000     8.3905    93.5131     0.0428     0.1066     2.4837
  490.0000     8.3762    92.8916     0.0435     0.0929     2.5125
  490.5000     8.3782    90.0945     0.0331     0.1047     2.5195
  491.0000     8.3797    87.0663     0.0144     0.1106     2.4746
  491.5000     8.3812    81.3964     0.0190     0.1068     2.4816
  492.0000     8.3828    75.5152     0.0168     0.1118     2.4677
  492.5000     8.3843    75.1147     0.0243     0.1071     2.4817
  493.0000     8.3859    83.2560     0.0206     0.1058     2.4864
  493.5000     8.3874    92.0571     0.0102     0.1012     2.5005
  494.0000     8.3889    97.0061     0.0050     0.1095     2.4865
  494.5000     8.3905    98.1030     0.0043     0.1111     2.4757
  495.0000     8.3920    97.6592     0.0096     0.1061     2.4755
  495.5000     8.3936    96.2908     0.0142     0.0999     2.4991
  496.0000     8.3951    95.0765     0.0150     0.1119     2.4713
  496.5000     8.3966    95.2489     0.0150     0.1094     2.4791
  497.0000     8.3982    96.9622     0.0098     0.1057     2.4923
  497.5000     8.3997    98.5214    -0.0021     0.0998     2.4962
  498.0000     8.3858    99.9296     0.0159     0.0917     2.5002
  498.5000     8.4028   100.4315     0.0235     0.0923     2.5061
  499.0000     8.4043    99.8092     0.0250     0.0994     2.5111
  499.5000     8.3904   100.5041     0.0251     0.1065     2.4910
  500.0000     8.4074   103.3868     0.0244     0.0997     2.4856
  500.5000     8.4089    99.8658     0.0206     0.1038     2.4989
  501.0000     8.4105   102.6592     0.0146     0.1143     2.4702
  501.5000     8.4071   100.5204     0.0154     0.1222     2.4493
  502.0000     8.3988    99.3061     0.0176     0.1335     2.4292
  502.5000     8.3906    96.3969     0.0170     0.1317     2.4377
  503.0000     8.3824    91.6387     0.0176     0.1217     2.4463
  503.5000     8.3741    89.0331     0.0121     0.1176     2.4526
  504.0000     8.3720    96.9143     0.0137     0.1104     2.4759
  504.5000     8.3737    97.8525     0.0231     0.1113     2.4713
  505.0000     8.3597    97.5627     0.0270     0.1051     2.4822
  505.5000     8.3610    99.8969     0.0217     0.1167     2.4744
  506.0000     8.3624   104.8444     0.0117     0.1333     2.4388
  506.5000     8.3638   103.7720     0.0179     0.1429     2.4179
  507.0000     8.3497   101.6209     0.0250     0.1470     2.4094
  507.5000     8.3511    99.6622     0.0212     0.1450     2.4063
  508.0000     8.3525    97.3694     0.0143     0.1238     2.4227
  508.5000     8.3539    97.2336     0.0329     0.1092     2.4685
  509.0000     8.3552    96.0193     0.0400     0.0968     2.4910
  509.5000     8.3566    96.0377     0.0338     0.0958     2.5050
  510.0000     8.3580    97.2887     0.0207     0.1038     2.5035
  510.5000     8.3594    98.5398     0.0146     0.1113     2.4764
  511.0000     8.3611   100.1005     0.0131     0.1147     2.4656
  511.5000     8.3624    99.4510     0.0155     0.1097     2.4640
  512.0000     8.3638    98.7490     0.0226     0.1034     2.4850
  512.5000     8.3652    96.3020     0.0195     0.1078     2.4827
  513.0000     8.3666    89.0663     0.0134     0.1139     2.4686
  513.5000     8.3679    86.8990     0.0143     0.1263     2.4401
  514.0000     8.3693    82.2742     0.0128     0.1304     2.4435
  514.5000     8.3707    83.1515     0.0152     0.1282     2.4449
  515.0000     8.3721    99.5514     0.0199     0.1396     2.4348
  515.5000     8.3734   101.1888     0.0323     0.1483     2.4256
  516.0000     8.3590    98.9358     0.0231     0.1219     2.4510
  516.5000     8.3608    95.6831     0.0186     0.1100     2.4761
  517.0000     8.3621    92.0035     0.0101     0.1038     2.4909
  517.5000     8.3635    89.5565     0.0172     0.0979     2.5018
