~VERSION INFORMATION
 VERS.                2.0:   CWLS LOG ASCII STANDARD - VERSION 2.0
 WRAP.                 NO:   ONE LINE PER DEPTH STEP
~WELL INFORMATION
#MNEM.UNIT      DATA TYPE    INFORMATION
#----------   ------------   ------------------------------
 STRT.F           70.0000:   START DEPTH
 STOP.F          853.0000:   STOP DEPTH
 STEP.F            0.5000:   STEP LENGTH
 NULL.          -999.2500:   NO VALUE
 COMP. U S NAVY/INTEX OIL CO:   COMPANY
 WELL.     31S-2 NPR #3-2:   WELL
 FLD .             TEAPOT:   FIELD
 LOC .       S2 T38N R78W:   LOCATION
 CNTY.            NATRONA:   COUNTY
 STAT.            WYOMING:   STATE
 CTRY. UNITED STATES OF AMERICA:   COUNTRY
 SRVC.         Lane Wells:   SERVICE COMPANY
 DATE.        17-MAR-1960:   LOGDATE
 API .       490250648000:   API NUMBER
~CURVE INFORMATION
#MNEM.UNIT       API CODE    CURVE DESCRIPTION
#----------   ------------   ------------------------------
 DEPT.F                  :   
 ASN .OHMM   05 041 16 00:   AMPLIFIED SHORT NORMAL 16"
 CILD.MMHO   05 110 46 00:   CONDUCTIVITY INDUCTION LOG DEEP
 ILD .OHMM   05 120 46 00:   INDUCTION LOG DEEP
 SPR .MV     05 010 01 00:   SPONTANEOUS POTENTIAL FROM RES.
~PARAMETER INFORMATION
#MNEM.UNIT          VALUE    DESCRIPTION
#----------   ------------   ------------------------------
 PD  .                 GL:   PERMANENT DATUM
 EPD .F              5118:   ELEVATION PERMANENT DATUM
 LMF .                 KB:   LOG MEASURED FROM
 DAPD.F                 5:   FEET ABOVE PERMANENT DATUM
 DMF .                 KB:   DRILLING MEASURED FROM
 EKB .F              5123:   KELLING BUSHING
 EGL .F              5118:   GROUND LEVEL
 DATE.        17-MAR-1960:   RUN DATE
 RUN .                  1:   RUN NUMBER
 DD  .F               860:   DEPTH DRILLER
 DL  .F               855:   DEPTH LOGGER
 BLI .F               853:   BOTTOM LOG INTERVAL
 TLI .F                70:   TOP LOG INTERVAL
 CS  .IN            8.625:   CASING SIZE
 CBD .F                12:   CASING BOTTOM DRILLER
 BS  .IN            7.875:   BIT SIZE
 BSD .F               860:   BIT SIZE AT DEPTH
 DFT .  GEL- OIL EMULSION:   DRILLING FLUID TYPE
 DFD .                9.7:   DRILLING FLUID DENSITY
 DFV .                 40:   DRILLING FLUID VISCOSITY
 MSS .    CIRC.- FLOWLINE:   MUD SAMPLE SOURCE
 RMS .OHMM           1.75:   RESISTIVITY MUD SAMPLE
 MST .F                60:   MUD SAMPLE TEMPERATURE
 RMF .OHMM            1.2:   RESISTIVITY MUD FILTRATE SAMPLE
 MFST.F                60:   MUD FILTRATE SAMPLE TEMPERATURE
 RMC .OHMM            2.4:   RESISTIVITY MUD CAKE
 MCST.F                60:   MUD CAKE SAMPLE TEMPERATURE
 MFSS.                MUD:   MUD FILTRATE SAMPLE SOURCE
 MCSS.              PRESS:   MUD CAKE SAMPLE SOURCE
 RMB .OHMM            1.5:   RESISTIVITY MUD AT BHT
 BHT .F                70:   BOTTOM HOLE TEMPERATURE
 MRT .F                70:   MAXIMUM RECORDED TEMPERATURE
 LUN .            HL 4474:   LOGGING UNIT NUMBER
 LUL .             CASPER:   LOGGING UNIT LOCATION
 ENGI.             NELSON:   RECORDING ENGINEER
 WITN.   JORGENSEN-HUDSON:   WITNESSED BY
 CLNT.            A2DTECH:   CLIENT CODE
 ORIG.        2" 5" PRINT:   ORIGIN OF DATA
 UWI .       490250648000:   UNIQUE WELL ID
 DICO. A2D Technologies, Inc.:   DIGITIZING COMPANY
~OTHER INFORMATION
~A   DEPT        ASN      CILD         ILD      SPR   
# ...
  581.0000     5.7773   190.9733     5.2232   -35.4424
  581.5000     5.4025   203.4256     5.0876   -35.4450
  582.0000     4.9936   210.3735     5.0852   -35.4476
  582.5000     4.7332   215.9451     5.1501   -35.5843
  583.0000     4.7328   214.4221     5.2818   -35.4528
  583.5000     4.7324   207.8336     5.4804   -35.4554
  584.0000     5.1064   199.6438     5.6127   -35.5927
  584.5000     5.6541   188.7017     5.8776   -35.8636
  585.0000     5.9880   187.3758     6.1430   -36.2685
  585.5000     6.3381   175.0743     6.3505   -36.9418
  586.0000     6.6154   169.6330     6.5402   -36.9657
  586.5000     6.8022   161.4582     6.6720   -36.8128
  587.0000     7.0024   157.3801     6.7369   -36.4130
  587.5000     7.2025   154.7116     6.8682   -36.1474
  588.0000     7.2691   153.3858     6.9335   -35.8824
  588.5000     7.3354   153.4696     6.9980   -35.8850
  589.0000     7.3751   150.7844     7.1319   -35.8876
  589.5000     7.4549   148.0992     7.1946   -35.8901
  590.0000     7.5080   146.7890     7.3259   -36.0269
  590.5000     7.6155   142.7287     7.3908   -36.0295
  591.0000     7.7612   142.7982     7.4562   -36.0327
  591.5000     7.9346   142.8797     7.4537   -36.0579
  592.0000     8.0679   142.9467     7.4518   -36.1717
  592.5000     8.2012   141.6377     7.5167   -36.1746
  593.0000     8.2811   140.3286     7.5816   -36.1772
  593.5000     8.2672   140.3957     7.5792   -36.0456
  594.0000     8.1595   140.4627     7.5772   -36.0483
  594.5000     8.0926   140.5298     7.5753   -36.0510
  595.0000     8.1457   139.2202     7.5734   -36.1882
  595.5000     8.2255   139.2890     7.5046   -36.1908
  596.0000     8.3320   139.3578     7.5026   -36.1934
  596.5000     8.4252   140.8149     7.4338   -36.1960
  597.0000     8.4917   140.8820     7.4274   -36.0644
  597.5000     8.5448   140.9490     7.3626   -35.9329
  598.0000     8.4594   141.0161     7.2939   -35.9356
  598.5000     8.2231   143.8355     7.2251   -36.0725
  599.0000     8.1023   146.6548     7.1563   -36.0751
  599.5000     8.0351   149.4742     6.9538   -35.9435
  600.0000     7.8208   155.0459     6.8182   -35.9468
  600.5000     7.4996   158.0090     6.6067   -35.9494
  601.0000     7.2987   164.8298     6.2122   -35.9520
  601.5000     7.0391   171.7776     5.8760   -35.8198
  602.0000     6.7095   177.3493     5.6067   -35.8230
  602.5000     6.4418   181.5448     5.2706   -35.9598
  603.0000     6.0804   193.9972     5.0012   -35.9624
  603.5000     5.8661   209.2019     4.7319   -35.9656
  604.0000     5.1171   231.2873     4.4581   -35.9682
  604.5000     4.4616   254.7489     4.0591   -35.8366
  605.0000     4.1221   276.9713     3.7898   -35.7045
  605.5000     3.5462   302.8031     3.5205   -35.4394
  606.0000     2.7625   343.0403     3.2511   -35.4420
  606.5000     2.5883   363.7495     3.0487   -35.2958
  607.0000     2.5345   380.3304     2.8462   -35.0448
  607.5000     2.4941   398.2874     2.8443   -34.9133
  608.0000     2.5470   395.6021     2.9760   -34.6483
  608.5000     2.6001   386.0362     3.1741   -34.7850
  609.0000     2.7820   368.2133     3.3732   -34.9217
  609.5000     3.1073   340.7575     3.6381   -34.9243
  610.0000     3.5748   310.0005     3.9036   -34.9359
  610.5000     4.3097   279.4069     4.1022   -35.1984
  611.0000     4.7238   251.5260     4.3676   -35.2010
  611.5000     5.1913   236.4554     4.5706   -35.2036
  612.0000     5.5652   218.6326     4.8980   -35.2062
  612.5000     5.7520   211.6735     5.0966   -35.2088
  613.0000     5.8317   207.8171     5.2288   -35.3455
  613.5000     5.9650   203.9607     5.3606   -35.4823
  614.0000     6.0983   200.1043     5.2913   -35.4849
  614.5000     6.3119   196.2479     5.2894   -35.3533
  615.0000     6.3517   192.3915     5.2206   -35.0876
  615.5000     6.1908   188.5351     5.2186   -34.9561
  616.0000     6.1102   190.2757     5.1494   -35.0935
  616.5000     6.1632   194.4725     5.0806   -35.0961
  617.0000     6.2030   195.9312     4.9450   -35.0987
  617.5000     6.2292   201.5028     4.8093   -35.1013
  618.0000     6.1353   208.4507     4.7405   -35.1045
  618.5000     5.0787   212.6462     4.6718   -35.1071
  619.0000     4.9313   218.2178     4.6698   -34.9749
  619.5000     4.8239   223.7895     4.6674   -34.9782
  620.0000     4.6328   225.2327     4.7323   -34.9808
  620.5000     4.6894   223.9236     4.8640   -35.1175
  621.0000     4.7559   218.4861     4.9294   -35.5225
  621.5000     4.8624   217.0273     5.0612   -35.6598
  622.0000     5.0091   209.0040     5.1925   -35.7966
  622.5000     5.2226   202.1904     5.3910   -36.0674
  623.0000     5.4762   194.0005     5.5317   -36.2041
  623.5000     5.7261   191.2986     5.7877   -36.6091
  624.0000     6.1705   183.1255     5.9868   -36.8800
  624.5000     6.4776   176.3119     6.1186   -36.8825
  625.0000     6.7446   175.0000     6.2503   -36.6169
  625.5000     6.9581   169.5653     6.4484   -36.6201
  626.0000     7.1583   159.9448     6.5134   -36.4879
  626.5000     7.3317   158.4955     6.5827   -36.3564
  627.0000     7.4389   156.0218     6.7095   -36.0914
  627.5000     7.4512   158.8412     6.6407   -35.9599
  628.0000     7.4240   160.2844     6.6388   -35.6942
  628.5000     7.3701   164.4799     6.5700   -35.5627
  629.0000     7.2762   170.0516     6.5013   -35.2970
  629.5000     7.1421   170.1187     6.4324   -35.0320
  630.0000     6.9946   172.9380     6.2968   -34.8998
  630.5000     6.8872   177.1335     6.2190   -34.7683
  631.0000     6.7476   180.0548     5.9582   -35.0398
  631.5000     6.4586   181.6418     5.6889   -35.1765
  632.0000     5.9235   186.9846     5.5532   -35.0450
  632.5000     5.6557   192.5562     5.4176   -34.7793
  633.0000     5.7623   198.1279     5.3488   -34.6478
  633.5000     5.4410   198.1949     5.3469   -34.6510
  634.0000     5.2802   195.5097     5.4118   -34.7877
  634.5000     5.1729   195.5768     5.4767   -34.9244
  635.0000     5.2793   194.2661     5.6085   -34.9270
  635.5000     5.4929   192.9539     5.7058   -35.0638
  636.0000     5.9203   183.2477     5.8715   -35.0670
  636.5000     6.1873   176.5790     5.9369   -35.0696
  637.0000     6.4543   173.9106     6.0681   -35.0722
  637.5000     6.6945   165.7208     6.1999   -34.9400
  638.0000     6.8567   160.2833     6.3316   -34.8085
  638.5000     7.0011   160.3504     6.4634   -34.6775
  639.0000     7.1077   160.4174     6.5946   -34.5461
  639.5000     7.2009   159.1084     6.6600   -34.5487
  640.0000     7.2941   155.0459     6.7249   -34.5519
  640.5000     7.3605   155.1147     6.7225   -34.2862
  641.0000     7.4136   155.1835     6.7206   -34.1540
  641.5000     7.4670   156.6411     6.7186   -34.2914
  642.0000     7.5218   158.0844     6.7099   -34.5621
  642.5000     7.5193   159.5108     6.6474   -34.5649
  643.0000     7.5189   159.5947     6.5786   -34.8358
  643.5000     7.4651   161.0379     6.5767   -35.1072
  644.0000     7.3577   161.1049     6.5079   -35.1098
  644.5000     7.2504   161.1720     6.5060   -35.3807
  645.0000     7.1430   163.9914     6.4372   -35.6515
  645.5000     6.9795   166.8119     6.4352   -35.6541
  646.0000     6.8213   168.2569     6.4328   -35.6567
  646.5000     6.7140   169.7140     6.4309   -35.6593
  647.0000     6.6066   168.4049     6.3621   -35.6625
  647.5000     6.4860   167.0791     6.2933   -35.6651
  648.0000     6.5658   167.1629     6.2245   -35.6677
  648.5000     6.6188   169.9823     6.1557   -35.6703
  649.0000     6.6176   176.9301     6.0824   -35.6729
  649.5000     6.4442   182.5017     5.8840   -35.4072
  650.0000     5.8556   186.6972     5.6815   -35.1416
  650.5000     5.7023   189.5963     5.5519   -34.8707
  651.0000     5.5351   192.7639     5.4477   -34.7143
  651.5000     5.5328   195.9315     5.4697   -34.6128
  652.0000     5.6523   196.6723     5.5995   -34.7502
  652.5000     5.7720   188.4960     5.6615   -34.8869
  653.0000     5.9184   180.3196     5.7913   -34.8895
  653.5000     6.0648   180.4001     5.8543   -35.0262
