~VERSION INFORMATION
 VERS.                2.0:   CWLS LOG ASCII STANDARD - VERSION 2.0
 WRAP.                 NO:   ONE LINE PER DEPTH STEP
~WELL INFORMATION
#MNEM.UNIT      DATA TYPE    INFORMATION
#----------   ------------   ------------------------------
 STRT.F            8.0000:   START DEPTH
 STOP.F          508.0000:   STOP DEPTH
 STEP.F            0.1000:   STEP LENGTH
 NULL.          -999.2500:   NO VALUE
 COMP. LAWRENCE/ALLISON INC:   COMPANY
 WELL. NPR 3 47-12 SX #3-3:   WELL
 FLD .             TEAPOT:   FIELD
 LOC .       S3 T38N R78W:   LOCATION
 CNTY.            NATRONA:   COUNTY
 STAT.            WYOMING:   STATE
 CTRY. UNITED STATES OF AMERICA:   COUNTRY
 SRVC.           Gearhart:   SERVICE COMPANY
 DATE.        12-AUG-1988:   LOGDATE
 API .       490251124100:   API NUMBER
~CURVE INFORMATION
#MNEM.UNIT       API CODE    CURVE DESCRIPTION
#----------   ------------   ------------------------------
 DEPT.F                  :   
 GRR .GAPI   07 310 01 00:   GAMMA RAY
 RILD.OHMM   07 120 46 00:   INDUCTION LOG DEEP RESISTIVITY
 RILM.OHMM   07 120 44 00:   INDUCTION LOG MEDIUM RESISTIVITY
~PARAMETER INFORMATION
#MNEM.UNIT          VALUE    DESCRIPTION
#----------   ------------   ------------------------------
 PD  .                 GL:   PERMANENT DATUM
 EPD .F              5208:   ELEVATION PERMANENT DATUM
 LMF .                 KB:   LOG MEASURED FROM
 DAPD.F                10:   FEET ABOVE PERMANENT DATUM
 DMF .                 KB:   DRILLING MEASURED FROM
 EKB .F              5218:   KELLING BUSHING
 EDF .F              5216:   DRILLING FLOOR
 EGL .F              5208:   GROUND LEVEL
 DATE.        12-AUG-1988:   RUN DATE
 RUN .                  1:   RUN NUMBER
 DD  .F               515:   DEPTH DRILLER
 DL  .F               516:   DEPTH LOGGER
 BLI .F               508:   BOTTOM LOG INTERVAL
 TLI .F                50:   TOP LOG INTERVAL
 CS  .IN            9.625:   CASING SIZE
 CBD .F                50:   CASING BOTTOM DRILLER
 CBL .F                50:   CASING BOTTOM LOGGER
 BS  .IN             8.75:   BIT SIZE
 BSD .F               515:   BIT SIZE AT DEPTH
 DFT .                AIR:   DRILLING FLUID TYPE
 TCS .HRS            1500:   TIME CURCULATED STOPPED
 TLAB.HRS            1640:   TIME LOGGER AT BOTTOM
 MRT .F                70:   MAXIMUM RECORDED TEMPERATURE
 LUN .               7597:   LOGGING UNIT NUMBER
 LUL .           GILLETTE:   LOGGING UNIT LOCATION
 ENGI.         WEATHERMON:   RECORDING ENGINEER
 WITN.             STRONG:   WITNESSED BY
 CLNT.            A2DTECH:   CLIENT CODE
 ORIG.       2", 5" PRINT:   ORIGIN OF DATA
 UWI .       490251124100:   UNIQUE WELL ID
 DICO. A2D Technologies, Inc.:   DIGITIZING COMPANY
~OTHER INFORMATION
~A    DEPT      GRR      RILD       RILM   
# ...
  153.6000   110.6333    10.0400    10.0517
  153.7000   111.4978     9.9818     9.9356
  153.8000   112.6271     9.9237     9.8209
  153.9000   114.3061     9.8660     9.7186
  154.0000   115.6067     9.8087     9.6622
  154.1000   116.5827     9.7405     9.4625
  154.2000   117.2047     9.6278     9.4186
  154.3000   117.7091     9.5719     9.3316
  154.4000   118.1216     9.5162     9.2451
  154.5000   118.4155     9.4283     9.1809
  154.6000   118.9386     9.3408     9.0747
  154.7000   119.1818     9.2865     8.9700
  154.8000   119.2423     9.2325     8.8666
  154.9000   119.3843     9.1681     8.7642
  155.0000   119.6368     9.1255     8.6829
  155.1000   119.8893     9.0725     8.6326
  155.2000   120.1525     9.0406     8.5824
  155.3000   120.3946     9.0298     8.4834
  155.4000   120.4562     8.9773     8.4635
  155.5000   120.4569     8.9769     8.4048
  155.6000   120.4575     8.9765     8.3268
  155.7000   120.4971     8.9451     8.2785
  155.8000   120.7613     8.9137     8.2305
  155.9000   120.7619     8.9133     8.2302
  156.0000   120.7625     8.9129     8.2300
  156.1000   120.7631     8.9125     8.2012
  156.2000   120.6753     8.8710     8.1725
  156.3000   120.4616     8.8501     8.1723
  156.4000   120.4624     8.8497     8.1721
  156.5000   120.2239     8.8493     8.1719
  156.6000   119.9725     8.8490     8.1716
  156.7000   119.5834     8.8487     8.1714
  156.8000   119.0801     8.8483     8.1712
  156.9000   118.6134     8.8787     8.1709
  157.0000   118.3480     8.9092     8.1707
  157.1000   117.8729     8.9088     8.1704
  157.2000   117.3697     8.9085     8.2083
  157.3000   116.8664     8.9081     8.2270
  157.4000   116.2772     8.9491     8.2268
  157.5000   115.5926     8.9694     8.2361
  157.6000   115.3259     8.9691     8.2837
  157.7000   115.0899     8.9791     8.2835
  157.8000   114.8386     9.0308     8.3217
  157.9000   114.5873     9.0304     8.3408
  158.0000   114.4206     9.0301     8.3600
  158.1000   114.4212     9.0612     8.4083
  158.2000   114.4218     9.0922     8.4569
  158.3000   114.4223     9.1024     8.4566
  158.4000   114.7926     9.1549     8.5353
  158.5000   115.2973     9.2076     8.6045
  158.6000   115.7181     9.2179     8.6542
  158.7000   116.0036     9.2496     8.7144
  158.8000   116.5435     9.2814     8.8156
  158.9000   116.7781     9.2918     8.9387
  159.0000   116.8472     9.3453     9.0640
  159.1000   116.8478     9.3448     9.1905
  159.2000   116.8484     9.3445     9.2973
  159.3000   116.8490     9.3767     9.3943
  159.4000   116.8497     9.4307     9.4486
  159.5000   116.8502     9.4740     9.4483
  159.6000   116.8508     9.4736     9.4481
  159.7000   116.8514     9.5283     9.4478
  159.8000   116.9332     9.5832     9.4475
  159.9000   117.1552     9.6384     9.4473
  160.0000   117.1559     9.6940     9.4470
  160.1000   117.6200     9.7612     9.4467
  160.2000   117.9433     9.8743     9.4465
  160.3000   118.3263     9.8739     9.4135
  160.4000   119.0704     9.9194     9.3805
  160.5000   120.3014     9.9766     9.3694
  160.6000   121.3955     9.9877     9.3150
  160.7000   122.0876     9.9411     9.3147
  160.8000   122.6642     9.9407     9.3145
  160.9000   123.1686     9.9402     9.2820
  161.0000   123.5945     9.9399     9.2495
  161.1000   123.8470     9.9395     9.2493
  161.2000   124.1223     9.9390     9.2490
  161.3000   124.1228     9.9271     9.1953
  161.4000   124.1234     9.8694     9.1844
  161.5000   124.1240     9.8690     9.1842
  161.6000   124.2023     9.8686     9.1839
  161.7000   124.4279     9.8681     9.1837
  161.8000   124.4285     9.8677     9.1834
  161.9000   124.4290     9.8673     9.1830
  162.0000   124.4296     9.8669     9.1828
  162.1000   124.3033     9.9352     9.1507
  162.2000   124.1283     9.9349     9.1187
  162.3000   124.1289     9.9345     9.1185
  162.4000   124.1296     9.9571     9.1182
  162.5000   124.1301    10.0029     9.1180
  162.6000   124.1307    10.0025     9.1177
  162.7000   124.1313    10.0021     9.1174
  162.8000   124.1319    10.0017     9.1384
  162.9000   124.1326    10.0013     9.1806
  163.0000   124.1332    10.0241     9.1803
  163.1000   124.1337    10.0702     9.1800
  163.2000   124.1344    10.0697     9.1798
  163.3000   124.1350    10.0693     9.1796
  163.4000   124.1356    10.0689     9.1793
  163.5000   124.1362    10.0684     9.1790
  163.6000   124.1368    10.0448     9.1788
  163.7000   124.1374     9.9979     9.1785
  163.8000   124.1380     9.9975     9.2210
  163.9000   124.1386     9.9970     9.2742
  164.0000   123.9941     9.9967     9.3062
  164.1000   123.4469     9.9963     9.3168
  164.2000   122.3250     9.9728     9.3706
  164.3000   121.4327     9.9262     9.4248
  164.4000   120.4256     9.9258     9.4354
  164.5000   119.4185     9.8681     9.4352
  164.6000   118.4111     9.8563     9.4568
  164.7000   117.4241     9.8559     9.5115
  164.8000   116.5798     9.8554     9.5665
  164.9000   115.9139     9.8437     9.5662
  165.0000   115.1585     9.7864     9.6105
  165.1000   114.5243     9.7859     9.6324
  165.2000   114.0210     9.7856     9.6545
  165.3000   113.5374     9.7852     9.6990
  165.4000   113.2551     9.7847     9.6988
  165.5000   113.2557     9.7843     9.6986
  165.6000   113.2563     9.7839     9.7434
  165.7000   113.2569     9.7836     9.7656
  165.8000   113.2575     9.8286     9.7881
  165.9000   113.2948     9.8510     9.8333
  166.0000   113.8639     9.8505     9.8329
  166.1000   114.3038     9.8501     9.8326
  166.2000   114.8083     9.8497     9.8324
  166.3000   115.5496     9.8493     9.8321
  166.4000   116.5580     9.8489     9.8547
  166.5000   117.5320     9.8484     9.9002
  166.6000   118.1036     9.8480     9.8999
  166.7000   118.9778     9.8476     9.8996
  166.8000   119.8183     9.8472     9.8993
  166.9000   120.4576     9.8467     9.8991
  167.0000   120.8956     9.8464     9.8988
  167.1000   121.1481     9.8460     9.8985
  167.2000   121.4355     9.8455     9.8982
  167.3000   121.6532     9.8451     9.8980
  167.4000   121.7392     9.8448     9.8977
  167.5000   121.8557     9.8444     9.8631
  167.6000   122.1082     9.8440     9.8286
  167.7000   122.3607     9.8779     9.8282
  167.8000   122.6494     9.9117     9.8280
  167.9000   122.6499     9.9113     9.8277
  168.0000   122.8159     9.9109     9.7821
  168.1000   122.9537     9.9104     9.7591
  168.2000   123.0186     9.9101     9.7363
  168.3000   123.2847     9.9096     9.6909
  168.4000   123.8633     9.9092     9.6907
  168.5000   124.0787     9.9088     9.5790
  168.6000   124.6598     9.9084     9.5123
  168.7000   125.1890     9.9080     9.4570
  168.8000   125.5045     9.9076     9.4021
  168.9000   126.0089     9.9072     9.3476
  169.0000   126.5901     9.9067     9.2933
  169.1000   127.2316     9.9063     9.2286
  169.2000   127.8250     9.9059     9.1858
  169.3000   128.2170     9.9055     9.1643
  169.4000   128.4696     9.9051     9.1428
  169.5000   128.7221     9.9047     9.1003
  169.6000   129.0143     9.9043     9.1000
  169.7000   129.0148     9.9039     9.0998
  169.8000   128.8537     9.9035     9.0574
  169.9000   128.6023     9.9720     9.0677
  170.0000   128.2905     9.9717     9.0990
  170.1000   127.7873     9.9712     9.1093
  170.2000   127.2025     9.9708     9.1619
  170.3000   126.5697     9.9704     9.1616
  170.4000   125.8145     9.9700     9.2469
  170.5000   125.1691     9.9696     9.3218
  170.6000   124.6065     9.9692     9.3757
  170.7000   123.8595     9.9688     9.4190
  170.8000   123.2727     9.9683     9.4187
  170.9000   122.8535     9.9679     9.4841
  171.0000   122.3502     9.9675     9.5280
  171.1000   121.8468     9.9670     9.5497
  171.2000   121.4014     9.9667     9.5717
  171.3000   121.1425     9.9663     9.6270
  171.4000   120.5532     9.9658     9.6826
  171.5000   120.3449     9.9654     9.6824
  171.6000   120.0935     9.9650     9.7271
  171.7000   119.9498     9.9646     9.7834
