~VERSION INFORMATION
 VERS.                2.0:   CWLS LOG ASCII STANDARD - VERSION 2.0
 WRAP.                 NO:   ONE LINE PER DEPTH STEP
~WELL INFORMATION
#MNEM.UNIT      DATA TYPE    INFORMATION
#----------   ------------   ------------------------------
 STRT.F           20.0000:   START DEPTH
 STOP.F         1363.5000:   STOP DEPTH
 STEP.F            0.5000:   STEP LENGTH
 NULL.          -999.2500:   NO VALUE
 COMP.   FLUOR DANIEL INC:   COMPANY
 WELL.   NPR 3 "S" #83-14:   WELL
 FLD .             TEAPOT:   FIELD
 LOC .      S14 T38N R78W:   LOCATION
 CNTY.            NATRONA:   COUNTY
 STAT.            WYOMING:   STATE
 CTRY. UNITED STATES OF AMERICA:   COUNTRY
 SRVC. Schlumberger Well Surveying Corp:   SERVICE COMPANY
 DATE.        22-AUG-1966:   LOGDATE
 API .       490250971000:   API NUMBER
~CURVE INFORMATION
#MNEM.UNIT       API CODE    CURVE DESCRIPTION
#----------   ------------   ------------------------------
 DEPT.F                  :   
 SPR .MV     05 010 01 00:   SPONTANEOUS POTENTIAL FROM RES.
 ASN .OHMM   05 041 16 00:   AMPLIFIED SHORT NORMAL 16"
 CILD.MMHO   05 110 00 00:   CONDUCTIVITY INDUCTION LOG
 ILD .OHMM   05 120 46 00:   INDUCTION LOG DEEP
 CALD.IN     45 280 60 00:   CALIPER
 GRD .GAPI   45 310 01 00:   GAMMA RAY FROM DENSITY LOG
 CORR.G/C3   45 356 01 00:   DENSITY CORRECTION
 RHOB.G/C3   45 350 01 00:   BULK DENSITY
 DPOR.DEC    45 890 12 00:   DENSITY POROSITY SANDSTONE
~PARAMETER INFORMATION
#MNEM.UNIT          VALUE    DESCRIPTION
#----------   ------------   ------------------------------
 PD  .                 GL:   PERMANENT DATUM
 EPD .F              5300:   ELEVATION PERMANENT DATUM
 LMF .                 KB:   LOG MEASURED FROM
 DAPD.F                 5:   FEET ABOVE PERMANENT DATUM
 DMF .                 KB:   DRILLING MEASURED FROM
 EKB .F              5305:   KELLING BUSHING
 EGL .F              5300:   GROUND LEVEL
 DATE.          8-22-1966:   RUN DATE
 RUN .                  1:   RUN NUMBER
 DD  .F              1365:   DEPTH DRILLER
 DL  .F              1363:   DEPTH LOGGER
 BLI .F              1362:   BOTTOM LOG INTERVAL
 TLI .F                20:   TOP LOG INTERVAL
 CS  .IN            8.625:   CASING SIZE
 CBD .F                15:   CASING BOTTOM DRILLER
 CBL .F                20:   CASING BOTTOM LOGGER
 BS  .IN            7.875:   BIT SIZE
 BSD .F              1365:   BIT SIZE AT DEPTH
 DFT .           GEL-CHEM:   DRILLING FLUID TYPE
 DFD .                 10:   DRILLING FLUID DENSITY
 DFV .                 55:   DRILLING FLUID VISCOSITY
 DFL .                  8:   DRILLING FLUID LOSS
 MSS .          FLOW LINE:   MUD SAMPLE SOURCE
 RMS .OHMM           1.86:   RESISTIVITY MUD SAMPLE
 MST .F                73:   MUD SAMPLE TEMPERATURE
 RMF .OHMM           1.13:   RESISTIVITY MUD FILTRATE SAMPLE
 MFST.F                70:   MUD FILTRATE SAMPLE TEMPERATURE
 MFSS.                  M:   MUD FILTRATE SAMPLE SOURCE
 RMB .OHMM           1.32:   RESISTIVITY MUD AT BHT
 BHT .F               102:   BOTTOM HOLE TEMPERATURE
 TCS .HRS               1:   TIME CURCULATED STOPPED
 MRT .F               102:   MAXIMUM RECORDED TEMPERATURE
 LUN .               3527:   LOGGING UNIT NUMBER
 LUL .               CSPR:   LOGGING UNIT LOCATION
 ENGI.          TOLLEFSON:   RECORDING ENGINEER
 WITN.         MAY/TUTTLE:   WITNESSED BY
 CLNT.            A2DTECH:   CLIENT CODE
 ORIG.       2", 5" PRINT:   ORIGIN OF DATA
 UWI .       490250971000:   UNIQUE WELL ID
 DICO. A2D Technologies, Inc.:   DIGITIZING COMPANY
~OTHER INFORMATION
~A   DEPT       SPR       ASN         CILD      ILD         CALD       GRD       CORR        RHOB     DPOR   
# ...
  202.5000   -60.0502     7.9175   148.4576     7.0683     8.2483    86.2145     0.0573     2.4668     0.1212
  203.0000   -59.8185     7.9350   145.0759     7.1999     8.2429    89.7774     0.0474     2.4734     0.1197
  203.5000   -59.9937     7.9500   141.6941     7.3314     8.2375    94.2568     0.0610     2.4846     0.1182
  204.0000   -60.1707     8.0823   138.3123     7.4623     8.2321    93.3010     0.0718     2.4964     0.1168
  204.5000   -60.3444     8.3859   134.7695     7.5945     8.2267    87.5786     0.0822     2.5044     0.1156
  205.0000   -60.2682     8.5562   135.0513     7.6136     8.2213    81.6584     0.0943     2.4907     0.1182
  205.5000   -59.8573     8.6888   136.5309     7.5533     8.2160    78.9779     0.0813     2.4782     0.1205
  206.0000   -59.4421     8.7100   138.0104     7.4913     8.2106    80.0241     0.0566     2.4631     0.1228
  206.5000   -59.7675     8.6683   139.4899     7.4294     8.2051    83.8460     0.0524     2.4544     0.1256
  207.0000   -60.0019     8.6592   140.9694     7.3675     8.1997    87.3388     0.0458     2.4601     0.1252
  207.5000   -59.9468     8.5934   142.4490     7.3055     8.1965    90.7024     0.0409     2.4657     0.1228
  208.0000   -59.8953     8.4127   143.7876     7.2494     8.1899    94.4621     0.0339     2.4719     0.1205
  208.5000   -59.8410     8.2288   144.2972     7.2524     8.1834    96.4600     0.0359     2.4776     0.1181
  209.0000   -59.9499     8.1669   140.8520     7.4090     8.1768    95.8918     0.0495     2.4840     0.1158
  209.5000   -60.1767     8.2973   137.4065     7.5778     8.1702    94.7567     0.0638     2.4895     0.1135
  210.0000   -60.4080     8.4613   133.9556     7.7466     8.1636    93.3013     0.0571     2.4969     0.1114
  210.5000   -60.1512     8.7571   130.5041     7.9145     8.1569    91.9277     0.0417     2.4934     0.1242
  211.0000   -59.8467     9.1304   127.0645     8.0436     8.1504    90.5829     0.0306     2.4834     0.1233
  211.5000   -59.6247     9.2681   125.1879     7.9810     8.1436    89.0706     0.0399     2.4747     0.1214
  212.0000   -59.9115     9.2709   123.7475     7.9225     8.1388    88.1812     0.0519     2.4660     0.1214
  212.5000   -60.1952     9.2885   124.4294     7.8654     8.1397    87.9712     0.0421     2.4561     0.1235
  213.0000   -60.4223     9.3257   126.4752     7.7132     8.1405    91.2794     0.0324     2.4505     0.1255
  213.5000   -60.2608     9.1767   128.5209     7.5338     8.1415    93.7768     0.0214     2.4517     0.1276
  214.0000   -60.0972     8.9337   130.7615     7.3540     8.1424    93.8500     0.0214     2.4606     0.1280
  214.5000   -60.0623     8.6882   135.3141     7.1743     8.1434    93.4819     0.0310     2.4711     0.1260
  215.0000   -60.1385     8.4598   140.3459     6.9946     8.1443    98.4391     0.0428     2.4855     0.1240
  215.5000   -60.2167     8.3150   145.3777     6.8154     8.1452   103.4438     0.0492     2.4828     0.1221
  216.0000   -60.2951     8.1539   150.4095     6.6356     8.1462   102.9062     0.0576     2.4711     0.1201
  216.5000   -60.3713     7.9264   153.8076     6.5160     8.1471   102.1840     0.0626     2.4680     0.1181
  217.0000   -60.3631     7.7322   155.8116     6.4465     8.1480   100.7440     0.0528     2.4750     0.1162
  217.5000   -60.2055     7.6451   157.9158     6.3789     8.1489    99.6598     0.0503     2.4821     0.1142
  218.0000   -60.0499     7.5405   160.0200     6.3113     8.1499    98.3935     0.0571     2.4889     0.1135
  218.5000   -59.8933     7.4122   162.0661     6.2436     8.1508    97.2130     0.0538     2.4957     0.1162
  219.0000   -59.7378     7.2947   163.7630     6.1754     8.1517    98.1121     0.0448     2.4844     0.1192
  219.5000   -59.6271     7.2447   165.4599     6.1441     8.1527   102.4745     0.0372     2.4682     0.1290
  220.0000   -59.6825     7.1495   167.1569     6.1339     8.1536   101.6454     0.0255     2.4523     0.1403
  220.5000   -59.7340     7.0549   168.8538     6.1240     8.1545    99.6271     0.0355     2.4372     0.1566
  221.0000   -59.7854     7.0245   170.5508     6.1142     8.1554    97.4869     0.0465     2.4159     0.1541
  221.5000   -59.8368     7.0055   171.8437     6.1042     8.1564    96.4341     0.0347     2.4186     0.1486
  222.0000   -59.8881     6.9913   172.3029     6.0943     8.1573    98.7500     0.0272     2.4310     0.1430
  222.5000   -59.9400     6.9293   172.7413     6.0844     8.1584   101.5040     0.0208     2.4406     0.1374
  223.0000   -59.9907     6.8474   173.1797     6.0745     8.1578   102.5909     0.0301     2.4520     0.1319
  223.5000   -59.9836     6.8372   173.6181     6.0646     8.1560   102.4618     0.0399     2.4617     0.1262
  224.0000   -59.8011     6.8731   174.0565     6.0547     8.1544   100.7717     0.0458     2.4789     0.1196
  224.5000   -59.6287     6.9085   174.4948     6.0448     8.1527    97.9238     0.0416     2.4748     0.1220
  225.0000   -59.7418     6.9443   174.8497     6.0349     8.1510    95.0833     0.0283     2.4538     0.1250
  225.5000   -59.7953     6.9483   174.8497     6.0250     8.1493    93.4190     0.0354     2.4586     0.1268
  226.0000   -59.6754     6.8637   174.8497     6.0151     8.1477    94.3687     0.0551     2.4784     0.1251
  226.5000   -59.6728     6.6885   175.8517     6.0052     8.1460    97.6875     0.0524     2.4754     0.1234
  227.0000   -59.8351     6.6029   178.3567     5.9953     8.1443    99.6301     0.0470     2.4485     0.1216
  227.5000   -59.9995     6.5119   180.9870     5.9854     8.1426    99.5247     0.0417     2.4532     0.1200
  228.0000   -59.8915     6.4299   182.8657     5.9756     8.1410    98.9129     0.0368     2.4555     0.1392
  228.5000   -59.7014     6.4547   182.5735     5.9658     8.1393    98.0413     0.0307     2.4646     0.1455
  229.0000   -59.6207     6.4900   181.6967     5.9548     8.1376    97.2899     0.0366     2.4550     0.1408
  229.5000   -59.6190     6.5250   180.8617     5.8952     8.1360    96.4226     0.0504     2.4308     0.1367
  230.0000   -59.6193     6.5513   185.6081     5.7659     8.1343    95.8602     0.0453     2.4401     0.1326
  230.5000   -59.6115     6.5182   191.1454     5.6374     8.1326    95.4998     0.0347     2.4433     0.1260
  231.0000   -59.5544     6.4476   196.6828     5.5085     8.1310    96.0297     0.0260     2.4495     0.1284
  231.5000   -59.4974     6.2472   200.9018     5.3797     8.1293   100.2263     0.0330     2.4423     0.1351
  232.0000   -59.4405     6.0422   207.0487     5.2509     8.1276   104.2262     0.0304     2.4335     0.1452
  232.5000   -59.3836     5.8366   212.9155     5.1222     8.1260   105.2455     0.0272     2.4264     0.1430
  233.0000   -59.3264     5.7578   218.7892     4.9932     8.1242   105.3678     0.0235     2.4336     0.1386
  233.5000   -59.2678     5.6347   224.6817     4.8640     8.1229   105.4945     0.0325     2.4424     0.1343
  234.0000   -59.2293     5.4840   230.3919     4.7375     8.1207   103.0789     0.0507     2.4507     0.1299
  234.5000   -59.4474     5.3896   233.0728     4.6941     8.1200   100.3453     0.0341     2.4627     0.1276
  235.0000   -59.6600     5.4139   231.3432     4.8377     8.1108    97.3178     0.0382     2.4594     0.1343
  235.5000   -59.8355     5.4434   229.3230     4.9779     8.0936    96.4430     0.0592     2.4388     0.1399
  236.0000   -59.4353     5.5203   222.7551     5.1188     8.0781    98.2964     0.0557     2.4219     0.1456
  236.5000   -59.2236     5.6020   215.5786     5.2594     8.0614   100.4003     0.0520     2.4005     0.1513
  237.0000   -59.2178     5.6940   208.3612     5.4000     8.0461    97.9557     0.0494     2.4051     0.1575
  237.5000   -59.2180     5.9488   201.1523     5.5406     8.0279    93.5189     0.0504     2.4180     0.1513
  238.0000   -59.2181     6.2099   193.9434     5.6813     8.0168    94.1089     0.0570     2.4290     0.1443
  238.5000   -59.2180     6.4682   188.8778     5.8220     8.0183    95.2623     0.0651     2.4455     0.1373
