~VERSION INFORMATION
 VERS.                2.0:   CWLS LOG ASCII STANDARD - VERSION 2.0
 WRAP.                 NO:   ONE LINE PER DEPTH STEP
~WELL INFORMATION
#MNEM.UNIT      DATA TYPE    INFORMATION
#----------   ------------   ------------------------------
 STRT.F            0.0000:   START DEPTH
 STOP.F         1340.0000:   STOP DEPTH
 STEP.F            0.5000:   STEP LENGTH
 NULL.          -999.2500:   NO VALUE
 COMP. U S NAVY-INTEX OIL:   COMPANY
 WELL. NAVAL PETROLEUM RESERVE 3 S #81-14:   WELL
 FLD .             TEAPOT:   FIELD
 LOC .      S14 T38N R78W:   LOCATION
 CNTY.            NATRONA:   COUNTY
 STAT.            WYOMING:   STATE
 CTRY. UNITED STATES OF AMERICA:   COUNTRY
 SRVC.       Schlumberger:   SERVICE COMPANY
 DATE.        20-AUG-1966:   LOGDATE
 API .       490250971600:   API NUMBER
~CURVE INFORMATION
#MNEM.UNIT       API CODE    CURVE DESCRIPTION
#----------   ------------   ------------------------------
 DEPT.F                  :   
 SPR .MV     07 010 01 00:   SPONTANEOUS POTENTIAL
 CILD.MMHO   07 110 46 00:   CONDUCTIVITY INDUCTION LOG DEEP
 ILD .OHMM   07 120 46 00:   INDUCTION LOG DEEP
 ASN .OHMM   01 041 16 00:   AMPLIFIED SHORT NORMAL 16"
 CALD.IN     45 280 60 00:   CALIPER
 RHOB.G/C3   45 350 01 00:   BULK DENSITY
 DPHI.DEC    45 890 12 00:   DENSITY POROSITY SANDSTONE
 GRD .GAPI   45 310 01 00:   GAMMA RAY FROM DENSITY LOG
 CORR.G/C3   45 356 01 00:   DENSITY CORRECTION
~PARAMETER INFORMATION
#MNEM.UNIT          VALUE    DESCRIPTION
#----------   ------------   ------------------------------
 PD  .                 GL:   PERMANENT DATUM
 EPD .F              5283:   ELEVATION PERMANENT DATUM
 LMF .                 KB:   LOG MEASURED FROM
 DAPD.F                 5:   FEET ABOVE PERMANENT DATUM
 DMF .                 KB:   DRILLING MEASURED FROM
 EKB .F              5288:   KELLING BUSHING
 EGL .F              5283:   GROUND LEVEL
 DATE.            8-20-66:   RUN DATE
 RUN .                  1:   RUN NUMBER
 DD  .F              1340:   DEPTH DRILLER
 DL  .F              1337:   DEPTH LOGGER
 BLI .F              1336:   BOTTOM LOG INTERVAL
 TLI .F                17:   TOP LOG INTERVAL
 CS  .IN            8.625:   CASING SIZE
 CBD .F                15:   CASING BOTTOM DRILLER
 CBL .F                17:   CASING BOTTOM LOGGER
 BS  .IN            7.875:   BIT SIZE
 BSD .F              1340:   BIT SIZE AT DEPTH
 DFT .           GEL-CHEM:   DRILLING FLUID TYPE
 DFD .                9.8:   DRILLING FLUID DENSITY
 DFV .                 70:   DRILLING FLUID VISCOSITY
 DFL .                  8:   DRILLING FLUID LOSS
 MSS .          FLOW LINE:   MUD SAMPLE SOURCE
 RMS .OHMM           1.26:   RESISTIVITY MUD SAMPLE
 MST .F                71:   MUD SAMPLE TEMPERATURE
 RMF .OHMM            .71:   RESISTIVITY MUD FILTRATE SAMPLE
 MFST.F                71:   MUD FILTRATE SAMPLE TEMPERATURE
 MFSS.                  M:   MUD FILTRATE SAMPLE SOURCE
 RMB .OHMM           1.04:   RESISTIVITY MUD AT BHT
 BHT .F                86:   BOTTOM HOLE TEMPERATURE
 TCS .HRS               2:   TIME CURCULATED STOPPED
 MRT .F                86:   MAXIMUM RECORDED TEMPERATURE
 LUN .               3527:   LOGGING UNIT NUMBER
 LUL .               CSPR:   LOGGING UNIT LOCATION
 ENGI.          TOLLEFSON:   RECORDING ENGINEER
 WITN.                MAY:   WITNESSED BY
 CLNT.            A2DTECH:   CLIENT CODE
 ORIG.        2" 5" PRINT:   ORIGIN OF DATA
 UWI .       490250971600:   UNIQUE WELL ID
 DICO. A2D Technologies, Inc.:   DIGITIZING COMPANY
~OTHER INFORMATION
~A    DEPT     SPR       CILD        ILD        ASN         CALD     RHOB       DPHI          GRD     CORR   
# ...
 1314.0000   -45.1590   101.7335     9.4688    11.6480     7.8768     2.5083     0.0818   100.6443     0.0537
 1314.5000   -45.1388   101.9958     9.4298    11.5586     7.8776     2.5012     0.0903   100.3989     0.0369
 1315.0000   -45.1185   102.2582     9.3908    11.4686     7.8784     2.4879     0.0966    99.8769     0.0281
 1315.5000   -45.0982   102.5206     9.3519    11.4345     7.8792     2.4969     0.0950    99.6559     0.0381
 1316.0000   -45.0779   102.7829     9.3130    11.4808     7.8800     2.5082     0.0772   100.3941     0.0281
 1316.5000   -45.0576   103.0480     9.2740    11.5279     7.8808     2.5150     0.0853   101.1903     0.0232
 1317.0000   -45.0374   103.2614     9.2351    11.5751     7.8814     2.5246     0.0747   101.8341     0.0312
 1317.5000   -45.0172   104.6157     9.1960    11.6220     7.8871     2.5392     0.0650   102.0350     0.0418
 1318.0000   -44.9972   105.6094     9.1578    11.6274     7.8956     2.5377     0.0691   102.7641     0.0521
 1318.5000   -44.9868   106.2728     9.1341    11.6077     7.9043     2.5529     0.0577   103.7788     0.0629
 1319.0000   -44.9150   107.5883     9.1105    11.4729     7.9130     2.5656     0.0511   104.6679     0.0690
 1319.5000   -44.8446   109.2794     8.9334    11.3388     7.9211     2.5700     0.0566   104.1448     0.0516
 1320.0000   -44.7747   110.9736     8.8041    11.2050     7.9098     2.5671     0.0512   100.4658     0.0543
 1320.5000   -44.7048   112.6678     8.6782    11.0712     7.8973     2.5423     0.0635    93.7221     0.0757
 1321.0000   -44.6349   114.3620     8.5519    10.9375     7.8848     2.5224     0.0817    82.5568     0.0862
 1321.5000   -44.5651   116.0563     8.4256    10.8037     7.8724     2.5341     0.0691    53.8848     0.0765
 1322.0000   -44.4952   117.7505     8.2992    10.6699     7.8610     2.5365     0.0723    11.3867     0.0659
 1322.5000   -44.4253   119.4447     8.1728    10.5362     7.8676     2.5281     0.0755  -999.2500     0.0545
 1323.0000   -44.3555   121.1389     8.0463    10.4033     7.8762     2.5420     0.0670  -999.2500     0.0448
 1323.5000   -44.2856   122.8331     7.9212    10.2607     7.8821     2.5562     0.0556  -999.2500     0.0431
 1324.0000   -44.2157   124.5274     7.8096    10.1539     7.8610     2.5702     0.0523  -999.2500     0.0515
 1324.5000   -44.1459   126.2216     7.7343    10.1294     7.8354     2.5855     0.0380  -999.2500     0.0662
 1325.0000   -44.0760   127.9158     7.6582    10.1069     7.8086     2.5769     0.0437  -999.2500     0.0799
 1325.5000   -44.0045   130.5314     7.5823    10.0080     7.7860     2.5635     0.0540  -999.2500     0.0919
 1326.0000   -43.9480   131.5621     7.5065     9.8700     7.7806     2.5501     0.0641  -999.2500     0.0980
 1326.5000   -43.8942   132.2731     7.4306     9.7338     7.7812     2.5398     0.0648  -999.2500     0.0949
 1327.0000   -43.8404   132.9833     7.3524     9.5982     7.7808     2.5456     0.0691  -999.2500     0.0786
 1327.5000   -43.7865   133.6947     7.3210     9.5701     7.7659     2.5487     0.0635  -999.2500     0.0622
 1328.0000   -43.7327   134.4064     7.3018     9.5553     7.7509     2.5435     0.0587  -999.2500     0.0611
 1328.5000   -43.6788   135.1180     7.2829     9.5635     7.7038     2.5385     0.0690  -999.2500     0.0736
 1329.0000   -43.6250  -999.2500     7.2638     9.5804     7.6624     2.5384     0.0719  -999.2500     0.0886
 1329.5000   -43.5711  -999.2500     7.2447     9.5971     7.5585     2.5387     0.0651  -999.2500     0.1045
 1330.0000   -43.5172  -999.2500     7.2256     9.6104     7.0540     2.5303     0.0723  -999.2500     0.1208
 1330.5000   -43.4634  -999.2500     7.2064     9.5558     6.6225     2.5219     0.0778  -999.2500     0.2181
 1331.0000   -43.4095  -999.2500     7.1873     9.4681     6.1903     2.5140     0.0808  -999.2500     0.2157
 1331.5000   -43.3557  -999.2500     7.1682     9.3615     5.8407     2.5096     0.0775  -999.2500     0.1991
 1332.0000   -43.3018  -999.2500     7.1491     9.2547     5.7190     2.5466     0.0615  -999.2500     0.2050
 1332.5000   -43.2480  -999.2500     7.1319     9.1479     5.5896     2.5368     0.0650  -999.2500     0.2161
 1333.0000   -43.1941  -999.2500     7.1198     9.0409     5.5534     2.5402     0.0703  -999.2500     0.2021
 1333.5000   -43.1402  -999.2500     7.1075     8.9307     5.6698     2.5568     0.0575  -999.2500     0.1870
 1334.0000   -43.0863  -999.2500     7.0952     8.9085     5.8073     2.5634     0.0546  -999.2500     0.1998
 1334.5000   -43.0324  -999.2500     7.0829     8.8999     5.7813     2.5471     0.0627  -999.2500     0.1932
 1335.0000   -42.9785  -999.2500     7.0706     8.8930     5.4765     2.5282     0.0720  -999.2500     0.1776
 1335.5000   -42.9326  -999.2500     7.0583     8.8674     5.2161     2.5019     0.0902  -999.2500     0.1604
 1336.0000   -42.8856  -999.2500     7.0460     8.8384     5.1730     2.5025     0.0862  -999.2500     0.1550
 1336.5000   -42.8384  -999.2500     7.0356  -999.2500     5.1702     2.5025     0.0862  -999.2500     0.1651
 1337.0000   -42.7914  -999.2500  -999.2500  -999.2500     5.1706     2.5025     0.0862  -999.2500     0.1715
 1337.5000  -999.2500  -999.2500  -999.2500  -999.2500     5.1707     2.5025     0.0862  -999.2500     0.1706
 1338.0000  -999.2500  -999.2500  -999.2500  -999.2500     5.1707     2.5025     0.0862  -999.2500     0.1686
 1338.5000  -999.2500  -999.2500  -999.2500  -999.2500     5.1707     2.5025     0.0862  -999.2500     0.1686
 1339.0000  -999.2500  -999.2500  -999.2500  -999.2500     5.1707     2.5025     0.0862  -999.2500     0.1686
 1339.5000  -999.2500  -999.2500  -999.2500  -999.2500     5.1707     2.5025     0.0862  -999.2500     0.1686
 1340.0000  -999.2500  -999.2500  -999.2500  -999.2500     5.1707     2.5025     0.0862  -999.2500     0.1686
