~VERSION INFORMATION
 VERS.                2.0:   CWLS LOG ASCII STANDARD - VERSION 2.0
 WRAP.                 NO:   ONE LINE PER DEPTH STEP
~WELL INFORMATION
#MNEM.UNIT      DATA TYPE    INFORMATION
#----------   ------------   ------------------------------
 STRT.F           28.5000:   START DEPTH
 STOP.F          781.0000:   STOP DEPTH
 STEP.F            0.5000:   STEP LENGTH
 NULL.          -999.2500:   NO VALUE
 COMP. FENIX & SCISSON INC:   COMPANY
 WELL. NPR 3 23 SX 14 #23-14:   WELL
 FLD .        TEAPOT DOME:   FIELD
 LOC .      S14 T38N R78W:   LOCATION
 CNTY.            NATRONA:   COUNTY
 STAT.            WYOMING:   STATE
 CTRY. UNITED STATES OF AMERICA:   COUNTRY
 SRVC.            Unknown:   SERVICE COMPANY
 DATE.        13-MAY-1978:   LOGDATE
 API .       490251063400:   API NUMBER
~CURVE INFORMATION
#MNEM.UNIT       API CODE    CURVE DESCRIPTION
#----------   ------------   ------------------------------
 DEPT.F                  :   
 RHOB.G/C3   45 350 01 00:   BULK DENSITY
 DPHI.DEC    45 890 12 00:   DENSITY POROSITY SANDSTONE
 GRD .GAPI   45 310 01 00:   GAMMA RAY FROM DENSITY LOG
 CALD.IN     45 280 60 00:   CALIPER FROM DENSITY LOG
 CORR.G/C3   45 356 01 00:   DENSITY CORRECTION
 SN  .OHMM   05 040 16 00:   SHORT NORMAL 16"
 SPR .MV     05 010 01 00:   SPONTANEOUS POTENTIAL FROM RES.
 ILD .OHMM   05 120 46 00:   INDUCTION LOG DEEP
~PARAMETER INFORMATION
#MNEM.UNIT          VALUE    DESCRIPTION
#----------   ------------   ------------------------------
 PD  .                 GL:   PERMANENT DATUM
 EPD .F              5202:   ELEVATION PERMANENT DATUM
 LMF .                 KB:   LOG MEASURED FROM
 DMF .                 KB:   DRILLING MEASURED FROM
 EKB .F              5206:   KELLING BUSHING
 EGL .F              5202:   GROUND LEVEL
 DATE.          5-13-1978:   RUN DATE
 RUN .                  1:   RUN NUMBER
 DD  .F               785:   DEPTH DRILLER
 DL  .F               776:   DEPTH LOGGER
 BLI .F               770:   BOTTOM LOG INTERVAL
 TLI .F                50:   TOP LOG INTERVAL
 CS  .IN            8.625:   CASING SIZE
 CBD .F                40:   CASING BOTTOM DRILLER
 CBL .F                40:   CASING BOTTOM LOGGER
 BS  .IN            7.875:   BIT SIZE
 BSD .F               785:   BIT SIZE AT DEPTH
 DFT .                KCL:   DRILLING FLUID TYPE
 DFD .                8.6:   DRILLING FLUID DENSITY
 DFV .                 30:   DRILLING FLUID VISCOSITY
 DFPH.                 10:   DRILLING FLUID PH
 DFL .                 14:   DRILLING FLUID LOSS
 MSS .           FLOWLINE:   MUD SAMPLE SOURCE
 RMS .OHMM             .4:   RESISTIVITY MUD SAMPLE
 MST .F                69:   MUD SAMPLE TEMPERATURE
 RMF .OHMM            .36:   RESISTIVITY MUD FILTRATE SAMPLE
 MFST.F                72:   MUD FILTRATE SAMPLE TEMPERATURE
 RMC .OHMM            .56:   RESISTIVITY MUD CAKE
 MCST.F                73:   MUD CAKE SAMPLE TEMPERATURE
 MFSS.               MEAS:   MUD FILTRATE SAMPLE SOURCE
 RMB .OHMM            .35:   RESISTIVITY MUD AT BHT
 BHT .F                79:   BOTTOM HOLE TEMPERATURE
 TCS .HRS               2:   TIME CURCULATED STOPPED
 MRT .F                79:   MAXIMUM RECORDED TEMPERATURE
 LUN .               3006:   LOGGING UNIT NUMBER
 LUL .              CASP.:   LOGGING UNIT LOCATION
 ENGI.             MILLER:   RECORDING ENGINEER
 WITN.           MCGINLEY:   WITNESSED BY
 CLNT.            A2DTECH:   CLIENT CODE
 ORIG.           5" PRINT:   ORIGIN OF DATA
 UWI .       490251063400:   UNIQUE WELL ID
 DICO. A2D Technologies, Inc.:   DIGITIZING COMPANY
~OTHER INFORMATION
~A   DEPT     RHOB       DPHI         GRD      CALD       CORR         SN        SPR        ILD   
# ...
  676.5000     2.5142     0.0813    65.7679     7.7283     0.0481    11.7898   -66.0783    10.3513
  677.0000     2.5128     0.0818    68.0544     7.7250     0.0481    11.6756   -66.0723    10.2232
  677.5000     2.5098     0.0845    70.3628     7.7217     0.0481    11.5621   -66.0663    10.0967
  678.0000     2.5065     0.0874    72.6188     7.7185     0.0481    11.4499   -66.0602     9.9717
  678.5000     2.5034     0.0879    72.6549     7.7152     0.0485    11.3387   -66.0542     9.8483
  679.0000     2.5037     0.0881    72.5732     7.7119     0.0494    11.2287   -66.0482     9.7264
  679.5000     2.5075     0.0882    72.4682     7.7059     0.0504    11.1197   -66.0422     9.6061
  680.0000     2.5114     0.0839    74.1364     7.6959     0.0513    11.0118   -66.0362     9.4872
  680.5000     2.5152     0.0799    76.1749     7.6931     0.0521    10.9049   -66.0302     9.3698
  681.0000     2.5190     0.0759    77.0212     7.7005     0.0542    10.7991   -66.0242     9.2538
  681.5000     2.5229     0.0720    77.2162     7.7078     0.0565    10.6943   -66.0182     9.1393
  682.0000     2.5258     0.0685    77.8680     7.7152     0.0580    10.5905   -66.0122     9.0262
  682.5000     2.5334     0.0693    79.1752     7.7226     0.0577    10.4877   -66.0061     8.9145
  683.0000     2.5358     0.0717    83.0112     7.7299     0.0573    10.3859   -66.0001     8.8042
  683.5000     2.5307     0.0727    85.1436     7.7373     0.0570    10.2853   -65.9941     8.7612
  684.0000     2.5275     0.0760    86.6207     7.7447     0.0567    10.1599   -65.9881     8.7480
  684.5000     2.5255     0.0782    88.1485     7.7521     0.0563    10.1737   -65.9821     8.7347
  685.0000     2.5235     0.0782    87.7464     7.7594     0.0560    10.1925   -65.9761     8.7214
  685.5000     2.5216     0.0777    85.4860     7.7670     0.0556    10.2118   -65.9701     8.7082
  686.0000     2.5229     0.0771    83.1598     7.7447     0.0553    10.2311   -65.9641     8.6947
  686.5000     2.5243     0.0782    82.8845     7.6999     0.0550    10.2505   -65.9581     8.6363
  687.0000     2.5235     0.0810    83.1070     7.6545     0.0546    10.2534   -65.9520     8.5510
  687.5000     2.5182     0.0793    82.9236     7.6120     0.0543    10.2535   -65.9460     8.4669
  688.0000     2.5192     0.0756    80.7551     7.6374     0.0551    10.2406   -65.9400     8.3837
  688.5000     2.5232     0.0721    79.5003     7.6657     0.0574    10.1379   -65.9340     8.3014
  689.0000     2.5273     0.0735    78.5990     7.6938     0.0569    10.0362   -65.9280     8.2198
  689.5000     2.5291     0.0789    77.1813     7.7217     0.0551     9.9356   -65.9220     8.1391
  690.0000     2.5179     0.0826    76.4852     7.7496     0.0534     9.8359   -65.9159     8.0591
  690.5000     2.5130     0.0826    76.5326     7.7705     0.0526     9.7373   -65.9097     7.9799
  691.0000     2.5136     0.0835    77.2036     7.7701     0.0546     9.6396   -65.9047     7.9015
  691.5000     2.5143     0.0846    78.4716     7.7700     0.0566     9.5425   -65.9606     7.8239
  692.0000     2.5151     0.0836    79.7126     7.7646     0.0585     9.4401   -66.0230     7.7470
  692.5000     2.5155     0.0822    80.4568     7.7458     0.0601     9.3759   -66.0853     7.6709
  693.0000     2.5155     0.0808    79.2603     7.7272     0.0597     9.3072   -66.1475     7.5956
  693.5000     2.5161     0.0794    78.1122     7.7086     0.0593     9.2391   -66.2097     7.5209
  694.0000     2.5170     0.0800    78.4908     7.6900     0.0588     9.1714   -66.2719     7.4460
  694.5000     2.5167     0.0836    79.6420     7.6714     0.0584     9.1043   -66.3342     7.3270
  695.0000     2.5115     0.0871    82.2762     7.6528     0.0581     9.0376   -66.3967     7.1554
  695.5000     2.5065     0.0907    83.8905     7.6342     0.0581     8.9009   -66.4575     6.9891
  696.0000     2.5014     0.0942    82.3064     7.6157     0.0581     8.7319   -66.4688     6.8266
  696.5000     2.4963     0.0978    78.6560     7.5968     0.0581     8.5661   -66.3586     6.6680
  697.0000     2.4895     0.0967    76.7722     7.5952     0.0582     8.4035   -66.2507     6.5967
  697.5000     2.4848     0.0838    76.2490     7.6036     0.0604     8.2440   -66.1425     6.6655
  698.0000     2.5041     0.0709    78.2232     7.6241     0.0625     8.1489   -66.0344     6.7383
  698.5000     2.5268     0.0669    82.5721     7.6903     0.0643     8.7013   -65.9264     6.7810
  699.0000     2.5368     0.0745    82.6335     7.7441     0.0647     9.1203   -65.8183     7.0349
  699.5000     2.5316     0.0749    80.8446     7.9458     0.0652     9.5595   -65.7096     7.2721
  700.0000     2.5267     0.0733    79.7938     7.9112     0.0657    10.1661   -65.6013     7.5595
  700.5000     2.5295     0.0701    79.0624     7.8747     0.0669    10.1541   -65.5171     7.8583
  701.0000     2.5337     0.0706    78.3237     7.8497     0.0730    10.1542   -65.6291     8.1711
  701.5000     2.5337     0.0674    77.9241     7.8497     0.0781    10.2898   -65.7396     8.4272
  702.0000     2.5351     0.0645    77.5375     7.8268     0.0768    10.3418   -65.8495     8.5720
  702.5000     2.5366     0.0784    77.3234     7.7638     0.0726    10.3929   -65.9594     8.6902
  703.0000     2.5286     0.0793    77.3940     7.7011     0.0632    10.4433   -66.0693     8.6504
  703.5000     2.5208     0.0804    77.4636     7.6380     0.0552    10.4221   -66.1796     8.6108
  704.0000     2.5165     0.0832    77.9761     7.6443     0.0516    10.3885   -66.2903     8.5713
  704.5000     2.5135     0.0860    79.4525     7.6614     0.0480    10.3550   -66.2622     8.5320
  705.0000     2.5104     0.0878    82.6194     7.6926     0.0443    10.3216   -66.2158     8.4929
  705.5000     2.5073     0.0878    82.7947     7.7375     0.0441    10.2882   -66.1693     8.4540
  706.0000     2.5062     0.0859    80.5908     7.7818     0.0452    10.2536   -66.1231     8.4152
  706.5000     2.5081     0.0832    78.3183     7.8099     0.0488    10.2431   -66.0769     8.3767
  707.0000     2.5100     0.0834    77.5942     7.8081     0.0523    10.2324   -66.0306     8.3383
  707.5000     2.5114     0.0845    77.5246     7.8069     0.0558    10.2218   -65.9839     8.3000
  708.0000     2.5105     0.0781    78.7649     7.8055     0.0593    10.2111   -65.9385     8.2483
  708.5000     2.5173     0.0737    79.9702     7.8042     0.0629    10.2005   -65.9416     8.1970
  709.0000     2.5238     0.0804    79.6637     7.8029     0.0658    10.1899   -66.1122     8.1459
  709.5000     2.5160     0.0851    78.0623     7.8015     0.0584    10.1793   -66.2762     8.0952
  710.0000     2.5060     0.0898    75.9554     7.8002     0.0510    10.1687   -66.4401     8.0448
  710.5000     2.5023     0.0930    75.3116     7.7989     0.0435    10.1185   -66.6043     7.9716
  711.0000     2.4971     0.0942    75.2993     7.7976     0.0391     9.7779   -66.7680     7.7299
  711.5000     2.4888     0.1034    74.9306     7.7962     0.0373     9.4489   -66.9052     7.4955
  712.0000     2.4806     0.0982    74.5526     7.7949     0.0373     9.1308   -66.9200     7.2682
  712.5000     2.4858     0.0938    75.6545     7.7937     0.0408     8.8243   -66.9372     7.0478
  713.0000     2.4926     0.1007    76.5471     7.7927     0.0400     8.5309   -66.9547     6.8341
  713.5000     2.4859     0.1092    76.6712     7.7901     0.0366     8.0844   -66.9722     6.6269
  714.0000     2.4732     0.1177    76.8154     7.7229     0.0342     7.6666   -66.9897     6.4173
  714.5000     2.4605     0.1264    77.4342     7.4925     0.0319     7.2709   -67.0072     6.0635
  715.0000     2.4469     0.1393    79.1336     7.4250     0.0284     6.8957   -67.0247     5.5745
  715.5000     2.4169     0.1638    78.9407     7.5212     0.0248     6.4226   -67.0423     4.7183
  716.0000     2.3842     0.1801    76.8847     7.6183     0.0241     5.8774   -67.0598     3.9971
  716.5000     2.3506     0.1964    75.2569     7.7147     0.0257     5.2101   -67.0777     3.3802
