~VERSION INFORMATION
 VERS.                2.0:   CWLS LOG ASCII STANDARD - VERSION 2.0
 WRAP.                 NO:   ONE LINE PER DEPTH STEP
~WELL INFORMATION
#MNEM.UNIT      DATA TYPE    INFORMATION
#----------   ------------   ------------------------------
 STRT.F           60.0000:   START DEPTH
 STOP.F          748.0000:   STOP DEPTH
 STEP.F            0.5000:   STEP LENGTH
 NULL.          -999.2500:   NO VALUE
 COMP.               NAVY:   COMPANY
 WELL.        S-11 #31-11:   WELL
 FLD .             TEAPOT:   FIELD
 LOC .      S11 T38N R78W:   LOCATION
 CNTY.            NATRONA:   COUNTY
 STAT.            WYOMING:   STATE
 CTRY. UNITED STATES OF AMERICA:   COUNTRY
 SRVC.      NL McCullough:   SERVICE COMPANY
 DATE.        10-AUG-1961:   LOGDATE
 API .       490250637600:   API NUMBER
~CURVE INFORMATION
#MNEM.UNIT       API CODE    CURVE DESCRIPTION
#----------   ------------   ------------------------------
 DEPT.F                  :   
 GRN .GAPI   35 310 01 00:   GAMMA RAY
 NEUT.NAPI   35 330 01 00:   NEUTRON
~PARAMETER INFORMATION
#MNEM.UNIT          VALUE    DESCRIPTION
#----------   ------------   ------------------------------
 PD  .                 GL:   PERMANENT DATUM
 EPD .F              5157:   ELEVATION PERMANENT DATUM
 LMF .                 KB:   LOG MEASURED FROM
 DAPD.F                56:   FEET ABOVE PERMANENT DATUM
 DMF .                 KB:   DRILLING MEASURED FROM
 EKB .F              5162:   KELLING BUSHING
 EGL .F              5157:   GROUND LEVEL
 DATE.        10-AUG-1961:   RUN DATE
 RUN .                  1:   RUN NUMBER
 DD  .F               760:   DEPTH DRILLER
 DL  .F               749:   DEPTH LOGGER
 BLI .F               748:   BOTTOM LOG INTERVAL
 TLI .F                60:   TOP LOG INTERVAL
 BS  .IN            7.875:   BIT SIZE
 BSD .F               760:   BIT SIZE AT DEPTH
 DFT .       OIL EMULSION:   DRILLING FLUID TYPE
 DFD .                9.5:   DRILLING FLUID DENSITY
 TCS .HRS            0130:   TIME CURCULATED STOPPED
 ENGI.            JACKSON:   RECORDING ENGINEER
 WITN.          JORGENSEN:   WITNESSED BY
 CLNT.            A2DTECH:   CLIENT CODE
 ORIG.       2", 5" PRINT:   ORIGIN OF DATA
 UWI .       490250637600:   UNIQUE WELL ID
 DICO. A2D Technologies, Inc.:   DIGITIZING COMPANY
~OTHER INFORMATION
~A   DEPT        GRN     NEUT   
# ...
  546.0000     6.8413   484.9077
  546.5000     6.9352   446.4306
  547.0000     7.3138   420.7644
  547.5000     7.7910   385.3017
  548.0000     8.1165   369.4431
  548.5000     8.2144   442.4847
  549.0000     7.2352   522.3159
  549.5000     6.8932   614.9617
  550.0000     6.7105   686.1323
  550.5000     6.7251   659.3300
  551.0000     6.8385   702.0037
  551.5000     6.6408   707.4548
  552.0000     6.5039   655.3928
  552.5000     6.7233   623.6903
  553.0000     6.8594   599.5237
  553.5000     7.0638   581.3856
  554.0000     6.5779   554.2047
  554.5000     6.7367   584.2958
  555.0000     6.4632   602.3296
  555.5000     6.1214   638.4493
  556.0000     5.1704   664.7725
  556.5000     4.8891   733.2961
  557.0000     4.2851   792.0232
  557.5000     3.5979   831.9108
  558.0000     2.8346   852.2184
  558.5000     2.6597   804.6777
  559.0000     2.7275   744.3393
  559.5000     2.8408   755.5909
  560.0000     2.5294   745.7423
  560.5000     2.3241   781.1084
  561.0000     2.2099   755.7352
  561.5000     1.9440   723.0467
  562.0000     1.7994   664.1473
  562.5000     1.7686   675.3989
  563.0000     1.8213   656.5073
  563.5000     1.9270   658.1926
  564.0000     2.0328   666.8985
  564.5000     2.1840   686.5762
  565.0000     2.3507   677.2678
  565.5000     2.3176   641.9114
  566.0000     2.2965   671.2489
  566.5000     2.5614   665.1682
  567.0000     2.7648   643.2623
  567.5000     3.0232   648.4983
  568.0000     3.2806   598.6969
  568.5000     2.9919   634.0630
  569.0000     2.7791   667.9220
  569.5000     2.6573   652.0447
  570.0000     2.6113   645.2234
  570.5000     2.9143   686.6052
  571.0000     3.1566   689.5805
  571.5000     3.1714   695.5440
  572.0000     3.3301   680.4203
  572.5000     3.5800   668.3109
  573.0000     3.6554   661.2523
  573.5000     3.4198   685.5757
  574.0000     3.1439   706.9383
  574.5000     3.0472   721.7809
  575.0000     3.3767   705.8535
  575.5000     3.5091   690.6057
  576.0000     3.4554   695.0751
  576.5000     3.3867   678.4312
  577.0000     3.4697   664.0741
  577.5000     3.6209   689.6307
  578.0000     3.7418   718.9681
  578.5000     3.7490   747.5521
  579.0000     3.7789   715.8497
  579.5000     3.6722   699.9724
  580.0000     3.7173   703.6882
  580.5000     3.9747   699.8812
  581.0000     4.1184   698.3090
  581.5000     4.1938   683.3884
  582.0000     4.1403   684.0401
  582.5000     4.0563   659.7201
  583.0000     3.9284   694.3326
  583.5000     3.6627   675.2003
  584.0000     3.4847   664.8389
  584.5000     3.4781   679.9447
  585.0000     3.8568   677.6689
  585.5000     4.0991   664.6696
  586.0000     4.2124   708.3250
  586.5000     4.1892   727.1124
  587.0000     4.0522   724.0460
  587.5000     4.1201   727.7618
  588.0000     4.2107   709.6238
  588.5000     4.0054   715.6003
  589.0000     4.0125   730.6198
  589.5000     3.9817   748.6536
  590.0000     3.9358   779.4983
  590.5000     4.0718   823.1538
  591.0000     4.1397   817.0731
  591.5000     4.2075   802.7029
  592.0000     4.4801   771.0005
  592.5000     4.2749   733.2695
  593.0000     4.4563   729.7475
  593.5000     4.5015   742.9617
  594.0000     4.2051   742.1553
  594.5000     4.2274   729.1661
  595.0000     4.1511   677.3675
  595.5000     4.0217   647.7894
  596.0000     4.1047   643.9694
  596.5000     4.1499   640.9029
  597.0000     4.1266   636.3293
  597.5000     4.1261   642.3058
  598.0000     4.1105   671.6434
  598.5000     4.0570   673.1115
  599.0000     4.0414   648.1783
  599.5000     3.8576   643.6177
  600.0000     3.6233   645.8264
  600.5000     3.6539   644.5740
  601.0000     3.7613   652.4919
  601.5000     3.8366   665.2510
  602.0000     3.9093   670.4742
  602.5000     3.9392   679.4654
  603.0000     3.9917   649.6216
  603.5000     4.2035   645.1771
  604.0000     4.0437   641.6180
  604.5000     4.0282   643.8270
  605.0000     4.1489   669.3969
  605.5000     4.1561   700.2548
  606.0000     4.3450   671.5541
  606.5000     4.3369   657.9378
  607.0000     4.4350   653.3645
  607.5000     4.5407   643.5162
  608.0000     4.3878   627.6392
  608.5000     4.5017   620.8052
  609.0000     4.6681   623.0141
  609.5000     4.3385   650.1358
  610.0000     4.2336   667.3718
  610.5000     4.3781   638.6839
  611.0000     4.5672   664.9944
  611.5000     4.6426   647.6104
  612.0000     4.6117   598.5759
  612.5000     4.4974   565.3665
  613.0000     4.3907   543.4609
  613.5000     4.3599   550.9449
  614.0000     4.4429   606.6580
  614.5000     4.2829   578.7238
  615.0000     4.0397   557.5718
  615.5000     3.9331   564.3022
  616.0000     3.9353   595.2178
  616.5000     3.8409   608.1006
  617.0000     3.7266   619.1581
  617.5000     3.6578   614.5848
  618.0000     4.0341   607.7378
  618.5000     4.1498   625.7720
  619.0000     4.1265   645.3132
  619.5000     4.1714   678.4189
  620.0000     4.3301   653.4990
  620.5000     4.4130   670.7795
  621.0000     4.6628   685.8122
  621.5000     4.8671   701.5726
  622.0000     4.6163   705.3703
  622.5000     4.4868   678.8617
  623.0000     4.5773   675.0414
  623.5000     4.6754   674.2352
  624.0000     4.9176   697.5328
  624.5000     5.1827   668.0914
  625.0000     5.0607   642.4178
  625.5000     5.3332   646.8876
  626.0000     5.1506   652.8644
  626.5000     4.9528   676.9271
  627.0000     4.9069   725.8710
  627.5000     4.9536   700.9381
  628.0000     5.0337   728.7687
  628.5000     5.2313   739.2670
  629.0000     5.3522   727.9116
  629.5000     5.1772   725.5990
  630.0000     5.2373   753.1271
  630.5000     5.2673   779.1034
  631.0000     5.1377   746.5309
  631.5000     5.0310   736.6998
  632.0000     4.8939   716.2884
  632.5000     4.8099   716.9902
  633.0000     4.9611   696.5918
  633.5000     4.9835   690.5113
  634.0000     5.1042   693.4738
  634.5000     5.1113   690.3447
  635.0000     5.2018   670.0093
  635.5000     5.0116   685.7827
  636.0000     5.1640   703.0502
  636.5000     5.2002   705.2591
  637.0000     4.9265   708.9882
  637.5000     4.8577   675.7659
  638.0000     4.7130   689.2786
  638.5000     4.5380   711.8342
  639.0000     4.3631   741.9255
  639.5000     4.2184   752.4368
  640.0000     4.2104   769.7043
  640.5000     4.0960   796.7814
  641.0000     3.8527   817.9005
  641.5000     3.5792   864.0734
  642.0000     3.4193   990.4465
  642.5000     3.3961  1048.2568
  643.0000     3.1983  1039.9156
  643.5000     3.3343   916.2768
  644.0000     3.5386   802.4345
  644.5000     3.8187   724.7640
  645.0000     3.7196   693.8154
  645.5000     3.4080   636.4916
  646.0000     3.2710   641.7149
  646.5000     3.6042   659.7490
  647.0000     3.9223   701.1440
  647.5000     4.0659   684.5135
  648.0000     4.0190   646.6608
  648.5000     4.0317   650.4988
  649.0000     4.2614   628.5803
  649.5000     4.3595   639.8322
  650.0000     4.2922   652.8802
  650.5000     4.0854   658.5719
  651.0000     4.2226   635.1587
  651.5000     4.2909   611.7455
  652.0000     4.3810   623.7505
  652.5000     4.4850   649.3200
  653.0000     4.1808   651.5285
  653.5000     3.9375   674.8373
  654.0000     3.8459   660.4670
  654.5000     3.7998   649.1111
  655.0000     3.8067   659.7085
  655.5000     4.0413   674.8406
  656.0000     4.0788   713.5588
  656.5000     3.9796   700.8992
  657.0000     4.0850   734.7450
  657.5000     4.0770   733.1856
  658.0000     4.1672   708.2652
  658.5000     4.1744   712.7476
  659.0000     4.1660   677.2640
  659.5000     3.9682   671.1832
  660.0000     4.1724   664.3618
  660.5000     4.0656   690.6718
  661.0000     4.1333   705.6911
  661.5000     4.2237   722.9843
  662.0000     4.2686   658.1112
  662.5000     4.2604   676.8984
  663.0000     4.2750   661.0210
  663.5000     4.2263   648.1710
  664.0000     4.1523   645.8450
  664.5000     4.2124   654.8380
  665.0000     4.3652   624.6403
  665.5000     4.5753   613.2844
  666.0000     4.7492   646.3896
  666.5000     4.8093   655.3804
  667.0000     4.8921   686.3049
