~VERSION INFORMATION
 VERS.                2.0:   CWLS LOG ASCII STANDARD - VERSION 2.0
 WRAP.                 NO:   ONE LINE PER DEPTH STEP
~WELL INFORMATION
#MNEM.UNIT      DATA TYPE    INFORMATION
#----------   ------------   ------------------------------
 STRT.F           66.0000:   START DEPTH
 STOP.F          892.0000:   STOP DEPTH
 STEP.F            0.5000:   STEP LENGTH
 NULL.          -999.2500:   NO VALUE
 COMP. LAWRENCE/ALLISON INC:   COMPANY
 WELL. NPR #3 #31-11 SX 2:   WELL
 FLD .             TEAPOT:   FIELD
 LOC .       S2 T38N R78W:   LOCATION
 CNTY.            NATRONA:   COUNTY
 STAT.            WYOMING:   STATE
 CTRY. UNITED STATES OF AMERICA:   COUNTRY
 SRVC.      Dresser Atlas:   SERVICE COMPANY
 DATE.        10-AUG-1985:   LOGDATE
 API .       490251103900:   API NUMBER
~CURVE INFORMATION
#MNEM.UNIT       API CODE    CURVE DESCRIPTION
#----------   ------------   ------------------------------
 DEPT.F                  :   
 PORD.DEC    45 890 12 00:   POROSITY DENSITY SANDSTONE
 CNC .DEC    42 890 03 00:   NEUTRON POROSITY SANDSTONE
 CORR.G/C3   45 356 01 00:   DENSITY CORRECTION
 DEN .G/C3   45 350 01 00:   COMPENSATED BULK DENSTIY
 CALD.IN     45 280 60 00:   CALIPER FROM DENSITY LOG
 SPR .MV     07 010 01 00:   SPONTANEOUS POTENTIAL
 RILD.OHMM   07 120 46 00:   INDUCTION LOG DEEP RESISTIVITY
 RILM.OHMM   07 120 44 00:   INDUCTION LOG MEDIUM RESISTIVITY
 RFOC.OHMM   07 220 04 00:   RESISTIVITY FOCUSED LOG
~PARAMETER INFORMATION
#MNEM.UNIT          VALUE    DESCRIPTION
#----------   ------------   ------------------------------
 PD  .                 GL:   PERMANENT DATUM
 EPD .F              5110:   ELEVATION PERMANENT DATUM
 LMF .                 GL:   LOG MEASURED FROM
 DMF .                 GL:   DRILLING MEASURED FROM
 EKB .F              5115:   KELLING BUSHING
 EGL .F              5110:   GROUND LEVEL
 DATE.        10-AUG-1985:   RUN DATE
 RUN .                  1:   RUN NUMBER
 DD  .F               899:   DEPTH DRILLER
 DL  .F               895:   DEPTH LOGGER
 BLI .F               892:   BOTTOM LOG INTERVAL
 CS  .IN            8.625:   CASING SIZE
 CBD .F                75:   CASING BOTTOM DRILLER
 CBL .F                78:   CASING BOTTOM LOGGER
 BS  .IN            7.875:   BIT SIZE
 BSD .F               899:   BIT SIZE AT DEPTH
 DFT .                KCL:   DRILLING FLUID TYPE
 MSS .           FLOWLINE:   MUD SAMPLE SOURCE
 RMS .OHMM            .21:   RESISTIVITY MUD SAMPLE
 MST .F                75:   MUD SAMPLE TEMPERATURE
 TCS .HRS            0200:   TIME CURCULATED STOPPED
 MRT .F               100:   MAXIMUM RECORDED TEMPERATURE
 LUN .               6274:   LOGGING UNIT NUMBER
 LUL .               GLTE:   LOGGING UNIT LOCATION
 ENGI.             RAUTIO:   RECORDING ENGINEER
 WITN.        LINDA FIVAS:   WITNESSED BY
 CLNT.            A2DTECH:   CLIENT CODE
 ORIG.           5" PRINT:   ORIGIN OF DATA
 UWI .       490251103900:   UNIQUE WELL ID
 DICO. A2D Technologies, Inc.:   DIGITIZING COMPANY
~OTHER INFORMATION
~A   DEPT     PORD        CNC       CORR        DEN       CALD        SPR       RILD       RILM       RFOC   
# ...
  759.5000     0.1280     0.2497     0.0522     2.4611     8.0011   -33.1539    10.3934    10.3623    10.2021
  760.0000     0.1322     0.2519     0.0506     2.4506     8.0153   -33.7687    10.4648    10.3609    10.2727
  760.5000     0.1370     0.2528     0.0234     2.4460     7.9987   -34.2313    10.4630    10.3595    10.2720
  761.0000     0.1386     0.2504     0.0189     2.4452     8.0127   -34.2399    10.4616    10.3581    10.3431
  761.5000     0.1395     0.2507     0.0309     2.4452     8.0113   -34.2486    10.4602    10.3564    10.3424
  762.0000     0.1388     0.2531     0.0339     2.4459     8.0101   -34.2572    10.4589    10.3551    10.3415
  762.5000     0.1386     0.2549     0.0173     2.4466     8.0243   -34.2681    10.4574    10.4264    10.3409
  763.0000     0.1395     0.2555    -0.0044     2.4382     8.0383   -34.4280    10.3834    10.4976    10.3402
  763.5000     0.1413     0.2555    -0.0144     2.4367     8.0368   -34.4367    10.4547    10.7209    10.3395
  764.0000     0.1452     0.2543     0.0202     2.4374     8.0356   -34.5966    10.6001    11.0193    10.4837
  764.5000     0.1452     0.2501     0.0412     2.4374     8.0191   -34.7566    10.8980    11.0174    10.7041
  765.0000     0.1431     0.2447     0.0502     2.4403     8.0180   -34.7655    11.1295    11.1705    10.9295
  765.5000     0.1416     0.2474     0.0652     2.4320     8.0168   -35.0786    11.5197    11.3261    11.2372
  766.0000     0.1410     0.2562     0.0852     2.3943     8.0006   -35.2386    12.0103    11.7257    11.4736
  766.5000     0.1537     0.2682     0.0997     2.3619     7.9986   -34.9446    12.6975    12.5108    11.7187
  767.0000     0.1736     0.2688     0.1042     2.3408     7.9829   -34.4994    13.6126    13.3813    12.0447
  767.5000     0.1959     0.2655     0.0876     2.3250     7.9819   -34.2055    14.7986    14.2453    12.7338
  768.0000     0.2059     0.2646     0.0678     2.3212     7.9805   -34.2164    16.5423    15.3779    13.5562
  768.5000     0.2117     0.2691     0.0318     2.3189     7.9793   -34.0716    17.7345    16.8334    15.1525
  769.0000     0.2144     0.2821     0.0077     2.3218     7.9781   -34.0824    19.0125    18.0573    16.5898
  769.5000     0.2150     0.2852    -0.0029     2.3301     7.9770   -34.0910    19.6844    18.5531    17.5352
  770.0000     0.2132     0.2776     0.0151     2.3458     7.9756   -34.0998    20.3800    18.8103    17.5341
  770.5000     0.2071     0.2713     0.0361     2.3563     7.9745   -33.8080    21.1002    19.4745    17.5329
  771.0000     0.1984     0.2742     0.0451     2.3518     7.9733   -32.9089    20.8046    19.3367    17.2893
  771.5000     0.1933     0.2810     0.0376     2.3479     7.9722   -32.6128    20.5137    19.1999    17.0491
  772.0000     0.1927     0.2849     0.0270     2.3479     7.9710   -32.7749    20.9445    18.9311    17.1671
  772.5000     0.1963     0.2879     0.0209     2.3509     7.9696   -32.7837    20.6518    18.6667    17.2859
  773.0000     0.1978     0.2882     0.0194     2.3553     7.9533   -32.9457    19.7828    19.3258    17.0455
  773.5000     0.1972     0.2866     0.0208     2.3613     7.9522   -32.9544    19.8004    19.7314    16.8087
  774.0000     0.1945     0.2825     0.0403     2.3658     7.9510   -33.1143    19.7971    19.5918    16.6909
  774.5000     0.1909     0.2774     0.0553     2.3665     7.9497   -33.2742    19.3847    19.2983    17.1778
  775.0000     0.1885     0.2710     0.0568     2.3657     7.9484   -33.5855    18.7181    18.6536    17.1597
  775.5000     0.1869     0.2762     0.0507     2.3559     7.9474   -33.7476    18.4564    18.1385    17.1586
  776.0000     0.1882     0.2798     0.0432     2.3363     7.9460   -33.7562    18.3251    18.0102    17.0384
  776.5000     0.1906     0.2786     0.0326     2.3272     7.9448   -34.0675    18.3227    18.0078    16.8017
  777.0000     0.2066     0.2729     0.0279     2.3301     7.9591   -34.2274    18.1930    18.0054    16.3271
  777.5000     0.2096     0.2668     0.0310     2.3384     7.9576   -34.3874    18.1906    18.0024    16.1119
  778.0000     0.2072     0.2678     0.0505     2.3526     7.9565   -34.3964    18.3154    17.7510    16.1109
  778.5000     0.2019     0.2781     0.0761     2.3669     7.9553   -34.8607    18.6994    17.3815    16.1098
  779.0000     0.1930     0.2799     0.0791     2.3962     7.9541   -35.3232    18.8284    17.1387    16.1087
  779.5000     0.1852     0.2760     0.0489     2.4345     7.9529   -35.9370    17.9285    17.1364    16.8119
  780.0000     0.1749     0.2672     0.0172     2.4277     7.9517   -36.5508    17.6785    17.2539    17.6320
  780.5000     0.1601     0.2563     0.0307     2.4096     7.9505   -36.5406    18.0492    17.2510    18.0032
  781.0000     0.1450     0.2418     0.0563     2.3998     7.9491   -35.6604    17.7828    17.3699    18.0017
  781.5000     0.1541     0.2393     0.0653     2.4072     7.9479   -35.6712    17.1842    17.0078    17.3847
  782.0000     0.1656     0.2480     0.0607     2.4147     7.9467   -35.6799    16.7094    16.5382    16.5429
  782.5000     0.1640     0.2638     0.0486     2.4162     7.9455   -35.8399    16.0227    15.6250    15.4420
  783.0000     0.1580     0.2758     0.0365     2.4071     7.9443   -35.8487    15.4717    15.3135    15.0169
  783.5000     0.1592     0.2779     0.0305     2.3928     7.9430   -36.0106    15.4696    15.3115    15.1211
  784.0000     0.1647     0.2798     0.0244     2.3814     7.9572   -36.4731    15.5752    15.3094    15.2257
  784.5000     0.1761     0.2819     0.0198     2.3799     7.9558   -36.6331    15.6827    15.3074    15.3308
  785.0000     0.1795     0.2855     0.0198     2.3806     7.9546   -36.3389    16.0120    15.5201    15.4369
  785.5000     0.1783     0.2889     0.0228     2.3813     7.9535   -35.4312    16.0093    15.8453    15.6520
  786.0000     0.1773     0.2912     0.0288     2.3752     7.9523   -34.8458    15.8960    15.8432    15.7606
  786.5000     0.1780     0.2843     0.0302     2.3714     7.9509   -34.2493    15.6733    15.8411    15.7593
  787.0000     0.1828     0.2734     0.0256     2.3691     7.9497   -33.9532    15.8912    15.7290    15.7582
  787.5000     0.1843     0.2719     0.0196     2.3706     7.9486   -33.3589    16.2250    15.6177    15.4313
  788.0000     0.1828     0.2760     0.0496     2.3730     7.9474   -32.9097    16.4512    15.7248    14.4931
  788.5000     0.1807     0.2785     0.0646     2.3780     7.9616   -32.1681    16.4484    15.7222    13.9964
  789.0000     0.1786     0.2770     0.0465     2.3795     7.9599   -31.5716    15.9598    15.7201    13.8986
  789.5000     0.1777     0.2755     0.0254     2.3764     7.9741   -30.9751    15.1237    15.2860    14.3897
  790.0000     0.1837     0.2769     0.0118     2.3606     7.9727   -30.5299    14.9123    14.8639    14.6924
  790.5000     0.1970     0.2818     0.0170     2.3507     7.9716   -30.0847    14.9103    14.4534    14.7941
  791.0000     0.1955     0.2821     0.0433     2.3567     7.9855   -29.6417    14.9083    14.4511    14.7928
  791.5000     0.1910     0.2773     0.0583     2.3702     7.9841   -29.4969    14.6999    14.2492    14.4861
  792.0000     0.1864     0.2809     0.0613     2.3687     7.9829   -29.3543    14.2932    14.0502    14.0874
  792.5000     0.1852     0.2882     0.0296     2.3671     7.9818   -29.2138    13.8983    13.4732    13.5857
  793.0000     0.1858     0.2888     0.0191     2.3678     7.9806   -29.3738    13.1425    13.0054    12.8665
  793.5000     0.1861     0.2775     0.0311     2.3700     7.9794   -30.0111    12.7793    12.5627    12.3393
  794.0000     0.1822     0.2634     0.0355     2.3753     7.9782   -30.6035    12.3308    12.2158    11.9164
  794.5000     0.1711     0.2646     0.0265     2.3948     7.9768   -31.0660    11.9151    11.8785    11.7508
  795.0000     0.1614     0.2661     0.0141     2.4135     7.9757   -31.6799    11.7486    11.6312    11.5876
  795.5000     0.1590     0.2652    -0.0007     2.4037     7.9745   -32.2937    11.5843    11.4688    11.4264
