~VERSION INFORMATION
 VERS.                2.0:   CWLS LOG ASCII STANDARD - VERSION 2.0
 WRAP.                 NO:   ONE LINE PER DEPTH STEP
~WELL INFORMATION
#MNEM.UNIT      DATA TYPE    INFORMATION
#----------   ------------   ------------------------------
 STRT.F            0.0000:   START DEPTH
 STOP.F          530.0000:   STOP DEPTH
 STEP.F            0.5000:   STEP LENGTH
 NULL.          -999.2500:   NO VALUE
 COMP.   LAWRENCE-ALLISON:   COMPANY
 WELL. NPR 3 #51-56SX10 OB3:   WELL
 FLD .             TEAPOT:   FIELD
 LOC .      S10 T38N R78W:   LOCATION
 CNTY.            NATRONA:   COUNTY
 STAT.            WYOMING:   STATE
 CTRY. UNITED STATES OF AMERICA:   COUNTRY
 SRVC.           Gearhart:   SERVICE COMPANY
 DATE.        28-JUN-1987:   LOGDATE
 API .       490251100800:   API NUMBER
~CURVE INFORMATION
#MNEM.UNIT       API CODE    CURVE DESCRIPTION
#----------   ------------   ------------------------------
 DEPT.F                  :   
 CALD.IN     45 280 60 00:   CALIPER ROM DENSITY LOG
 CNC .DEC    45 890 03 00:   NEUTRON POROSITY SANDSTONE
 CORR.G/C3   45 356 01 00:   DENSITY CORRECTION
 DEN .G/C3   45 350 01 00:   COMPENSATED BULK DENSTIY
 PORD.DEC    45 890 12 00:   POROSITY DENSITY SANDSTONE
 GRR .GAPI   07 310 01 00:   GAMMA RAY
 ILD .OHMM   07 120 46 00:   INDUCTION LOG DEEP
 ILM .OHMM   07 120 44 00:   INDUCTION LOG MEDIUM
 LL  .OHMM   07 220 00 00:   LATEROLOG RESISTIVITY
 SPR .MV     07 010 01 00:   SPONTANEOUS POTENTIAL
 DT  .US/F   60 520 00 00:   INTERVAL TRANSIT TIME
~PARAMETER INFORMATION
#MNEM.UNIT          VALUE    DESCRIPTION
#----------   ------------   ------------------------------
 PD  .                 GL:   PERMANENT DATUM
 EPD .F              5198:   ELEVATION PERMANENT DATUM
 LMF .                 KB:   LOG MEASURED FROM
 DAPD.F                 8:   FEET ABOVE PERMANENT DATUM
 DMF .                 KB:   DRILLING MEASURED FROM
 EKB .F              5206:   KELLING BUSHING
 EDF .F              5204:   DRILLING FLOOR
 EGL .F              5198:   GROUND LEVEL
 DATE.        28-JUN-1987:   RUN DATE
 RUN .                  1:   RUN NUMBER
 DD  .F               535:   DEPTH DRILLER
 DL  .F               536:   DEPTH LOGGER
 BLI .F               533:   BOTTOM LOG INTERVAL
 BS  .IN             7.87:   BIT SIZE
 BSD .F               535:   BIT SIZE AT DEPTH
 DFT .                MUD:   DRILLING FLUID TYPE
 RMS .OHMM           0.84:   RESISTIVITY MUD SAMPLE
 MST .F                57:   MUD SAMPLE TEMPERATURE
 RMF .OHMM           0.63:   RESISTIVITY MUD FILTRATE SAMPLE
 MFST.F                57:   MUD FILTRATE SAMPLE TEMPERATURE
 RMC .OHMM           1.05:   RESISTIVITY MUD CAKE
 MCST.F                57:   MUD CAKE SAMPLE TEMPERATURE
 MFSS.               CALC:   MUD FILTRATE SAMPLE SOURCE
 MCSS.               CALC:   MUD CAKE SAMPLE SOURCE
 RMB .OHMM           0.59:   RESISTIVITY MUD AT BHT
 BHT .F                80:   BOTTOM HOLE TEMPERATURE
 TCS .HRS            1200:   TIME CURCULATED STOPPED
 TLAB.HRS            1322:   TIME LOGGER AT BOTTOM
 LUN .               7650:   LOGGING UNIT NUMBER
 LUL .           GILLETTE:   LOGGING UNIT LOCATION
 ENGI. JOHNSTON/HUCKFELDT:   RECORDING ENGINEER
 WITN.             STRONG:   WITNESSED BY
 CLNT.            A2DTECH:   CLIENT CODE
 ORIG.      2.5" 5" PRINT:   ORIGIN OF DATA
 UWI .       490251100800:   UNIQUE WELL ID
 DICO. A2D Technologies, Inc.:   DIGITIZING COMPANY
~OTHER INFORMATION
~A    DEPT    CALD        CNC       CORR        DEN       PORD         GRR         ILD        ILM       LL        SPR         DT   
# ...
  274.5000     6.4850     0.2481     0.0477     2.3745     0.1824   102.8449     8.1028     8.0204     7.4594   -43.0961    99.7460
  275.0000     6.4859     0.2661     0.0433     2.3700     0.1839   104.0548     8.1061     8.0231     7.4625   -43.1932    99.6743
  275.5000     6.4719     0.2818     0.0374     2.3701     0.1842   105.2647     8.1095     8.0258     7.5693   -43.3910    99.5297
  276.0000     6.4579     0.2817     0.0330     2.3724     0.1835   106.4746     8.1129     7.9184     7.5724   -43.3874    96.8138
  276.5000     6.4588     0.2585     0.0332     2.3792     0.1787   106.4314     8.1162     7.7057     7.6803   -43.3844    91.8304
  277.0000     6.4448     0.2468     0.0333     2.3861     0.1738   105.2908     8.1202     7.5989     7.5781   -43.3808    87.4453
  277.5000     6.4309     0.1907     0.0349     2.3907     0.1644   105.3003     8.1234     7.3875     7.5818   -43.6787    81.4375
  278.0000     6.4320     0.1868     0.0441     2.4308     0.1436   106.0703     8.2395     7.2995     7.5849   -43.9756    76.1523
  278.5000     6.4328     0.1614     0.0457     2.4828     0.0981   108.9205     8.3572     7.3022     7.5881   -43.9727    71.1416
  279.0000     6.4186     0.1690     0.0307     2.6079     0.0451   107.0209     8.3605     7.3375     7.5917   -44.2703    70.8432
  279.5000     6.4197     0.1744     0.0203     2.6162     0.0387   100.2395     8.4800     7.5116     7.5948   -44.5676    75.8383
  280.0000     6.4055     0.1930     0.0172     2.5854     0.0607    95.7357     8.4835     7.6185     7.7033   -44.8650    84.6871
  280.5000     6.4364     0.2285     0.0477     2.5395     0.0956    95.7465     8.4870     7.7269     8.1433   -44.5616    90.9659
  281.0000     6.5413     0.2478     0.0599     2.4687     0.1419    96.9564     8.4905     7.6237     8.6085   -44.1942    96.2622
  281.5000     6.5421     0.2493     0.0630     2.4070     0.1652    96.9651     8.4607     7.3177     8.6119   -43.4825    98.9129
  282.0000     6.5430     0.2441     0.0416     2.3927     0.1735    96.9738     8.2991     6.2039     8.2374   -42.5345    99.8251
  282.5000     6.5440     0.2390     0.0331     2.3852     0.1783    96.9825     6.9927     4.9774     7.4580   -41.5866    99.9059
  283.0000     6.5447     0.2396     0.0302     2.3800     0.1809    98.1924     6.2788     4.7119     6.3948   -40.6386   100.0623
  283.5000     6.5456     0.2420     0.0303     2.3771     0.1809   102.1679     5.7373     4.6489     5.8154   -39.0901   100.2187
  284.0000     6.5465     0.2501     0.0455     2.3779     0.1806   117.4294     5.7064     4.8607     5.7059   -38.8343   100.3751
  284.5000     6.5474     0.2624     0.0517     2.3770     0.1808   116.0411     5.8687     5.3650     5.8237   -39.1317   100.3803
  285.0000     6.5483     0.2696     0.0518     2.3703     0.1841   112.4023     6.1189     5.8783     6.3390   -39.4294   100.2344
  285.5000     6.5492     0.2690     0.0519     2.3637     0.1877    97.9269     7.7383     6.8090     6.8356   -41.2280    99.7737
  286.0000     6.5501     0.2626     0.0385     2.3630     0.1883    95.8422     8.8859     7.7917     7.5313   -41.8258    98.4883
  286.5000     6.5510     0.2584     0.0009     2.3691     0.1855    92.6516     9.3987     8.6889     8.6481   -41.8228    98.2092
  287.0000     6.5519     0.2498    -0.0141     2.3752     0.1827    91.0571     9.8069     9.2179     9.3977   -41.8198    98.9716
  287.5000     6.5527     0.2402    -0.0154     2.3745     0.1819    91.0661    10.2357     9.2885     9.5320   -41.8168    99.9594
  288.0000     6.5538     0.2559     0.0103     2.3671     0.1896    91.0766    10.5369     9.4213     9.6682   -41.8138   100.5693
  288.5000     6.5547     0.2640     0.0102     2.3536     0.1959    92.2865    10.8000     9.5553     9.6721   -41.8108   100.9525
  289.0000     6.5406     0.2628     0.0060     2.3468     0.2031    96.4994    10.8045     9.9621     9.6761   -41.8078   101.0333
  289.5000     6.5416     0.2486     0.0076     2.3386     0.2067    98.3099    11.0290    10.5305     9.5264   -41.6667   101.0385
  290.0000     6.5425     0.2468     0.0047     2.3326     0.2073    99.5198    11.3536    10.9789     9.4203   -41.3414   101.0437
  290.5000     6.5283     0.2522     0.0109     2.3327     0.2067   100.7297    12.0804    11.4463     9.5050   -40.8973   100.6710
  291.0000     6.5294     0.2555     0.0170     2.3381     0.2009    98.7169    13.1275    12.6257    10.3730   -40.5941   100.1471
  291.5000     6.5303     0.2570     0.0142     2.3479     0.1988    90.2769    13.8774    13.5808    11.6452   -38.7894    99.5476
  292.0000     6.5311     0.2543     0.0022     2.3479     0.1978    74.2905    15.0803    14.7625    13.1571   -36.9847    99.1749
  292.5000     6.5320     0.2473     0.0008     2.3503     0.1969    68.1729    16.3875    16.1320    16.6160   -35.7806    98.6510
  293.0000     6.5178     0.2505     0.0206     2.3571     0.1893    60.3223    18.8176    17.5002    18.3070   -35.7777    98.1272
  293.5000     6.5189     0.2569     0.0177     2.3670     0.1836    59.9429    21.9814    18.5356    19.0877   -36.0751    97.8300
  294.0000     6.5047     0.2554     0.0117     2.3731     0.1832    60.8408    24.5974    20.4520    19.3604   -36.0721    97.9864
  294.5000     6.5058     0.2400     0.0058     2.3694     0.1853    64.5035    26.3728    22.1092    19.9097   -36.0691    98.4485
  295.0000     6.5067     0.2385     0.0044     2.3679     0.1880    65.9776    27.7298    23.5189    20.7588   -35.9860    98.6772
  295.5000     6.5076     0.2418     0.0046     2.3657     0.1898    63.5839    27.7412    24.5203    22.8853   -35.6607    98.8337
  296.0000     6.5085     0.2438     0.0127     2.3612     0.1906    59.9890    27.7527    24.8690    24.1783   -35.0350    98.7631
  296.5000     6.5094     0.2447     0.0292     2.3696     0.1858    58.1959    27.5792    24.8773    24.1336   -34.4094    98.0894
  297.0000     6.5103     0.2525     0.0276     2.3772     0.1791    58.8052    27.1853    24.5448    23.5390   -33.7838    97.1876
  297.5000     6.5111     0.2543     0.0216     2.3840     0.1749    59.4145    27.0314    24.5529    23.5498   -33.6481    96.4369
  298.0000     6.5120     0.2522     0.0187     2.3894     0.1730    64.2603    27.0442    24.5613    23.5596   -33.9459    95.9873
  298.5000     6.5131     0.2409     0.0279     2.3925     0.1718    66.7137    27.0549    24.5698    23.1028   -33.9426    95.9170
  299.0000     6.5140     0.2355     0.0310     2.3948     0.1692    67.2484    27.4415    24.5782    22.9378   -34.2402    95.8466
  299.5000     6.5149     0.2344     0.0312     2.3986     0.1651    64.2233    27.8336    24.5867    22.6330   -34.5375    96.0043
  300.0000     6.5139     0.2362     0.0335     2.4061     0.1617    61.6211    27.5890    24.9367    22.0270   -34.5345    96.0095
  300.5000     6.4945     0.2405     0.0329     2.4106     0.1606    60.1350    28.3027    24.2616    22.3358   -34.5315    96.1396
  301.0000     6.4724     0.2415     0.0313     2.4153     0.1596    60.3063    30.3687    25.0876    23.2822   -34.3854    96.0967
  301.5000     6.4882     0.2343     0.0271     2.4153     0.1599    62.4715    31.1112    26.8807    24.6056   -33.7603    95.8761
  302.0000     6.4741     0.2391     0.0257     2.4124     0.1604    62.4745    31.5496    27.8601    27.4787   -33.3208    95.5797
  302.5000     6.4748     0.2460     0.0258     2.4124     0.1610    61.0760    31.6986    28.2508    28.6430   -33.3179    95.5858
  303.0000     6.4755     0.2505     0.0304     2.4124     0.1601    58.6367    32.0009    28.6469    28.6469   -33.3150    95.5929
  303.5000     6.4614     0.2492     0.0335     2.4193     0.1567    57.9990    32.0075    28.2585    27.8207   -33.9127    95.5989
  304.0000     6.4621     0.2471     0.0502     2.4248     0.1522    57.6817    31.3509    28.0509    26.6727   -34.5104    95.0001
  304.5000     6.4629     0.2507     0.0684     2.4340     0.1495    61.8895    30.4771    26.7503    25.9270   -35.7087    94.1745
