~VERSION INFORMATION
 VERS.                2.0:   CWLS LOG ASCII STANDARD - VERSION 2.0
 WRAP.                 NO:   ONE LINE PER DEPTH STEP
~WELL INFORMATION
#MNEM.UNIT      DATA TYPE    INFORMATION
#----------   ------------   ------------------------------
 STRT.F           34.0000:   START DEPTH
 STOP.F          604.0000:   STOP DEPTH
 STEP.F            0.5000:   STEP LENGTH
 NULL.          -999.2500:   NO VALUE
 COMP. FENIX & SCISSON INC:   COMPANY
 WELL.       NPR #17 SX-2:   WELL
 FLD .             TEAPOT:   FIELD
 LOC .       S2 T38N R78W:   LOCATION
 CNTY.            NATRONA:   COUNTY
 STAT.            WYOMING:   STATE
 CTRY. UNITED STATES OF AMERICA:   COUNTRY
 SRVC.       Schlumberger:   SERVICE COMPANY
 DATE.        18-MAR-1977:   LOGDATE
 API .       490251032700:   API NUMBER
~CURVE INFORMATION
#MNEM.UNIT       API CODE    CURVE DESCRIPTION
#----------   ------------   ------------------------------
 DEPT.F                  :   
 SPR .MV     07 010 01 00:   SPONTANEOUS POTENTIAL
 ILD .OHMM   07 120 46 00:   INDUCTION LOG DEEP
 ILM .OHMM   07 120 44 00:   INDUCTION LOG MEDIUM
 LL8 .OHMM   07 220 08 00:   LATEROLOG-8 RES.
 CALD.IN     45 280 60 00:   CALIPER FROM DENSITY LOG
 GRD .GAPI   45 310 01 00:   GAMMA RAY FROM DENSITY LOG
 CORR.G/C3   45 356 01 00:   DENSITY CORRECTION
 DPHI.DEC    45 890 12 00:   DENSITY POROSITY SANDSTONE
 RHOB.G/C3   45 350 01 00:   BULK DENSITY
~PARAMETER INFORMATION
#MNEM.UNIT          VALUE    DESCRIPTION
#----------   ------------   ------------------------------
 PD  .                 GL:   PERMANENT DATUM
 EPD .F              5122:   ELEVATION PERMANENT DATUM
 LMF .                 KB:   LOG MEASURED FROM
 DAPD.F                 4:   FEET ABOVE PERMANENT DATUM
 DMF .                 KB:   DRILLING MEASURED FROM
 EKB .F              5126:   KELLING BUSHING
 EGL .F              5122:   GROUND LEVEL
 DATE.        18-MAR-1977:   RUN DATE
 RUN .                  1:   RUN NUMBER
 DD  .F               600:   DEPTH DRILLER
 DL  .F               605:   DEPTH LOGGER
 BLI .F               604:   BOTTOM LOG INTERVAL
 TLI .F                44:   TOP LOG INTERVAL
 CS  .IN            8.625:   CASING SIZE
 CBD .F                40:   CASING BOTTOM DRILLER
 CBL .F                44:   CASING BOTTOM LOGGER
 BS  .IN            7.875:   BIT SIZE
 BSD .F               600:   BIT SIZE AT DEPTH
 DFT .            KCL MUD:   DRILLING FLUID TYPE
 DFD .                8.9:   DRILLING FLUID DENSITY
 DFV .                 39:   DRILLING FLUID VISCOSITY
 DFPH.                8.5:   DRILLING FLUID PH
 DFL .                6.1:   DRILLING FLUID LOSS
 MSS .                PIT:   MUD SAMPLE SOURCE
 RMS .OHMM           0.26:   RESISTIVITY MUD SAMPLE
 MST .F                52:   MUD SAMPLE TEMPERATURE
 RMF .OHMM           0.24:   RESISTIVITY MUD FILTRATE SAMPLE
 MFST.F                52:   MUD FILTRATE SAMPLE TEMPERATURE
 MFSS.               MEAS:   MUD FILTRATE SAMPLE SOURCE
 TCS .HRS            0230:   TIME CURCULATED STOPPED
 LUN .               7711:   LOGGING UNIT NUMBER
 LUL .               CSPR:   LOGGING UNIT LOCATION
 ENGI.             SAYLER:   RECORDING ENGINEER
 WITN.         STUEBINGER:   WITNESSED BY
 CLNT.            A2DTECH:   CLIENT CODE
 ORIG.           5" PRINT:   ORIGIN OF DATA
 UWI .       490251032700:   UNIQUE WELL ID
 DICO. A2D Technologies, Inc.:   DIGITIZING COMPANY
~OTHER INFORMATION
~A   DEPT      SPR        ILD        ILM        LL8       CALD        GRD       CORR       DPHI       RHOB   
# ...
   70.5000   -38.5991     8.0574     7.6746     7.7077     8.1460   107.9070     0.0260     0.1605     2.3816
   71.0000   -39.2101     8.2332     8.2322     8.2675     8.1317   102.8803     0.0313     0.1575     2.3932
   71.5000   -39.9627     8.1257     8.2379     8.7458     8.1324   102.4459     0.0262     0.1548     2.3948
   72.0000   -40.9523     8.1893     8.2435     9.1878     8.0291   102.4565     0.0368     0.1491     2.4084
   72.5000   -41.6901     8.3711     8.2701     9.1947     8.1336   100.8372     0.0444     0.1424     2.4160
   73.0000   -42.1299     8.4907     8.3128     9.0121     8.4903   100.8475     0.0339     0.1418     2.4176
   73.5000   -42.5714     8.4972     8.4937     8.8322     8.7282   102.3394     0.0385     0.1385     2.4281
   74.0000   -43.3074     8.3296     8.4405     8.6540     8.8179   103.9793     0.0446     0.1333     2.4327
   74.5000   -44.0452     7.7232     8.2723     8.5383     8.7294   104.8786     0.0297     0.1390     2.4238
   75.0000   -44.1887     7.4640     8.1072     8.3660     8.6705   105.4815     0.0320     0.1339     2.4291
   75.5000   -44.1795     7.5754     7.8905     8.1539     8.9383   105.7901     0.0374     0.1255     2.4449
   76.0000   -44.3212     7.7946     7.9019     7.7733     9.0576   106.0988     0.0420     0.1242     2.4413
   76.5000   -44.4647     8.0759     8.2562     7.7240     9.0879   106.1051     0.0338     0.1356     2.4271
   77.0000   -44.7535     8.3095     9.2780     7.7313     8.9253   104.5946     0.0338     0.1359     2.4302
   77.5000   -45.0442     8.3737    10.2325     8.2354     8.7033   101.3160     0.0407     0.1379     2.4265
   78.0000   -45.0369     8.3625    10.8228    10.5791     8.4517    98.1778     0.0181     0.1412     2.4191
   78.5000   -45.0295     8.2638     8.7946    12.9456     8.3186    94.7768     0.0100     0.1244     2.4454
   79.0000   -45.0222     8.2766     8.2100    12.4274     8.3490    93.7123     0.0116     0.1180     2.4575
   79.5000   -45.0148     8.3406     8.2729    10.3129     8.3644    98.1912     0.0203     0.1156     2.4636
   80.0000   -45.3055     8.4649     8.6309     8.3820     8.3797   105.0024     0.0230     0.1183     2.4561
   80.5000   -45.4472     8.4713     8.4587     7.8807     8.2319   110.9506     0.0186     0.1306     2.4367
   81.0000   -45.4545     8.1319     8.1756     7.7228     8.2177   110.7733     0.0247     0.1341     2.4307
   81.5000   -45.4322     7.8589     7.9557     8.0028     8.2035   109.1714     0.0150     0.1329     2.4323
   82.0000   -45.4233     7.7564     7.7443     8.2342     8.2190   109.3580     0.0189     0.1353     2.4287
   82.5000   -45.4159     7.7637     7.6960     8.2977     8.2196   109.9354     0.0197     0.1295     2.4242
   83.0000   -45.2595     7.7696     7.7013     8.3040     8.2202   112.3161     0.0220     0.1229     2.4326
   83.5000   -45.1031     7.7755     7.7602     8.2528     8.2357   112.6202     0.0312     0.1184     2.4574
   84.0000   -45.0958     7.7813     7.7656     8.2590     8.2659   111.4479     0.0192     0.1198     2.4492
   84.5000   -45.0884     7.7872     7.8251     8.0328     8.2665   111.1593     0.0162     0.1285     2.4365
   85.0000   -45.0810     7.8473     7.9954     7.9896     8.2671   111.6167     0.0133     0.1315     2.4351
   85.5000   -44.9247     7.9079     8.2402     7.9971     8.2677   112.3678     0.0119     0.1207     2.4434
   86.0000   -44.7683     8.0245     8.4054     7.9463     8.2683   114.0078     0.0165     0.1212     2.4503
   86.5000   -44.6119     8.1428     8.3527     7.8973     8.2689   114.7588     0.0219     0.1185     2.4473
   87.0000   -44.4555     8.2629     8.3006     7.9048     8.2695   112.5469     0.0159     0.1176     2.4542
   87.5000   -44.4481     8.2691     8.2488     7.9658     8.2551   111.0758     0.0145     0.1175     2.4557
   88.0000   -44.1427     8.2753     8.1973     8.3684     8.2409   110.4910     0.0251     0.1178     2.4558
   88.5000   -43.8373     8.2243     8.0898     8.7305     8.2266   113.1705     0.0199     0.1220     2.4491
   89.0000   -43.6809     7.9965     7.9850     8.5572     8.2124   115.1068     0.0163     0.1264     2.4440
   89.5000   -43.5245     7.5799     7.6647     8.2146     8.1686   115.8579     0.0254     0.1207     2.4545
   90.0000   -43.5171     7.4796     7.5118     7.9958     8.0800   115.7201     0.0277     0.1171     2.4621
   90.5000   -43.8078     7.2817     7.3607     7.6757     8.1549   110.9897     0.0218     0.1192     2.4532
   91.0000   -44.2476     7.1853     7.3160     7.4197     8.1999   108.6296     0.0173     0.1221     2.4450
   91.5000   -44.6873     7.1921     7.0222     7.2221     8.2155   107.7511     0.0204     0.1254     2.4331
   92.0000   -44.9780     7.1975     7.0270     7.2276     8.2457   106.7244     0.0296     0.1185     2.4504
   92.5000   -45.2669     7.2030     7.1302     7.2330     8.2612   107.1792     0.0326     0.1166     2.4588
   93.0000   -45.2595     7.1090     7.0857     7.2385     8.2618   109.4117     0.0388     0.1154     2.4611
   93.5000   -45.2522     7.0150     7.0905     7.2440     8.2771   111.7924     0.0298     0.1187     2.4534
   94.0000   -45.2448     6.9248     7.0451     7.2999     8.2628   112.0991     0.0261     0.1213     2.4461
   94.5000   -45.0884     6.8808     6.9045     7.3564     8.2486   112.1094     0.0239     0.1186     2.4518
   95.0000   -44.9320     6.8873     6.8614     7.4132     8.2641   112.2679     0.0202     0.1201     2.4524
   95.5000   -44.7756     6.8925     6.8673     7.3687     8.2647   111.9793     0.0188     0.1213     2.4442
   96.0000   -44.6192     6.8498     6.6837     7.2726     8.2653   109.4737     0.0265     0.1170     2.4539
   96.5000   -44.4628     6.8076     6.3709     7.2265     8.2509   108.4470     0.0239     0.1164     2.4616
   97.0000   -44.4555     6.8128     6.3753     7.1336     8.2517   108.1585     0.0175     0.1221     2.4444
   97.5000   -44.4481     6.8180     6.5422     7.0883     8.2523   108.4677     0.0169     0.1274     2.4422
   98.0000   -44.2917     6.8233     6.7078     6.9476     8.2380   109.2179     0.0245     0.1199     2.4581
   98.5000   -44.1353     6.8285     6.8958     6.9542     8.2386   110.2653     0.0193     0.1150     2.4664
   99.0000   -43.9790     6.8823     6.9496     7.2551     8.2392   111.0164     0.0171     0.1187     2.4560
   99.5000   -43.6735     6.9837     7.0517     7.5691     8.2398   110.7304     0.0240     0.1156     2.4651
  100.0000   -43.3681     7.0928     7.2043     7.8406     8.2577   108.8148     0.0249     0.1108     2.4711
  100.5000   -43.5038     7.1835     7.2096     8.0670     8.2733   108.0860     0.0181     0.1177     2.4547
  101.0000   -42.8862     7.2457     7.3142     8.0146     8.2867   106.6165     0.0235     0.1167     2.4600
  101.5000   -42.2846     7.2507     7.2681     7.6400     8.3025   106.6284     0.0138     0.1245     2.4368
  102.0000   -42.5695     7.2557     7.2727     7.4341     8.3182   106.6403     0.0124     0.1269     2.4332
  102.5000   -42.7051     7.3113     7.3279     7.4910     8.3488   107.0977     0.0147     0.1244     2.4400
  103.0000   -42.6915     7.3164     7.2817     7.8136     8.3645   108.1467     0.0209     0.1200     2.4491
  103.5000   -42.5152     7.3214     7.2863     7.8179     8.2912   109.0475     0.0310     0.1170     2.4577
  104.0000   -42.2017     7.3265     7.2403     7.6082     8.2328   109.0594     0.0333     0.1155     2.4597
  104.5000   -41.6084     7.3316     7.1946     7.3528     8.2186   109.3676     0.0335     0.1186     2.4521
  105.0000   -42.5087     7.2846     7.1993     7.4082     8.2046   110.2685     0.0206     0.1243     2.4439
  105.5000   -43.4133     7.2909     7.2038     7.6738     8.1907   113.2434     0.0161     0.1259     2.4382
  106.0000   -44.1252     7.2959     7.2092     7.5200     8.1918   113.8449     0.0101     0.1235     2.4360
  106.5000   -44.8589     7.2003     7.2137     7.3691     8.2076   112.6716     0.0147     0.1312     2.4353
