~VERSION INFORMATION
 VERS.                2.0:   CWLS LOG ASCII STANDARD - VERSION 2.0
 WRAP.                 NO:   ONE LINE PER DEPTH STEP
~WELL INFORMATION
#MNEM.UNIT      DATA TYPE    INFORMATION
#----------   ------------   ------------------------------
 STRT.F           80.0000:   START DEPTH
 STOP.F          808.0000:   STOP DEPTH
 STEP.F            0.5000:   STEP LENGTH
 NULL.          -999.2500:   NO VALUE
 COMP.           U S NAVY:   COMPANY
 WELL.     NRP #3 #38-S-2:   WELL
 FLD .             TEAPOT:   FIELD
 LOC .       S2 T38N R78W:   LOCATION
 CNTY.            NATRONA:   COUNTY
 STAT.            WYOMING:   STATE
 CTRY. UNITED STATES OF AMERICA:   COUNTRY
 SRVC.       Schlumberger:   SERVICE COMPANY
 DATE.        18-JUN-1962:   LOGDATE
 API .       490250639100:   API NUMBER
~CURVE INFORMATION
#MNEM.UNIT       API CODE    CURVE DESCRIPTION
#----------   ------------   ------------------------------
 DEPT.F                  :   
 GR  .GAPI   30 310 01 00:   GAMMA RAY
 SPR .MV     05 010 01 00:   SPONTANEOUS POTENTIAL FROM RES.
 ASN .OHMM   05 041 16 00:   AMPLIFIED SHORT NORMAL 16"
 ILD .OHMM   05 120 46 00:   INDUCTION LOG DEEP
 CILD.MMHO   05 110 46 00:   CONDUCTIVITY INDUCTION LOG DEEP
 CALM.IN     15 280 01 00:   CALIPER FROM MICRO LOG
~PARAMETER INFORMATION
#MNEM.UNIT          VALUE    DESCRIPTION
#----------   ------------   ------------------------------
 PD  .                 GL:   PERMANENT DATUM
 EPD .F              5146:   ELEVATION PERMANENT DATUM
 LMF .                 KB:   LOG MEASURED FROM
 DAPD.F                 5:   FEET ABOVE PERMANENT DATUM
 DMF .                 KB:   DRILLING MEASURED FROM
 EKB .F              5151:   KELLING BUSHING
 EGL .F              5146:   GROUND LEVEL
 DATE.          6-18-1962:   RUN DATE
 RUN .                  1:   RUN NUMBER
 DD  .F              1000:   DEPTH DRILLER
 DL  .F               808:   DEPTH LOGGER
 BLI .F               807:   BOTTOM LOG INTERVAL
 TLI .F                80:   TOP LOG INTERVAL
 BS  .IN             8.75:   BIT SIZE
 BSD .F              1000:   BIT SIZE AT DEPTH
 DFT .       OIL EMULSION:   DRILLING FLUID TYPE
 DFD .                8.7:   DRILLING FLUID DENSITY
 DFV .                 58:   DRILLING FLUID VISCOSITY
 DFL .                  4:   DRILLING FLUID LOSS
 RMS .OHMM           3.77:   RESISTIVITY MUD SAMPLE
 MST .F                79:   MUD SAMPLE TEMPERATURE
 RMF .OHMM           2.47:   RESISTIVITY MUD FILTRATE SAMPLE
 MFST.F                79:   MUD FILTRATE SAMPLE TEMPERATURE
 RMC .OHMM           3.29:   RESISTIVITY MUD CAKE
 MCST.F                79:   MUD CAKE SAMPLE TEMPERATURE
 TCS .HRS               1:   TIME CURCULATED STOPPED
 LUN .               2503:   LOGGING UNIT NUMBER
 LUL .               CSPR:   LOGGING UNIT LOCATION
 ENGI.             DANNER:   RECORDING ENGINEER
 WITN.          JORGENSEN:   WITNESSED BY
 CLNT.            A2DTECH:   CLIENT CODE
 ORIG.   1", 2", 5" PRINT:   ORIGIN OF DATA
 UWI .       490250639100:   UNIQUE WELL ID
 DICO. A2D Technologies, Inc.:   DIGITIZING COMPANY
~OTHER INFORMATION
~A   DEPT       GR        SPR          ASN        ILD      CILD      CALM   
# ...
  184.0000  -999.2500   -71.3247     6.9280     5.6341   168.5699  -999.2500
  184.5000  -999.2500   -71.2858     6.8929     5.5786   169.5171  -999.2500
  185.0000  -999.2500   -71.2468     6.8584     5.5225   169.5171  -999.2500
  185.5000  -999.2500   -71.2078     6.8571     5.4697   169.5171  -999.2500
  186.0000  -999.2500   -71.1689     6.8575     5.5480   168.9386  -999.2500
  186.5000  -999.2500   -71.1299     6.8666     5.6339   167.6905  -999.2500
  187.0000  -999.2500   -71.0910     6.8783     5.7190   166.4424  -999.2500
  187.5000  -999.2500   -71.0520     6.9525     5.7993   165.1943  -999.2500
  188.0000  -999.2500   -71.0130     7.0325     5.8734   163.6217  -999.2500
  188.5000  -999.2500   -70.9740     7.1130     5.9473   161.6248  -999.2500
  189.0000  -999.2500   -70.9344     7.1957     6.0210   159.6278  -999.2500
  189.5000  -999.2500   -70.8946     7.2177     6.0948   157.6308  -999.2500
  190.0000  -999.2500   -70.9496     7.2368     6.1685   155.6338  -999.2500
  190.5000  -999.2500   -71.0135     7.2572     6.2422   153.6368  -999.2500
  191.0000  -999.2500   -71.0773     7.3300     6.3160   151.6398  -999.2500
  191.5000  -999.2500   -71.1409     7.4097     6.3897   149.6429  -999.2500
  192.0000  -999.2500   -71.2044     7.4896     6.4635   147.6459  -999.2500
  192.5000  -999.2500   -71.2680     7.5692     6.5372   145.6489  -999.2500
  193.0000  -999.2500   -71.3317     7.6428     6.6110   143.6519  -999.2500
  193.5000  -999.2500   -71.3953     7.7047     6.6848   141.6549  -999.2500
  194.0000  -999.2500   -71.4585     7.7667     6.7589   140.1140  -999.2500
  194.5000  -999.2500   -71.5018     7.8288     6.7729   139.4484  -999.2500
  195.0000  -999.2500   -71.5011     7.8913     6.7021   139.3360  -999.2500
  195.5000  -999.2500   -71.5013     7.9039     6.6206   140.9809  -999.2500
  196.0000  -999.2500   -71.5006     7.8365     6.5383   142.9779  -999.2500
  196.5000  -999.2500   -71.4779     7.7572     6.4562   144.9749  -999.2500
  197.0000  -999.2500   -71.3904     7.6772     6.3742   146.9718  -999.2500
  197.5000  -999.2500   -71.3057     7.5974     6.2922   148.9688  -999.2500
  198.0000  -999.2500   -71.2211     7.5177     6.2100   150.9658  -999.2500
  198.5000  -999.2500   -71.1363     7.4378     6.1286   152.9679  -999.2500
  199.0000  -999.2500   -71.0516     7.3581     6.0683   154.1972  -999.2500
  199.5000  -999.2500   -70.9668     7.2837     6.0772   155.1965  -999.2500
  200.0000  -999.2500   -70.8823     7.2405     6.0844   155.4326  -999.2500
  200.5000  -999.2500   -70.7974     7.2547     6.0915   155.4326  -999.2500
  201.0000  -999.2500   -70.7079     7.2674     6.0986   155.3521  -999.2500
  201.5000  -999.2500   -70.7878     7.2800     6.1057   155.0184  -999.2500
  202.0000  -999.2500   -70.9205     7.2926     6.1129   154.6852  -999.2500
  202.5000  -999.2500   -71.0553     7.3052     6.1200   154.3512  -999.2500
  203.0000  -999.2500   -71.1882     7.3178     6.1271   154.0174  -999.2500
  203.5000  -999.2500   -71.2867     7.3305     6.1342   153.6838  -999.2500
  204.0000  -999.2500   -71.1931     7.3431     6.1414   153.3501  -999.2500
  204.5000  -999.2500   -71.1034     7.3552     6.1485   153.0164  -999.2500
  205.0000  -999.2500   -71.0143     7.3946     6.1555   152.6828  -999.2500
  205.5000  -999.2500   -70.9249     7.4458     6.1627   152.3491  -999.2500
  206.0000  -999.2500   -70.8357     7.4747     6.1759   152.0154  -999.2500
  206.5000  -999.2500   -70.7464     7.4557     6.2160   151.6818  -999.2500
  207.0000  -999.2500   -70.6570     7.4211     6.2560   151.4084  -999.2500
  207.5000  -999.2500   -70.5675     7.3860     6.2959   150.8264  -999.2500
  208.0000  -999.2500   -70.4881     7.3497     6.3358   149.9684  -999.2500
  208.5000  -999.2500   -70.5024     7.3383     6.3757   149.1104  -999.2500
  209.0000  -999.2500   -70.5178     7.4032     6.4156   148.2524  -999.2500
  209.5000  -999.2500   -70.5328     7.4987     6.4556   147.3944  -999.2500
  210.0000  -999.2500   -70.5477     7.5947     6.4956   146.5327  -999.2500
  210.5000  -999.2500   -70.5625     7.6907     6.5354   145.6721  -999.2500
  211.0000  -999.2500   -70.5774     7.7882     6.5708   145.3652  -999.2500
  211.5000  -999.2500   -70.5923     7.7955     6.5058   147.1012  -999.2500
  212.0000  -999.2500   -70.6072     7.7414     6.4063   149.8232  -999.2500
  212.5000  -999.2500   -70.6220     7.5909     6.3066   152.5402  -999.2500
  213.0000  -999.2500   -70.6369     7.4394     6.2066   155.2573  -999.2500
  213.5000  -999.2500   -70.6516     7.2885     6.1065   157.9743  -999.2500
  214.0000  -999.2500   -70.6668     7.1365     6.0074   160.6913  -999.2500
  214.5000  -999.2500   -70.6822     7.0646     5.8588   163.4083  -999.2500
  215.0000  -999.2500   -70.7807     7.0408     5.7726   164.9952  -999.2500
  215.5000  -999.2500   -70.9821     7.0174     5.6875   165.8382  -999.2500
  216.0000  -999.2500   -71.1832     6.9942     5.6014   166.6811  -999.2500
  216.5000  -999.2500   -71.3828     6.9709     5.5486   167.5241  -999.2500
  217.0000  -999.2500   -71.5791     6.9476     5.5179   168.3670  -999.2500
  217.5000  -999.2500   -71.5441     6.9243     5.4872   169.2100  -999.2500
  218.0000  -999.2500   -71.2928     6.9010     5.4565   170.0529  -999.2500
  218.5000  -999.2500   -71.0648     6.8776     5.4256   170.8959  -999.2500
  219.0000  -999.2500   -70.8377     6.8543     5.3941   171.7388  -999.2500
  219.5000  -999.2500   -70.7822     6.8311     5.3699   172.5352  -999.2500
  220.0000  -999.2500   -71.0551     6.8077     5.4658   170.7746  -999.2500
  220.5000  -999.2500   -71.3218     6.8083     5.5622   169.1063  -999.2500
  221.0000  -999.2500   -71.5214     6.8284     5.6578   167.5050  -999.2500
  221.5000  -999.2500   -71.5776     6.8485     5.7532   165.1102  -999.2500
  222.0000  -999.2500   -71.6351     6.9245     5.8487   162.8078  -999.2500
  222.5000  -999.2500   -71.6931     7.0482     5.9441   160.5055  -999.2500
  223.0000  -999.2500   -71.7038     7.1723     6.0396   158.2032  -999.2500
  223.5000  -999.2500   -71.7040     7.2971     6.1351   155.9009  -999.2500
  224.0000  -999.2500   -71.7039     7.4179     6.2306   153.5986  -999.2500
  224.5000  -999.2500   -71.7038     7.4606     6.3258   151.2963  -999.2500
  225.0000  -999.2500   -71.7043     7.5001     6.4211   148.9940  -999.2500
  225.5000  -999.2500   -71.7052     7.5401     6.4691   146.6917  -999.2500
  226.0000  -999.2500   -71.7029     7.5806     6.4698   144.3662  -999.2500
  226.5000  -999.2500   -71.6072     7.6181     6.4678   146.5683  -999.2500
  227.0000  -999.2500   -71.1297     7.5661     6.3913   148.7928  -999.2500
  227.5000  -999.2500   -70.6634     7.5096     6.3110   151.0172  -999.2500
  228.0000  -999.2500   -70.2710     7.4535     6.2311   153.2417  -999.2500
  228.5000  -999.2500   -70.3181     7.3975     6.1512   155.4661  -999.2500
  229.0000  -999.2500   -70.5211     7.3415     6.0713   157.6906  -999.2500
  229.5000  -999.2500   -70.7220     7.2857     5.9917   159.9151  -999.2500
  230.0000  -999.2500   -70.9233     7.2301     5.9125   162.1395  -999.2500
  230.5000  -999.2500   -71.1241     7.1867     5.8678   164.4869  -999.2500
  231.0000  -999.2500   -71.2981     7.1601     5.8670   162.0439  -999.2500
  231.5000  -999.2500   -71.2989     7.1862     5.8693   159.4580  -999.2500
  232.0000  -999.2500   -71.2983     7.2185     5.9975   156.8721  -999.2500
  232.5000  -999.2500   -71.2982     7.2929     6.1377   154.2861  -999.2500
  233.0000  -999.2500   -71.2981     7.3726     6.2776   151.7002  -999.2500
  233.5000  -999.2500   -71.2983     7.4900     6.4173   149.1143  -999.2500
  234.0000  -999.2500   -71.2984     7.6623     6.5571   146.5283  -999.2500
  234.5000  -999.2500   -71.3239     7.8340     6.6968   143.9424  -999.2500
  235.0000  -999.2500   -71.3681     8.0044     6.8366   141.3548  -999.2500
  235.5000  -999.2500   -71.4128     8.1015     6.9764   138.7679  -999.2500
