~VERSION INFORMATION
 VERS.                2.0:   CWLS LOG ASCII STANDARD - VERSION 2.0
 WRAP.                 NO:   ONE LINE PER DEPTH STEP
~WELL INFORMATION
#MNEM.UNIT      DATA TYPE    INFORMATION
#----------   ------------   ------------------------------
 STRT.F         1005.5000:   START DEPTH
 STOP.F         2315.0000:   STOP DEPTH
 STEP.F            0.5000:   STEP LENGTH
 NULL.          -999.2500:   NO VALUE
 COMP. LAWRENCE/ALLISON INC:   COMPANY
 WELL.  32 SHX 15 #32 -15:   WELL
 FLD .             TEAPOT:   FIELD
 LOC .      S15 T38N R78W:   LOCATION
 CNTY.            NATRONA:   COUNTY
 STAT.            WYOMING:   STATE
 CTRY. UNITED STATES OF AMERICA:   COUNTRY
 SRVC.            Unknown:   SERVICE COMPANY
 DATE.        10-SEP-1988:   LOGDATE
 API .       490251124500:   API NUMBER
~CURVE INFORMATION
#MNEM.UNIT       API CODE    CURVE DESCRIPTION
#----------   ------------   ------------------------------
 DEPT.F                  :   
 ROP .MIN/FT 91 810 01 00:   RATE OF DRILLING PENETRATION
 TGAS.UNITS  91 830 01 00:   TOTAL GAS FROM HOTWIRE
~PARAMETER INFORMATION
#MNEM.UNIT          VALUE    DESCRIPTION
#----------   ------------   ------------------------------
 EKB .F              5259:   KELLING BUSHING
 EGL .F              5249:   GROUND LEVEL
 DATE.        10-SEP-1988:   RUN DATE
 RUN .                  1:   RUN NUMBER
 DD  .F              2316:   DEPTH DRILLER
 TLI .F              1005:   TOP LOG INTERVAL
 CS  .IN                7:   CASING SIZE
 CBD .F               991:   CASING BOTTOM DRILLER
 ENGI. R. HUSK/D. PETERSON:   RECORDING ENGINEER
 CLNT.            A2DTECH:   CLIENT CODE
 ORIG.           5" PRINT:   ORIGIN OF DATA
 UWI .       490251124500:   UNIQUE WELL ID
 DICO. A2D Technologies, Inc.:   DIGITIZING COMPANY
~OTHER INFORMATION
~A  DEPT         ROP       TGAS 
# ...
 1370.0000     0.3203     7.5309
 1370.5000     0.3099     7.5280
 1371.0000     0.2890     7.5251
 1371.5000     0.2893     7.5222
 1372.0000     0.2894     7.5194
 1372.5000     0.3108     7.5165
 1373.0000     0.2898     7.5136
 1373.5000     0.2795     7.5108
 1374.0000     0.2797     7.5079
 1374.5000     0.2905     7.5050
 1375.0000     0.3224     7.5021
 1375.5000     0.3649     7.4993
 1376.0000     0.3757     7.4964
 1376.5000     0.3759     7.4935
 1377.0000     0.3655     7.4906
 1377.5000     0.3658     7.4878
 1378.0000     0.3343     7.4849
 1378.5000     0.3345     7.4820
 1379.0000     0.3241     7.4791
 1379.5000     0.3244     7.4763
 1380.0000     0.3351     7.4734
 1380.5000     0.3459     7.4705
 1381.0000     0.3673     7.4676
 1381.5000     0.3992     7.4648
 1382.0000     0.4205     7.4619
 1382.5000     0.4525     7.4590
 1383.0000     0.4632     7.4561
 1383.5000     0.4528     7.4533
 1384.0000     0.4531     7.4504
 1384.5000     0.4533     7.4475
 1385.0000     0.4429     7.4446
 1385.5000     0.4220     7.4418
 1386.0000     0.4222     7.4389
 1386.5000     0.4013     7.4360
 1387.0000     0.3698     7.4331
 1387.5000     0.3594     7.4303
 1388.0000     0.3279     7.4274
 1388.5000     0.3281     7.4245
 1389.0000     0.3389     7.4217
 1389.5000     0.3814     7.4188
 1390.0000     0.4239     7.4159
 1390.5000     0.4558     7.4130
 1391.0000     0.4455     7.4102
 1391.5000     0.4140     7.4073
 1392.0000     0.3825     7.4044
 1392.5000     0.3721     7.4015
 1393.0000     0.3617     7.3987
 1393.5000     0.3408     7.3958
 1394.0000     0.3411     7.3929
 1394.5000     0.3518     7.3900
 1395.0000     0.3626     7.3872
 1395.5000     0.3734     7.3843
 1396.0000     0.3736     7.3814
 1396.5000     0.3844     7.3785
 1397.0000     0.4163     7.3757
 1397.5000     0.4271     7.3728
 1398.0000     0.4379     7.3699
 1398.5000     0.4169     7.3670
 1399.0000     0.3748     7.3642
 1399.5000     0.3328     7.3613
 1400.0000     0.3013     7.3584
 1400.5000     0.2909     7.3555
 1401.0000     0.2700     7.3527
 1401.5000     0.2702     7.3498
 1402.0000     0.2916     7.3469
 1402.5000     0.3341     7.3441
 1403.0000     0.3871     7.3412
 1403.5000     0.4296     7.3383
 1404.0000     0.4615     7.3392
 1404.5000     0.4284     7.3411
 1405.0000     0.4178     7.3431
 1405.5000     0.4073     7.3450
 1406.0000     0.3861     7.3469
 1406.5000     0.3650     7.3489
 1407.0000     0.3439     7.3508
 1407.5000     0.3334     7.3528
 1408.0000     0.3228     7.3547
 1408.5000     0.3017     7.3566
 1409.0000     0.3017     7.3586
 1409.5000     0.2912     7.3605
 1410.0000     0.2912     7.3625
 1410.5000     0.2913     7.3644
 1411.0000     0.2807     7.3664
 1411.5000     0.2913     7.3683
 1412.0000     0.2913     7.3702
 1412.5000     0.3125     7.3722
 1413.0000     0.3442     7.3741
 1413.5000     0.3971     7.3761
 1414.0000     0.4289     7.3780
 1414.5000     0.3760     7.3799
 1415.0000     0.3021     7.3819
 1415.5000     0.2915     7.3838
 1416.0000     0.3021     7.3858
 1416.5000     0.3339     7.3877
 1417.0000     0.3867     7.3896
 1417.5000     0.4290     7.3916
 1418.0000     0.4502     7.3935
 1418.5000     0.4185     7.3955
 1419.0000     0.3657     7.3974
 1419.5000     0.3234     7.3994
 1420.0000     0.3023     7.4013
 1420.5000     0.3341     7.4032
 1421.0000     0.3341     7.4052
 1421.5000     0.3553     7.4071
 1422.0000     0.3764     7.4091
 1422.5000     0.3870     7.4110
 1423.0000     0.4188     7.4129
 1423.5000     0.4188     7.4149
 1424.0000     0.4294     7.4168
 1424.5000     0.4400     7.4188
 1425.0000     0.4506     7.4207
 1425.5000     0.4295     7.4227
 1426.0000     0.4295     7.4246
 1426.5000     0.4189     7.4265
 1427.0000     0.3873     7.4285
 1427.5000     0.3450     7.4304
 1428.0000     0.3345     7.4324
 1428.5000     0.3345     7.4343
 1429.0000     0.3451     7.4362
 1429.5000     0.3768     7.4382
 1430.0000     0.4086     7.4401
 1430.5000     0.4297     7.4421
 1431.0000     0.4615     7.4440
 1431.5000     0.4826     7.4459
 1432.0000     0.4932     7.4479
 1432.5000     0.4616     7.4498
 1433.0000     0.4510     7.4518
 1433.5000     0.4299     7.4537
 1434.0000     0.4088     7.4557
 1434.5000     0.3877     7.4576
 1435.0000     0.3560     7.4595
 1435.5000     0.3349     7.4615
 1436.0000     0.3349     7.4634
 1436.5000     0.3455     7.4654
 1437.0000     0.3772     7.4673
 1437.5000     0.3878     7.4692
 1438.0000     0.4196     7.4712
 1438.5000     0.4513     7.4731
 1439.0000     0.4513     7.4751
 1439.5000     0.3774     7.4770
 1440.0000     0.3351     7.4790
 1440.5000     0.3351     7.4809
 1441.0000     0.3457     7.4828
 1441.5000     0.3880     7.4848
 1442.0000     0.4303     7.4867
 1442.5000     0.4304     7.4887
 1443.0000     0.3881     7.4906
 1443.5000     0.3776     7.4925
 1444.0000     0.3670     7.4945
 1444.5000     0.3565     7.4964
 1445.0000     0.3776     7.4984
 1445.5000     0.3988     7.5003
 1446.0000     0.4306     7.5023
 1446.5000     0.4517     7.5042
 1447.0000     0.4623     7.5061
 1447.5000     0.4729     7.5081
 1448.0000     0.4729     7.5100
 1448.5000     0.4941     7.5120
 1449.0000     0.4941     7.5139
 1449.5000     0.4730     7.5158
 1450.0000     0.4730     7.5178
 1450.5000     0.4731     7.5197
 1451.0000     0.4625     7.5217
 1451.5000     0.4626     7.5236
 1452.0000     0.4626     7.5255
 1452.5000     0.4626     7.5275
 1453.0000     0.4626     7.5294
 1453.5000     0.4627     7.5314
 1454.0000     0.4521     7.5333
 1454.5000     0.4416     7.5353
 1455.0000     0.4310     7.5372
 1455.5000     0.4311     7.5391
 1456.0000     0.4205     7.5411
 1456.5000     0.4205     7.5430
 1457.0000     0.4206     7.5450
 1457.5000     0.3994     7.5469
 1458.0000     0.3889     7.5488
 1458.5000     0.3784     7.5508
 1459.0000     0.3467     7.5527
 1459.5000     0.3361     7.5547
 1460.0000     0.3256     7.5566
 1460.5000     0.3045     7.5586
 1461.0000     0.3151     7.5605
 1461.5000     0.3362     7.5624
 1462.0000     0.3574     7.5644
 1462.5000     0.3891     7.5663
 1463.0000     0.4315     7.5683
 1463.5000     0.4632     7.5702
 1464.0000     0.4949     7.5721
 1464.5000     0.5055     7.5741
 1465.0000     0.4527     7.5760
 1465.5000     0.4210     7.5780
 1466.0000     0.3787     7.5799
 1466.5000     0.3471     7.5818
 1467.0000     0.3577     7.5838
 1467.5000     0.3788     7.5857
 1468.0000     0.3894     7.5877
 1468.5000     0.4212     7.5896
 1469.0000     0.4318     7.5916
 1469.5000     0.4529     7.5935
 1470.0000     0.4635     7.5954
 1470.5000     0.4741     7.5974
 1471.0000     0.4847     7.5993
 1471.5000     0.4953     7.6013
 1472.0000     0.4954     7.6032
 1472.5000     0.4848     7.6051
 1473.0000     0.4954     7.6071
 1473.5000     0.4849     7.6090
 1474.0000     0.4743     7.6110
 1474.5000     0.4743     7.6129
 1475.0000     0.4744     7.6149
 1475.5000     0.4638     7.6168
 1476.0000     0.4638     7.6187
 1476.5000     0.4639     7.6207
 1477.0000     0.4639     7.6226
 1477.5000     0.4639     7.6246
 1478.0000     0.4640     7.6265
 1478.5000     0.4428     7.6284
 1479.0000     0.4217     7.6304
 1479.5000     0.4218     7.6323
 1480.0000     0.3901     7.6343
 1480.5000     0.3795     7.6362
 1481.0000     0.3478     7.6382
 1481.5000     0.3479     7.6401
 1482.0000     0.3373     7.6420
 1482.5000     0.3373     7.6440
 1483.0000     0.3374     7.6459
 1483.5000     0.3480     7.6479
 1484.0000     0.3797     7.6498
 1484.5000     0.3903     7.6517
 1485.0000     0.4220     7.6537
 1485.5000     0.4221     7.6556
 1486.0000     0.4538     7.6576
 1486.5000     0.4644     7.6595
 1487.0000     0.4644     7.6614
 1487.5000     0.4010     7.6634
 1488.0000     0.3693     7.6653
 1488.5000     0.3377     7.6958
 1489.0000     0.2954     7.7313
 1489.5000     0.2954     7.7640
 1490.0000     0.2955     7.7995
 1490.5000     0.2955     7.4060
 1491.0000     0.3061     7.4414
