~VERSION INFORMATION
 VERS.                2.0:   CWLS LOG ASCII STANDARD - VERSION 2.0
 WRAP.                 NO:   ONE LINE PER DEPTH STEP
~WELL INFORMATION
#MNEM.UNIT      DATA TYPE    INFORMATION
#----------   ------------   ------------------------------
 STRT.F         2000.0000:   START DEPTH
 STOP.F         2706.0000:   STOP DEPTH
 STEP.F            0.5000:   STEP LENGTH
 NULL.          -999.2500:   NO VALUE
 COMP. INTEX OIL CO INCORP:   COMPANY
 WELL.    N/A "A" #409-20:   WELL
 FLD .        TEAPOT DOME:   FIELD
 LOC .      S20 T39N R78W:   LOCATION
 CNTY.            NATRONA:   COUNTY
 STAT.            WYOMING:   STATE
 CTRY. UNITED STATES OF AMERICA:   COUNTRY
 SRVC.      NL McCullough:   SERVICE COMPANY
 DATE.        12-SEP-1965:   LOGDATE
 API .       490251021400:   API NUMBER
~CURVE INFORMATION
#MNEM.UNIT       API CODE    CURVE DESCRIPTION
#----------   ------------   ------------------------------
 DEPT.F                  :   
 CALI.IN     70 280 01 00:   CALIPER
 GR  .GAPI   30 310 01 00:   GAMMA RAY
~PARAMETER INFORMATION
#MNEM.UNIT          VALUE    DESCRIPTION
#----------   ------------   ------------------------------
 PD  .                 GL:   PERMANENT DATUM
 LMF .                 GL:   LOG MEASURED FROM
 DATE.            9-12-65:   RUN DATE
 RUN .                  1:   RUN NUMBER
 DL  .F              2708:   DEPTH LOGGER
 BLI .F              2706:   BOTTOM LOG INTERVAL
 TLI .F              2000:   TOP LOG INTERVAL
 CS  .IN            8.625:   CASING SIZE
 CBD .F              2525:   CASING BOTTOM DRILLER
 DFT .                DRY:   DRILLING FLUID TYPE
 TCS .HRS               1:   TIME CURCULATED STOPPED
 ENGI.            JACKSON:   RECORDING ENGINEER
 WITN.          JORGENSEN:   WITNESSED BY
 CLNT.            A2DTECH:   CLIENT CODE
 ORIG.           5" PRINT:   ORIGIN OF DATA
 UWI .       490251021400:   UNIQUE WELL ID
 DICO. A2D Technologies, Inc.:   DIGITIZING COMPANY
~OTHER INFORMATION
~A  DEPT      CALI          GR  
# ...
 2121.5000  -999.2500   106.3333
 2122.0000  -999.2500   104.9646
 2122.5000  -999.2500   103.1146
 2123.0000  -999.2500   102.1463
 2123.5000  -999.2500   102.3873
 2124.0000  -999.2500   101.9050
 2124.5000  -999.2500   105.8952
 2125.0000  -999.2500   101.8223
 2125.5000  -999.2500    97.9141
 2126.0000  -999.2500    99.3037
 2126.5000  -999.2500    96.2526
 2127.0000  -999.2500    97.6251
 2127.5000  -999.2500   100.4300
 2128.0000  -999.2500   101.7996
 2128.5000  -999.2500    99.6183
 2129.0000  -999.2500   101.0900
 2129.5000  -999.2500    97.0003
 2130.0000  -999.2500    96.5952
 2130.5000  -999.2500    99.2354
 2131.0000  -999.2500   101.5801
 2131.5000  -999.2500    96.7314
 2132.0000  -999.2500    99.8010
 2132.5000  -999.2500    98.2912
 2133.0000  -999.2500    96.9886
 2133.5000  -999.2500    98.6606
 2134.0000  -999.2500    94.2068
 2134.5000  -999.2500    99.1119
 2135.0000  -999.2500   102.1945
 2135.5000  -999.2500   108.1985
 2136.0000  -999.2500    99.3815
 2136.5000  -999.2500    99.5469
 2137.0000  -999.2500   104.1803
 2137.5000  -999.2500   109.2344
 2138.0000  -999.2500   103.1079
 2138.5000  -999.2500    94.3053
 2139.0000  -999.2500    91.3646
 2139.5000  -999.2500    89.6132
 2140.0000  -999.2500    91.1245
 2140.5000  -999.2500   104.2628
 2141.0000  -999.2500   109.3736
 2141.5000  -999.2500   105.6415
 2142.0000  -999.2500   104.4430
 2142.5000  -999.2500   107.5737
 2143.0000  -999.2500   106.3393
 2143.5000  -999.2500   110.3274
 2144.0000  -999.2500   109.2974
 2144.5000  -999.2500   109.1079
 2145.0000  -999.2500   110.6388
 2145.5000  -999.2500   111.1906
 2146.0000  -999.2500   108.6840
 2146.5000  -999.2500   107.8601
 2147.0000  -999.2500   111.8678
 2147.5000  -999.2500   114.0584
 2148.0000  -999.2500   113.8250
 2148.5000  -999.2500   118.7124
 2149.0000  -999.2500   114.7875
 2149.5000  -999.2500   115.4320
 2150.0000  -999.2500   120.0827
 2150.5000  -999.2500   122.0246
 2151.0000  -999.2500   118.7643
 2151.5000  -999.2500   114.7339
 2152.0000  -999.2500   115.5713
 2152.5000  -999.2500   109.9561
 2153.0000  -999.2500   110.6323
 2153.5000  -999.2500   108.4686
 2154.0000  -999.2500   106.5506
 2154.5000  -999.2500   107.1238
 2155.0000  -999.2500   109.3665
 2155.5000  -999.2500   110.4159
 2156.0000  -999.2500   117.0539
 2156.5000  -999.2500   123.5309
 2157.0000  -999.2500   118.4614
 2157.5000  -999.2500   114.6199
 2158.0000  -999.2500   116.5495
 2158.5000  -999.2500   115.5268
 2159.0000  -999.2500   121.4353
 2159.5000  -999.2500   127.6232
 2160.0000  -999.2500   125.8116
 2160.5000  -999.2500   119.9076
 2161.0000  -999.2500   118.5477
 2161.5000  -999.2500   120.7243
 2162.0000  -999.2500   115.9457
 2162.5000  -999.2500   115.9068
 2163.0000  -999.2500   117.7010
 2163.5000  -999.2500   120.4918
 2164.0000  -999.2500   119.3733
 2164.5000  -999.2500   122.1340
 2165.0000  -999.2500   128.1522
 2165.5000  -999.2500   123.1757
 2166.0000  -999.2500   118.3896
 2166.5000  -999.2500   116.3292
 2167.0000  -999.2500   114.7578
 2167.5000  -999.2500   115.8026
 2168.0000  -999.2500   112.7467
 2168.5000  -999.2500   105.5492
 2169.0000  -999.2500   103.4559
 2169.5000  -999.2500   101.8668
 2170.0000  -999.2500   105.2921
 2170.5000  -999.2500   111.1563
 2171.0000  -999.2500   113.6023
 2171.5000  -999.2500   108.9845
 2172.0000  -999.2500   107.5245
 2172.5000  -999.2500   107.0857
 2173.0000  -999.2500   106.6043
 2173.5000  -999.2500   108.0110
 2174.0000  -999.2500   109.3095
 2174.5000  -999.2500   112.5921
 2175.0000  -999.2500   107.7421
 2175.5000  -999.2500   104.4986
 2176.0000  -999.2500   110.1925
 2176.5000  -999.2500   112.4691
 2177.0000  -999.2500   111.7671
 2177.5000  -999.2500   108.1233
 2178.0000  -999.2500   104.3909
 2178.5000  -999.2500   101.0211
 2179.0000  -999.2500   101.6999
 2179.5000  -999.2500   108.4750
 2180.0000  -999.2500   110.3110
 2180.5000  -999.2500   107.0503
 2181.0000  -999.2500   101.6182
 2181.5000  -999.2500   105.4084
 2182.0000  -999.2500   105.4615
 2182.5000  -999.2500   101.4059
 2183.0000  -999.2500   102.7183
 2183.5000  -999.2500   107.8855
 2184.0000  -999.2500   109.9768
 2184.5000  -999.2500   106.9389
 2185.0000  -999.2500    98.5980
 2185.5000  -999.2500   101.5439
 2186.0000  -999.2500   107.4663
 2186.5000  -999.2500   112.2170
 2187.0000  -999.2500   115.1394
 2187.5000  -999.2500   113.0947
 2188.0000  -999.2500   113.6751
 2188.5000  -999.2500   107.8407
 2189.0000  -999.2500   109.2727
 2189.5000  -999.2500   103.9350
 2190.0000  -999.2500   103.8682
 2190.5000  -999.2500   111.4337
 2191.0000  -999.2500   118.7430
 2191.5000  -999.2500   119.6544
 2192.0000  -999.2500   115.0045
 2192.5000  -999.2500   114.3211
 2193.0000  -999.2500   114.9889
 2193.5000  -999.2500   122.3945
 2194.0000  -999.2500   122.3322
 2194.5000  -999.2500   119.1952
 2195.0000  -999.2500   120.0734
 2195.5000  -999.2500   112.2675
 2196.0000  -999.2500   108.2921
 2196.5000  -999.2500   109.0284
 2197.0000  -999.2500   108.8707
 2197.5000  -999.2500   106.0326
 2198.0000  -999.2500    99.1410
 2198.5000  -999.2500   101.7457
 2199.0000  -999.2500    99.2036
 2199.5000  -999.2500   102.8588
 2200.0000  -999.2500   106.5166
 2200.5000  -999.2500   100.5673
 2201.0000  -999.2500    99.9558
 2201.5000  -999.2500   101.1168
 2202.0000  -999.2500   108.4527
 2202.5000  -999.2500   114.1344
 2203.0000  -999.2500   114.9536
 2203.5000  -999.2500   106.5626
 2204.0000  -999.2500   102.2191
 2204.5000  -999.2500   106.6745
 2205.0000  -999.2500   104.5298
 2205.5000  -999.2500   101.8276
 2206.0000  -999.2500   102.2348
 2206.5000  -999.2500   107.0214
 2207.0000  -999.2500   106.5527
 2207.5000  -999.2500   108.5099
 2208.0000  -999.2500    97.7577
 2208.5000  -999.2500    95.4175
 2209.0000  -999.2500   101.0370
 2209.5000  -999.2500    96.9150
 2210.0000  -999.2500    97.2323
 2210.5000  -999.2500   108.7585
 2211.0000  -999.2500   103.0659
 2211.5000  -999.2500   106.2116
 2212.0000  -999.2500   111.2770
 2212.5000  -999.2500   108.8370
 2213.0000  -999.2500   107.2525
 2213.5000  -999.2500   109.3240
 2214.0000  -999.2500   110.2003
 2214.5000  -999.2500   108.3954
 2215.0000  -999.2500   105.6766
 2215.5000  -999.2500   108.2648
 2216.0000  -999.2500   103.9070
 2216.5000  -999.2500   102.9025
 2217.0000  -999.2500   106.7795
 2217.5000  -999.2500   110.1070
 2218.0000  -999.2500   111.3018
 2218.5000  -999.2500   102.7761
 2219.0000  -999.2500   106.5972
 2219.5000  -999.2500   109.9633
 2220.0000  -999.2500   113.3847
 2220.5000  -999.2500   114.1204
 2221.0000  -999.2500   113.6636
 2221.5000  -999.2500   115.5387
 2222.0000  -999.2500   112.9036
 2222.5000  -999.2500   113.0580
 2223.0000  -999.2500   110.4035
 2223.5000  -999.2500   107.4033
 2224.0000  -999.2500   110.6612
 2224.5000  -999.2500   108.8963
 2225.0000  -999.2500   107.3063
 2225.5000  -999.2500   109.5356
 2226.0000  -999.2500   110.4057
 2226.5000  -999.2500   108.8514
 2227.0000  -999.2500   102.4872
 2227.5000  -999.2500    99.2685
 2228.0000  -999.2500   100.5400
 2228.5000  -999.2500   103.8222
 2229.0000  -999.2500   112.4197
 2229.5000  -999.2500   112.5487
 2230.0000  -999.2500   112.2664
 2230.5000  -999.2500   117.3857
 2231.0000  -999.2500   113.9484
 2231.5000  -999.2500   114.0742
 2232.0000  -999.2500   106.1649
 2232.5000  -999.2500    99.9089
 2233.0000  -999.2500   103.8175
 2233.5000  -999.2500   111.3470
 2234.0000  -999.2500   111.9938
 2234.5000  -999.2500   105.3365
 2235.0000  -999.2500   101.7741
 2235.5000  -999.2500    98.3693
 2236.0000  -999.2500   101.6710
 2236.5000  -999.2500    97.3037
 2237.0000  -999.2500   102.1294
 2237.5000  -999.2500   105.4500
 2238.0000  -999.2500   111.7437
 2238.5000  -999.2500   108.3826
 2239.0000  -999.2500   107.4048
 2239.5000  -999.2500   108.9468
 2240.0000  -999.2500   102.1180
 2240.5000  -999.2500   105.4323
 2241.0000  -999.2500   103.4907
 2241.5000  -999.2500   105.5632
 2242.0000  -999.2500   103.7775
 2242.5000  -999.2500   108.2318
