~VERSION INFORMATION
 VERS.                2.0:   CWLS LOG ASCII STANDARD - VERSION 2.0
 WRAP.                 NO:   ONE LINE PER DEPTH STEP
~WELL INFORMATION
#MNEM.UNIT      DATA TYPE    INFORMATION
#----------   ------------   ------------------------------
 STRT.F           78.5000:   START DEPTH
 STOP.F         1021.0000:   STOP DEPTH
 STEP.F            0.5000:   STEP LENGTH
 NULL.          -999.2500:   NO VALUE
 COMP. U S NAVY/INTEX OIL CO:   COMPANY
 WELL.     NRR 3 ##65S-11:   WELL
 FLD .             TEAPOT:   FIELD
 LOC .      S11 T38N R78W:   LOCATION
 CNTY.            NATRONA:   COUNTY
 STAT.            WYOMING:   STATE
 CTRY. UNITED STATES OF AMERICA:   COUNTRY
 SRVC.       Schlumberger:   SERVICE COMPANY
 DATE.        09-MAR-1960:   LOGDATE
 API .       490250634100:   API NUMBER
~CURVE INFORMATION
#MNEM.UNIT       API CODE    CURVE DESCRIPTION
#----------   ------------   ------------------------------
 DEPT.F                  :   
 SPR .MV     05 010 01 00:   SPONTANEOUS POTENTIAL FROM RES.
 ILD .OHMM   05 120 46 00:   INDUCTION LOG DEEP
 CILD.MMHO   05 110 00 00:   CONDUCTIVITY INDUCTION LOG
 ASN .OHMM   05 041 16 00:   AMPLIFIED SHORT NORMAL 16"
~PARAMETER INFORMATION
#MNEM.UNIT          VALUE    DESCRIPTION
#----------   ------------   ------------------------------
 PD  .                 GL:   PERMANENT DATUM
 EPD .F              5227:   ELEVATION PERMANENT DATUM
 LMF .                 KB:   LOG MEASURED FROM
 DAPD.F                 5:   FEET ABOVE PERMANENT DATUM
 DMF .                 KB:   DRILLING MEASURED FROM
 EKB .F              5232:   KELLING BUSHING
 EGL .F              5227:   GROUND LEVEL
 DATE.             3-9-60:   RUN DATE
 RUN .                  1:   RUN NUMBER
 DD  .F              1025:   DEPTH DRILLER
 DL  .F              1026:   DEPTH LOGGER
 BLI .F              1021:   BOTTOM LOG INTERVAL
 TLI .F                80:   TOP LOG INTERVAL
 CBD .F                12:   CASING BOTTOM DRILLER
 BS  .IN            7.875:   BIT SIZE
 BSD .F              1025:   BIT SIZE AT DEPTH
 DFT .          OIL EMULS:   DRILLING FLUID TYPE
 DFD .               10.2:   DRILLING FLUID DENSITY
 DFV .                 36:   DRILLING FLUID VISCOSITY
 DFPH.                7.5:   DRILLING FLUID PH
 DFL .                  4:   DRILLING FLUID LOSS
 MSS .          FLOW LINE:   MUD SAMPLE SOURCE
 RMS .OHMM           2.18:   RESISTIVITY MUD SAMPLE
 MST .F                64:   MUD SAMPLE TEMPERATURE
 RMF .OHMM           1.17:   RESISTIVITY MUD FILTRATE SAMPLE
 MFST.F                63:   MUD FILTRATE SAMPLE TEMPERATURE
 RMC .OHMM           2.02:   RESISTIVITY MUD CAKE
 MCST.F                64:   MUD CAKE SAMPLE TEMPERATURE
 MFSS.                  M:   MUD FILTRATE SAMPLE SOURCE
 MCSS.                  M:   MUD CAKE SAMPLE SOURCE
 TCS .HRS             .75:   TIME CURCULATED STOPPED
 LUN .               2795:   LOGGING UNIT NUMBER
 LUL .               CSPR:   LOGGING UNIT LOCATION
 ENGI.              SCOTT:   RECORDING ENGINEER
 WITN.          JORGENSEN:   WITNESSED BY
 CLNT.            A2DTECH:   CLIENT CODE
 ORIG.           2" PRINT:   ORIGIN OF DATA
 UWI .       490250634100:   UNIQUE WELL ID
 DICO. A2D Technologies, Inc.:   DIGITIZING COMPANY
~OTHER INFORMATION
~A   DEPT      SPR        ILD       CILD        ASN   
# ...
  516.5000   -51.8791     7.1628   134.7695     9.3539
  517.0000   -51.8308     7.0892   137.5251     9.2324
  517.5000   -51.9300     7.0146   140.0927     9.1154
  518.0000   -52.0584     6.9410   142.6603     8.9950
  518.5000   -52.1796     6.8660   144.7896     8.8786
  519.0000   -52.3082     6.7936   145.4454     8.7558
  519.5000   -52.4076     6.7161   146.0056     8.6686
  520.0000   -52.3214     6.6645   146.5659     8.6691
  520.5000   -52.2157     6.6613   147.1261     8.7361
  521.0000   -52.1134     6.6772   147.7956     8.9527
  521.5000   -52.0099     6.7278   147.4529     9.0770
  522.0000   -51.9064     6.7770   147.0328     9.0259
  522.5000   -51.8033     6.8276   146.6137     8.9863
  523.0000   -51.6988     6.8774   146.1945     8.9350
  523.5000   -51.5975     6.9277   145.7736     8.9016
  524.0000   -51.4903     6.9777   145.3516     9.0089
  524.5000   -51.3946     7.0277   144.9293     9.1410
  525.0000   -51.2727     7.0777   144.5070     9.1248
  525.5000   -51.2345     7.1276   144.0856     9.0655
  526.0000   -51.3515     7.1776   143.6642     9.0118
  526.5000   -51.4545     7.2276   143.2429     8.9573
  527.0000   -51.5665     7.2777   142.8215     8.9040
  527.5000   -51.6735     7.3280   142.4002     8.8960
  528.0000   -51.7834     7.3778   141.9788     8.9964
  528.5000   -51.8921     7.4287   141.5575     9.0901
  529.0000   -52.0010     7.4775   141.1361     9.1898
  529.5000   -52.1100     7.5304   140.7148     9.2804
  530.0000   -52.2195     7.5651   140.2934     9.3908
  530.5000   -52.3241     7.5622   139.7796     9.4363
  531.0000   -52.4016     7.4474   140.1002     9.2743
  531.5000   -52.2236     7.2821   140.5110     9.0714
  532.0000   -52.0150     7.1282   141.6448     8.8697
  532.5000   -51.8040     6.9654   144.1730     8.6671
  533.0000   -51.6433     6.8133   146.7011     8.4634
  533.5000   -51.8067     6.6421   149.2292     8.3744
  534.0000   -51.9759     6.5483   151.7574     8.3030
  534.5000   -52.1705     6.5437   154.2855     8.2206
  535.0000   -52.1304     6.5234   156.8136     8.1817
  535.5000   -51.9258     6.5112   157.4983     8.1939
  536.0000   -51.7602     6.4946   158.1830     8.2097
  536.5000   -51.5784     6.4803   158.8677     8.2235
  537.0000   -51.4022     6.4646   159.5591     8.2434
  537.5000   -51.2274     6.4498   160.2466     8.2158
  538.0000   -51.0283     6.4339   160.8329     8.1514
  538.5000   -51.0416     6.4195   160.8342     8.0968
  539.0000   -51.1780     6.4024   160.8363     8.0372
  539.5000   -51.3045     6.3904   160.8397     7.9822
  540.0000   -51.4375     6.3675   160.8417     7.9665
  540.5000   -51.5670     6.3980   160.1408     8.0966
  541.0000   -51.6981     6.5305   157.5321     8.2829
  541.5000   -51.8289     6.6615   154.9252     8.4600
  542.0000   -51.9588     6.7939   152.3229     8.6515
  542.5000   -52.0919     6.9282   149.7245     8.7408
  543.0000   -52.2051     7.0561   147.1288     8.7648
  543.5000   -52.1224     7.1990   144.5319     8.7763
  544.0000   -52.0107     7.2904   141.8037     8.8242
  544.5000   -51.9044     7.3446   141.8054     8.9068
  545.0000   -51.7960     7.3263   141.7836     8.9871
  545.5000   -51.6888     7.2176   141.7836     8.9419
  546.0000   -51.5802     7.1256   141.7836     8.8288
  546.5000   -51.4733     7.0248   143.7583     8.7283
  547.0000   -51.3632     6.9287   145.6413     8.6222
  547.5000   -51.2598     6.8300   147.5242     8.5185
  548.0000   -51.1436     6.7331   149.4072     8.4143
  548.5000   -51.0557     6.6346   151.2901     8.3080
  549.0000   -50.9523     6.5378   152.8056     8.2239
  549.5000   -50.8106     6.4578   153.2148     8.2004
  550.0000   -50.9648     6.5139   153.5571     8.1784
  550.5000   -51.0778     6.6463   153.5321     8.1647
  551.0000   -51.2086     6.7486   152.5050     8.1622
  551.5000   -51.3285     6.8587   151.4780     8.2021
  552.0000   -51.4556     6.9646   149.8497     8.3758
  552.5000   -51.5766     7.0729   147.0642     8.5870
  553.0000   -51.7051     7.1798   144.2707     8.7955
  553.5000   -51.8216     7.2881   141.4716     9.0036
  554.0000   -51.9618     7.3945   138.6681     9.2144
  554.5000   -51.9909     7.5039   135.8605     9.4191
  555.0000   -51.8841     7.6079   133.0482     9.6366
  555.5000   -51.7970     7.7221   131.6639     9.7575
  556.0000   -51.6993     7.7708   131.6443     9.6777
  556.5000   -51.6072     7.7689   131.6305     9.4663
  557.0000   -51.5123     7.7475   134.2390     9.2453
  557.5000   -51.4183     7.5414   138.7078     9.0320
  558.0000   -51.3249     7.3358   143.1922     8.8082
  558.5000   -51.2295     7.1284   146.7108     8.6077
  559.0000   -51.1384     6.9241   149.7293     8.4010
  559.5000   -51.0401     6.7156   152.7426     8.2418
  560.0000   -51.0154     6.5125   155.7425     8.2163
  560.5000   -51.1089     6.2913   157.8156     8.1998
  561.0000   -51.1925     6.3717   157.8156     8.2377
  561.5000   -51.2801     6.5388   157.0248     8.2968
  562.0000   -51.3652     6.6878   154.5305     8.3938
  562.5000   -51.4521     6.8451   152.0362     8.5214
  563.0000   -51.5377     6.9989   149.5419     8.6553
  563.5000   -51.6249     7.1517   147.0477     8.7838
  564.0000   -51.7092     7.1948   144.5534     8.9225
  564.5000   -51.7986     7.2230   142.0591     9.0169
  565.0000   -51.8784     7.2543   139.7796     9.0639
  565.5000   -51.9786     7.2841   137.7254     9.1190
  566.0000   -51.9883     7.3147   135.6713     9.1726
  566.5000   -51.8753     7.3449   134.4815     9.2596
  567.0000   -51.7775     7.3753   133.9679     9.3470
  567.5000   -51.6707     7.4057   133.4544     9.4329
  568.0000   -51.5696     7.4363   132.9409     9.5203
  568.5000   -51.4644     7.4665   132.7655     9.5619
  569.0000   -51.3632     7.4974   132.7655     9.5782
  569.5000   -51.2562     7.5273   132.7655     9.5858
  570.0000   -51.2038     7.5608   132.7655     9.5529
  570.5000   -51.2425     7.5442   132.7655     9.4917
  571.0000   -51.3033     7.5114   134.3687     9.3637
  571.5000   -51.3619     7.4819   136.4229     9.2331
  572.0000   -51.4214     7.4509   138.4769     9.1016
  572.5000   -51.4801     7.4207   140.5311     8.9705
  573.0000   -51.5402     7.3900   142.5852     8.8388
  573.5000   -51.5978     7.3595   144.7896     8.7972
  574.0000   -51.6597     7.3291   145.3335     8.7697
  574.5000   -51.7136     7.2984   145.9204     8.7588
  575.0000   -51.7849     7.2683   146.5073     8.7528
  575.5000   -51.7954     7.2372   146.6433     8.7441
  576.0000   -51.6918     7.2078   146.3498     8.7387
  576.5000   -51.5964     7.1755   146.0564     8.7277
  577.0000   -51.4952     7.1675   145.7916     8.7505
  577.5000   -51.3973     7.1790   145.1904     8.8013
  578.0000   -51.2974     7.1868   144.6426     8.8442
  578.5000   -51.1984     7.1964   144.0949     8.8927
  579.0000   -51.0988     7.2049   143.5471     8.9256
  579.5000   -51.0000     7.2141   142.9993     8.9224
  580.0000   -50.9002     7.2227   142.4521     8.9176
  580.5000   -50.8024     7.2321   141.9041     8.9130
  581.0000   -50.6993     7.2401   141.3569     8.9096
  581.5000   -50.6251     7.2505   140.8102     8.9473
  582.0000   -50.7687     7.2563   140.2640     9.0006
  582.5000   -50.9370     7.2921   139.7190     9.0507
  583.0000   -51.1025     7.3712   139.1751     9.1079
  583.5000   -51.2659     7.4481   138.6172     9.1963
  584.0000   -51.4356     7.5267   138.0695     9.2966
  584.5000   -51.5932     7.6043   136.9916     9.3956
  585.0000   -51.7715     7.6825   135.3000     9.4947
  585.5000   -51.7539     7.7604   133.6084     9.5954
  586.0000   -51.6058     7.8385   131.9168     9.6917
  586.5000   -51.4897     7.9165   130.2252     9.8328
  587.0000   -51.3589     7.9947   128.5335     9.9441
  587.5000   -51.2354     8.0723   126.8419    10.0932
  588.0000   -51.1087     8.1511   125.1503    10.5376
  588.5000   -50.9819     8.2273   123.7475    10.6485
  589.0000   -50.8584     8.3090   123.4040    10.6798
