~VERSION INFORMATION
 VERS.                2.0:   CWLS LOG ASCII STANDARD - VERSION 2.0
 WRAP.                 NO:   ONE LINE PER DEPTH STEP
~WELL INFORMATION
#MNEM.UNIT      DATA TYPE    INFORMATION
#----------   ------------   ------------------------------
 STRT.F          610.5000:   START DEPTH
 STOP.F         2311.0000:   STOP DEPTH
 STEP.F            0.5000:   STEP LENGTH
 NULL.          -999.2500:   NO VALUE
 COMP. BROWN JOHN E&C INC:   COMPANY
 WELL.  48-1SHX-34 #48-34:   WELL
 FLD .             TEAPOT:   FIELD
 LOC .      S34 T39N R78W:   LOCATION
 CNTY.            NATRONA:   COUNTY
 STAT.            WYOMING:   STATE
 CTRY. UNITED STATES OF AMERICA:   COUNTRY
 SRVC.            Unknown:   SERVICE COMPANY
 DATE.        16-SEP-1991:   LOGDATE
 API .       490251109000:   API NUMBER
~CURVE INFORMATION
#MNEM.UNIT       API CODE    CURVE DESCRIPTION
#----------   ------------   ------------------------------
 DEPT.F                  :   
 ROP .MIN/FT 91 810 01 00:   RAT OF DRILLING PENETRATION
 TGAS.UNITS  91 830 01 00:   TOTAL GAS FROM HOTWIRE
~PARAMETER INFORMATION
#MNEM.UNIT          VALUE    DESCRIPTION
#----------   ------------   ------------------------------
 EKB .F              5163:   KELLING BUSHING
 EGL .F              5152:   GROUND LEVEL
 DATE.            9-16-91:   RUN DATE
 DD  .F              2311:   DEPTH DRILLER
 TCS .HRS            0200:   TIME CURCULATED STOPPED
 TLAB.HRS            0115:   TIME LOGGER AT BOTTOM
 ENGI.             HENDRY:   RECORDING ENGINEER
 WITN.               HUSK:   WITNESSED BY
 CLNT.            A2DTECH:   CLIENT CODE
 ORIG.           5" PRINT:   ORIGIN OF DATA
 UWI .       490251109000:   UNIQUE WELL ID
 DICO. A2D Technologies, Inc.:   DIGITIZING COMPANY
~OTHER INFORMATION
~A   DEPT        ROP       TGAS 
# ...
 1218.0000     0.8282     7.3984
 1218.5000     0.8253     7.4065
 1219.0000     0.8328     7.4145
 1219.5000     0.8997     7.4226
 1220.0000     0.9511     7.4307
 1220.5000     0.9571     7.4387
 1221.0000     0.9612     7.4468
 1221.5000     0.9548     7.4549
 1222.0000     0.9049     7.4629
 1222.5000     0.8548     7.4710
 1223.0000     0.8053     7.4791
 1223.5000     0.7735     7.4871
 1224.0000     0.7780     7.4952
 1224.5000     0.7820     7.5032
 1225.0000     0.7903     7.5113
 1225.5000     0.8181     7.5194
 1226.0000     0.8469     7.5274
 1226.5000     0.9025     7.5355
 1227.0000     0.9596     7.5436
 1227.5000     0.9645     7.5516
 1228.0000     0.9673     7.5597
 1228.5000     0.9703     7.5678
 1229.0000     0.9734     7.5758
 1229.5000     0.9765     7.5839
 1230.0000     0.9795     7.5920
 1230.5000     0.9825     7.6000
 1231.0000     0.9851     7.6081
 1231.5000     1.0111     7.6161
 1232.0000     1.0683     7.6242
 1232.5000     1.1440     7.6323
 1233.0000     1.2196     7.6403
 1233.5000     1.2644     7.6484
 1234.0000     1.2673     7.6565
 1234.5000     1.2708     7.6645
 1235.0000     1.2736     7.6726
 1235.5000     1.2982     7.6807
 1236.0000     1.3396     7.6887
 1236.5000     1.4171     7.6968
 1237.0000     1.4940     7.7048
 1237.5000     1.4603     7.7129
 1238.0000     1.4138     7.7210
 1238.5000     1.3672     7.7290
 1239.0000     1.3208     7.7371
 1239.5000     1.2743     7.7452
 1240.0000     1.2274     7.7532
 1240.5000     1.1545     7.7613
 1241.0000     1.0713     7.7694
 1241.5000     1.0684     7.7774
 1242.0000     1.0637     7.7855
 1242.5000     1.0593     7.7936
 1243.0000     1.0547     7.8016
 1243.5000     1.0486     7.8096
 1244.0000     1.0679     7.8152
 1244.5000     1.1947     7.8151
 1245.0000     1.3232     7.8151
 1245.5000     1.4564     7.8151
 1246.0000     1.4882     7.8151
 1246.5000     1.4768     7.8151
 1247.0000     1.4152     7.8151
 1247.5000     1.3548     7.8151
 1248.0000     1.3227     7.8151
 1248.5000     1.3159     7.8151
 1249.0000     1.3095     7.8151
 1249.5000     1.3034     7.8151
 1250.0000     1.2519     7.8151
 1250.5000     1.1596     7.8151
 1251.0000     1.0659     7.8151
 1251.5000     1.0451     7.8151
 1252.0000     1.0401     7.8151
 1252.5000     1.0354     7.8151
 1253.0000     1.0305     7.8151
 1253.5000     1.0260     7.8151
 1254.0000     1.0327     7.8151
 1254.5000     1.0787     7.8151
 1255.0000     1.1402     7.8151
 1255.5000     1.2027     7.8151
 1256.0000     1.2657     7.8151
 1256.5000     1.2710     7.8151
 1257.0000     1.2660     7.8151
 1257.5000     1.2608     7.8151
 1258.0000     1.2558     7.8151
 1258.5000     1.2508     7.8151
 1259.0000     1.2457     7.8151
 1259.5000     1.2404     7.8151
 1260.0000     1.2169     7.8151
 1260.5000     1.1583     7.8151
 1261.0000     1.1005     7.8151
 1261.5000     1.0468     7.8151
 1262.0000     1.0419     7.8151
 1262.5000     1.0358     7.8151
 1263.0000     1.0292     7.8151
 1263.5000     1.0260     7.8151
 1264.0000     1.0677     7.8151
 1264.5000     1.1434     7.8151
 1265.0000     1.2469     7.8151
 1265.5000     1.2385     7.8151
 1266.0000     1.1613     7.8151
 1266.5000     1.0693     7.8151
 1267.0000     1.0130     7.8152
 1267.5000     1.0061     7.8157
 1268.0000     1.0015     7.7939
 1268.5000     0.9968     7.7682
 1269.0000     0.9921     7.7425
 1269.5000     0.9882     7.7168
 1270.0000     0.9362     7.6911
 1270.5000     0.8767     7.6655
 1271.0000     0.8473     7.6398
 1271.5000     0.8873     7.6141
 1272.0000     0.9261     7.5884
 1272.5000     0.9649     7.5628
 1273.0000     1.0038     7.5371
 1273.5000     1.0500     7.5114
 1274.0000     1.1333     7.4857
 1274.5000     1.2123     7.4601
 1275.0000     1.2471     7.4344
 1275.5000     1.2623     7.4087
 1276.0000     1.2626     7.3831
 1276.5000     1.2628     7.3574
 1277.0000     1.2474     7.3317
 1277.5000     1.1938     7.3073
 1278.0000     1.1044     7.2897
 1278.5000     1.0637     7.2718
 1279.0000     1.0333     7.2540
 1279.5000     1.0240     7.2362
 1280.0000     1.0238     7.2183
 1280.5000     1.0239     7.2005
 1281.0000     1.0239     7.1826
 1281.5000     1.0238     7.1648
 1282.0000     1.0238     7.1469
 1282.5000     1.0285     7.1291
 1283.0000     1.0617     7.1112
 1283.5000     1.1037     7.0934
 1284.0000     1.1860     7.0756
 1284.5000     1.2290     7.0577
 1285.0000     1.2318     7.0399
 1285.5000     1.1602     7.0220
 1286.0000     1.0814     7.0042
 1286.5000     1.0716     6.9863
 1287.0000     1.0609     6.9685
 1287.5000     1.0506     6.9507
 1288.0000     1.0390     6.9328
 1288.5000     1.0803     6.9150
 1289.0000     1.1923     6.8971
 1289.5000     1.3513     6.8793
 1290.0000     1.4816     6.8614
 1290.5000     1.3907     6.8436
 1291.0000     1.2856     6.8257
 1291.5000     1.1322     6.8074
 1292.0000     1.0776     6.7966
 1292.5000     1.0306     6.7860
 1293.0000     1.0238     6.7753
 1293.5000     1.0238     6.7646
 1294.0000     1.0239     6.7538
 1294.5000     1.0238     6.7431
 1295.0000     1.0237     6.7324
 1295.5000     1.0240     6.7217
 1296.0000     1.0513     6.7110
 1296.5000     1.0823     6.7002
 1297.0000     1.1532     6.6895
 1297.5000     1.2295     6.6788
 1298.0000     1.2378     6.6681
 1298.5000     1.2470     6.6574
 1299.0000     1.2558     6.6466
 1299.5000     1.2588     6.6359
 1300.0000     1.2385     6.6252
 1300.5000     1.2040     6.6145
 1301.0000     1.1207     6.6038
 1301.5000     1.0468     6.5930
 1302.0000     1.0493     6.5823
 1302.5000     1.0832     6.5716
 1303.0000     1.1514     6.5609
 1303.5000     1.2148     6.5502
 1304.0000     1.2268     6.5394
 1304.5000     1.2396     6.5287
 1305.0000     1.2526     6.5180
 1305.5000     1.2653     6.5073
 1306.0000     1.2787     6.4966
 1306.5000     1.3127     6.4858
 1307.0000     1.4142     6.4751
 1307.5000     1.5113     6.4644
 1308.0000     1.6084     6.4537
 1308.5000     1.7233     6.4430
 1309.0000     1.9050     6.4322
 1309.5000     1.9576     6.4215
 1310.0000     1.9344     6.4108
 1310.5000     1.8746     6.4001
 1311.0000     1.7589     6.3894
 1311.5000     1.6428     6.3786
 1312.0000     1.6052     6.3679
 1312.5000     1.5915     6.3572
 1313.0000     1.5790     6.3465
 1313.5000     1.5682     6.3358
 1314.0000     1.4561     6.3250
 1314.5000     1.3317     6.3141
 1315.0000     1.1526     6.3024
 1315.5000     1.0656     6.3255
 1316.0000     1.0396     6.3513
 1316.5000     1.0263     6.3771
 1317.0000     1.0134     6.4028
 1317.5000     1.0009     6.4286
 1318.0000     0.9508     6.4543
 1318.5000     0.8974     6.4800
 1319.0000     0.8434     6.5057
 1319.5000     0.7886     6.5315
 1320.0000     0.8145     6.5572
 1320.5000     0.8745     6.5829
 1321.0000     0.9340     6.6086
 1321.5000     0.9961     6.6344
 1322.0000     1.0069     6.6601
 1322.5000     0.9989     6.6858
 1323.0000     0.9906     6.7115
 1323.5000     0.9987     6.7373
 1324.0000     1.0245     6.7630
 1324.5000     1.0676     6.7887
 1325.0000     1.1308     6.8144
 1325.5000     1.1949     6.8402
 1326.0000     1.1934     6.8659
 1326.5000     1.1306     6.8916
 1327.0000     1.0705     6.9173
 1327.5000     1.0362     6.9431
 1328.0000     1.0109     6.9688
 1328.5000     1.0113     6.9945
 1329.0000     1.0112     7.0202
 1329.5000     1.0114     7.0460
 1330.0000     1.0204     7.0717
 1330.5000     1.0564     7.0974
 1331.0000     1.1586     7.1231
 1331.5000     1.2229     7.1489
 1332.0000     1.2001     7.1746
 1332.5000     1.1268     7.2003
 1333.0000     1.0682     7.2260
 1333.5000     1.0487     7.2524
 1334.0000     1.0287     7.2751
 1334.5000     1.0119     7.2711
 1335.0000     1.0326     7.8239
 1335.5000     1.0525     7.8109
 1336.0000     1.0722     7.8153
 1336.5000     1.0918     7.8151
 1337.0000     1.1114     7.8151
 1337.5000     1.1318     7.8151
 1338.0000     1.1292     7.8151
 1338.5000     1.1140     7.8151
 1339.0000     1.0988     7.8151
