~VERSION INFORMATION
 VERS.                2.0:   CWLS LOG ASCII STANDARD - VERSION 2.0
 WRAP.                 NO:   ONE LINE PER DEPTH STEP
~WELL INFORMATION
#MNEM.UNIT      DATA TYPE    INFORMATION
#----------   ------------   ------------------------------
 STRT.F          103.0000:   START DEPTH
 STOP.F          898.0000:   STOP DEPTH
 STEP.F            0.5000:   STEP LENGTH
 NULL.          -999.2500:   NO VALUE
 COMP. LAWRENCE/ALLISON INC:   COMPANY
 WELL. NPR 3 32-66 SX #2-2:   WELL
 FLD .             TEAPOT:   FIELD
 LOC .       S2 T38N R78W:   LOCATION
 CNTY.            NATRONA:   COUNTY
 STAT.            WYOMING:   STATE
 CTRY. UNITED STATES OF AMERICA:   COUNTRY
 SRVC.      Dresser Atlas:   SERVICE COMPANY
 DATE.        30-JAN-1986:   LOGDATE
 API .       490251106900:   API NUMBER
~CURVE INFORMATION
#MNEM.UNIT       API CODE    CURVE DESCRIPTION
#----------   ------------   ------------------------------
 DEPT.F                  :   
 RILD.OHMM   07 120 46 00:   INDUCTION LOG DEEP RESISTIVITY
 RILM.OHMM   07 120 44 00:   INDUCTION LOG MEDIUM RESISTIVITY
 CALD.IN     45 280 60 00:   CALIPER FROM DENSITY
 GRD .GAPI   45 310 01 00:   GAMMA RAY FROM DENSITY LOG
 CORR.G/C3   45 356 01 00:   DENSITY CORRECTION
 PORD.DEC    45 890 10 00:   POROSITY DENSITY LIMESTONE
 DEN .G/C3   45 350 01 00:   COMPENSATED BULK DENSITY
~PARAMETER INFORMATION
#MNEM.UNIT          VALUE    DESCRIPTION
#----------   ------------   ------------------------------
 PD  .                 GL:   PERMANENT DATUM
 EPD .F              5136:   ELEVATION PERMANENT DATUM
 LMF .                 GL:   LOG MEASURED FROM
 DMF .                 GL:   DRILLING MEASURED FROM
 EGL .F              5136:   GROUND LEVEL
 DATE.        30-JAN-1986:   RUN DATE
 RUN .                  1:   RUN NUMBER
 DD  .F               885:   DEPTH DRILLER
 DL  .F               902:   DEPTH LOGGER
 BLI .F               894:   BOTTOM LOG INTERVAL
 CS  .IN            8.625:   CASING SIZE
 CBD .F               130:   CASING BOTTOM DRILLER
 CBL .F               126:   CASING BOTTOM LOGGER
 BS  .IN             6.25:   BIT SIZE
 BSD .F               885:   BIT SIZE AT DEPTH
 DFT .                AIR:   DRILLING FLUID TYPE
 LUN .            HL-6264:   LOGGING UNIT NUMBER
 LUL .           GILLETTE:   LOGGING UNIT LOCATION
 ENGI.     P. M. FAHLSING:   RECORDING ENGINEER
 WITN.        LINDA FIVAS:   WITNESSED BY
 CLNT.            A2DTECH:   CLIENT CODE
 ORIG.           5" PRINT:   ORIGIN OF DATA
 UWI .       490251106900:   UNIQUE WELL ID
 DICO. A2D Technologies, Inc.:   DIGITIZING COMPANY
 R1  . POROSITY WITH LIMESTONE:   REMARKS 1
~OTHER INFORMATION
~A   DEPT     RILD       RILM       CALD        GRD       CORR       PORD        DEN   
# ...
  421.5000     8.8526     9.0035     7.1710   145.3024     0.1142     0.1032     2.4971
  422.0000     8.7984     9.0105     7.1565   144.7093     0.1173     0.1050     2.5032
  422.5000     8.8770     9.0160     7.1574   145.0155     0.1279     0.1032     2.5078
  423.0000     8.9351     8.8963     7.1431   146.5230     0.1309     0.1007     2.5093
  423.5000     8.9419     8.7831     7.1439   149.2316     0.1143     0.1017     2.5101
  424.0000     8.7650     8.6090     7.1597   151.6400     0.0977     0.1063     2.5048
  424.5000     8.5324     8.3806     7.1604   150.7451     0.0887     0.1103     2.4898
  425.0000     8.3636     8.1580     7.1762   151.0513     0.0887     0.1140     2.4860
  425.5000     8.2535     8.1065     7.1770   154.0603     0.0947     0.1134     2.4876
  426.0000     8.0918     8.1144     7.1777   154.9949     0.1038     0.1104     2.4975
  426.5000     7.8228     7.6300     7.1634   154.6727     0.1099     0.1080     2.5005
  427.0000     7.1553     7.0759     7.1491   155.5796     0.1129     0.1062     2.4973
  427.5000     7.0611     7.0217     7.1499   157.0921     0.1127     0.1074     2.4928
  428.0000     7.0700     6.9881     7.1506   159.2112     0.1431     0.1110     2.4840
  428.5000     7.1707     7.0911     7.1514   158.8739     0.1341     0.1203     2.4719
  429.0000     7.2262     7.0966     7.1521   157.3674     0.1190     0.1243     2.4697
  429.5000     7.3326     7.2513     7.1529   154.5615     0.1068     0.1252     2.4743
  430.0000     7.4406     7.3073     7.1536   151.1123     0.0947     0.1200     2.4826
  430.5000     7.6026     7.3639     7.1544   147.5146     0.0858     0.1170     2.4872
  431.0000     7.8221     7.5766     7.1551   145.1182     0.0843     0.1176     2.4834
  431.5000     7.9924     7.7955     7.1560   141.5206     0.0843     0.1212     2.4782
  432.0000     8.1101     8.0207     7.1568   139.7232     0.0874     0.1291     2.4601
  432.5000     8.1151     8.1389     7.1726   139.7307     0.0919     0.1312     2.4556
  433.0000     8.1213     8.1439     7.1581   141.2381     0.1085     0.1288     2.4617
  433.5000     8.1275     8.1501     7.1590   143.9468     0.1146     0.1212     2.4783
  434.0000     8.1339     8.1564     7.1598   146.0548     0.1086     0.1091     2.4965
  434.5000     8.1402     8.1627     7.1756   146.9617     0.1010     0.1067     2.5019
  435.0000     8.1466     8.0564     7.1763   146.0667     0.0950     0.1097     2.4951
  435.5000     8.0951     8.0074     7.1618   138.2649     0.0950     0.1109     2.4921
  436.0000     7.9901     8.0136     7.1627   131.9645     0.0951     0.1091     2.5042
  436.5000     7.9428     7.9645     7.1635   131.0681     0.0936     0.0934     2.5270
  437.0000     7.9490     7.8596     7.1642   133.7782     0.0860     0.0886     2.5376
  437.5000     7.9539     7.8114     7.1650   137.3878     0.0830     0.0871     2.5394
  438.0000     7.9636     7.8734     7.1657   139.7961     0.0770     0.0989     2.5135
  438.5000     8.2465     8.2293     7.1512   141.0033     0.0800     0.1055     2.5014
  439.0000     8.9057     8.7570     7.1522   139.8080     0.0876     0.1085     2.4977
  439.5000     9.4199     9.3817     7.1529   131.7059     0.0952     0.1073     2.4984
  440.0000     9.9639     9.9239     7.1537   118.4986     0.1057     0.0979     2.5061
  440.5000    10.2515    10.1381     7.1544   111.5976     0.1224     0.0785     2.5480
  441.0000     9.5736     9.7350     7.1702   115.8198     0.1375     0.0654     2.5712
  441.5000     9.4475     9.3461     7.1710   124.6397     0.1465     0.0735     2.5633
  442.0000     9.4568     9.2247     7.1717   134.8586     0.1071     0.0956     2.5458
  442.5000     9.3218     8.9797     7.1725   139.3194     0.0922     0.0940     2.5078
  443.0000     9.0179     8.6209     7.1732   141.1492     0.0956     0.0910     2.5260
  443.5000     8.6618     8.3783     7.1589   142.8649     0.1043     0.0886     2.5298
  444.0000     8.2586     8.1111     7.1596   145.2744     0.1059     0.0958     2.5192
  444.5000     8.0379     7.8957     7.1604   146.4816     0.0968     0.1118     2.4928
  445.0000     8.0457     7.9018     7.1762   146.7878     0.0802     0.1145     2.4875
  445.5000     8.1079     7.9080     7.1619   146.4920     0.0742     0.1178     2.4853
  446.0000     8.1143     7.9142     7.1777   144.6976     0.0727     0.1196     2.4823
  446.5000     8.1206     7.9203     7.1785   141.6991     0.0712     0.1208     2.4793
  447.0000     8.0693     7.9265     7.1792   142.3071     0.0727     0.1229     2.4748
  447.5000     8.0199     7.9327     7.1800   143.2140     0.0743     0.1278     2.4665
  448.0000     8.0263     7.9389     7.1959   143.8205     0.0773     0.1344     2.4567
  448.5000     8.0325     7.9451     7.1967   144.7274     0.0803     0.1341     2.4575
  449.0000     8.0388     7.9398     7.1974   145.9345     0.0879     0.1308     2.4689
  449.5000     8.0450     7.8465     7.1982   146.5411     0.0955     0.1241     2.4811
  450.0000     8.0136     7.7984     7.1837   147.2615     0.0985     0.1183     2.4841
  450.5000     7.9443     7.9683     7.1839   147.9596     0.0925     0.1184     2.4824
  451.0000     7.8958     7.9745     7.1840   148.3607     0.0804     0.1197     2.4811
  451.5000     7.7922     7.9241     7.1842   148.9673     0.0683     0.1205     2.4766
  452.0000     7.7422     7.8212     7.1844   149.2721     0.0651     0.1271     2.4675
  452.5000     7.7483     7.8288     7.1845   148.3786     0.0804     0.1226     2.4720
  453.0000     7.6986     7.8349     7.1847   147.1834     0.1015     0.1124     2.4818
  453.5000     7.7036     7.8410     7.1848   144.7869     0.1106     0.1112     2.4939
  454.0000     7.6552     7.8471     7.1850   141.1892     0.1044     0.1148     2.4917
  454.5000     7.6601     7.7975     7.1851   144.1983     0.0938     0.1154     2.4879
  455.0000     7.6121     7.7411     7.1852   146.9069     0.0955     0.1130     2.4902
  455.5000     7.5642     7.6491     7.1854   147.8138     0.1018     0.1106     2.4932
  456.0000     7.5692     7.6022     7.1855   147.8198     0.1030     0.1130     2.4977
  456.5000     7.5740     7.5556     7.1706   147.7958     0.0970     0.1142     2.4870
  457.0000     7.5253     7.5091     7.1557   147.2310     0.1000     0.1124     2.4917
  457.5000     7.4794     7.4618     7.1709   146.5365     0.1075     0.1106     2.4948
  458.0000     7.4841     7.5733     7.1560   145.7414     0.1242     0.1100     2.4962
  458.5000     7.5933     7.6318     7.1712   147.2504     0.1287     0.1112     2.4939
  459.0000     7.7040     7.6909     7.1714   148.1573     0.1136     0.1130     2.4908
  459.5000     7.7614     7.6968     7.1715   148.1632     0.0955     0.1157     2.4811
  460.0000     7.7734     7.8103     7.1717   147.2682     0.0774     0.1214     2.4705
  460.5000     7.8250     7.8707     7.1719   142.4694     0.0592     0.1323     2.4508
  461.0000     7.9391     7.8846     7.1871   139.4724     0.0442     0.1422     2.4342
  461.5000     7.9993     7.9960     7.1872   138.8762     0.0396     0.1462     2.4365
  462.0000     8.0043     8.0531     7.1874   142.1870     0.0562     0.1365     2.4599
  462.5000     8.0094     8.0594     7.1725   145.4962     0.0713     0.1223     2.4758
  463.0000     8.0702     8.0656     7.1726   147.9046     0.0730     0.1190     2.4796
  463.5000     8.0753     8.0719     7.1728   148.8100     0.0668     0.1202     2.4803
  464.0000     8.0804     8.0782     7.1729   147.3159     0.0653     0.1201     2.4796
  464.5000     8.0856     8.0845     7.1731   145.5201     0.0744     0.1160     2.4826
  465.0000     8.0907     8.0908     7.1732   143.7242     0.0866     0.1094     2.4917
  465.5000     8.0958     8.0971     7.1734   143.1281     0.0988     0.1057     2.5008
  466.0000     8.0438     8.1034     7.1735   143.1355     0.1110     0.1060     2.5032
  466.5000     8.0491     8.1097     7.1737   141.9403     0.1136     0.1100     2.5008
