~VERSION INFORMATION
 VERS.                2.0:   CWLS LOG ASCII STANDARD - VERSION 2.0
 WRAP.                 NO:   ONE LINE PER DEPTH STEP
~WELL INFORMATION
#MNEM.UNIT      DATA TYPE    INFORMATION
#----------   ------------   ------------------------------
 STRT.F            0.0000:   START DEPTH
 STOP.F          860.0000:   STOP DEPTH
 STEP.F            0.5000:   STEP LENGTH
 NULL.          -999.2500:   NO VALUE
 COMP.          U.S. NAVY:   COMPANY
 WELL. NPR #3 TEAPOT DOME #28S-35:   WELL
 FLD .             TEAPOT:   FIELD
 LOC .      S35 T39N R78W:   LOCATION
 CNTY.            NATRONA:   COUNTY
 STAT.            WYOMING:   STATE
 CTRY. UNITED STATES OF AMERICA:   COUNTRY
 SRVC.       Schlumberger:   SERVICE COMPANY
 DATE.        10-NOV-1958:   LOGDATE
 API .       490250649800:   API NUMBER
~CURVE INFORMATION
#MNEM.UNIT       API CODE    CURVE DESCRIPTION
#----------   ------------   ------------------------------
 DEPT.F                  :   
 SPR .MV     01 010 01 00:   SPONTANEOUS POTENTIAL FROM RES.
 ASN .OHMM   01 041 16 00:   AMPLIFIED SHORT NORMAL 16"
 LT18.OHMM   01 070 18 00:   LATERAL 18'
 LN  .OHMM   01 060 64 00:   LONG NORMAL 64"
 GRN .CPS    35 310 30 00:   GAMMA RAY
 NEUT.CPS    35 330 30 00:   NEUTRON
 MCAL.IN     15 280 01 00:   CALIPER FROM MICRO LOG
~PARAMETER INFORMATION
#MNEM.UNIT          VALUE    DESCRIPTION
#----------   ------------   ------------------------------
 LMF .                 KB:   LOG MEASURED FROM
 DMF .                 KB:   DRILLING MEASURED FROM
 EKB .F              5113:   KELLING BUSHING
 EGL .F              5103:   GROUND LEVEL
 DATE.         11-10-1958:   RUN DATE
 RUN .                  1:   RUN NUMBER
 DD  .F               860:   DEPTH DRILLER
 DL  .F               861:   DEPTH LOGGER
 BLI .F               860:   BOTTOM LOG INTERVAL
 TLI .F                90:   TOP LOG INTERVAL
 CBD .F                34:   CASING BOTTOM DRILLER
 BS  .IN             6.75:   BIT SIZE
 BSD .F               860:   BIT SIZE AT DEPTH
 DFT .          OIL ADDED:   DRILLING FLUID TYPE
 DFD .                 10:   DRILLING FLUID DENSITY
 DFV .                 20:   DRILLING FLUID VISCOSITY
 DFPH.                7.5:   DRILLING FLUID PH
 DFL .                4.2:   DRILLING FLUID LOSS
 RMS .OHMM              2:   RESISTIVITY MUD SAMPLE
 MST .F                62:   MUD SAMPLE TEMPERATURE
 RMF .OHMM            1.4:   RESISTIVITY MUD FILTRATE SAMPLE
 MFST.F                72:   MUD FILTRATE SAMPLE TEMPERATURE
 RMC .OHMM            1.9:   RESISTIVITY MUD CAKE
 MCST.F                72:   MUD CAKE SAMPLE TEMPERATURE
 MFSS.                  M:   MUD FILTRATE SAMPLE SOURCE
 MCSS.                  M:   MUD CAKE SAMPLE SOURCE
 RMB .OHMM            1.7:   RESISTIVITY MUD AT BHT
 BHT .F                72:   BOTTOM HOLE TEMPERATURE
 TCS .HRS               1:   TIME CURCULATED STOPPED
 MRT .F                72:   MAXIMUM RECORDED TEMPERATURE
 LUN .               2754:   LOGGING UNIT NUMBER
 LUL .                 NC:   LOGGING UNIT LOCATION
 ENGI.             QUINBY:   RECORDING ENGINEER
 WITN.             MARTIN:   WITNESSED BY
 CLNT.            A2DTECH:   CLIENT CODE
 ORIG.     1", 2.5" PRINT:   ORIGIN OF DATA
 UWI .       490250649800:   UNIQUE WELL ID
 DICO. A2D Technologies, Inc.:   DIGITIZING COMPANY
~OTHER INFORMATION
~A    DEPT     SPR        ASN       LT18         LN          GRN     NEUT       MCAL   
# ...
  273.0000    -7.8719     5.3025     4.6351     7.4511     5.5497   467.7036     6.9716
  273.5000    -7.3136     4.6064     4.5067     7.6214     5.5107   474.5749     6.9705
  274.0000    -7.2987     4.7317     4.5145     7.9040     5.5754   468.4671     6.9694
  274.5000    -7.0121     4.7350     4.6563     8.0507     5.6601   466.9401     6.9683
  275.0000    -6.9973     4.8717     4.7981     8.2881     5.7426   463.8862     6.9945
  275.5000    -7.2577     5.4200     4.9399     8.2428     5.8819   456.2515     7.0208
  276.0000    -7.7898     6.4313     5.2169     7.9711     5.8938   443.2725     7.0357
  276.5000    -8.3219     7.2558     5.3587     7.5634     5.8325   447.0898     7.0459
  277.0000    -9.1118     7.6532     5.5005     7.2898     5.8960   450.9586     7.0173
  277.5000    -8.8247     7.8182     5.6423     7.6449     5.9865   474.5940     6.9616
  278.0000    -8.5380     8.0700     5.6490     8.1268     6.0544   474.4683     6.9332
  278.5000    -8.2514     8.2877     5.7908     8.5989     5.9220   468.1017     6.9321
  279.0000    -8.2364     8.4514     5.9326     8.8759     6.0144   456.8085     6.9311
  279.5000    -8.2215     8.6690     5.9393     9.1530     6.3203   458.1191     6.9573
  280.0000    -8.2065     8.9948     5.9459     9.1583     6.5568   461.5958     6.9562
  280.5000    -8.2315     9.2936     6.0879     9.2995     6.4992   453.1976     6.9825
  281.0000    -8.4919     9.5113     6.0946     9.5766     5.9655   457.8704     6.9814
  281.5000    -8.9782     9.5939     6.1013     9.8537     5.8511   466.9401     6.9804
  282.0000    -9.0127     9.7034     6.1081     9.9948     6.0532   444.8910     6.9792
  282.5000    -9.2731     9.7860     5.9628    10.1360     6.2533   440.6129     6.9781
  283.0000    -9.4771     9.8415     5.8509    10.2772     6.3543   439.4551     6.9771
  283.5000    -9.3990     9.9241     5.8581    10.2826     6.2322   450.1437     6.9760
  284.0000    -9.1757     9.9526     5.8649    10.4239     6.1305   448.6168     6.9672
  284.5000    -9.4326    10.0081     5.8716    10.4294     5.8868   457.7784     6.9464
  285.0000    -9.4882    10.0364     5.8783    10.4348     6.1094   453.1976     6.9454
  285.5000    -9.6746     9.7406     6.0575    10.4167     6.4131   456.8189     6.9058
  286.0000    -9.6576     9.4674     6.3378    10.3092     6.3519   458.8423     6.8215
  286.5000    -9.6426     9.1942     6.6182    10.3152     6.2704   460.7023     6.8190
  287.0000    -9.6277     8.9074     7.0810    10.3207     6.1889   464.7464     6.9158
  287.5000    -9.6127     9.0440     7.6351    10.3261     5.8642   455.7435     6.9831
  288.0000    -9.6920     9.1806     8.0811    10.3315     5.9449   434.0190     6.9934
  288.5000    -9.8573     9.1821     8.4155    10.2011     6.2485   408.1400     6.9922
  289.0000    -9.9411     9.1835     8.6959    10.0090     6.3706   403.1724     6.9365
  289.5000   -10.0993     9.1850     8.9764     9.7373     6.9285   400.4491     6.8534
  290.0000   -10.1902     9.3216     9.2568     9.3931     7.4297   393.6730     6.9616
  290.5000   -10.3383     9.4582     9.5371     9.0579     7.6534   386.1913     7.1518
  291.0000   -10.3233     9.4597     9.9527     8.7347     7.7668   387.5389     7.2327
  291.5000   -10.3084     9.4545    10.2332     8.7401     7.3824   394.4102     7.2590
  292.0000   -10.2934     9.0303    10.5689     8.7454     7.3200   401.2814     7.2579
  292.5000   -10.5502     9.8988    10.8458     8.7507     7.6456   408.9162     7.2017
  293.0000   -10.4049     9.5459    10.8525     8.7560     7.7044   418.0779     7.1465
  293.5000    -9.9769     9.0266    10.5889     8.7614     7.4990   424.9491     7.1180
  294.0000    -9.8243     8.3966    10.1902     8.6308     7.5319   427.6365     7.1129
  294.5000    -9.5340     7.6413     9.7915     8.6362     7.8050   417.3144     7.0781
  295.0000    -8.9719     6.8635     9.2576     8.6415     7.7217   424.1856     6.9654
  295.5000    -8.8302     6.6474     9.2635     8.3751     7.2564   415.0240     6.8724
  296.0000    -8.5435     6.5269     9.3333     8.2445     7.5308   414.3617     6.8395
  296.5000    -8.5286     6.3923     9.3457     8.2500     7.6204   427.2395     6.9301
  297.0000    -8.5136     6.3154     9.2838     8.1069     7.6699   434.1108     6.9740
  297.5000    -8.7704     6.4453     9.4989     7.9710     7.9243   437.9281     6.9454
  298.0000    -9.0272     6.5619     9.7793     7.8351     7.8384   425.7126     6.9443
  298.5000    -9.2812     6.6715     9.8446     7.6993     7.7053   413.4970     6.9432
  299.0000    -9.2663     6.7270     9.8526     7.4276     7.5778   405.8623     6.9421
  299.5000    -8.9798     6.7555     9.8593     7.2916     7.3949   408.9162     6.9408
  300.0000    -8.6512     6.7555     9.8644     7.2002     7.1716   419.6048     6.9400
  300.5000    -8.5019     6.6715     9.8701     7.6110     6.9887   410.1187     6.9393
  301.0000    -8.1410     6.5807     9.8746     7.6129     6.8262   405.1195     6.9386
  301.5000    -7.8641     6.5422     9.8791     7.3431     6.7041   410.7120     6.9379
  302.0000    -8.1594     6.4887     9.7370     7.2092     6.7443   415.4973     6.9371
  302.5000    -8.3973     6.4622     9.4572     7.3472     6.9060   410.7043     6.9365
  303.0000    -8.6639     6.4627     9.3126     7.3089     6.9462   401.7268     6.9226
  303.5000    -8.7762     6.4902     9.0863     7.2150     6.9863   416.0512     6.9078
  304.0000    -8.9239     6.4908     9.0919     7.2174     7.2632   426.7107     6.9167
  304.5000    -8.9176     6.4914     9.0975     7.0836     7.2198   431.1600     6.9288
  305.0000    -8.9124     6.4649     9.1020     7.0859     7.3642   425.0659     6.9409
  305.5000    -8.6356     6.5512     8.9709     6.9517     7.3181   428.1311     6.9530
  306.0000    -8.3587     6.7093     8.9758     6.8179     7.5642   443.4118     6.9590
  306.5000    -8.0815     6.8179     8.9804     6.9601     7.6740   446.7194     6.9583
  307.0000    -8.0761     6.8184     8.8497     7.0937     7.6264   441.9075     7.0123
  307.5000    -8.0707     6.8189     8.8547     7.0958     7.6128   435.8110     6.9570
  308.0000    -8.0652     6.8219     8.7235     7.0978     7.7057   426.6606     6.9581
  308.5000    -8.0598     6.8960     8.7290     7.1613     7.6515   427.4354     7.0103
  309.0000    -8.3252     7.0977     8.7338     7.1019     7.1414   426.6822     7.0064
  309.5000    -8.3200     7.3575     8.7393     7.1043     6.9163   425.1676     6.9816
  310.0000    -8.5869     7.4577     8.7438     7.1062     7.0681   419.0711     6.9808
  310.5000    -8.8533     7.5520     8.7483     7.1081     7.4710   414.5016     6.9802
  311.0000    -9.1198     7.5795     8.7528     7.2459     7.1915   421.3842     6.9795
  311.5000    -8.8424     7.6611     8.7574     7.5197     7.0358   434.3745     6.9788
  312.0000    -8.8369     7.6616     8.7621     7.5218     6.9658   440.4936     6.9781
  312.5000    -8.8315     7.6892     8.6311     7.5238     7.0703   448.9031     6.9775
  313.0000    -8.8261     7.7272     8.5005     7.5258     7.2869   465.0291     6.9768
  313.5000    -8.8197     7.7714     8.3710     7.5279     7.2872   469.5397     6.9488
  314.0000    -8.8146     7.7337     8.2405     7.5303     6.9580   466.2533     6.9481
  314.5000    -8.5377     7.5537     8.2459     7.5322     6.4847   467.6177     6.9474
  315.0000    -8.8043     7.3677     8.1149     7.5341     6.0526   487.1340     6.9740
  315.5000    -9.0708     7.2871     7.9846     7.5361     5.8561   482.1060     6.9734
  316.0000    -9.0652     7.2606     7.9892     7.4021     6.2385   453.9583     6.9727
  316.5000    -9.0598     7.1530     7.8410     7.2504     6.9596   433.1861     6.9720
  317.0000    -8.9438     7.3876     7.7278     7.1343     7.7424   423.4451     6.9713
  317.5000    -8.7772     7.8474     7.8683     7.1365     7.9056   425.0447     6.9706
  318.0000    -9.0435     8.6011     7.9334     7.0027     7.3311   423.7931     6.9699
