~VERSION INFORMATION
 VERS.                2.0:   CWLS LOG ASCII STANDARD - VERSION 2.0
 WRAP.                 NO:   ONE LINE PER DEPTH STEP
~WELL INFORMATION
#MNEM.UNIT      DATA TYPE    INFORMATION
#----------   ------------   ------------------------------
 STRT.F           36.0000:   START DEPTH
 STOP.F         3160.0000:   STOP DEPTH
 STEP.F            0.5000:   STEP LENGTH
 NULL.          -999.2500:   NO VALUE
 COMP.    FENIX & SCISSON:   COMPANY
 WELL.        NPR-3 #28-3:   WELL
 FLD .             TEAPOT:   FIELD
 LOC .       S3 T38N R78W:   LOCATION
 CNTY.            NATRONA:   COUNTY
 STAT.            WYOMING:   STATE
 CTRY. UNITED STATES OF AMERICA:   COUNTRY
 SRVC.            Unknown:   SERVICE COMPANY
 DATE.        01-JUL-1978:   LOGDATE
 API .       490251066500:   API NUMBER
~CURVE INFORMATION
#MNEM.UNIT       API CODE    CURVE DESCRIPTION
#----------   ------------   ------------------------------
 DEPT.F                  :   
 ILD .OHMM   05 120 46 00:   INDUCTION LOG DEEP
 SN  .OHMM   05 040 16 00:   SHORT NORMAL 16"
 SPR .MV     05 010 01 00:   SPONTANEOUS POTENTIAL FROM RES.
 CALD.IN     45 280 60 00:   CALIPER FROM DENSITY LOG
 CORR.G/C3   45 356 01 00:   DENSITY CORRECTION
 DPHI.DEC    45 890 12 00:   DENSITY POROSITY SANDSTONE
 GRD .GAPI   45 310 01 00:   GAMMA RAY FROM DENSITY LOG
 RHOB.G/C3   45 350 01 00:   BULK DENSITY
 GR  .GAPI   30 310 01 00:   GAMMA RAY
~PARAMETER INFORMATION
#MNEM.UNIT          VALUE    DESCRIPTION
#----------   ------------   ------------------------------
 PD  .                 GL:   PERMANENT DATUM
 EPD .F              5264:   ELEVATION PERMANENT DATUM
 LMF .                 KB:   LOG MEASURED FROM
 DAPD.F                 4:   FEET ABOVE PERMANENT DATUM
 DMF .                 KB:   DRILLING MEASURED FROM
 EKB .F              5268:   KELLING BUSHING
 EGL .F              5264:   GROUND LEVEL
 DATE.        01-JUL-1978:   RUN DATE
 RUN .                  1:   RUN NUMBER
 DD  .F               630:   DEPTH DRILLER
 DL  .F               636:   DEPTH LOGGER
 BLI .F               630:   BOTTOM LOG INTERVAL
 TLI .F                50:   TOP LOG INTERVAL
 CS  .IN            8.625:   CASING SIZE
 CBD .F                40:   CASING BOTTOM DRILLER
 BS  .IN            7.875:   BIT SIZE
 BSD .F               630:   BIT SIZE AT DEPTH
 DFT .                KCL:   DRILLING FLUID TYPE
 DFD .                8.6:   DRILLING FLUID DENSITY
 DFV .                 32:   DRILLING FLUID VISCOSITY
 DFPH.                9.5:   DRILLING FLUID PH
 MSS .           FLOWLINE:   MUD SAMPLE SOURCE
 BHT .F                74:   BOTTOM HOLE TEMPERATURE
 TCS .HRS               1:   TIME CURCULATED STOPPED
 MRT .F                74:   MAXIMUM RECORDED TEMPERATURE
 LUN .               2958:   LOGGING UNIT NUMBER
 LUL .               CASP:   LOGGING UNIT LOCATION
 ENGI.             MILLER:   RECORDING ENGINEER
 WITN.           MCGINLEY:   WITNESSED BY
 CLNT.            A2DTECH:   CLIENT CODE
 ORIG.        2" 5" PRINT:   ORIGIN OF DATA
 UWI .       490251066500:   UNIQUE WELL ID
 DICO. A2D Technologies, Inc.:   DIGITIZING COMPANY
~OTHER INFORMATION
~A   DEPT      ILD         SN        SPR       CALD       CORR       DPHI         GRD      RHOB         GR   
# ...
  328.0000     6.9670     6.7305   -41.8447     7.2664     0.0063     0.1469    83.4362     2.4398  -999.2500
  328.5000     6.8232     6.5915   -41.8490     7.2678     0.0064     0.1484    81.9529     2.4391  -999.2500
  329.0000     6.6823     6.4554   -41.7021     7.2693     0.0065     0.1498    81.3662     2.4362  -999.2500
  329.5000     6.4545     6.3221   -41.7075     7.2856     0.0080     0.1525    81.9970     2.4325  -999.2500
  330.0000     6.3184     6.1859   -41.5617     7.2871     0.0111     0.1581    84.3820     2.4265  -999.2500
  330.5000     6.1056     6.0218   -41.5661     7.3035     0.0111     0.1617    84.9885     2.4199  -999.2500
  331.0000     5.9796     5.9384   -41.5714     7.3049     0.0112     0.1663    81.8639     2.4125  -999.2500
  331.5000     5.9376     5.9376   -41.5757     7.2914     0.0112     0.1703    80.2283     2.4051  -999.2500
  332.0000     5.8960     5.9368   -41.5801     7.2932     0.0083     0.1661    81.7375     2.4088  -999.2500
  332.5000     5.9772     6.0186   -41.7345     7.2947     0.0054     0.1631    82.9448     2.4156  -999.2500
  333.0000     6.1484     6.1913   -41.5886     7.3111     0.0054     0.1601    81.4857     2.4216  -999.2500
  333.5000     6.3588     6.4473   -41.5931     7.3125     0.0010     0.1577    75.4969     2.4246  -999.2500
  334.0000     6.5361     6.7659   -41.5984     7.3289    -0.0034     0.1625    71.7715     2.4194  -999.2500
  334.5000     6.7650     7.0028   -41.6028     7.3602    -0.0048     0.1618    73.5767     2.4218  -999.2500
  335.0000     6.9536     7.2480   -41.6071     7.4066    -0.0063     0.1582    78.5209     2.4248  -999.2500
  335.5000     7.1971     7.5538   -41.6114     7.4532    -0.0062     0.1597    82.1199     2.4211  -999.2500
  336.0000     7.4053     7.7159   -41.6157     7.4696    -0.0076     0.1624    82.5800     2.4196  -999.2500
  336.5000     7.6566     7.9807   -41.6201     7.5009    -0.0076     0.1621    80.9500     2.4204  -999.2500
  337.0000     7.8429     8.1026   -41.6254     7.5173    -0.0075     0.1587    77.3741     2.4227  -999.2500
  337.5000     7.9788     8.2593   -41.6298     7.5486    -0.0075     0.1584    78.4319     2.4250  -999.2500
  338.0000     8.1446     8.4309   -41.6341     7.5800    -0.0059     0.1602    82.6288     2.4236  -999.2500
  338.5000     8.2007     8.4882   -41.6384     7.5832    -0.0044     0.1557    85.4804     2.4237  -999.2500
  339.0000     8.3704     8.5459   -41.6427     7.5982    -0.0028     0.1560    87.7340     2.4289  -999.2500
  339.5000     8.4273     8.6040   -41.6471     7.6146     0.0002     0.1559    87.8954     2.4356  -999.2500
  340.0000     8.4262     8.6625   -41.6524     7.6160     0.0003     0.1497    86.2652     2.4372  -999.2500
  340.5000     8.4837     8.6611   -41.6568     7.6175    -0.0011     0.1496    82.3903     2.4387  -999.2500
  341.0000     8.4823     8.7203   -41.6611     7.6040    -0.0011     0.1481    82.2495     2.4395  -999.2500
  341.5000     8.5400     8.7188   -41.6654     7.6054    -0.0010     0.1442    83.6092     2.4425  -999.2500
  342.0000     8.5388     8.7177   -41.6697     7.6069    -0.0010     0.1439    83.6207     2.4433  -999.2500
  342.5000     8.5967     8.7162   -41.6742     7.6086    -0.0009     0.1412    84.0807     2.4458  -999.2500
  343.0000     8.5955     8.7151   -41.6794     7.6101    -0.0008     0.1373    85.5898     2.4561  -999.2500
  343.5000     8.5944     8.5943   -41.6838     7.6115    -0.0023     0.1349    87.2455     2.4599  -999.2500
  344.0000     8.5932     8.4753   -41.6881     7.6130    -0.0037     0.1373    87.7055     2.4599  -999.2500
  344.5000     8.5921     8.4158   -41.6924     7.6144    -0.0066     0.1396    86.5212     2.4592  -999.2500
  345.0000     8.5907     8.2992   -41.6967     7.6159    -0.0081     0.1366    86.3804     2.4585  -999.2500
  345.5000     8.5895     8.2407   -41.8514     7.6173    -0.0080     0.1363    86.3948     2.4593  -999.2500
  346.0000     8.5293     8.2396   -41.8566     7.6341    -0.0079     0.1396    86.0917     2.4563  -999.2500
  346.5000     8.4111     8.1817   -41.8609     7.6202    -0.0079     0.1372    85.2248     2.4542  -999.2500
  347.0000     8.3521     8.1243   -41.7140     7.6220    -0.0078     0.1324    84.6385     2.4617  -999.2500
  347.5000     8.2934     8.1233   -41.7194     7.6235    -0.0063     0.1366    83.1552     2.4640  -999.2500
  348.0000     8.2350     8.1222   -41.7237     7.6096    -0.0047     0.1389    83.4657     2.4580  -999.2500
  348.5000     8.1209     8.0094   -41.7282     7.6114    -0.0032     0.1365    84.8225     2.4558  -999.2500
  349.0000     8.0084     7.9532   -41.7335     7.6129    -0.0031     0.1391    89.0353     2.4566  -999.2500
  349.5000     7.8974     7.8430   -41.8879     7.6146    -0.0030     0.1406    90.8275     2.4552  -999.2500
  350.0000     7.8420     7.7880   -41.8928     7.6158    -0.0075     0.1376    88.5949     2.4545  -999.2500
  350.5000     7.5733     7.6251   -42.0487     7.6175    -0.0028     0.1340    85.1046     2.4528  -999.2500
  351.0000     7.4159     7.5702   -42.0543     7.6041     0.0033     0.1429    83.6882     2.4479  -999.2500
  351.5000     7.2619     7.4124   -42.0601     7.6061     0.0034     0.1352    82.8028     2.4532  -999.2500
  352.0000     7.1111     7.2580   -42.2173     7.6077    -0.0009     0.1283    80.2733     2.4667  -999.2500
  352.5000     6.9106     7.0994   -42.5232     7.6093    -0.0023     0.1373    78.0427     2.4704  -999.2500
  353.0000     6.6324     6.8627   -42.8292     7.5955    -0.0037     0.1446    81.7911     2.4571  -999.2500
  353.5000     6.4055     6.6734   -43.2853     7.5975    -0.0035     0.1455    85.2426     2.4428  -999.2500
  354.0000     6.1438     6.4003   -43.4426     7.5991    -0.0049     0.1538    87.2397     2.4333  -999.2500
  354.5000     5.8522     6.2178   -43.5984     7.5857    -0.0062     0.1577    85.1171     2.4267  -999.2500
  355.0000     5.5740     5.8867   -43.7542     7.5877    -0.0061     0.1618    85.4248     2.4185  -999.2500
  355.5000     5.2729     5.5300   -43.9101     7.5744    -0.0075     0.1678    84.8413     2.4066  -999.2500
  356.0000     4.9196     5.2672   -44.0661     7.5760    -0.0073     0.1766    84.2520     2.3962  -999.2500
  356.5000     4.4648     4.8801   -43.9228     7.5776    -0.0072     0.1940    85.4623     2.3821  -999.2500
  357.0000     3.8482     4.3076   -43.9285     7.5791    -0.0071     0.2041    89.0662     2.3651  -999.2500
  357.5000     3.2249     3.8555   -43.7840     7.5957    -0.0069     0.2140    90.7399     2.3360  -999.2500
  358.0000     3.0506     3.4748   -43.7898     7.6123    -0.0053     0.2226    88.4893     2.3099  -999.2500
  358.5000     2.9058     3.2417   -43.6452     7.6890    -0.0022     0.2465    86.2587     2.2585  -999.2500
  359.0000     2.8259     3.0605   -43.6523     7.8101     0.0087     0.2744    83.4302     2.2279  -999.2500
  359.5000     2.8055     3.0023   -43.3577     7.5875     0.0280     0.2843    81.7946     2.2116  -999.2500
  360.0000     2.8244     3.1283   -42.9129     7.5588     0.0340     0.2870    81.8091     2.2094  -999.2500
  360.5000     2.9026     3.3280   -42.6197     7.5608     0.0178     0.2747    81.3707     2.2184  -999.2500
  361.0000     3.1527     3.5448   -42.1749     7.4879     0.0104     0.2460    80.9128     2.2670  -999.2500
  361.5000     3.5768     3.9526   -42.0290     7.6248     0.0434     0.2156    81.0992     2.3387  -999.2500
  362.0000     4.1539     4.3226   -41.8859     7.5207     0.0734     0.2015    83.5024     2.3447  -999.2500
  362.5000     4.6063     4.7273   -41.7415     7.3882     0.0675     0.1844    85.7561     2.3470  -999.2500
  363.0000     5.0032     5.2057   -41.5984     7.9723     0.0085     0.1615    87.2624     2.4038  -999.2500
  363.5000     5.3229     5.5759   -41.6041     7.3910    -0.0128     0.1659    88.0213     2.4212  -999.2500
  364.0000     5.7413     5.8503   -41.6098     7.3930    -0.0157     0.1537    88.0329     2.4271  -999.2500
