~VERSION INFORMATION
 VERS.                2.0:   CWLS LOG ASCII STANDARD - VERSION 2.0
 WRAP.                 NO:   ONE LINE PER DEPTH STEP
~WELL INFORMATION
#MNEM.UNIT      DATA TYPE    INFORMATION
#----------   ------------   ------------------------------
 STRT.F           90.0000:   START DEPTH
 STOP.F         1312.0000:   STOP DEPTH
 STEP.F            0.5000:   STEP LENGTH
 NULL.          -999.2500:   NO VALUE
 COMP. US NAVY/ INTEX OIL CO:   COMPANY
 WELL. RES 3 TEAPOT DOME NPR "S' #42-2:   WELL
 FLD .             TEAPOT:   FIELD
 LOC .       S2 T38N R78W:   LOCATION
 CNTY.            NATRONA:   COUNTY
 STAT.            WYOMING:   STATE
 CTRY. UNITED STATES OF AMERICA:   COUNTRY
 SRVC. Schlumberger Well Surveying Corp:   SERVICE COMPANY
 DATE.        17-JUL-1964:   LOGDATE
 API .       490250646400:   API NUMBER
~CURVE INFORMATION
#MNEM.UNIT       API CODE    CURVE DESCRIPTION
#----------   ------------   ------------------------------
 DEPT.F                  :   
 GR  .GAPI   30 310 01 00:   GAMMA RAY
 CALS.IN     60 280 50 00:   CALIPER FROM SONIC LOG
 DT  .US/F   60 520 32 00:   INTERVAL TRANSIT TIME
 SPR .MV     05 010 01 00:   SPONTANEOUS POTENTIAL FROM RES.
 CILD.MMHO   05 110 46 00:   CONDUCTIVITY INDUCTION LOG DEEP
 ILD .OHMM   05 120 46 00:   INDUCTION LOG DEEP
 ASN .OHMM   05 040 16 00:   AMPLIFIED SHORT NORMAL 16"
~PARAMETER INFORMATION
#MNEM.UNIT          VALUE    DESCRIPTION
#----------   ------------   ------------------------------
 PD  .                 GL:   PERMANENT DATUM
 EPD .F              5142:   ELEVATION PERMANENT DATUM
 LMF .                 KB:   LOG MEASURED FROM
 DAPD.F                 8:   FEET ABOVE PERMANENT DATUM
 DMF .                 KB:   DRILLING MEASURED FROM
 EKB .F              5150:   KELLING BUSHING
 EGL .F              5142:   GROUND LEVEL
 DATE.          7-17-1964:   RUN DATE
 RUN .                  1:   RUN NUMBER
 DD  .F              1300:   DEPTH DRILLER
 DL  .F              1310:   DEPTH LOGGER
 BLI .F              1309:   BOTTOM LOG INTERVAL
 TLI .F               107:   TOP LOG INTERVAL
 CS  .IN            12.25:   CASING SIZE
 CBD .F                10:   CASING BOTTOM DRILLER
 BS  .IN               11:   BIT SIZE
 BSD .F              1300:   BIT SIZE AT DEPTH
 DFT .            GEL-OIL:   DRILLING FLUID TYPE
 DFD .                9.6:   DRILLING FLUID DENSITY
 DFV .                 63:   DRILLING FLUID VISCOSITY
 DFPH.                  8:   DRILLING FLUID PH
 DFL .                9.6:   DRILLING FLUID LOSS
 MSS .           FLOWLINE:   MUD SAMPLE SOURCE
 RMS .OHMM           2.07:   RESISTIVITY MUD SAMPLE
 MST .F                92:   MUD SAMPLE TEMPERATURE
 RMF .OHMM           1.42:   RESISTIVITY MUD FILTRATE SAMPLE
 MFST.F                92:   MUD FILTRATE SAMPLE TEMPERATURE
 RMC .OHMM           2.33:   RESISTIVITY MUD CAKE
 MCST.F                92:   MUD CAKE SAMPLE TEMPERATURE
 MFSS.                 FP:   MUD FILTRATE SAMPLE SOURCE
 MCSS.                 FP:   MUD CAKE SAMPLE SOURCE
 TCS .HRS               1:   TIME CURCULATED STOPPED
 LUN .               4507:   LOGGING UNIT NUMBER
 LUL .              CSPR.:   LOGGING UNIT LOCATION
 ENGI.             DANNER:   RECORDING ENGINEER
 WITN.          JORGENSEN:   WITNESSED BY
 CLNT.            A2DTECH:   CLIENT CODE
 ORIG.        2" 5" PRINT:   ORIGIN OF DATA
 UWI .       490250646400:   UNIQUE WELL ID
 DICO. A2D Technologies, Inc.:   DIGITIZING COMPANY
~OTHER INFORMATION
~A   DEPT       GR       CALS         DT        SPR        CILD         ILD        ASN 
# ...
  545.0000    85.9608    10.7635   103.5120   -45.9610   137.7848     7.9344     8.3401
  545.5000    89.9465    10.0587   103.3104   -46.0643   136.0007     8.0039     8.3951
  546.0000    92.3033     9.6976   103.0057   -46.0181   134.2166     8.0679     8.4418
  546.5000    93.2524     9.8629   102.4598   -45.8834   134.1287     8.1410     8.4767
  547.0000    94.1469    10.5764   101.9197   -45.7759   134.8640     8.1252     8.4757
  547.5000    94.9680    10.8022   101.3777   -45.6560   135.5992     8.0538     8.4434
  548.0000    86.2324    10.4292   100.8177   -45.5431   136.3345     7.9975     8.4129
  548.5000    87.0296    10.2956   100.5835   -45.4256   137.0698     7.9343     8.3532
  549.0000    87.9135    10.6124   100.5522   -45.3121   137.6376     7.8748     8.3002
  549.5000    88.3266    10.7023   101.0839   -45.1935   139.3362     7.8133     8.2446
  550.0000    89.3029    10.7850   101.1847   -45.0835   140.7197     7.7529     8.1933
  550.5000    85.7513    10.8766   101.5221   -44.9539   142.1032     7.6917     8.1326
  551.0000    85.8997    10.9723   102.4041   -44.8588   143.4866     7.6312     8.0901
  551.5000    87.6263    11.0581   102.3798   -44.8212   144.8701     7.5648     8.0777
  552.0000    87.1438    11.1221   101.9838   -44.7682   146.2536     7.5427     8.0584
  552.5000    90.6225    11.1408   101.5562   -44.7223   147.6371     7.5274     8.0386
  553.0000    95.4789    11.0875   101.6335   -44.6726   149.0206     7.5100     7.9912
  553.5000    92.8941    11.0135   101.9003   -44.6248   150.6507     7.4934     7.9269
  554.0000    87.9233    10.9364   102.6409   -44.5760   152.3123     7.4762     7.8631
  554.5000    88.9738    10.9288   103.7406   -44.5276   154.3343     7.4653     7.7384
  555.0000    89.3019    10.9411   104.4679   -44.4789   156.6567     7.5818     7.6261
  555.5000    86.8100    10.9540   105.0010   -44.4305   156.6567     7.7423     7.5658
  556.0000    81.6755    10.9669   105.2762   -44.3816   156.6567     7.7605     7.5366
  556.5000    79.1524    10.9791   105.0013   -44.3333   156.6567     7.7572     7.5242
  557.0000    77.3883    10.9579   104.6751   -44.2869   155.0976     7.7589     7.5855
  557.5000    76.2881    11.0155   104.0381   -44.3826   153.3283     7.7537     7.6704
  558.0000    76.5875    10.9516   103.2674   -44.5237   151.5591     7.6910     7.7495
  558.5000    74.9822    10.9480   102.6606   -44.6655   149.7898     7.6132     7.8320
  559.0000    77.9492    10.8614   102.3058   -44.7646   148.0205     7.5367     7.9112
  559.5000    74.4135    10.7078   101.9392   -44.8719   146.2513     7.4678     7.9379
  560.0000    70.1814    10.6119   102.2201   -44.9666   144.4820     7.5119     7.9565
  560.5000    70.1118    10.5788   102.9131   -45.0654   142.6426     7.5754     7.9776
  561.0000    70.8099    10.6181   103.3634   -45.0021   141.7464     7.6350     7.9970
  561.5000    71.2953    10.6175   104.4424   -44.8980   140.8131     7.6964     8.0200
  562.0000    69.3814    10.6241   104.9699   -44.8027   139.8799     7.7570     8.0639
  562.5000    68.4833    10.6608   104.3244   -44.7032   138.9466     7.8178     8.1117
  563.0000    71.4760    10.6999   103.8641   -44.6060   138.0134     7.8791     8.1622
  563.5000    72.2626    10.8229   103.5281   -44.5076   137.0802     7.9391     8.2694
  564.0000    73.7295    11.0609   103.0901   -44.4097   136.8724     8.0020     8.3373
  564.5000    77.1616    11.0565   102.2711   -44.3117   137.3218     8.0502     8.3534
  565.0000    75.0949    11.0027   101.8447   -44.2138   137.7711     8.0111     8.3398
  565.5000    73.1222    10.9699   101.6614   -44.1157   138.2204     7.9626     8.3138
  566.0000    71.1668    11.0279   101.1879   -44.0181   138.6386     7.9170     8.2546
  566.5000    71.0979    11.0515   100.3514   -43.9193   140.0801     7.8686     8.1977
  567.0000    73.3734    11.0298   100.4243   -43.8229   141.4281     7.8242     8.1544
  567.5000    75.3044    11.0089   100.7345   -43.7219   142.7761     7.7731     8.1140
  568.0000    69.0765    10.9867   101.0446   -43.6295   144.1241     7.7734     8.0728
  568.5000    67.2474    11.0271   101.2138   -43.5194   144.8929     7.8127     8.0387
  569.0000    62.6361    11.0815   101.3054   -43.4941   145.2973     7.8442     8.0412
  569.5000    60.8220    11.0805   101.5843   -43.5679   145.6456     7.8785     8.0762
  570.0000    57.3562    11.0806   101.9679   -43.6268   144.7247     7.9128     8.1114
  570.5000    56.5528    11.0805   102.2886   -43.6935   143.9159     7.9430     8.1442
  571.0000    59.4656    11.0806   102.5493   -43.7560   141.9191     7.9760     8.1804
  571.5000    60.9085    11.0693   102.7408   -43.8205   139.3193     8.1398     8.2277
  572.0000    61.7644    10.9480   102.5379   -43.8844   136.7196     8.2762     8.3102
  572.5000    63.8623    10.7015   102.2189   -43.9480   134.1198     8.4050     8.3975
  573.0000    62.4706    10.6878   101.5023   -44.0131   131.5201     8.5349     8.5812
  573.5000    63.0837    10.9160   100.5572   -44.0698   128.9203     8.6663     8.7516
  574.0000    67.5514    11.1363   100.0040   -44.0558   126.3206     8.7936     8.9195
  574.5000    69.9068    11.1350    99.2574   -44.0317   124.6380     8.9253     9.0939
  575.0000    71.1590    11.0795    98.0018   -44.0099   123.6236     8.9107     9.2285
  575.5000    70.7844    11.0232    97.5203   -43.9869   121.1011     9.0576     9.3695
  576.0000    65.9589    11.0042    97.4398   -43.9647   119.0791     9.2338     9.4662
  576.5000    54.7686    11.0163    97.4398   -43.9418   117.0571     9.3940     9.6273
  577.0000    53.3424    11.0391    97.4398   -43.9198   114.6146     9.5626     9.6365
  577.5000    51.6339    11.0622    96.8240   -43.8961   113.1198     9.7427    10.3560
  578.0000    49.7464    11.0849    95.9096   -43.8801   111.2326     9.8937    10.6109
  578.5000    50.6579    11.1009    94.8293   -43.9141   109.3454    10.0568    10.7750
  579.0000    51.2447    11.1006    94.5281   -43.9534   107.4581    10.2268    10.8957
  579.5000    51.3745    11.1006    93.6555   -43.9916   105.5709    10.3846    11.0677
  580.0000    54.3316    11.1006    93.0321   -44.0304   103.6837    10.5691    11.2130
  580.5000    59.8486    11.1006    92.3841   -44.0687   101.7965    10.6655    11.3651
  581.0000    61.4539    11.1006    92.0937   -44.1076   100.4525    10.6362    11.5492
  581.5000    63.6681    11.1006    91.7410   -44.1455   100.0480    10.6278    11.5583
  582.0000    65.2928    11.1006    91.2768   -44.1852    99.6436    10.6075    11.5463
  582.5000    65.6950    11.0975    90.9449   -44.2217    99.2392    10.5957    11.5279
  583.0000    67.4302    11.0771    91.1409   -44.2639    98.8348    10.5757    11.5106
  583.5000    65.7557    11.0628    91.3369   -44.2633    99.0190    10.5673    11.4892
  584.0000    64.7885    11.0819    91.5329   -44.2278   100.0300    10.5166    11.4772
  584.5000    69.1236    11.0997    91.3594   -44.1996   101.0410    10.4020    11.4001
  585.0000    68.8628    11.0876    90.9079   -44.1678   102.0520    10.2938    11.2404
  585.5000    69.5476    11.0738    90.7147   -44.1380   102.6465    10.1825    11.0955
  586.0000    70.3951    11.0613    90.8603   -44.1071   102.7427    10.0716    10.9335
  586.5000    69.8308    11.0803    91.0141   -44.0767   102.8390     9.9675    10.8380
  587.0000    68.8012    11.0996    90.8712   -44.0461   102.9353     9.9408    10.8145
  587.5000    65.8058    11.0850    91.5830   -44.0157   103.0316     9.9234    10.7724
  588.0000    65.7016    11.0687    92.8710   -43.9852   103.1279     9.9057    10.7768
  588.5000    67.1498    11.0528    93.1734   -43.9548   103.2242     9.8855    10.8167
  589.0000    67.5872    11.0463    93.2022   -43.9243   103.3205     9.8720    10.8531
  589.5000    66.7890    11.0810    93.1518   -43.8938   103.4167     9.8177    10.8893
  590.0000    64.4328    11.1159    93.3333   -43.8634   103.5251     9.7255    10.9304
