~VERSION INFORMATION
 VERS.                2.0:   CWLS LOG ASCII STANDARD - VERSION 2.0
 WRAP.                 NO:   ONE LINE PER DEPTH STEP
~WELL INFORMATION
#MNEM.UNIT      DATA TYPE    INFORMATION
#----------   ------------   ------------------------------
 STRT.F            4.0000:   START DEPTH
 STOP.F          530.0000:   STOP DEPTH
 STEP.F            0.5000:   STEP LENGTH
 NULL.          -999.2500:   NO VALUE
 COMP. LAWRENCE-ALLISON &ASSOC:   COMPANY
 WELL.  NPR 3 #77-22STX10:   WELL
 FLD .             TEAPOT:   FIELD
 LOC .      S10 T38N R78W:   LOCATION
 CNTY.            NATRONA:   COUNTY
 STAT.            WYOMING:   STATE
 CTRY. UNITED STATES OF AMERICA:   COUNTRY
 SRVC.           Gearhart:   SERVICE COMPANY
 DATE.        27-JUN-1986:   LOGDATE
 API .       490251108100:   API NUMBER
~CURVE INFORMATION
#MNEM.UNIT       API CODE    CURVE DESCRIPTION
#----------   ------------   ------------------------------
 DEPT.F                  :   
 GRR .GAPI   07 310 01 00:   GAMMA RAY FROM RES. LOG.
 SPR .MV     07 010 01 00:   SPONTANEOUS POTENTIAL
 ILM .OHMM   07 120 44 00:   INDUCTION LOG MEDIUM
 ILD .OHMM   07 120 46 00:   INDUCTION LOG DEEP
 RLLA.OHMM   07 220 00 00:   LATEROLOG RESISTIVITY
~PARAMETER INFORMATION
#MNEM.UNIT          VALUE    DESCRIPTION
#----------   ------------   ------------------------------
 PD  .                 GL:   PERMANENT DATUM
 EPD .F              5188:   ELEVATION PERMANENT DATUM
 LMF .                 KB:   LOG MEASURED FROM
 DAPD.F                 5:   FEET ABOVE PERMANENT DATUM
 DMF .                 KB:   DRILLING MEASURED FROM
 EKB .F              5193:   KELLING BUSHING
 EGL .F              5188:   GROUND LEVEL
 DATE.            6-27-86:   RUN DATE
 RUN .                  1:   RUN NUMBER
 DD  .F               555:   DEPTH DRILLER
 DL  .F               534:   DEPTH LOGGER
 BLI .F               530:   BOTTOM LOG INTERVAL
 TLI .F                44:   TOP LOG INTERVAL
 CS  .IN            8.625:   CASING SIZE
 CBD .F                42:   CASING BOTTOM DRILLER
 CBL .F                44:   CASING BOTTOM LOGGER
 BS  .IN            7.875:   BIT SIZE
 BSD .F               555:   BIT SIZE AT DEPTH
 DFT .                AIR:   DRILLING FLUID TYPE
 MSS .           FLOWLINE:   MUD SAMPLE SOURCE
 RMS .OHMM            1.5:   RESISTIVITY MUD SAMPLE
 MST .F                68:   MUD SAMPLE TEMPERATURE
 RMF .OHMM            1.2:   RESISTIVITY MUD FILTRATE SAMPLE
 MFST.F                66:   MUD FILTRATE SAMPLE TEMPERATURE
 RMC .OHMM            1.7:   RESISTIVITY MUD CAKE
 MCST.F                66:   MUD CAKE SAMPLE TEMPERATURE
 MFSS.                  M:   MUD FILTRATE SAMPLE SOURCE
 MCSS.                  M:   MUD CAKE SAMPLE SOURCE
 RMB .OHMM            1.5:   RESISTIVITY MUD AT BHT
 BHT .F                65:   BOTTOM HOLE TEMPERATURE
 TCS .HRS            0600:   TIME CURCULATED STOPPED
 TLAB.HRS            0055:   TIME LOGGER AT BOTTOM
 MRT .F                61:   MAXIMUM RECORDED TEMPERATURE
 LUN .               7609:   LOGGING UNIT NUMBER
 LUL .           GILLETTE:   LOGGING UNIT LOCATION
 ENGI.            WANGLER:   RECORDING ENGINEER
 WITN.              FIVAS:   WITNESSED BY
 CLNT.            A2DTECH:   CLIENT CODE
 ORIG.       2", 5" PRINT:   ORIGIN OF DATA
 UWI .       490251108100:   UNIQUE WELL ID
 DICO. A2D Technologies, Inc.:   DIGITIZING COMPANY
~OTHER INFORMATION
~A    DEPT      GRR       SPR        ILM        ILD       RLLA   
# ...
  492.0000    86.2748   -62.3573    10.2038    10.5736    11.1099
  492.5000    85.1451   -62.7339    10.2149    10.5509    11.1966
  493.0000    85.7235   -62.9274    10.2150    10.5284    11.3439
  493.5000    86.2071   -62.7222    10.2150    10.5049    11.5324
  494.0000    84.5293   -62.4938    10.2150    10.3893    11.5972
  494.5000    83.7409   -62.3120    10.2150    10.2721    11.6636
  495.0000    84.5038   -62.7343    10.2151    10.1564    11.7497
  495.5000    85.2784   -63.0386    10.2150    10.0420    11.6026
  496.0000    85.7190   -63.3215    10.2150     9.9289    11.2141
  496.5000    86.2008   -63.2573    10.0498     9.8381    11.2684
  497.0000    86.5874   -63.1772     9.7243     9.5256    11.3187
  497.5000    89.1166   -63.2730     9.4093     9.1613    10.9956
  498.0000    92.0588   -63.5755     9.1046     8.8096    10.6952
  498.5000    93.0862   -63.9093     8.8096     8.4667     9.9155
  499.0000    92.6088   -62.8302     8.5243     7.7838     9.4806
  499.5000    92.1596   -62.3321     8.0765     6.9554     9.0237
  500.0000    92.1524   -62.3236     7.3875     6.2168     8.5971
  500.5000    92.6445   -62.9043     6.8615     5.5576     8.1262
  501.0000    93.1709   -63.3153     6.0501     4.9672     7.2789
  501.5000    90.7357   -62.5933     5.1828     4.5783     6.9104
  502.0000    87.6701   -62.2789     4.6515     4.2627     6.6464
  502.5000    87.8281   -62.1546     4.1704     3.9275     5.5681
  503.0000    92.7999   -62.1185     3.9421     3.7636     4.9574
  503.5000    96.7563   -61.8825     3.7819     3.6257     4.7970
  504.0000    90.4488   -61.1737     3.6597     3.5920     5.2444
  504.5000    83.8383   -60.5213     3.6597     3.7286     6.0761
  505.0000    78.9163   -60.6684     3.9274     4.0167     7.0397
  505.5000    80.6834   -61.0400     4.2168     4.3369     8.0895
  506.0000    84.1048   -61.4060     4.5276     4.7373     8.5115
  506.5000    87.2765   -61.7760     4.8874     5.1747     8.8807
  507.0000    89.9923   -61.9214     5.4028     5.6526     8.4758
  507.5000    92.7158   -61.7619     6.0205     6.1747     8.4950
  508.0000    95.2224   -61.5581     6.5293     6.7458     8.5525
  508.5000    93.7577   -61.7657     6.9475     7.3647     8.4057
  509.0000    87.9605   -62.1147     7.3989     7.8804     8.2457
  509.5000    82.2295   -62.3279     7.7294     7.9324     9.1250
  510.0000    78.2499   -62.2339     7.8390     7.9846     9.0458
  510.5000    79.5651   -62.0220     7.9444     8.0373     9.0849
  511.0000    82.5623   -61.7467     8.0519     8.0902     9.4157
  511.5000    85.3833   -61.5166     8.1612     8.1435     9.4802
  512.0000    87.4614   -61.6965     8.2418     8.1972     9.1963
  512.5000    90.2004   -61.2952     8.2418     8.2513     9.1328
  513.0000    92.7591   -60.7733     8.2418     8.3056     9.8407
  513.5000    90.7984   -60.2294     8.2266     8.3191     9.8425
  514.0000    88.5594   -59.9961     8.1849     8.3191     9.6880
  514.5000    86.3348   -59.3877     8.1437     8.2951     9.5326
  515.0000    85.0931   -58.8010     8.0895     8.2559     9.4799
  515.5000    86.7101   -58.5196     8.1095     8.2172     9.5695
  516.0000    88.3457   -59.3357     8.1389     8.1787     9.6587
  516.5000    89.9872   -59.9042     8.1683     8.1403     9.5945
  517.0000    91.0782   -59.7007     8.1979     8.1022     9.4796
  517.5000  -999.2500   -59.1386     8.2276     8.0642     9.3316
  518.0000  -999.2500   -58.5795     8.2574     8.0144     9.0730
  518.5000  -999.2500   -58.0205     8.2875     8.0272     8.7982
  519.0000  -999.2500   -57.4614     8.3197     8.0468     9.0529
  519.5000  -999.2500   -56.9047     8.2881     8.0662     9.3946
  520.0000  -999.2500   -56.0851     8.2310     8.0858     9.7493
  520.5000  -999.2500   -55.0822     8.1744  -999.2500     9.8923
  521.0000  -999.2500   -54.0981     8.1183  -999.2500    10.0261
  521.5000  -999.2500   -53.1533     8.0639  -999.2500     9.8589
  522.0000  -999.2500   -51.8954     8.0112  -999.2500     9.7278
  522.5000  -999.2500   -27.9725     8.0902  -999.2500     9.5690
  523.0000  -999.2500   -59.5002     8.1904  -999.2500     9.8407
  523.5000  -999.2500   -76.8313     8.2564  -999.2500     9.6695
  524.0000  -999.2500   -57.0978     8.3230  -999.2500     9.4796
  524.5000  -999.2500   -61.4610     8.3971  -999.2500     9.2934
  525.0000  -999.2500   -64.1671     8.2688  -999.2500     9.1151
  525.5000  -999.2500   -65.7113     8.1653  -999.2500     8.8157
  526.0000  -999.2500   -66.7926  -999.2500  -999.2500     8.4010
  526.5000  -999.2500   -49.5247  -999.2500  -999.2500     8.3191
  527.0000  -999.2500   -55.2870  -999.2500  -999.2500     8.6776
  527.5000  -999.2500   -60.4016  -999.2500  -999.2500     8.7982
  528.0000  -999.2500   -76.8054  -999.2500  -999.2500     8.7990
  528.5000  -999.2500  -999.2500  -999.2500  -999.2500     8.7948
  529.0000  -999.2500  -999.2500  -999.2500  -999.2500     9.9669
  529.5000  -999.2500  -999.2500  -999.2500  -999.2500    10.1935
  530.0000  -999.2500  -999.2500  -999.2500  -999.2500    10.4252
