~VERSION INFORMATION
 VERS.                2.0:   CWLS LOG ASCII STANDARD - VERSION 2.0
 WRAP.                 NO:   ONE LINE PER DEPTH STEP
~WELL INFORMATION
#MNEM.UNIT      DATA TYPE    INFORMATION
#----------   ------------   ------------------------------
 STRT.F           30.0000:   START DEPTH
 STOP.F          759.0000:   STOP DEPTH
 STEP.F            0.5000:   STEP LENGTH
 NULL.          -999.2500:   NO VALUE
 COMP. FENIX & SCISSON INC:   COMPANY
 WELL.    NPR ##3 15-S-14:   WELL
 FLD .             TEAPOT:   FIELD
 LOC .      S14 T38N R78W:   LOCATION
 CNTY.            NATRONA:   COUNTY
 STAT.            WYOMING:   STATE
 CTRY. UNITED STATES OF AMERICA:   COUNTRY
 SRVC.              Welex:   SERVICE COMPANY
 DATE.        23-FEB-1977:   LOGDATE
 API .       490251027600:   API NUMBER
~CURVE INFORMATION
#MNEM.UNIT       API CODE    CURVE DESCRIPTION
#----------   ------------   ------------------------------
 DEPT.F                  :   
 GURD.OHMM   07 220 05 00:   SHALLOW SHORT GUARD RESISTIVITY
 ILD .OHMM   07 120 46 00:   INDUCTION LOG DEEP
 ILM .OHMM   07 120 44 00:   INDUCTION LOG MEDIUM
 SPR .MV     07 010 01 00:   SPONTANEOUS POTENTIAL
 CALD.IN     45 280 60 00:   CALIPER FROM DENSITY LOG
 CORR.G/C3   45 356 01 00:   DENSITY CORRECTION
 DPHI.DEC    45 890 12 00:   DENSITY POROSITY SANDSTONE
 GRD .GAPI   45 310 01 00:   GAMMA RAY FROM DENSITY LOG
 RHOB.G/C3   45 350 01 00:   BULK DENSITY
~PARAMETER INFORMATION
#MNEM.UNIT          VALUE    DESCRIPTION
#----------   ------------   ------------------------------
 PD  .                 GL:   PERMANENT DATUM
 EPD .F            5229.2:   ELEVATION PERMANENT DATUM
 LMF .                 GL:   LOG MEASURED FROM
 DMF .                 GL:   DRILLING MEASURED FROM
 EGL .F            5229.2:   GROUND LEVEL
 DATE.        23-FEB-1977:   RUN DATE
 RUN .                  1:   RUN NUMBER
 DD  .F               764:   DEPTH DRILLER
 DL  .F               762:   DEPTH LOGGER
 BLI .F               760:   BOTTOM LOG INTERVAL
 TLI .F                40:   TOP LOG INTERVAL
 CS  .IN            8.625:   CASING SIZE
 CBD .F                40:   CASING BOTTOM DRILLER
 CBL .F                40:   CASING BOTTOM LOGGER
 BS  .IN            7.875:   BIT SIZE
 BSD .F               764:   BIT SIZE AT DEPTH
 DFT .           CHEM/GEL:   DRILLING FLUID TYPE
 DFD .                9.4:   DRILLING FLUID DENSITY
 DFV .                 50:   DRILLING FLUID VISCOSITY
 DFPH.               11.0:   DRILLING FLUID PH
 DFL .               12.2:   DRILLING FLUID LOSS
 MSS .           FLOWLINE:   MUD SAMPLE SOURCE
 RMS .OHMM           0.23:   RESISTIVITY MUD SAMPLE
 MST .F                38:   MUD SAMPLE TEMPERATURE
 RMF .OHMM           0.15:   RESISTIVITY MUD FILTRATE SAMPLE
 MFST.F                38:   MUD FILTRATE SAMPLE TEMPERATURE
 RMC .OHMM           0.54:   RESISTIVITY MUD CAKE
 MCST.F                38:   MUD CAKE SAMPLE TEMPERATURE
 MFSS.               MEAS:   MUD FILTRATE SAMPLE SOURCE
 MCSS.               MEAS:   MUD CAKE SAMPLE SOURCE
 RMB .OHMM           .148:   RESISTIVITY MUD AT BHT
 BHT .F                59:   BOTTOM HOLE TEMPERATURE
 TCS .HRS               2:   TIME CURCULATED STOPPED
 MRT .F                59:   MAXIMUM RECORDED TEMPERATURE
 LUN .               8611:   LOGGING UNIT NUMBER
 LUL .           GILLETTE:   LOGGING UNIT LOCATION
 ENGI.             C.DOAK:   RECORDING ENGINEER
 WITN.         STUEBINGER:   WITNESSED BY
 CLNT.            A2DTECH:   CLIENT CODE
 ORIG.           5" PRINT:   ORIGIN OF DATA
 UWI .       490251027600:   UNIQUE WELL ID
 DICO. A2D Technologies, Inc.:   DIGITIZING COMPANY
~OTHER INFORMATION
~A   DEPT     GURD        ILD        ILM        SPR         CALD      CORR      DPHI         GRD        RHOB 
   30.0000  -999.2500  -999.2500  -999.2500  -999.2500     8.0858    -0.4246  -999.2500    80.5878     2.0459
   30.5000  -999.2500  -999.2500  -999.2500  -999.2500     8.0748    -0.4240  -999.2500    85.0358     2.0493
   31.0000  -999.2500  -999.2500  -999.2500  -999.2500     8.0747    -0.4237  -999.2500    87.8744     2.0545
   31.5000  -999.2500  -999.2500  -999.2500  -999.2500     8.0745    -0.4207  -999.2500    86.8266     2.0537
   32.0000  -999.2500  -999.2500  -999.2500  -999.2500     8.0744    -0.4177  -999.2500    83.6861     2.0590
   32.5000  -999.2500  -999.2500  -999.2500  -999.2500     8.0892    -0.4132  -999.2500    80.9442     2.0717
   33.0000  -999.2500  -999.2500  -999.2500  -999.2500     8.0741    -0.4072  -999.2500    78.7025     2.0733
   33.5000  -999.2500  -999.2500  -999.2500  -999.2500     8.0739    -0.3997  -999.2500    78.0012     2.0709
   34.0000  -999.2500  -999.2500  -999.2500  -999.2500     8.0587    -0.3877  -999.2500    78.1492     2.0799
   34.5000  -999.2500  -999.2500  -999.2500  -999.2500     8.0586    -0.3772  -999.2500    79.1941     2.0883
   35.0000  -999.2500  -999.2500  -999.2500  -999.2500     8.0585    -0.3668  -999.2500    80.6874     2.0948
   35.5000  -999.2500  -999.2500  -999.2500  -999.2500     8.0583    -0.3548  -999.2500    81.4333     2.0971
   36.0000  -999.2500  -999.2500  -999.2500  -999.2500     8.0582    -0.3427  -999.2500    80.9835     2.0843
   36.5000  -999.2500  -999.2500  -999.2500  -999.2500     8.0580    -0.3270  -999.2500    79.3378     2.0468
   37.0000  -999.2500  -999.2500  -999.2500  -999.2500     8.0579    -0.3039  -999.2500    76.9447     2.0244
   37.5000  -999.2500  -999.2500  -999.2500  -999.2500     8.0577    -0.2829  -999.2500    74.7010     2.0079
   38.0000  -999.2500  -999.2500  -999.2500  -999.2500     8.0426    -0.2500  -999.2500    71.3692     1.9518
   38.5000  -999.2500  -999.2500  -999.2500  -999.2500     8.0424    -0.2096  -999.2500    70.2135     1.8872
   39.0000  -999.2500  -999.2500  -999.2500  -999.2500     8.0273    -0.1766  -999.2500    70.3615     1.8543
   39.5000  -999.2500  -999.2500  -999.2500  -999.2500     8.0271    -0.1362  -999.2500    71.8548     1.8198
   40.0000     3.0473     1.6334     2.9501     0.0000     8.0120    -0.0569  -999.2500    73.6470     1.8587
   40.5000     3.3335     3.4199     3.1150     0.0000     8.0269     0.0210  -999.2500    75.2898     1.9486
   41.0000     3.9618     4.6486     4.3696     0.0000     8.1616     0.1003  -999.2500    78.4274     2.0040
   41.5000     6.4703     6.0004     5.8805     0.0000     8.2964     0.1504     0.2897    80.3691     2.0236
   42.0000     6.2071     5.9182     6.1286    -0.6394     8.3562     0.1647     0.2726    82.0119     2.0561
   42.5000     8.8898     5.3733     5.4740    -2.4176     8.5660     0.1467     0.2505    83.3557     2.2040
   43.0000     8.6469     5.0498     5.1549    -4.8113     9.4953     0.1497     0.2367    85.4549     2.2309
   43.5000     8.1250     6.2973     5.7566    -6.7560     9.6901     0.1497     0.2313    87.1614     2.2541
   44.0000     7.7408     6.0420     6.8885    -8.5509     9.5250     0.1467     0.2233    90.9743     2.2848
   44.5000     8.2368     5.6392     7.6927    -9.4476     9.7798     0.1452     0.2005    94.8592     2.3050
   45.0000     8.8254     5.3352     8.3566    -8.9471     9.9432     0.1422     0.2014   100.2389     2.3125
   45.5000     8.7641     5.1463     8.5308    -7.7976     9.6425     0.1377     0.2047   103.9744     2.3110
   46.0000     8.4659     4.8786     8.2968    -7.0480     9.3295     0.1347     0.2017   104.4217     2.3065
   46.5000     7.9549     4.6166     7.4790    -7.7947     8.9845     0.1302     0.1970   103.2241     2.3050
   47.0000     7.2210     4.4601     6.7380    -8.3920     8.5946     0.1379     0.1898   101.7279     2.3166
   47.5000     6.6002     4.5534     6.2304    -8.9894     8.4595     0.1422     0.1892   100.9790     2.3304
   48.0000     6.2449     5.2271     5.5927    -9.2877     8.4144     0.1392     0.1973   100.8281     2.3244
   48.5000     6.2014     5.1554     5.4395    -9.5856     8.3693     0.1362     0.2114   101.4325     2.3019
   49.0000     6.8429     4.9464     5.8683    -9.8832     8.3541     0.1347     0.2263   102.5132     2.2689
   49.5000     6.9734     4.5534     6.4191   -10.0314     8.3390     0.1287     0.2410   103.9624     2.2375
   50.0000     6.5525     4.4294     6.2864   -10.1796     8.3388     0.1153     0.2335   103.8114     2.2322
   50.5000     6.2859     4.5564     6.0721   -10.1781     8.3237     0.1048     0.2048   102.4647     2.2704
   51.0000     6.1566     4.6808     5.8247   -10.1766     8.3085     0.1123     0.1848    99.9221     2.3251
   51.5000     6.1138     4.5849     5.6652    -9.5761     8.3084     0.1228     0.1794    99.4726     2.3520
   52.0000     6.2414     4.3387     5.6644    -8.2273     8.3233     0.1287     0.1907   102.1613     2.3517
   52.5000     6.4159     3.9940     5.7425    -6.5791     8.3081     0.1287     0.1985   103.6546     2.3250
   53.0000     6.4175     3.7535     5.5083    -5.5298     8.3229     0.1287     0.2021   103.6851     2.3085
   53.5000     6.1497     3.5520     5.0694    -5.0792     8.3228     0.1332     0.2075   102.3064     2.2980
   54.0000     5.7244     3.3612     4.6013    -4.7783     8.3076     0.1377     0.2156   100.7862     2.2845
   54.5000     5.0362     3.2249     4.2936    -4.4775     8.3225     0.1392     0.2228   100.3603     2.2748
   55.0000     4.4778     3.1156     4.2341    -4.1766     8.3223     0.1302     0.2330   101.3154     2.2628
   55.5000     4.5398     3.0729     4.2335    -4.4746     8.3372     0.1228     0.2486   102.1507     2.2376
   56.0000     5.9434     3.0942     4.2918    -4.7725     8.3520     0.1138     0.2806   102.8967     2.2038
   56.5000     7.6214     3.2028     4.6051    -5.0704     8.3668     0.1033     0.2992   103.3440     2.1698
   57.0000     7.8889     3.3612     5.1110    -5.0689     8.3667     0.0943     0.2772   101.6979     2.1444
   57.5000     7.5679     3.6013     5.5396    -5.0671     8.3816     0.0883     0.2539    99.7533     2.1586
   58.0000     7.0621     3.8320     5.9763    -4.7662     8.4114     0.0883     0.2114    97.5097     2.2375
   58.5000     6.7283     3.9665     6.4029    -4.4654     8.4562     0.0913     0.1794    97.3348     2.3578
   59.0000     8.3925     4.1057     6.4912    -4.1645     8.5010     0.0958     0.1753   100.8132     2.3600
   59.5000     8.1631     4.2206     6.5353    -3.8636     8.5459     0.1003     0.1711   105.1445     2.3623
   60.0000     7.9951     4.1916     6.5799    -3.5628     8.6057     0.1078     0.1657   104.9773     2.3682
   60.5000     7.8306     4.1333     6.5335    -3.4116     8.6205     0.1093     0.1588   102.7337     2.3795
   61.0000     7.5642     4.0495     6.3986    -3.2604     8.6204     0.1108     0.1528   101.5364     2.3937
   61.5000     7.3068     3.9665     6.2613    -2.9596     8.6352     0.1168     0.1510    99.5917     2.3959
   62.0000     6.9134     3.8853     6.0527    -2.9581     8.6351     0.1213     0.1573    97.4976     2.3884
   62.5000     6.5866     3.8057     5.9277    -2.9566     8.6499     0.1243     0.1578    96.4498     2.3854
   63.0000     6.2743     3.6766     5.7654    -2.9551     8.6647     0.1287     0.1534   100.0358     2.3893
   63.5000     6.0565     3.5766     5.6074    -2.9533     8.6646     0.1317     0.1525   100.9312     2.3966
   64.0000     5.8150     3.4553     5.4539    -2.9519     8.6645     0.1362     0.1571   101.3782     2.3823
   64.5000     5.6172     3.3612     5.2680    -2.9504     8.6643     0.1422     0.1598   103.9417     2.3748
   65.0000     5.4261     3.3381     5.1237    -2.9489     8.6642     0.1452     0.1604   106.3478     2.3741
   65.5000     5.3884     3.3845     5.0179    -2.9475     8.6640     0.1467     0.1619   106.9044     2.3771
   66.0000     6.0178     3.4575     5.0898    -2.9460     8.6639     0.1437     0.1691   104.3615     2.3673
