~VERSION INFORMATION
 VERS.                2.0:   CWLS LOG ASCII STANDARD - VERSION 2.0
 WRAP.                 NO:   ONE LINE PER DEPTH STEP
~WELL INFORMATION
#MNEM.UNIT      DATA TYPE    INFORMATION
#----------   ------------   ------------------------------
 STRT.F           70.0000:   START DEPTH
 STOP.F         1088.0000:   STOP DEPTH
 STEP.F            0.5000:   STEP LENGTH
 NULL.          -999.2500:   NO VALUE
 COMP. U S NAVY/INTEX OIL CO:   COMPANY
 WELL. RES 3 TEAPOT DOME #66S-11:   WELL
 FLD .             TEAPOT:   FIELD
 LOC .      S11 T38N R78W:   LOCATION
 CNTY.            NATRONA:   COUNTY
 STAT.            WYOMING:   STATE
 CTRY. UNITED STATES OF AMERICA:   COUNTRY
 SRVC.         Lane Wells:   SERVICE COMPANY
 DATE.        06-MAR-1960:   LOGDATE
 API .       490250633400:   API NUMBER
~CURVE INFORMATION
#MNEM.UNIT       API CODE    CURVE DESCRIPTION
#----------   ------------   ------------------------------
 DEPT.F                  :   
 SPR .MV     05 010 01 00:   SPONTANEOUS POTENTIAL FROM RES.
 ILD .OHMM   05 120 46 00:   INDUCTION LOG DEEP
 CILD.MMHO   05 110 00 00:   CONDUCTIVITY INDUCTION LOG
 ASN .OHMM   05 041 16 00:   AMPLIFIED SHORT NORMAL 16"
~PARAMETER INFORMATION
#MNEM.UNIT          VALUE    DESCRIPTION
#----------   ------------   ------------------------------
 PD  .                 GL:   PERMANENT DATUM
 EPD .F              5238:   ELEVATION PERMANENT DATUM
 LMF .                 KB:   LOG MEASURED FROM
 DAPD.F                 5:   FEET ABOVE PERMANENT DATUM
 DMF .                 KB:   DRILLING MEASURED FROM
 EKB .F              5243:   KELLING BUSHING
 EGL .F              5238:   GROUND LEVEL
 DATE.             3-6-60:   RUN DATE
 RUN .                  1:   RUN NUMBER
 DD  .F              1085:   DEPTH DRILLER
 DL  .F              1087:   DEPTH LOGGER
 BLI .F              1085:   BOTTOM LOG INTERVAL
 TLI .F                70:   TOP LOG INTERVAL
 CS  .IN            8.625:   CASING SIZE
 CBD .F                12:   CASING BOTTOM DRILLER
 BS  .IN            7.875:   BIT SIZE
 BSD .F              1085:   BIT SIZE AT DEPTH
 DFT .   GEL/OIL EMULSION:   DRILLING FLUID TYPE
 DFD .               10.3:   DRILLING FLUID DENSITY
 DFV .                 37:   DRILLING FLUID VISCOSITY
 DFPH.                8.5:   DRILLING FLUID PH
 DFL .                7.2:   DRILLING FLUID LOSS
 MSS .          FLOW LINE:   MUD SAMPLE SOURCE
 RMS .OHMM           1.65:   RESISTIVITY MUD SAMPLE
 MST .F                70:   MUD SAMPLE TEMPERATURE
 RMF .OHMM            1.2:   RESISTIVITY MUD FILTRATE SAMPLE
 MFST.F                68:   MUD FILTRATE SAMPLE TEMPERATURE
 RMC .OHMM            1.8:   RESISTIVITY MUD CAKE
 MCST.F                68:   MUD CAKE SAMPLE TEMPERATURE
 MFSS.              PRESS:   MUD FILTRATE SAMPLE SOURCE
 MCSS.              PRESS:   MUD CAKE SAMPLE SOURCE
 RMB .OHMM            1.5:   RESISTIVITY MUD AT BHT
 BHT .F                74:   BOTTOM HOLE TEMPERATURE
 MRT .F                74:   MAXIMUM RECORDED TEMPERATURE
 LUN .               4474:   LOGGING UNIT NUMBER
 LUL .             CASPER:   LOGGING UNIT LOCATION
 ENGI.      NELSON/GRIGGS:   RECORDING ENGINEER
 WITN.   JORGENSEN/HUDSON:   WITNESSED BY
 CLNT.            A2DTECH:   CLIENT CODE
 ORIG.       2", 5" PRINT:   ORIGIN OF DATA
 UWI .       490250633400:   UNIQUE WELL ID
 DICO. A2D Technologies, Inc.:   DIGITIZING COMPANY
~OTHER INFORMATION
~A   DEPT      SPR          ILD      CILD         ASN 
# ...
  727.0000   -37.1984     7.1194   149.1921     8.3461
  727.5000   -36.8725     7.0875   150.0079     8.2786
  728.0000   -36.5496     7.0556   150.8238     8.2414
  728.5000   -36.2299     7.0237   151.6396     8.2050
  729.0000   -36.2270     6.9918   152.4555     8.1683
  729.5000   -36.6003     6.9599   153.2713     8.1458
  730.0000   -36.9596     6.9280   154.0871     8.1388
  730.5000   -37.0749     6.8947   154.9030     8.1297
  731.0000   -37.1791     6.8613   155.2958     8.0758
  731.5000   -37.2844     6.8280   154.8256     8.0203
  732.0000   -37.3900     6.7947   154.3667     7.9647
  732.5000   -37.4958     6.7612   153.9077     7.9159
  733.0000   -37.6012     6.7471   153.4488     7.9520
  733.5000   -37.7001     6.7469   152.9899     7.9893
  734.0000   -37.7651     6.7469   152.5310     8.0261
  734.5000   -37.8271     6.7468   152.0721     8.0631
  735.0000   -37.8651     6.7477   152.1231     8.0994
  735.5000   -37.7253     6.6851   152.2931     8.1296
  736.0000   -37.5850     6.5889   156.8822     7.9334
  736.5000   -37.4465     6.4917   161.4676     7.6587
  737.0000   -37.3721     6.3945   166.0619     7.3813
  737.5000   -37.6468     6.2974   170.6558     7.1036
  738.0000   -37.9167     6.2003   175.2386     6.8268
  738.5000   -38.1858     6.1030   178.8645     6.5941
  739.0000   -38.4550     6.0061   178.2460     6.5903
  739.5000   -38.7350     5.9298   177.3821     6.6310
  740.0000   -38.7016     5.9421   176.5183     6.7387
  740.5000   -38.5795     5.9563   175.6545     6.8443
  741.0000   -38.4544     5.9705   174.7906     6.9496
  741.5000   -38.3327     5.9846   173.9268     7.0298
  742.0000   -38.3058     5.9986   173.0630     7.0409
  742.5000   -38.5647     6.0128   172.1991     7.0535
  743.0000   -38.8113     6.0404   171.2443     7.0922
  743.5000   -39.0580     6.0988   170.0971     7.1916
  744.0000   -39.3047     6.1568   168.9498     7.2183
  744.5000   -39.5490     6.2147   167.8025     7.2321
  745.0000   -39.7083     6.2726   166.6552     7.2452
  745.5000   -39.7045     6.3306   165.5080     7.2556
  746.0000   -39.6278     6.3885   164.3607     7.3850
  746.5000   -39.4244     6.4464   163.2134     7.5253
  747.0000   -39.2231     6.5044   161.7179     7.6660
  747.5000   -39.0210     6.5641   159.7411     7.8062
  748.0000   -38.8172     6.6285   157.7642     7.9462
  748.5000   -38.6212     6.6950   155.7874     8.0358
  749.0000   -38.7509     6.7618   153.8105     8.0640
  749.5000   -38.8982     6.8283   151.8337     8.0925
  750.0000   -39.7297     6.9444   172.1664     7.8712
  750.5000   -39.7084     6.9315   167.2630     7.9586
  751.0000   -39.6780     6.9133   167.5862     8.0460
  751.5000   -39.6546     6.8984   167.8664     8.1160
  752.0000   -39.6233     6.8804   168.2166     8.2038
  752.5000   -39.5932     6.8622   168.5668     8.2883
  753.0000   -39.5623     6.8439   168.9170     8.3069
  753.5000   -39.5953     6.8257   169.4018     8.2243
  754.0000   -39.6750     6.8075   169.9709     8.1395
  754.5000   -39.7553     6.7893   170.5400     8.0440
  755.0000   -39.8357     6.7700   172.0675     7.8989
  755.5000   -39.9161     6.7260   174.6691     7.7572
  756.0000   -39.9969     6.6452   177.2706     7.6114
  756.5000   -40.0803     6.5650   179.8722     7.5039
  757.0000   -39.9961     6.4784   182.4738     7.4027
  757.5000   -39.8817     6.3655   185.1521     7.2743
  758.0000   -39.7708     6.2514   189.0083     7.1356
  758.5000   -39.4776     6.1373   192.9816     6.9968
  759.0000   -39.1053     6.0231   196.9550     6.8580
  759.5000   -38.7333     5.9094   200.9283     6.7193
  760.0000   -38.5397     5.7808   204.9016     6.5806
  760.5000   -38.8616     5.6465   208.8749     6.4422
  761.0000   -39.1656     5.5112   212.8483     6.3032
  761.5000   -39.4833     5.3758   216.8216     6.1340
  762.0000   -39.3921     5.2424   220.7949     5.9314
  762.5000   -39.1795     5.1692   224.7683     5.7300
  763.0000   -38.9669     5.2260   228.0859     5.5254
  763.5000   -38.8697     5.2805   227.0309     5.3844
  764.0000   -38.9927     5.3354   224.2487     5.2893
  764.5000   -39.1119     5.3900   221.4664     5.3223
  765.0000   -39.2319     5.4268   218.6842     5.4483
  765.5000   -39.3516     5.4393   215.9019     5.6108
  766.0000   -39.4715     5.4520   213.1197     5.8625
  766.5000   -39.5926     5.4646   210.3374     6.0881
  767.0000   -39.7211     5.4773   208.1089     6.1953
  767.5000   -39.3893     5.4899   207.1333     6.1707
  768.0000   -39.0131     5.5025   206.1577     6.1849
  768.5000   -38.9335     5.5142   205.1821     6.2568
  769.0000   -38.8632     5.5359   204.2065     6.3299
  769.5000   -38.7542     5.5578   203.2309     6.3819
  770.0000   -38.6015     5.5799   205.9750     6.4201
  770.5000   -38.4928     5.5982   206.8966     6.4471
  771.0000   -38.7596     5.5535   207.2338     6.4286
  771.5000   -39.1001     5.5075   207.5711     6.3577
  772.0000   -39.4752     5.4618   207.9083     6.2866
  772.5000   -39.8453     5.4162   208.2455     6.2181
  773.0000   -40.0542     5.3706   210.2070     6.1499
  773.5000   -39.9353     5.3250   213.6758     6.0717
  774.0000   -39.8224     5.2800   217.1446     5.9416
  774.5000   -39.7083     5.2381   220.6133     5.8103
  775.0000   -39.5947     5.1277   225.8633     5.6795
  775.5000   -39.4709     5.0103   233.8651     5.5479
  776.0000   -39.3411     4.8932   241.8670     5.3918
  776.5000   -39.2111     4.7762   249.8688     5.1313
  777.0000   -39.0811     4.6592   257.8707     4.8760
  777.5000   -38.9510     4.5419   265.8725     4.6263
  778.0000   -38.8211     4.4280   274.5975     4.3769
  778.5000   -38.6895     4.3506   274.5975     4.1379
  779.0000   -38.6490     4.2597   271.0483     4.0500
  779.5000   -38.6491     4.2576   266.1920     4.0596
  780.0000   -38.6861     4.3707   261.3357     4.2986
  780.5000   -38.7622     4.5630   253.1485     4.5949
  781.0000   -38.8378     4.7284   244.0446     4.9743
  781.5000   -38.9137     4.8927   234.9340     5.3601
  782.0000   -38.9894     5.0575   225.8102     5.5973
  782.5000   -39.0651     5.2207   220.3220     5.8378
  783.0000   -39.1415     5.2925   216.6798     5.9363
  783.5000   -39.2649     5.3644   213.0376     6.0502
  784.0000   -39.4766     5.4372   209.3954     6.1601
  784.5000   -39.6914     5.5102   205.7531     6.2553
  785.0000   -39.7043     5.5831   203.1306     6.3153
  785.5000   -39.6721     5.6561   200.8542     6.3761
  786.0000   -39.6392     5.7291   198.5778     6.4359
  786.5000   -39.6075     5.8021   196.3014     6.5339
  787.0000   -39.5740     5.8752   194.0250     6.6402
  787.5000   -39.4735     5.9481   192.1214     6.7463
  788.0000   -39.1134     5.9784   191.3625     6.8346
  788.5000   -38.7584     6.0011   190.6038     6.8709
  789.0000   -38.7067     6.0238   189.8429     6.9167
  789.5000   -38.7817     6.0466   189.0905     6.9873
  790.0000   -38.5980     6.0694   188.5734     7.0596
  790.5000   -38.1316     6.0923   188.2944     7.0722
  791.0000   -38.3557     6.1152   188.0098     7.0640
  791.5000   -38.6361     6.1373   187.7253     7.0557
  792.0000   -38.9144     6.1382   187.4407     7.1094
  792.5000   -39.1896     6.1380   187.1562     7.1598
  793.0000   -39.4372     6.1380   187.1184     7.1475
  793.5000   -39.6244     6.1379   187.8469     7.1304
  794.0000   -39.8131     6.1390   188.5753     7.1158
  794.5000   -40.0015     6.0829   189.3038     7.0153
  795.0000   -40.1893     6.0053   190.0322     6.9068
  795.5000   -40.3806     5.9266   191.8625     6.7981
  796.0000   -40.3571     5.8479   195.9094     6.6885
  796.5000   -40.2064     5.7696   199.9563     6.6124
  797.0000   -39.9455     5.6885   204.0032     6.5707
  797.5000   -39.2431     5.5464   209.1112     6.5311
  798.0000   -38.5542     5.4010   214.4918     6.3918
  798.5000   -38.6632     5.2553   219.8723     6.2323
  799.0000   -38.8192     5.1118   225.2529     6.0875
  799.5000   -38.5833     4.8858   235.1495     5.8314
