~VERSION INFORMATION
 VERS.                2.0:   CWLS LOG ASCII STANDARD - VERSION 2.0
 WRAP.                 NO:   ONE LINE PER DEPTH STEP
~WELL INFORMATION
#MNEM.UNIT      DATA TYPE    INFORMATION
#----------   ------------   ------------------------------
 STRT.F           95.0000:   START DEPTH
 STOP.F          914.0000:   STOP DEPTH
 STEP.F            0.5000:   STEP LENGTH
 NULL.          -999.2500:   NO VALUE
 COMP. LAWRENCE/ALLISON INC:   COMPANY
 WELL. NPR ##3 31-61 SX 2:   WELL
 FLD .             TEAPOT:   FIELD
 LOC .       S2 T38N R78W:   LOCATION
 CNTY.            NATRONA:   COUNTY
 STAT.            WYOMING:   STATE
 CTRY. UNITED STATES OF AMERICA:   COUNTRY
 SRVC.      Dresser Atlas:   SERVICE COMPANY
 DATE.        30-JAN-1986:   LOGDATE
 API .       490251106800:   API NUMBER
~CURVE INFORMATION
#MNEM.UNIT       API CODE    CURVE DESCRIPTION
#----------   ------------   ------------------------------
 DEPT.F                  :   
 RILD.OHMM   07 120 46 00:   INDUCTION LOG DEEP RESISTIVITY
 RILM.OHMM   07 120 44 00:   INDUCTION LOG MEDIUM RESISTIVITY
 CALD.IN     45 280 60 00:   CALIPER FROM DENSITY
 GRD .GAPI   45 310 01 00:   GAMMA RAY FROM DENSITY LOG
 CORR.G/C3   45 356 01 00:   DENSITY CORRECTION
 PORD.DEC    45 890 10 00:   POROSITY DENSITY LIMESTONE
 DEN .G/C3   45 350 01 00:   COMPENSATED BULK DENSITY
~PARAMETER INFORMATION
#MNEM.UNIT          VALUE    DESCRIPTION
#----------   ------------   ------------------------------
 PD  .                 GL:   PERMANENT DATUM
 EPD .F              5126:   ELEVATION PERMANENT DATUM
 LMF .                 GL:   LOG MEASURED FROM
 DMF .                 GL:   DRILLING MEASURED FROM
 EGL .F              5126:   GROUND LEVEL
 DATE.        30-JAN-1986:   RUN DATE
 RUN .                  1:   RUN NUMBER
 DD  .F               925:   DEPTH DRILLER
 DL  .F               918:   DEPTH LOGGER
 BLI .F               910:   BOTTOM LOG INTERVAL
 CS  .IN            8.625:   CASING SIZE
 CBD .F               127:   CASING BOTTOM DRILLER
 CBL .F               127:   CASING BOTTOM LOGGER
 BS  .IN             6.25:   BIT SIZE
 BSD .F               925:   BIT SIZE AT DEPTH
 DFT .                AIR:   DRILLING FLUID TYPE
 LUN .            HL-6264:   LOGGING UNIT NUMBER
 LUL .           GILLETTE:   LOGGING UNIT LOCATION
 ENGI.     P. M. FAHLSING:   RECORDING ENGINEER
 WITN.        LINOA FIVAS:   WITNESSED BY
 CLNT.            A2DTECH:   CLIENT CODE
 ORIG.           5" PRINT:   ORIGIN OF DATA
 UWI .       490251106800:   UNIQUE WELL ID
 DICO. A2D Technologies, Inc.:   DIGITIZING COMPANY
~OTHER INFORMATION
~A   DEPT     RILD       RILM       CALD         GRD      CORR       PORD        DEN   
# ...
  732.0000    25.0455    25.4140     6.6541    73.7160     0.1137     0.2249     2.3023
  732.5000    25.9238    26.4653     6.6541    67.6737     0.1091     0.2364     2.2785
  733.0000    27.1664    27.5456     6.6541    65.5589     0.1121     0.2516     2.2541
  733.5000    28.1146    28.5070     6.6391    67.6737     0.1226     0.2645     2.2349
  734.0000    28.8949    29.5020     6.6391    70.0906     0.1346     0.2687     2.2283
  734.5000    29.4918    29.9060     6.6391    69.7885     0.1466     0.2693     2.2235
  735.0000    29.6892    30.1037     6.6391    66.4653     0.1418     0.2729     2.2113
  735.5000    29.8854    29.8829     6.6391    65.2568     0.1313     0.2829     2.2010
  736.0000    29.6662    29.6664     6.6391    64.6526     0.1253     0.2860     2.1980
  736.5000    29.0458    29.2479     6.6391    68.8822     0.1332     0.2863     2.1982
  737.0000    28.4383    28.8354     6.6241    77.3414     0.1420     0.2842     2.2028
  737.5000    27.6513    28.4287     6.6241    80.6646     0.1397     0.2706     2.2155
  738.0000    26.7003    27.4511     6.6241    78.2477     0.1264     0.2528     2.2414
  738.5000    25.4272    26.1422     6.6241    76.4350     0.1326     0.2510     2.2553
  739.0000    24.3832    24.5530     6.6090    77.3414     0.1371     0.2514     2.2567
  739.5000    23.3820    22.9012     6.6241    81.2689     0.1295     0.2508     2.2591
  740.0000    23.0522    21.9609     6.6241    88.2175     0.1250     0.2457     2.2672
  740.5000    23.2066    21.6530     6.6241    93.0514     0.1309     0.2393     2.2777
  741.0000    23.5203    22.2521     6.6391    92.7492     0.1343     0.2315     2.2882
  741.5000    24.0082    23.0287     6.6391    93.0514     0.1385     0.2255     2.3032
  742.0000    24.6725    23.8325     6.6391    84.5921     0.1428     0.2189     2.3145
  742.5000    25.3572    24.4940     6.6241    81.8731     0.1488     0.2177     2.3137
  743.0000    26.0610    25.3489     6.6241    81.2689     0.1487     0.2219     2.2963
  743.5000    26.4179    26.0525     6.6241    81.2689     0.1427     0.2431     2.2730
  744.0000    26.0431    26.2248     6.6241    79.7583     0.1035     0.2567     2.2466
  744.5000    24.9738    24.8018     6.6090    77.3414     0.0945     0.2666     2.2277
  745.0000    22.6567    21.4352     6.6090    77.6435     0.1110     0.2718     2.2194
  745.5000    20.5547    18.7670     6.6090    80.3625     0.1335     0.2736     2.2277
  746.0000    18.6477    17.3913     6.6241    86.4048     0.1304     0.2425     2.2939
  746.5000    17.6358    16.5583     6.6241    92.1450     0.1063     0.2133     2.3534
  747.0000    16.6789    15.9851     6.6241    93.0514     0.0928     0.1743     2.3948
  747.5000    16.1053    15.7559     6.6241    90.9366     0.0911     0.1496     2.4218
  748.0000    15.7685    15.6587     6.6241    88.2175     0.1002     0.1396     2.4414
  748.5000    15.6542    15.6533     6.6241    87.0091     0.1107     0.1375     2.4489
  749.0000    15.6488    15.7581     6.6241    87.6133     0.1211     0.1430     2.4383
  749.5000    15.6434    15.9712     6.6241    88.8218     0.1301     0.1566     2.4127
  750.0000    15.8563    16.1899     6.6391    90.6344     0.1165     0.1756     2.3863
  750.5000    16.1866    16.4102     6.6393    92.1540     0.1105     0.1853     2.3712
  751.0000    16.5224    16.6335     6.6394    93.6744     0.1059     0.1871     2.3667
  751.5000    16.7496    16.7434     6.6396    93.6835     0.1028     0.1808     2.3779
  752.0000    16.8635    16.8540     6.6397    93.0883     0.0967     0.1736     2.3907
  752.5000    16.9772    16.8467     6.6248    91.5868     0.0907     0.1745     2.3846
  753.0000    17.0910    16.7246     6.6400    89.1789     0.0921     0.1876     2.3635
  753.5000    17.0873    16.6034     6.6402    88.2794     0.0996     0.2024     2.3356
  754.0000    17.0838    16.3692     6.6403    89.8012     0.1025     0.2132     2.3213
  754.5000    16.8452    16.0268     6.6405    90.4145     0.1040     0.2123     2.3250
  755.0000    16.7254    15.8008     6.6406    90.4236     0.1039     0.2080     2.3370
  755.5000    16.6064    15.5779     6.6408    92.8495     0.1008     0.2026     2.3461
  756.0000    16.3745    15.5725     6.6409    94.3692     0.0948     0.1978     2.3505
  756.5000    16.2565    15.4597     6.6561    92.5655     0.0872     0.1941     2.3543
  757.0000    16.0265    15.5631     6.6563    90.1576     0.0886     0.1927     2.3550
  757.5000    15.9095    15.5564     6.6413    89.2581     0.0991     0.1951     2.3520
  758.0000    15.6945    15.4437     6.6415    90.7800     0.1156     0.1966     2.3489
  758.5000    15.6912    15.3317     6.6417    93.2059     0.1260     0.1976     2.3488
  759.0000    15.5796    15.2206     6.6267    92.9106     0.1155     0.1966     2.3511
  759.5000    15.5577    15.1102     6.6269    93.2240     0.1034     0.1930     2.3564
  760.0000    15.2521    15.0007     6.6421    92.9332     0.0883     0.1904     2.3623
  760.5000    15.2489    14.8920     6.6423    92.9423     0.0702     0.1922     2.3578
  761.0000    15.1405    14.7840     6.6575    93.2489     0.0746     0.1931     2.3563
  761.5000    15.0328    14.5755     6.6275    95.3773     0.0851     0.1915     2.3608
  762.0000    15.0297    14.5705     6.6277    97.1990     0.0970     0.1847     2.3698
  762.5000    14.8198    14.3649     6.6278    98.1144     0.1075     0.1851     2.3667
  763.0000    14.6128    14.3600     6.6280    99.6340     0.0924     0.1947     2.3501
  763.5000    14.4087    14.1574     6.6281   101.4558     0.0728     0.1995     2.3441
  764.0000    14.2074    13.9577     6.6283   100.5585     0.0637     0.1982     2.3502
  764.5000    14.0089    13.8566     6.6284    98.4527     0.0667     0.1914     2.3638
  765.0000    13.8132    13.7561     6.6286    97.8530     0.0741     0.1824     2.3758
  765.5000    13.6203    13.5621     6.6287    97.8666     0.0861     0.1780     2.3831
  766.0000    13.5234    13.3708     6.6289    96.9693     0.0981     0.1819     2.3753
  766.5000    13.4273    13.1822     6.6290    95.1657     0.1010     0.1864     2.3670
  767.0000    13.2397    12.9962     6.6292    94.8681     0.1025     0.1885     2.3604
  767.5000    13.1455    12.9918     6.6293    96.3922     0.1084     0.1896     2.3596
  768.0000    13.0521    12.9873     6.6295    97.3076     0.1159     0.1879     2.3643
  768.5000    13.0494    13.1641     6.6296    97.6165     0.1218     0.1835     2.3719
  769.0000    13.2288    13.2510     6.6448    95.8129     0.1158     0.1796     2.3786
  769.5000    13.3180    13.3385     6.6299    94.6157     0.0961     0.1772     2.3844
  770.0000    13.5011    13.4266     6.6301    93.7184     0.0615     0.1752     2.3858
  770.5000    13.6874    13.7040     6.6302    93.7275     0.0554     0.1749     2.3843
  771.0000    13.8749    13.8905     6.6304    94.6429     0.0614     0.1786     2.3700
  771.5000    13.9686    13.8808     6.6305    95.5583     0.0703     0.1876     2.3579
  772.0000    14.0628    13.6897     6.6307    95.5673     0.0823     0.1926     2.3556
  772.5000    14.1577    13.4888     6.6308    95.8785     0.0943     0.1908     2.3623
  773.0000    13.9598    13.2970     6.6310    96.7939     0.1032     0.1872     2.3676
  773.5000    13.8606    13.0174     6.6311    98.3135     0.1092     0.1848     2.3728
  774.0000    13.5726    12.8323     6.6313    99.2289     0.1137     0.1841     2.3705
  774.5000    13.3830    12.6629     6.6465    96.8210     0.1151     0.1863     2.3660
  775.0000    13.2878    12.5567     6.6316    94.7153     0.1135     0.1877     2.3675
  775.5000    13.1022    12.3938     6.6317    95.9328     0.1060     0.1839     2.3735
  776.0000    13.0042    12.2181     6.6319    98.6608     0.0878     0.1779     2.3817
  776.5000    12.8272    12.1296     6.6320    99.8738     0.0667     0.1740     2.3877
  777.0000    12.8246    11.9585     6.6322    96.8663     0.0561     0.1716     2.3914
