~VERSION INFORMATION
 VERS.                2.0:   CWLS LOG ASCII STANDARD - VERSION 2.0
 WRAP.                 NO:   ONE LINE PER DEPTH STEP
~WELL INFORMATION
#MNEM.UNIT      DATA TYPE    INFORMATION
#----------   ------------   ------------------------------
 STRT.F            0.0000:   START DEPTH
 STOP.F          795.0000:   STOP DEPTH
 STEP.F            0.5000:   STEP LENGTH
 NULL.          -999.2500:   NO VALUE
 COMP. BROWN JOHN E&C INC:   COMPANY
 WELL. NPR 3 SX-11 #41-11:   WELL
 FLD .             TEAPOT:   FIELD
 LOC .      S11 T38N R78W:   LOCATION
 CNTY.            NATRONA:   COUNTY
 STAT.            WYOMING:   STATE
 CTRY. UNITED STATES OF AMERICA:   COUNTRY
 SRVC.           Gearhart:   SERVICE COMPANY
 DATE.        19-AUG-1988:   LOGDATE
 API .       490251125300:   API NUMBER
~CURVE INFORMATION
#MNEM.UNIT       API CODE    CURVE DESCRIPTION
#----------   ------------   ------------------------------
 DEPT.F                  :   
 ILD .OHMM   07 120 46 00:   INDUCTION LOG DEEP
 ILM .OHMM   07 120 44 00:   INDUCTION LOG MEDIUM
 GRR .GAPI   07 310 01 00:   GAMMA RAY FROM RES. LOG.
~PARAMETER INFORMATION
#MNEM.UNIT          VALUE    DESCRIPTION
#----------   ------------   ------------------------------
 PD  .                 GL:   PERMANENT DATUM
 EPD .F              5093:   ELEVATION PERMANENT DATUM
 LMF .                 KB:   LOG MEASURED FROM
 DAPD.F                10:   FEET ABOVE PERMANENT DATUM
 DMF .                 KB:   DRILLING MEASURED FROM
 EKB .F              5103:   KELLING BUSHING
 EGL .F              5093:   GROUND LEVEL
 DATE.            8-19-88:   RUN DATE
 RUN .                  1:   RUN NUMBER
 DD  .F               800:   DEPTH DRILLER
 DL  .F             802.5:   DEPTH LOGGER
 BLI .F               794:   BOTTOM LOG INTERVAL
 CS  .IN            9.625:   CASING SIZE
 CBD .F                48:   CASING BOTTOM DRILLER
 CBL .F                48:   CASING BOTTOM LOGGER
 BS  .IN             8.75:   BIT SIZE
 BSD .F               800:   BIT SIZE AT DEPTH
 DFT .                AIR:   DRILLING FLUID TYPE
 TCS .HRS            1900:   TIME CURCULATED STOPPED
 TLAB.HRS            2000:   TIME LOGGER AT BOTTOM
 MRT .F                70:   MAXIMUM RECORDED TEMPERATURE
 LUN .               7597:   LOGGING UNIT NUMBER
 LUL .           GILLETTE:   LOGGING UNIT LOCATION
 ENGI.          HUCKFELDT:   RECORDING ENGINEER
 WITN.             STRONG:   WITNESSED BY
 CLNT.            A2DTECH:   CLIENT CODE
 ORIG.        2" 5" PRINT:   ORIGIN OF DATA
 UWI .       490251125300:   UNIQUE WELL ID
 DICO. A2D Technologies, Inc.:   DIGITIZING COMPANY
~OTHER INFORMATION
~A    DEPT     ILD        ILM         GRR  
# ...
  182.0000     6.9303     7.3043   104.8248
  182.5000     6.2804     7.3270   104.7258
  183.0000     5.6025     6.8744   102.6053
  183.5000     4.8074     6.1313   100.5388
  184.0000     4.1252     5.0950    98.8898
  184.5000     3.5398     4.1732    99.8195
  185.0000     3.0736     3.4182   106.3845
  185.5000     2.7942     2.7734   114.8430
  186.0000     2.5937     2.4643   123.2736
  186.5000     2.4563     2.2397   130.4007
  187.0000     2.4563     2.1351   132.8836
  187.5000     2.5647     2.1153   132.7807
  188.0000     2.7695     2.2372   129.5840
  188.5000     3.1389     2.5670   124.2669
  189.0000     3.6829     3.0001   116.0373
  189.5000     4.3858     3.5715   107.5351
  190.0000     5.2229     4.3823   101.5951
  190.5000     6.2197     5.3368    97.4719
  191.0000     7.4069     6.5032    97.0029
  191.5000     8.5589     7.8105    95.4665
  192.0000     9.7558     9.1473    93.2437
  192.5000    10.9488    10.4172    90.8361
  193.0000    10.4504    11.3647    88.4329
  193.5000     9.5173    11.3744    86.2517
  194.0000     8.6012    10.4815    86.2837
  194.5000     7.7274     9.5807    88.9316
  195.0000     6.9285     7.9615    94.3524
  195.5000     6.4404     6.6160    99.7413
  196.0000     6.1738     5.6056   105.1173
  196.5000     6.0784     5.1319   110.0191
  197.0000     6.0784     4.8576   112.8503
  197.5000     6.1183     5.0426   112.1057
  198.0000     6.4183     5.3333   108.2132
  198.5000     6.8969     6.0388   104.4101
  199.0000     7.4603     6.7962   100.6099
  199.5000     8.2812     7.6487    96.7762
  200.0000     9.1846     8.6080    93.1717
  200.5000    10.1865     9.6803    93.0932
  201.0000    11.2142    10.4962    93.4632
  201.5000    11.5960    10.9489    93.8298
  202.0000    12.0062    11.4445    94.1922
  202.5000    12.4180    11.9984    94.4396
  203.0000    12.7752    12.2804    93.7997
  203.5000    13.1427    12.4754    92.0426
  204.0000    13.6345    12.6735    90.2795
  204.5000    14.0030    13.0541    89.7042
  205.0000    14.2226    13.4938    89.9522
  205.5000    14.3424    13.7776    90.2100
  206.0000    14.4615    14.0306    90.4726
  206.5000    14.5816    14.2329    90.7154
  207.0000    14.7027    14.2763    91.8144
  207.5000    14.8248    14.3199    93.2960
  208.0000    14.9480    14.3636    94.7917
  208.5000    15.0714    14.4074    96.1594
  209.0000    15.1999    14.4512    95.7297
  209.5000    15.3493    14.5137    94.3955
  210.0000    15.5001    14.7020    93.2253
  210.5000    15.6525    14.8928    94.4827
  211.0000    15.8063    15.0860    96.7237
  211.5000    15.9616    15.2817    98.8770
  212.0000    16.1667    15.4800    97.9497
  212.5000    16.4534    15.6808    96.8539
  213.0000    16.7455    15.8902    95.7714
  213.5000    17.0427    16.1062    94.6984
  214.0000    17.3451    16.3252    94.0798
  214.5000    17.6528    16.5472    94.1787
  215.0000    17.9661    16.7721    94.2719
  215.5000    18.2858    16.9839    94.3669
  216.0000    18.6062    17.3983    94.4599
  216.5000    18.9649    17.7979    94.5927
  217.0000    19.3308    18.2057    94.7386
  217.5000    19.7037    18.6183    94.8866
  218.0000    20.0838    19.0064    95.0375
  218.5000    20.4713    19.3543    95.1849
  219.0000    20.8662    19.7120    95.1042
  219.5000    21.2688    20.0760    93.6730
  220.0000    21.6793    20.4467    92.2437
  220.5000    22.0968    20.8242    90.7421
  221.0000    22.4483    21.1802    90.4871
  221.5000    22.7535    21.4987    92.9410
  222.0000    23.1159    21.8220    95.4954
  222.5000    22.9009    22.1502    96.9973
  223.0000    22.9062    22.2681    95.2862
  223.5000    22.6385    22.2697    93.3223
  224.0000    22.4809    22.2082    91.3500
  224.5000    22.3239    22.0836    89.3634
  225.0000    22.1682    21.9583    88.6816
  225.5000    21.9542    21.8341    88.3806
  226.0000    21.6110    21.7106    88.8165
  226.5000    21.2731    21.5510    90.3023
  227.0000    20.9406    21.2476    91.9538
  227.5000    20.6133    20.9484    93.6192
  228.0000    20.2910    20.6535    95.2531
  228.5000    19.9739    20.3627    95.6105
  229.0000    19.6618    20.0760    95.0950
  229.5000    19.3909    19.7449    94.0740
  230.0000    19.1493    19.3489    93.4851
  230.5000    18.9083    18.9609    94.7722
  231.0000    18.4481    18.6468    96.0114
  231.5000    17.8759    19.2305    96.9316
  232.0000    16.2065    19.5384    96.7765
  232.5000    14.5318    18.0504    96.6466
  233.0000    13.0404    16.0871    96.5567
  233.5000    11.7247    14.2635    97.7324
  234.0000    10.5418    12.2848   102.0576
  234.5000     9.4783    10.2983   107.5012
  235.0000     8.6535     8.6987   112.9858
  235.5000     8.1433     7.8668   118.6104
  236.0000     7.6632     7.3206   120.6697
  236.5000     7.3730     6.9587   121.7976
  237.0000     7.2139     6.6735   121.5120
  237.5000     7.0582     6.6735   121.9912
  238.0000     7.0582     6.8069   122.4892
  238.5000     7.2065     6.9041   121.4465
  239.0000     7.3137     7.0027   119.5389
  239.5000     7.3957     7.0582   117.6019
  240.0000     7.3092     6.9981   117.6048
  240.5000     7.2404     6.9068   119.0615
  241.0000     7.1914     6.8167   120.5196
  241.5000     7.1245     6.7362   121.8229
  242.0000     7.1718     6.7362   122.0494
  242.5000     7.2399     6.8606   122.2750
  243.0000     7.3087     6.9751   122.4945
  243.5000     7.3781     7.0914   122.2286
  244.0000     7.3957     7.1914   120.9135
  244.5000     7.4203     7.1914   119.6162
  245.0000     7.4651     7.1914   118.3172
  245.5000     7.4460     7.1914   117.0180
  246.0000     7.4265     7.1271   115.7160
  246.5000     7.4075     7.0628   114.4103
  247.0000     7.3511     6.9992   113.7562
  247.5000     7.2480     6.9361   116.2388
  248.0000     7.1914     6.8736   118.7589
  248.5000     7.1914     6.8117   120.6969
  249.0000     7.1914     6.7503   118.9994
  249.5000     7.1914     6.6895   117.2005
  250.0000     7.1913     6.6292   117.6667
  250.5000     7.1913     6.6115   120.0750
  251.0000     7.1913     6.6734   122.5569
  251.5000     7.2017     6.7932   121.0934
  252.0000     7.2755     6.9152   118.4348
  252.5000     7.3498     7.0393   115.7748
  253.0000     7.4379     7.1657   113.9549
  253.5000     7.5473     7.1914   113.6555
  254.0000     7.6583     7.1914   114.9472
  254.5000     7.7916     7.2971   116.5344
  255.0000     7.9176     7.4265   117.6960
  255.5000     8.0048     7.5582   117.2423
  256.0000     8.0930     7.6922   116.9689
  256.5000     8.1821     7.8286   117.6859
  257.0000     8.2722     7.9080   118.0566
  257.5000     8.3506     7.9322   115.7498
  258.0000     8.2682     7.9565   113.4969
  258.5000     8.1961     7.9809   111.3163
  259.0000     8.2231     8.0054   109.7371
  259.5000     8.2511     8.0307   108.2552
  260.0000     8.2726     8.0441   108.4331
  260.5000     8.1465     7.9162   109.7385
  261.0000     8.0443     7.8263   111.0287
  261.5000     7.9690     7.7377   111.9515
  262.0000     7.9375     7.6500   111.3030
  262.5000     7.9072     7.5416   112.2113
  263.0000     7.8772     7.4126   113.7080
  263.5000     7.8474     7.3270   115.2778
  264.0000     7.8218     7.4331   114.1312
  264.5000     7.8844     7.5798   111.8903
  265.0000     7.9509     7.7294   109.5960
  265.5000     8.0440     7.8229   107.2346
  266.0000     8.0252     7.7710   108.2821
  266.5000     7.9936     7.7070   111.7918
  267.0000     7.9696     7.6434   115.1794
  267.5000     8.1199     7.5806   114.8839
  268.0000     8.0503     7.5350   113.6744
  268.5000     7.9467     7.5352   112.4691
  269.0000     7.8955     7.5352   112.6339
  269.5000     7.8955     7.5352   113.5500
  270.0000     7.8955     7.5352   114.4836
  270.5000     7.8955     7.5352   115.4270
  271.0000     7.8955     7.5352   115.7015
  271.5000     7.8956     7.5352   115.1638
  272.0000     7.9030     7.5350   114.0367
  272.5000     7.9224     7.5358   112.9091
