~VERSION INFORMATION
 VERS.                2.0:   CWLS LOG ASCII STANDARD - VERSION 2.0
 WRAP.                 NO:   ONE LINE PER DEPTH STEP
~WELL INFORMATION
#MNEM.UNIT      DATA TYPE    INFORMATION
#----------   ------------   ------------------------------
 STRT.F           34.0000:   START DEPTH
 STOP.F          662.0000:   STOP DEPTH
 STEP.F            0.5000:   STEP LENGTH
 NULL.          -999.2500:   NO VALUE
 COMP. FENIX & SCISSON INC:   COMPANY
 WELL.     55 S 34 #34-34:   WELL
 FLD .          N.P.R. #3:   FIELD
 LOC .      S34 T39N R78W:   LOCATION
 CNTY.            NATRONA:   COUNTY
 STAT.            WYOMING:   STATE
 CTRY. UNITED STATES OF AMERICA:   COUNTRY
 SRVC.       Schlumberger:   SERVICE COMPANY
 DATE.        15-MAR-1977:   LOGDATE
 API .       490251030500:   API NUMBER
~CURVE INFORMATION
#MNEM.UNIT       API CODE    CURVE DESCRIPTION
#----------   ------------   ------------------------------
 DEPT.F                  :   
 GRD .GAPI   45 310 01 00:   GAMMA RAY FROM DENSITY LOG
 CORR.G/C3   45 356 01 00:   DENSITY CORRECTION
 RHOB.G/C3   45 350 01 00:   BULK DENSITY
 DPOR.DEC    45 890 12 00:   DENSITY POROSITY SANDSTONE
 SPR .MV     07 010 01 00:   SPONTANEOUS POTENTIAL
 LL8 .OHMM   07 220 08 00:   LATEROLOG-8 RES.
 ILD .OHMM   07 120 46 00:   INDUCTION LOG DEEP
 ILM .OHMM   07 120 44 00:   INDUCTION LOG MEDIUM
 CALD.IN     45 280 60 00:   CALIPER
~PARAMETER INFORMATION
#MNEM.UNIT          VALUE    DESCRIPTION
#----------   ------------   ------------------------------
 PD  .                 GL:   PERMANENT DATUM
 EPD .F              5087:   ELEVATION PERMANENT DATUM
 LMF .                 GL:   LOG MEASURED FROM
 DMF .                 GL:   DRILLING MEASURED FROM
 EKB .F              5091:   KELLING BUSHING
 EGL .F              5087:   GROUND LEVEL
 DATE.            3-15-77:   RUN DATE
 RUN .                  1:   RUN NUMBER
 DD  .F               670:   DEPTH DRILLER
 DL  .F               663:   DEPTH LOGGER
 BLI .F               657:   BOTTOM LOG INTERVAL
 TLI .F                40:   TOP LOG INTERVAL
 CS  .IN            8.625:   CASING SIZE
 CBD .F                40:   CASING BOTTOM DRILLER
 CBL .F                40:   CASING BOTTOM LOGGER
 BS  .IN            7.875:   BIT SIZE
 BSD .F               670:   BIT SIZE AT DEPTH
 DFT .                KCL:   DRILLING FLUID TYPE
 DFD .                8.6:   DRILLING FLUID DENSITY
 DFV .                 31:   DRILLING FLUID VISCOSITY
 DFPH.                  8:   DRILLING FLUID PH
 DFL .                8.8:   DRILLING FLUID LOSS
 MSS .                PIT:   MUD SAMPLE SOURCE
 RMS .OHMM           .246:   RESISTIVITY MUD SAMPLE
 MST .F                76:   MUD SAMPLE TEMPERATURE
 RMF .OHMM           .243:   RESISTIVITY MUD FILTRATE SAMPLE
 MFST.F                76:   MUD FILTRATE SAMPLE TEMPERATURE
 MFSS.                  M:   MUD FILTRATE SAMPLE SOURCE
 RMB .OHMM           .267:   RESISTIVITY MUD AT BHT
 BHT .F                70:   BOTTOM HOLE TEMPERATURE
 TCS .HRS            1800:   TIME CURCULATED STOPPED
 TLAB.HRS            2200:   TIME LOGGER AT BOTTOM
 MRT .F                70:   MAXIMUM RECORDED TEMPERATURE
 LUN .               5642:   LOGGING UNIT NUMBER
 LUL .               CSPR:   LOGGING UNIT LOCATION
 ENGI.             MARTIN:   RECORDING ENGINEER
 WITN.              BURKE:   WITNESSED BY
 CLNT.            A2DTECH:   CLIENT CODE
 ORIG. 2", 2.5", 5" PRINT:   ORIGIN OF DATA
 UWI .       490251030500:   UNIQUE WELL ID
 DICO. A2D Technologies, Inc.:   DIGITIZING COMPANY
~OTHER INFORMATION
~A   DEPT       GRD      CORR       RHOB       DPOR        SPR        LL8        ILD        ILM       CALD   
   34.0000    82.9334  -999.2500  -999.2500  -999.2500  -999.2500  -999.2500  -999.2500  -999.2500  -999.2500
   34.5000    82.4927  -999.2500  -999.2500  -999.2500  -999.2500  -999.2500  -999.2500  -999.2500  -999.2500
   35.0000    81.6763  -999.2500  -999.2500  -999.2500  -999.2500  -999.2500  -999.2500  -999.2500  -999.2500
   35.5000    81.6362  -999.2500  -999.2500  -999.2500  -999.2500  -999.2500  -999.2500  -999.2500  -999.2500
   36.0000    82.6618  -999.2500  -999.2500  -999.2500  -999.2500  -999.2500  -999.2500  -999.2500  -999.2500
   36.5000    82.7081  -999.2500  -999.2500  -999.2500  -999.2500  -999.2500  -999.2500  -999.2500  -999.2500
   37.0000    82.7675  -999.2500  -999.2500  -999.2500  -999.2500  -999.2500  -999.2500  -999.2500  -999.2500
   37.5000    83.4903  -999.2500  -999.2500  -999.2500  -999.2500  -999.2500  -999.2500  -999.2500  -999.2500
   38.0000    86.1444  -999.2500  -999.2500  -999.2500  -999.2500  -999.2500  -999.2500  -999.2500  -999.2500
   38.5000    88.8655  -999.2500  -999.2500  -999.2500  -999.2500  -999.2500  -999.2500  -999.2500  -999.2500
   39.0000    91.5885  -999.2500  -999.2500  -999.2500  -999.2500  -999.2500  -999.2500  -999.2500  -999.2500
   39.5000    94.3094  -999.2500  -999.2500  -999.2500  -999.2500  -999.2500  -999.2500  -999.2500  -999.2500
   40.0000    97.4051    -0.0120     2.2203     0.2482  -156.7000  1521.0597  -999.2500  -999.2500     8.2622
   40.5000   106.0900     0.0013     2.3442     0.1974  -147.9000  1493.2751  -999.2500  -999.2500     8.2853
   41.0000   114.9172     0.0083     2.3394     0.1880  -154.5733  1504.2351  -999.2500  -999.2500     8.3083
   41.5000   119.6923     0.0033     2.3406     0.1908  -148.9737  1507.9095  -999.2500  -999.2500     8.3419
   42.0000   122.1076    -0.0010     2.3355     0.1885  -147.7170  1493.1743    10.1738  -999.2500     8.3970
   42.5000   124.4541    -0.0014     2.3382     0.1858  -148.3204  1637.1400    10.9164  -999.2500     8.4634
   43.0000   126.4349     0.0009     2.3476     0.1825  -149.0414  1720.8207     5.1090  -999.2500     8.5164
   43.5000   126.3552     0.0036     2.3589     0.1773  -148.6305   749.9402     1.6694  -999.2500     8.5054
   44.0000   125.1159     0.0125     2.3586     0.1743  -147.5459  1470.8691     2.0928     2.8311     8.4832
   44.5000   123.8957     0.0185     2.3519     0.1771  -147.9927  1536.2859     2.9447     5.4599     8.4614
   45.0000   124.5679     0.0040     2.3522     0.1808  -148.6976  1521.0597     4.1403     9.4973     8.4351
   45.5000   126.6272     0.0121     2.3561     0.1763  -149.4010  1339.9916     3.9133    13.0419     8.4099
   46.0000   127.9847     0.0164     2.3488     0.1818  -150.1013   523.3282     4.0380     8.7245     8.3983
   46.5000   127.0863     0.0053     2.3318     0.1874  -150.7938   311.5971     4.2456     5.9543     8.3891
   47.0000   126.0844    -0.0032     2.3223     0.1952  -150.6903  1507.1034     4.0406     4.8769     8.3616
   47.5000   125.8349    -0.0096     2.3126     0.2036  -150.1023  1521.0597     3.8052     4.6145     8.3328
   48.0000   125.5457    -0.0030     2.3025     0.2112  -149.9658  1521.0597     4.2179     3.9221     8.3476
   48.5000   124.5377     0.0016     2.3031     0.2079  -151.0534  1463.2979     5.0136     3.1084     8.4110
   49.0000   127.1147     0.0046     2.3209     0.2038  -152.1013  1139.9948     4.9391     3.7817     8.4770
   49.5000   130.1097     0.0314     2.3412     0.1856  -152.9099   834.6625     4.7920     4.1706     8.4837
   50.0000   133.1286     0.0553     2.3153     0.1952  -151.6960  1512.0978     4.3267     3.7386     8.4416
   50.5000   136.1281     0.0714     2.2818     0.2120  -149.1833  1511.5988     3.7686     3.4640     8.3999
   51.0000   134.0494     0.0586     2.2729     0.2256  -149.1226  1435.7266     3.2825     3.2489     8.3583
   51.5000   127.7443     0.0317     2.2422     0.2319  -150.8038  1375.5726     3.0760     3.2498     8.3169
   52.0000   121.5172     0.0022     2.2581     0.2345  -152.4845  1360.9137     3.0477     3.2908     8.2753
   52.5000   119.7493     0.0006     2.3020     0.2108  -154.1766  1361.7822     3.0760     3.3242     8.2560
   53.0000   119.7499     0.0080     2.3024     0.2100  -155.1263  1298.9694     3.0406     3.3730     8.2772
   53.5000   122.3763     0.0022     2.2970     0.2119  -154.8831  1215.5582     3.0134     3.3134     8.3043
   54.0000   125.5984     0.0016     2.2917     0.2163  -152.1265  1143.0010     2.9921     3.2337     8.3318
   54.5000   128.4252     0.0179     2.2841     0.2204  -128.1960   997.9537     3.0398     3.1539     8.3591
   55.0000   126.3662     0.0245     2.2652     0.2290  -124.7901   899.4210     3.0718     3.0760     8.3759
   55.5000   124.5472     0.0069     2.2479     0.2381  -124.4159   877.8431     2.8473     3.0000     8.3778
   56.0000   125.3350     0.0129     2.2317     0.2471  -123.9553   849.3641     2.6535     2.9263     8.3811
   56.5000   126.2149     0.0207     2.2223     0.2548  -124.0040   803.7811     2.4729     2.7957     8.3845
   57.0000   128.0805     0.0279     2.2138     0.2617  -124.2139   760.3651     2.3045     2.6565     8.3878
   57.5000   131.4275     0.0055     2.1723     0.2839  -124.4266   754.7855     2.1472     2.5232     8.3912
   58.0000   134.7349     0.0163     2.1316     0.3002  -124.4934   762.1185     2.0021     2.2205     8.3943
   58.5000   136.9204     0.0264     2.1349     0.3002  -124.2005   801.4125     1.9389     2.0861     8.4142
   59.0000   132.4273     0.0252     2.1791     0.2922  -123.5927   875.0243     1.9276     2.0868     8.4420
   59.5000   124.1854     0.0311     2.2341     0.2538  -122.9862   955.3975     1.9046     2.1224     8.4701
   60.0000   119.5595     0.0059     2.2898     0.2092  -122.3974  1052.0048     2.0418     2.2646     8.4948
   60.5000   116.0883    -0.0060     2.3315     0.1924  -122.2572  1035.7675     2.2028     2.4328     8.4799
   61.0000   117.0903    -0.0121     2.3222     0.1989  -122.8189  1004.6195     2.3764     2.6141     8.4630
   61.5000   119.0475    -0.0060     2.3215     0.2000  -123.7712  1004.6195     2.5638     2.8090     8.4017
   62.0000   121.2459    -0.0021     2.3275     0.1936  -124.5133  1145.4269     2.7565     2.9728     8.3629
   62.5000   123.4440    -0.0061     2.3201     0.2012  -124.0974  1230.4736     3.2688     3.1190     8.3862
   63.0000   125.6450    -0.0002     2.3259     0.1962  -123.3296  1241.8683     3.8430     3.2723     8.3945
   63.5000   127.7936     0.0075     2.3378     0.1868  -123.1618  1186.3403     4.1313     3.4326     8.3431
   64.0000   128.7444     0.0150     2.3500     0.1800  -123.9230  1163.7336     3.9957     3.5248     8.2877
   64.5000   129.4245     0.0137     2.3455     0.1800  -124.7415  1197.3920     3.8621     3.5673     8.2785
   65.0000   130.4778     0.0089     2.3336     0.1857  -124.8979  1237.8682     3.7329     3.6103     8.2564
   65.5000   132.2678     0.0137     2.3221     0.1935  -124.9047  1253.3684     3.6082     3.6311     8.2567
   66.0000   134.3445     0.0147     2.3256     0.2013  -124.8859  1183.8923     3.4880     3.6024     8.2557
   66.5000   136.1184     0.0100     2.2955     0.2095  -126.0781  1068.7913     3.3730     3.4953     8.2763
   67.0000   136.6649     0.0053     2.2831     0.2187  -127.8410   965.0853     3.1524     3.3694     8.3002
   67.5000   137.9424     0.0019     2.2647     0.2269  -129.6307   915.8891     2.9499     3.2498     8.3244
   68.0000   140.7206     0.0043     2.2450     0.2399  -131.4217   873.5336     2.7605     3.1105     8.3488
   68.5000   144.2724     0.0068     2.2252     0.2543  -131.3044   826.2308     2.5833     2.8754     8.3730
   69.0000   144.7398     0.0087     2.2052     0.2686  -130.4633   790.2245     2.4174     2.6580     8.3952
   69.5000   144.7352     0.0373     2.1957     0.2754  -129.8885   790.3161     2.2616     2.4571     8.3960
   70.0000   143.9997     0.0562     2.2081     0.2725  -130.2475   807.0961     2.1177     2.2713     8.3956
