~VERSION INFORMATION
 VERS.                2.0:   CWLS LOG ASCII STANDARD - VERSION 2.0
 WRAP.                 NO:   ONE LINE PER DEPTH STEP
~WELL INFORMATION
#MNEM.UNIT      DATA TYPE    INFORMATION
#----------   ------------   ------------------------------
 STRT.F           70.0000:   START DEPTH
 STOP.F         1043.0000:   STOP DEPTH
 STEP.F            0.5000:   STEP LENGTH
 NULL.          -999.2500:   NO VALUE
 COMP. U S NAVY/INTEX OIL CO:   COMPANY
 WELL.       NPR 3 #54S-2:   WELL
 FLD .             TEAPOT:   FIELD
 LOC .       S2 T38N R78W:   LOCATION
 CNTY.            NATRONA:   COUNTY
 STAT.            WYOMING:   STATE
 CTRY. UNITED STATES OF AMERICA:   COUNTRY
 SRVC.         Lane Wells:   SERVICE COMPANY
 DATE.        14-JUN-1960:   LOGDATE
 API .       490250643300:   API NUMBER
~CURVE INFORMATION
#MNEM.UNIT       API CODE    CURVE DESCRIPTION
#----------   ------------   ------------------------------
 DEPT.F                  :   
 CILD.MMHO   05 110 46 00:   CONDUCTIVITY INDUCTION LOG DEEP
 ILD .OHMM   05 120 46 00:   INDUCTION LOG DEEP
 ASN .OHMM   05 041 16 00:   AMPLIFIED SHORT NORMAL 16"
 SPR .MV     05 010 01 00:   SPONTANEOUS POTENTIAL FROM RES.
~PARAMETER INFORMATION
#MNEM.UNIT          VALUE    DESCRIPTION
#----------   ------------   ------------------------------
 PD  .                 GL:   PERMANENT DATUM
 EPD .F              6164:   ELEVATION PERMANENT DATUM
 LMF .                 KB:   LOG MEASURED FROM
 DAPD.F                 5:   FEET ABOVE PERMANENT DATUM
 DMF .                 KB:   DRILLING MEASURED FROM
 EKB .F              6169:   KELLING BUSHING
 EGL .F              6164:   GROUND LEVEL
 DATE.            6-14-60:   RUN DATE
 RUN .                  1:   RUN NUMBER
 DD  .F              1045:   DEPTH DRILLER
 DL  .F              1045:   DEPTH LOGGER
 BLI .F              1043:   BOTTOM LOG INTERVAL
 TLI .F                70:   TOP LOG INTERVAL
 CS  .IN            8.625:   CASING SIZE
 CBD .F                12:   CASING BOTTOM DRILLER
 BS  .IN            7.875:   BIT SIZE
 BSD .F              1045:   BIT SIZE AT DEPTH
 DFT .   GEL/OIL EMULSION:   DRILLING FLUID TYPE
 DFD .                9.7:   DRILLING FLUID DENSITY
 DFV .                 45:   DRILLING FLUID VISCOSITY
 DFPH.                  8:   DRILLING FLUID PH
 DFL .               11.6:   DRILLING FLUID LOSS
 MSS .          FLOW LINE:   MUD SAMPLE SOURCE
 RMS .OHMM            1.6:   RESISTIVITY MUD SAMPLE
 MST .F                62:   MUD SAMPLE TEMPERATURE
 RMF .OHMM            1.4:   RESISTIVITY MUD FILTRATE SAMPLE
 MFST.F                60:   MUD FILTRATE SAMPLE TEMPERATURE
 RMC .OHMM           1.75:   RESISTIVITY MUD CAKE
 MCST.F                60:   MUD CAKE SAMPLE TEMPERATURE
 MFSS.                MUD:   MUD FILTRATE SAMPLE SOURCE
 MCSS.              PRESS:   MUD CAKE SAMPLE SOURCE
 RMB .OHMM            1.4:   RESISTIVITY MUD AT BHT
 BHT .F                72:   BOTTOM HOLE TEMPERATURE
 MRT .F                72:   MAXIMUM RECORDED TEMPERATURE
 LUN .             C-4474:   LOGGING UNIT NUMBER
 LUL .             CASPER:   LOGGING UNIT LOCATION
 ENGI.      NELSON/GRIGGS:   RECORDING ENGINEER
 WITN.   JORGENSEN/HUDSON:   WITNESSED BY
 CLNT.            A2DTECH:   CLIENT CODE
 ORIG.       2", 5" PRINT:   ORIGIN OF DATA
 UWI .       490250643300:   UNIQUE WELL ID
 DICO. A2D Technologies, Inc.:   DIGITIZING COMPANY
~OTHER INFORMATION
~A   DEPT     CILD          ILD        ASN      SPR   
# ...
  143.0000   204.0211     5.5000     5.8904   -50.2407
  143.5000   207.1103     5.4291     5.7030   -50.0269
  144.0000   211.0041     5.3511     5.5266   -49.4538
  144.5000   215.9413     5.3605     5.3398   -48.9004
  145.0000   215.9413     5.3558     5.1984   -48.4680
  145.5000   215.9413     5.3582     5.2534   -48.1662
  146.0000   215.9413     5.3571     5.3980   -48.1940
  146.5000   215.9413     5.3569     5.5270   -48.8508
  147.0000   213.9071     5.3619     5.6713   -49.4413
  147.5000   209.7024     5.4162     5.7627   -50.0495
  148.0000   205.4976     5.4774     5.8024   -50.6232
  148.5000   202.6776     5.5374     5.7816   -50.8505
  149.0000   201.2914     5.5976     5.8042   -50.5308
  149.5000   199.9052     5.6588     5.8875   -50.0719
  150.0000   198.5190     5.7135     5.9593   -49.6222
  150.5000   197.1328     5.7193     6.0369   -49.7168
  151.0000   195.7467     5.7179     6.1118   -49.9771
  151.5000   194.3831     5.7192     6.1844   -50.2449
  152.0000   195.4995     5.7173     6.2234   -50.1541
  152.5000   196.5986     5.7208     6.2609   -49.7175
  153.0000   197.6931     5.6950     6.2870   -49.2511
  153.5000   198.7891     5.6413     6.2206   -49.2230
  154.0000   199.8884     5.5929     6.1048   -49.3416
  154.5000   200.9927     5.5413     5.9918   -49.0663
  155.0000   203.2018     5.4925     5.8636   -48.5381
  155.5000   206.4123     5.4400     5.7228   -48.4551
  156.0000   209.6238     5.3936     5.5843   -49.0655
  156.5000   212.8405     5.3363     5.4660   -49.6436
  157.0000   215.9511     5.2997     5.3692   -49.6402
  157.5000   215.9694     5.1347     5.2696   -49.4499
  158.0000   215.9873     5.1319     5.1848   -49.3852
  158.5000   214.4789     5.2028     5.2397   -49.7132
  159.0000   211.6699     5.2488     5.2934   -50.1219
  159.5000   208.8522     5.3075     5.3682   -50.5651
  160.0000   206.0309     5.3595     5.5490   -50.8409
  160.5000   203.3599     5.4146     5.7343   -50.6398
  161.0000   201.2825     5.4690     5.9233   -50.2188
  161.5000   199.3117     5.5224     6.0910   -49.7378
  162.0000   197.3400     5.5789     6.1602   -49.2430
  162.5000   195.3714     5.6230     6.2239   -49.2947
  163.0000   193.4056     5.6450     6.2624   -49.6453
  163.5000   192.5583     5.6800     6.1961   -49.9208
  164.0000   192.5677     5.7118     6.1509   -50.2994
  164.5000   192.0606     5.7452     6.1017   -50.2651
  165.0000   191.1641     5.7776     6.0649   -49.6744
  165.5000   190.2644     5.8107     6.0753   -49.1814
  166.0000   189.3649     5.8432     6.0933   -48.5745
  166.5000   188.4699     5.8764     6.1042   -48.3708
  167.0000   187.5803     5.9084     6.1474   -48.7254
  167.5000   186.6897     5.9427     6.2146   -48.7444
  168.0000   185.7954     5.9720     6.2775   -48.5036
  168.5000   183.8763     6.0226     6.3377   -48.5723
  169.0000   181.2457     6.0905     6.4138   -48.6766
  169.5000   178.6119     6.1526     6.5053   -48.7822
  170.0000   175.9794     6.2174     6.5855   -48.8704
  170.5000   173.3505     6.2805     6.6719   -49.2224
  171.0000   170.9999     6.3450     6.7554   -49.6507
  171.5000   170.2754     6.4079     6.8345   -50.0588
  172.0000   169.6187     6.4735     6.9231   -50.4806
  172.5000   168.9629     6.5255     6.9916   -50.8885
  173.0000   168.3070     6.5291     7.1631   -51.3165
  173.5000   167.6485     6.5287     7.4297   -51.6956
  174.0000   167.2251     6.5288     7.6482   -52.0486
  174.5000   166.9591     6.5286     7.9534   -51.8695
  175.0000   166.6818     6.5290     7.8762   -51.1248
  175.5000   166.4046     6.5283     7.6193   -50.3731
  176.0000   166.1274     6.5296     7.4143   -49.6196
  176.5000   165.8501     6.5272     7.1852   -48.8508
  177.0000   165.6102     6.5323     7.0618   -48.1793
  177.5000   169.0181     6.4927     7.0020   -48.1071
  178.0000   172.0214     6.4212     6.9246   -48.1573
  178.5000   174.5979     6.3592     6.7425   -48.5174
  179.0000   177.6852     6.2936     6.5662   -48.9134
  179.5000   179.9905     6.2287     6.3933   -49.3037
  180.0000   179.9905     6.1656     6.3002   -49.6887
  180.5000   179.9905     6.0982     6.2747   -50.0936
  181.0000   179.9905     6.0823     6.2879   -50.3907
  181.5000   179.1583     6.1479     6.3707   -50.0729
  182.0000   178.4375     6.2067     6.4755   -49.7098
  182.5000   177.1104     6.2679     6.5401   -49.3433
  183.0000   175.4722     6.3278     6.5898   -49.0448
  183.5000   173.8340     6.3881     6.6386   -49.0799
  184.0000   172.1958     6.4440     6.6843   -49.1416
  184.5000   170.5575     6.5161     6.7409   -49.1939
  185.0000   168.9193     6.5827     6.8834   -49.1509
  185.5000   167.2811     6.6492     7.0178   -49.0426
  186.0000   165.6382     6.7159     7.1517   -48.9743
  186.5000   163.9993     6.7821     7.2867   -48.8496
  187.0000   162.3597     6.8496     7.4195   -49.0551
  187.5000   160.7196     6.9145     7.5568   -49.5059
  188.0000   160.0536     6.9843     7.6649   -49.8899
  188.5000   159.8282     7.0431     7.7169   -50.3019
  189.0000   159.6031     7.1364     7.7626   -50.4774
  189.5000   159.3769     7.1402     7.8066   -50.2673
  190.0000   159.1615     7.1131     7.8520   -49.9245
  190.5000   158.9363     7.0962     7.9350   -49.6243
  191.0000   158.7110     7.0749     8.0099   -49.3010
  191.5000   158.4858     7.0544     8.0879   -49.1856
  192.0000   159.2177     7.0364     8.1605   -49.2021
  192.5000   160.3440     7.0116     8.2308   -49.1895
  193.0000   161.4703     7.0011     8.1826   -49.2049
  193.5000   162.5965     6.9051     8.0776   -49.1505
  194.0000   163.7228     6.8222     7.9875   -48.7675
  194.5000   164.8491     6.7828     7.8068   -48.4818
  195.0000   165.9753     6.7272     7.6431   -48.6135
  195.5000   167.1016     6.6837     7.5101   -48.8755
  196.0000   167.4078     6.6276     7.4179   -49.0720
  196.5000   167.4078     6.6556     7.3801   -49.3315
  197.0000   167.4078     6.7239     7.3846   -49.1858
  197.5000   167.4078     6.7828     7.4658   -48.8400
  198.0000   167.4078     6.7783     7.5171   -48.5274
  198.5000   167.4078     6.7334     7.5196   -48.3498
  199.0000   167.4078     6.7007     7.5184   -48.7132
  199.5000   167.4078     6.6630     7.5176   -49.0331
  200.0000   168.0107     6.6269     7.4126   -49.3713
  200.5000   168.4942     6.5918     7.3025   -49.6894
  201.0000   168.9777     6.5513     7.1889   -50.0485
  201.5000   169.4613     6.5230     7.1104   -50.4228
  202.0000   169.9448     6.5156     7.0883   -50.4502
  202.5000   170.4283     6.5034     7.0194   -50.4477
  203.0000   171.0028     6.4935     6.9834   -50.4472
  203.5000   171.0028     6.4824     6.9971   -50.4556
  204.0000   171.0028     6.4718     7.0264   -50.4811
  204.5000   171.0028     6.4611     7.0551   -50.5088
  205.0000   171.0028     6.4503     7.0874   -50.5309
  205.5000   170.3403     6.4405     7.1219   -50.5646
  206.0000   169.5622     6.4571     7.1797   -50.5747
  206.5000   168.7842     6.4809     7.2472   -50.6329
  207.0000   168.0061     6.5032     7.3147   -50.3458
  207.5000   167.2280     6.5263     7.3173   -49.6304
  208.0000   166.4499     6.5489     7.2581   -48.8597
  208.5000   165.6102     6.5718     7.1771   -48.0824
  209.0000   165.6102     6.5945     7.1412   -47.1487
  209.5000   165.6102     6.6170     7.1988   -46.8101
  210.0000   165.6102     6.6143     7.2600   -47.4935
  210.5000   165.6102     6.6018     7.3218   -48.1888
  211.0000   165.6102     6.5910     7.3849   -48.9444
  211.5000   165.6102     6.5790     7.4371   -49.1832
  212.0000   165.6102     6.5682     7.3870   -49.3394
  212.5000   165.6102     6.5557     7.3232   -49.5742
  213.0000   165.6102     6.5461     7.2596   -49.8131
  213.5000   165.6102     6.5310     7.2318   -49.9780
  214.0000   165.6102     6.5492     7.3002   -50.1635
  214.5000   165.6102     6.5988     7.4079   -50.3404
  215.0000   163.8944     6.6424     7.5106   -50.5227
  215.5000   162.2439     6.6891     7.6101   -50.7694
