~VERSION INFORMATION
 VERS.                2.0:   CWLS LOG ASCII STANDARD - VERSION 2.0
 WRAP.                 NO:   ONE LINE PER DEPTH STEP
~WELL INFORMATION
#MNEM.UNIT      DATA TYPE    INFORMATION
#----------   ------------   ------------------------------
 STRT.F           25.0000:   START DEPTH
 STOP.F          528.0000:   STOP DEPTH
 STEP.F            0.5000:   STEP LENGTH
 NULL.          -999.2500:   NO VALUE
 COMP. FENIX & SCISSON INC:   COMPANY
 WELL.       NPR #3 #11-3:   WELL
 FLD .             NPR #3:   FIELD
 LOC .       S3 T38N R78W:   LOCATION
 CNTY.            NATRONA:   COUNTY
 STAT.            WYOMING:   STATE
 CTRY. UNITED STATES OF AMERICA:   COUNTRY
 SRVC.       Schlumberger:   SERVICE COMPANY
 DATE.        01-MAR-1977:   LOGDATE
 API .       490251028300:   API NUMBER
~CURVE INFORMATION
#MNEM.UNIT       API CODE    CURVE DESCRIPTION
#----------   ------------   ------------------------------
 DEPT.F                  :   
 SPR .MV     07 010 01 00:   SPONTANEOUS POTENTIAL
 LL8 .OHMM   07 220 08 00:   LATEROLOG-8 RES.
 ILM .OHMM   07 120 44 00:   INDUCTION LOG MEDIUM
 ILD .OHMM   07 120 46 00:   INDUCTION LOG DEEP
 GRD .GAPI   45 310 01 00:   GAMMA RAY FROM DENSITY LOG
 CALD.IN     45 280 60 00:   CALIPER
 RHOB.G/C3   45 350 01 00:   BULK DENSITY
 CORR.G/C3   45 356 01 00:   DENSITY CORRECTION
 DPHI.DEC    45 890 12 00:   DENSITY POROSITY SANDSTONE
~PARAMETER INFORMATION
#MNEM.UNIT          VALUE    DESCRIPTION
#----------   ------------   ------------------------------
 PD  .                 GL:   PERMANENT DATUM
 EPD .F              5178:   ELEVATION PERMANENT DATUM
 LMF .                 GL:   LOG MEASURED FROM
 DMF .                 GL:   DRILLING MEASURED FROM
 EKB .F              5183:   KELLING BUSHING
 EGL .F              5178:   GROUND LEVEL
 DATE.           3-1-1977:   RUN DATE
 RUN .                  1:   RUN NUMBER
 DD  .F               535:   DEPTH DRILLER
 DL  .F               526:   DEPTH LOGGER
 BLI .F               520:   BOTTOM LOG INTERVAL
 TLI .F                30:   TOP LOG INTERVAL
 CS  .IN            8.625:   CASING SIZE
 CBD .F                40:   CASING BOTTOM DRILLER
 CBL .F                30:   CASING BOTTOM LOGGER
 BS  .IN            7.875:   BIT SIZE
 BSD .F               535:   BIT SIZE AT DEPTH
 DFT .                KCL:   DRILLING FLUID TYPE
 DFD .                8.7:   DRILLING FLUID DENSITY
 DFV .                 37:   DRILLING FLUID VISCOSITY
 DFPH.                  8:   DRILLING FLUID PH
 DFL .                7.2:   DRILLING FLUID LOSS
 MSS .                PIT:   MUD SAMPLE SOURCE
 RMS .OHMM           .495:   RESISTIVITY MUD SAMPLE
 MST .F                62:   MUD SAMPLE TEMPERATURE
 RMF .OHMM           .406:   RESISTIVITY MUD FILTRATE SAMPLE
 MFST.F                65:   MUD FILTRATE SAMPLE TEMPERATURE
 MFSS.                  M:   MUD FILTRATE SAMPLE SOURCE
 RMB .OHMM           .438:   RESISTIVITY MUD AT BHT
 BHT .F                70:   BOTTOM HOLE TEMPERATURE
 TCS .HRS            0800:   TIME CURCULATED STOPPED
 TLAB.HRS            1130:   TIME LOGGER AT BOTTOM
 MRT .F                70:   MAXIMUM RECORDED TEMPERATURE
 LUN .               5642:   LOGGING UNIT NUMBER
 LUL .               CSPR:   LOGGING UNIT LOCATION
 ENGI.             MARTIN:   RECORDING ENGINEER
 CLNT.            A2DTECH:   CLIENT CODE
 ORIG.       2", 5" PRINT:   ORIGIN OF DATA
 UWI .       490251028300:   UNIQUE WELL ID
 DICO. A2D Technologies, Inc.:   DIGITIZING COMPANY
~OTHER INFORMATION
~A   DEPT      SPR        LL8        ILM        ILD         GRD      CALD       RHOB       CORR       DPHI   
# ...
  207.5000   -52.9904     9.2403     8.9960     8.4723   101.8732     8.0630     2.4684     0.0177     0.1162
  208.0000   -52.4807     9.4660     8.9164     8.3720   102.8532     8.0627     2.4793     0.0175     0.1182
  208.5000   -50.9188     9.6528     8.8375     8.2698   103.8763     8.0624     2.4903     0.0223     0.1125
  209.0000   -48.2989     9.8433     8.7416     8.2513   103.9918     8.0621     2.4998     0.0243     0.1078
  209.5000   -45.4983    10.0423     8.7793     8.2321   104.1253     8.0618     2.4848     0.0171     0.1124
  210.0000   -43.6707     9.7766     8.8452     8.2130   105.7735     8.0616     2.4696     0.0105     0.1177
  210.5000   -44.6456     9.2403     8.9117     8.1937   106.3526     8.0613     2.4618     0.0040     0.1194
  211.0000   -46.4952     9.3473     8.9787     8.1937   105.3383     8.0610     2.4685     0.0039     0.1171
  211.5000   -48.6758     9.4853     9.0462     8.2175   105.6764     8.0607     2.4755     0.0062     0.1179
  212.0000   -50.2616     9.6254     9.1483     8.2376   106.3018     8.0604     2.4576     0.0085     0.1215
  212.5000   -50.1143     9.7675     9.1039     8.2574   106.9384     8.0602     2.4485     0.0089     0.1251
  213.0000   -49.8030     9.5066     8.9762     8.2700   107.3670     8.0599     2.4430     0.0066     0.1273
  213.5000   -49.5003     9.2526     8.8503     8.2580   107.0658     8.0596     2.4376     0.0085     0.1327
  214.0000   -50.0175     9.0549     8.7261     8.2313   104.7895     8.0593     2.4454     0.0191     0.1309
  214.5000   -51.7960     8.9788     8.6037     8.2041   102.5018     8.0590     2.4570     0.0308     0.1272
  215.0000   -51.7081     8.8980     8.5706     8.1183   100.4062     8.0588     2.4408     0.0186     0.1256
  215.5000   -51.2440     9.5603     8.5574     8.1321   100.7153     8.0585     2.4243     0.0019     0.1365
  216.0000   -51.5524    10.4131     8.5441     8.1543   102.2260     8.0582     2.4371     0.0117     0.1291
  216.5000   -52.1633     9.8719     8.5309     8.1766   103.7116     8.0579     2.4562     0.0198     0.1219
  217.0000   -52.7709     9.3735     8.5177     8.1937   104.1909     8.0577     2.4641     0.0154     0.1174
  217.5000   -53.0153     8.8228     8.5045     7.9892   102.9497     8.0585     2.4692     0.0085     0.1197
  218.0000   -52.7234     8.8932     8.2995     7.8272   100.9485     8.0593     2.4652     0.0015     0.1210
  218.5000   -50.6551     9.0040     8.0644     7.5496   101.5727     8.0602     2.4665     0.0028     0.1178
  219.0000   -49.3415     9.1586     7.8359     7.2819   102.7043     8.0610     2.4838     0.0114     0.1137
  219.5000   -48.4649     8.8620     7.6140     7.0237   101.6411     8.0618     2.4999     0.0170     0.1097
  220.0000   -47.9235     8.0748     7.5394     6.7746   101.4234     8.0627     2.4916     0.0140     0.1078
  220.5000   -47.7531     7.3582     7.1454     6.5025   101.5147     8.0635     2.4809     0.0111     0.1148
  221.0000   -49.1345     6.7052     6.7926     6.6917   101.6726     8.0643     2.4699     0.0158     0.1202
  221.5000   -51.6740     6.1515     6.7475     6.9864   101.5952     8.0652     2.4676     0.0215     0.1183
  222.0000   -54.1596     6.4946     6.8572     7.2941   100.7290     8.0660     2.4805     0.0274     0.1166
  222.5000   -55.4316     6.8320     7.0235     7.6154    99.9388     8.0668     2.4712     0.0258     0.1193
  223.0000   -55.3183     7.0441     7.1938     7.9509    99.2524     8.0676     2.4590     0.0206     0.1226
  223.5000   -56.3430     7.2656     7.3683     8.2698    99.7437     8.0685     2.4559     0.0203     0.1198
  224.0000   -57.3447     7.0933     7.5469     8.1554   100.7264     8.0693     2.4442     0.0150     0.1329
  224.5000   -58.1919     7.3821     7.7299     8.0517   102.6235     8.0701     2.4327     0.0099     0.1355
  225.0000   -57.3744     7.9695     7.8962     7.9492   105.1064     8.0710     2.4313     0.0113     0.1315
  225.5000   -56.5454     8.3097     8.0317     7.8476   107.5681     8.0718     2.4427     0.0145     0.1299
  226.0000   -55.5509     8.7045     8.1569     7.7472   108.7636     8.0726     2.4517     0.0177     0.1259
  226.5000   -54.5186     8.9283     8.2841     7.6810   104.1084     8.0735     2.4606     0.0181     0.1218
  227.0000   -54.2607     8.9744     8.4242     7.9124   105.2497     8.0743     2.4676     0.0146     0.1174
  227.5000   -53.1262     9.0208     8.4242     7.9472   107.4148     8.0751     2.4680     0.0097     0.1166
  228.0000   -50.9737     9.1553     8.2698     7.9689   108.8198     8.0759     2.4499     0.0050     0.1236
  228.5000   -49.4111     9.0537     8.1183     7.8249   105.5227     8.0768     2.4317     0.0003     0.1294
  229.0000   -50.8449     8.8597     8.0435     7.6908   103.1916     8.0776     2.4418    -0.0022     0.1335
  229.5000   -53.3750     8.6702     7.8061     7.5394   102.9957     8.0784     2.4549     0.0037     0.1256
  230.0000   -52.0728     8.4856     7.5592     7.2712   103.4449     8.0793     2.4678     0.0115     0.1195
  230.5000   -50.9668     8.3044     7.3202     6.9953   104.0005     8.0801     2.4781     0.0211     0.1182
  231.0000   -54.4938     8.1183     7.0887     6.7298   103.2432     8.0809     2.4673     0.0160     0.1217
  231.5000   -56.0313     8.3908     6.8645     6.4745   101.8236     8.0818     2.4596     0.0055     0.1195
  232.0000   -54.6708     8.5814     6.6465     6.2288    99.8811     8.0826     2.4867     0.0191     0.1150
  232.5000   -56.4085     6.9756     6.4353     5.9832   100.8138     8.0834     2.4836     0.0129     0.1114
  233.0000   -57.8253     5.3610     6.2644     5.9558   102.9408     8.0843     2.4809     0.0071     0.1126
  233.5000   -57.3054     5.8047     6.2650     5.8809   106.0014     8.0851     2.4878     0.0155     0.1155
  234.0000   -58.6023     6.4685     6.2663     5.8195   108.7631     8.0859     2.4678     0.0050     0.1214
  234.5000   -59.9944     7.1272     6.4315     6.1562   106.8206     8.0868     2.4461    -0.0018     0.1283
  235.0000   -56.6770     7.4816     6.7259     6.4608   104.3169     8.0876     2.4321     0.0020     0.1343
  235.5000   -52.6760     7.8537     7.0338     6.7817   102.4380     8.0884     2.4386     0.0077     0.1322
  236.0000   -53.3310     8.2442     7.3558     7.1182   102.0699     8.0892     2.4312     0.0099     0.1303
  236.5000   -54.2473     8.7402     7.6926     7.4710   101.6753     8.0901     2.4233     0.0133     0.1427
  237.0000   -54.1168     8.6728     8.0448     7.6440   101.2846     8.0909     2.4153     0.0189     0.1399
  237.5000   -55.7000     8.5803     8.1742     7.8235   101.0838     8.0917     2.4161     0.0198     0.1439
  238.0000   -55.3834     8.7759     8.2450     7.9695   101.8973     8.0926     2.4337     0.0142     0.1384
  238.5000   -52.0000     8.9568     8.3164     8.0435   104.1604     8.0934     2.4648     0.0224     0.1259
  239.0000   -48.5929     9.0431     8.3884     8.0435   106.3688     8.0942     2.4887     0.0340     0.1119
  239.5000   -47.1922     9.1306     8.4610     8.0435   107.5781     8.0950     2.4802     0.0330     0.1133
  240.0000   -48.5527     9.2187     8.5343     8.0696   105.4126     8.0959     2.4773     0.0282     0.1133
  240.5000   -51.9814     9.3075     8.6082     8.1323   103.8600     8.0967     2.4898     0.0231     0.1110
  241.0000   -54.7489     9.4128     8.6827     8.1955   103.7757     8.0977     2.4858     0.0220     0.1116
  241.5000   -55.3971     9.2403     8.7579     8.2591   103.7580     8.0996     2.4797     0.0193     0.1122
  242.0000   -55.4695     9.3702     8.8337     8.3233   102.1657     8.1016     2.4815     0.0129     0.1110
  242.5000   -54.2205     9.6763     8.9102     8.3879   102.4356     8.1035     2.4935     0.0057     0.1133
  243.0000   -51.9771    10.0423     8.9874     8.4242   103.3118     8.1054     2.4750    -0.0012     0.1171
  243.5000   -49.7865     9.9378     9.0652     8.4242   104.3662     8.1073     2.4602     0.0000     0.1208
