~VERSION INFORMATION
 VERS.                2.0:   CWLS LOG ASCII STANDARD - VERSION 2.0
 WRAP.                 NO:   ONE LINE PER DEPTH STEP
~WELL INFORMATION
#MNEM.UNIT      DATA TYPE    INFORMATION
#----------   ------------   ------------------------------
 STRT.F            6.0000:   START DEPTH
 STOP.F          622.0000:   STOP DEPTH
 STEP.F            0.5000:   STEP LENGTH
 NULL.          -999.2500:   NO VALUE
 COMP. BROWN JOHN E&C INC:   COMPANY
 WELL. 71-26 STX-15 #26-15:   WELL
 FLD .             TEAPOT:   FIELD
 LOC .      S15 T38N R78W:   LOCATION
 CNTY.            NATRONA:   COUNTY
 STAT.            WYOMING:   STATE
 CTRY. UNITED STATES OF AMERICA:   COUNTRY
 SRVC.           Gearhart:   SERVICE COMPANY
 DATE.        01-JUL-1987:   LOGDATE
 API .       490251114900:   API NUMBER
~CURVE INFORMATION
#MNEM.UNIT       API CODE    CURVE DESCRIPTION
#----------   ------------   ------------------------------
 DEPT.F                  :   
 GRR .GAPI   07 310 01 00:   GAMMA RAY FROM RES. LOG.
 RILD.OHMM   11 120 46 00:   INDUCTION LOG DEEP RESISTIVITY
 RILM.OHMM   07 120 44 00:   INDUCTION LOG MEDIUM RESISTIVITY
~PARAMETER INFORMATION
#MNEM.UNIT          VALUE    DESCRIPTION
#----------   ------------   ------------------------------
 PD  .                 GL:   PERMANENT DATUM
 EPD .F              5208:   ELEVATION PERMANENT DATUM
 LMF .                 KB:   LOG MEASURED FROM
 DAPD.F                 8:   FEET ABOVE PERMANENT DATUM
 DMF .                 KB:   DRILLING MEASURED FROM
 EKB .F              5216:   KELLING BUSHING
 EDF .F              5214:   DRILLING FLOOR
 EGL .F              5208:   GROUND LEVEL
 DATE.             7-1-87:   RUN DATE
 RUN .                  1:   RUN NUMBER
 DD  .F               630:   DEPTH DRILLER
 DL  .F               630:   DEPTH LOGGER
 BLI .F               622:   BOTTOM LOG INTERVAL
 CS  .IN            8.625:   CASING SIZE
 CBD .F                50:   CASING BOTTOM DRILLER
 CBL .F                50:   CASING BOTTOM LOGGER
 BS  .IN             7.87:   BIT SIZE
 BSD .F               630:   BIT SIZE AT DEPTH
 DFT .                AIR:   DRILLING FLUID TYPE
 TCS .HRS            0300:   TIME CURCULATED STOPPED
 TLAB.HRS            0505:   TIME LOGGER AT BOTTOM
 LUN .               7660:   LOGGING UNIT NUMBER
 LUL .           GILLETTE:   LOGGING UNIT LOCATION
 ENGI.           JOHNSTON:   RECORDING ENGINEER
 WITN.             STRONG:   WITNESSED BY
 CLNT.            A2DTECH:   CLIENT CODE
 ORIG.       2", 5" PRINT:   ORIGIN OF DATA
 UWI .       490251114900:   UNIQUE WELL ID
 DICO. A2D Technologies, Inc.:   DIGITIZING COMPANY
~OTHER INFORMATION
~A    DEPT      GRR      RILD       RILM   
# ...
  461.0000    95.7132    15.0603    14.7858
  461.5000    95.5060    14.9444    14.7402
  462.0000    95.0351    14.8293    14.5680
  462.5000    93.8735    14.7265    14.3224
  463.0000    92.7555    14.5455    14.1782
  463.5000    91.6131    14.3829    14.0197
  464.0000    91.4705    14.2221    13.8629
  464.5000    91.5968    14.0630    13.7079
  465.0000    91.6985    13.9064    13.5544
  465.5000    92.9628    13.6748    13.4024
  466.0000    95.6130    13.8344    13.2990
  466.5000    98.5130    14.1588    13.2957
  467.0000    99.0014    14.5916    13.2981
  467.5000    98.5748    15.2661    13.7427
  468.0000    97.6341    16.1015    14.0591
  468.5000    94.3025    17.0825    15.3720
  469.0000    90.9674    18.3069    16.7685
  469.5000    87.6377    19.7706    18.5564
  470.0000    84.2974    21.3513    20.9494
  470.5000    80.9770    23.0584    23.6509
  471.0000    79.0508    24.9021    26.0784
  471.5000    77.1681    26.8951    28.4659
  472.0000    75.2768    29.0510    31.0720
  472.5000    73.3811    31.3802    33.6434
  473.0000    71.4816    33.1730    36.5061
  473.5000    69.6012    34.5801    39.0206
  474.0000    68.0198    35.8762    41.2116
  474.5000    68.0682    35.7785    43.3122
  475.0000    68.0668    35.5838    44.4074
  475.5000    68.0765    35.3902    43.9974
  476.0000    68.5388    35.2168    42.2845
  476.5000    70.9664    33.7441    40.4854
  477.0000    73.0538    32.4694    38.7629
  477.5000    73.4868    31.2406    36.5267
  478.0000    75.1048    30.0564    33.8752
  478.5000    77.4075    29.0687    31.4161
  479.0000    79.7360    28.4587    29.7478
  479.5000    80.0504    27.8616    29.5684
  480.0000    77.7919    27.2773    29.3900
  480.5000    75.4937    26.7051    29.2128
  481.0000    73.8241    26.1449    29.0366
  481.5000    75.8749    25.5965    28.2613
  482.0000    79.1710    25.0944    27.2601
  482.5000    82.4095    24.6822    26.2943
  483.0000    84.8288    24.2768    25.4544
  483.5000    83.9331    23.8780    25.0040
  484.0000    82.3148    23.4837    24.6014
  484.5000    82.2164    22.9864    24.2053
  485.0000    84.2312    22.9972    23.8542
  485.5000    86.2181    23.0191    23.4023
  486.0000    87.7454    23.0406    23.0002
  486.5000    87.4749    23.0614    22.5657
  487.0000    87.2489    23.0820    22.5364
  487.5000    87.0236    23.1026    22.5033
  488.0000    86.5990    23.1232    22.4711
  488.5000    86.0630    23.1441    22.4398
  489.0000    85.5035    23.1644    22.4087
  489.5000    85.4056    23.1869    22.3780
  490.0000    85.4918    23.1996    22.2926
  490.5000    85.5864    22.9677    22.0867
  491.0000    85.6715    22.7908    21.8828
  491.5000    85.5434    22.6154    21.6808
  492.0000    84.6768    22.4412    21.4806
  492.5000    83.8067    22.2684    21.1096
  493.0000    84.8944    21.8743    20.3542
  493.5000    86.4997    20.9852    19.6259
  494.0000    88.8247    20.1322    19.0695
  494.5000    91.9400    19.3140    18.6717
  495.0000    94.7511    18.7264    18.2707
  495.5000    96.5591    18.3503    17.8519
  496.0000    96.3437    17.9817    17.2416
  496.5000    96.0962    17.7281    17.2917
  497.0000    95.8729    17.7536    17.3922
  497.5000    94.7395    17.7732    17.4933
  498.0000    93.2382    17.7929    17.5645
  498.5000    91.7283    17.8125    17.5267
  499.0000    90.1668    17.8322    17.4977
  499.5000    89.8692    17.8521    17.4688
  500.0000    90.0079    17.8717    17.4399
  500.5000    90.1305    17.8913    17.4110
  501.0000    88.0713    17.8082    17.3376
  501.5000    85.7245    17.7130    17.2453
  502.0000    83.4311    17.6186    17.1534
  502.5000    82.6639    17.5247    17.0621
  503.0000    86.6662    17.4314    16.9712
  503.5000    90.5278    17.3386    16.8808
  504.0000    93.4894    17.2462    16.7909
  504.5000    91.3935    17.1544    16.7015
  505.0000    88.3767    17.0630    16.6129
  505.5000    85.3755    16.9721    16.5249
  506.0000    85.5194    16.8232    16.4040
  506.5000    86.8027    16.6122    16.1978
  507.0000    88.1136    16.4038    15.9942
  507.5000    88.0075    16.1980    15.7934
  508.0000    87.1907    15.9948    15.5953
  508.5000    86.5647    15.7942    15.3997
  509.0000    86.7510    15.5961    15.2065
  509.5000    86.9053    15.4345    15.0562
  510.0000    87.3061    15.2799    14.9277
  510.5000    87.7816    15.1266    14.8003
  511.0000    89.2665    14.9748    14.6740
  511.5000    90.7783    14.8642    14.5487
  512.0000    92.2983    14.8832    14.4558
  512.5000    93.6926    14.8996    14.4773
  513.0000    92.0737    14.9158    14.4943
  513.5000    90.3546    14.9319    14.5117
  514.0000    89.0757    14.9481    14.5290
  514.5000    90.1958    14.9642    14.5462
  515.0000    93.0943    14.9802    14.5633
  515.5000    95.3192    15.0001    14.5898
  516.0000    96.1605    14.9619    14.5631
  516.5000    97.0234    14.8991    14.5024
  517.0000    97.3788    14.8367    14.4417
  517.5000    96.7406    14.7744    14.3811
  518.0000    94.9164    14.7123    14.3207
  518.5000    93.3740    14.6504    14.2605
  519.0000    94.0185    14.5905    14.2007
  519.5000    95.7089    14.5059    14.1239
  520.0000    97.3957    14.4236    14.0438
  520.5000    99.0707    14.3419    13.9642
  521.0000   100.1738    14.2606    13.8851
  521.5000    99.9759    14.1798    13.8064
  522.0000    99.8070    14.0994    13.7281
  522.5000    99.9133    14.0195    13.6503
  523.0000   100.0389    13.9400    13.5729
  523.5000   100.1605    13.8610    13.4960
  524.0000   100.5603    13.7825    13.4195
  524.5000   101.0503    13.7044    13.3435
  525.0000   101.2582    13.6628    13.2981
  525.5000   100.6639    13.6452    13.2981
  526.0000   100.0973    13.6277    13.2981
  526.5000   100.0957    13.6102    13.2981
  527.0000   100.6871    13.5927    13.2981
  527.5000   100.5522    13.5752    13.2864
  528.0000    99.6245    13.5578    13.2250
  528.5000    98.7178    13.5141    13.1598
  529.0000    99.9899    13.4291    13.0770
  529.5000   101.5728    13.3446    12.9948
  530.0000   100.9608    13.2606    12.9130
  530.5000   100.8916    13.1753    12.8323
  531.0000   103.9635    13.0357    12.7076
  531.5000   106.9528    12.8946    12.5716
  532.0000   109.0202    12.7549    12.4370
  532.5000   106.3133    12.6167    12.3041
  533.0000   103.1468    12.4801    12.1726
  533.5000   102.3887    12.3449    12.0425
  534.0000   102.1154    12.2088    11.9138
  534.5000   101.9057    12.0623    11.7866
  535.0000   100.1532    11.9175    11.6605
  535.5000    98.1912    11.7745    11.5349
  536.0000    96.5028    11.6332    11.4106
  536.5000    98.0776    11.3444    11.1149
  537.0000    99.8907    10.9477    10.6464
  537.5000   101.7241    10.5647    10.7190
  538.0000   103.5561    10.1952    10.3970
  538.5000   105.3841     9.8449    10.1482
  539.0000   107.2144     9.3311     9.9052
  539.5000   109.0532     8.5412     9.7013
  540.0000   109.8176     7.8174     8.6088
  540.5000   110.3358     7.1572     7.5832
  541.0000   111.8431     6.6046     6.6797
  541.5000   117.6007     6.2155     5.8840
  542.0000   127.9889     6.2155     5.1830
  542.5000   138.4749     6.3121     4.8836
  543.0000   141.3238     6.3856     5.0733
  543.5000   130.0173     6.4599     5.4082
  544.0000   117.8284     6.7118     5.9309
  544.5000   107.0061     7.3922     6.5565
  545.0000   106.5549     8.1424     7.2471
  545.5000   107.8990     8.9671     8.0107
  546.0000   109.4186     9.8743     8.8522
  546.5000   107.4246    10.6045     9.7835
  547.0000   105.1282    10.7845    10.1954
  547.5000   104.2322    10.9674    10.3768
  548.0000   106.1417    11.1535    10.5614
  548.5000   108.9685    11.3436    10.7493
  549.0000   108.9987    11.5369    10.9827
  549.5000   108.1743    11.7335    11.2638
  550.0000   107.4236    11.9335    11.5520
  550.5000   107.2815    12.1369    11.8476
  551.0000   107.1560    12.3437    12.1201
  551.5000   106.9915    12.5541    12.3228
