~VERSION INFORMATION
 VERS.                2.0:   CWLS LOG ASCII STANDARD - VERSION 2.0
 WRAP.                 NO:   ONE LINE PER DEPTH STEP
~WELL INFORMATION
#MNEM.UNIT      DATA TYPE    INFORMATION
#----------   ------------   ------------------------------
 STRT.F            4.0000:   START DEPTH
 STOP.F         1997.5000:   STOP DEPTH
 STEP.F            0.5000:   STEP LENGTH
 NULL.          -999.2500:   NO VALUE
 COMP. LAWRENCE/ALLISON INC:   COMPANY
 WELL. NPR 3 66 SX #32-11:   WELL
 FLD .             TEAPOT:   FIELD
 LOC .      S11 T38N R78W:   LOCATION
 CNTY.            NATRONA:   COUNTY
 STAT.            WYOMING:   STATE
 CTRY. UNITED STATES OF AMERICA:   COUNTRY
 SRVC.      NL McCullough:   SERVICE COMPANY
 DATE.        16-SEP-1988:   LOGDATE
 API .       490251108600:   API NUMBER
~CURVE INFORMATION
#MNEM.UNIT       API CODE    CURVE DESCRIPTION
#----------   ------------   ------------------------------
 DEPT.F                  :   
 ROP .MIN/FT 91 810 01 00:   RATE OF DRILLING PENETRATION
 GR  .GAPI   81 310 01 00:   GAMMA RAY FROM CEMENT BOND LOG
 TGAS.UNITS  91 830 01 00:   TOTAL GAS FROM HOTWIRE
~PARAMETER INFORMATION
#MNEM.UNIT          VALUE    DESCRIPTION
#----------   ------------   ------------------------------
 PD  .                 GL:   PERMANENT DATUM
 EPD .F              5170:   ELEVATION PERMANENT DATUM
 LMF .                 KB:   LOG MEASURED FROM
 DMF .                 KB:   DRILLING MEASURED FROM
 EKB .F              5170:   KELLING BUSHING
 EGL .F              5170:   GROUND LEVEL
 DATE.        16-SEP-1988:   RUN DATE
 RUN .                  1:   RUN NUMBER
 DD  .F               837:   DEPTH DRILLER
 DL  .F               737:   DEPTH LOGGER
 BLI .F               733:   BOTTOM LOG INTERVAL
 CS  .IN              5.5:   CASING SIZE
 CBD .F               836:   CASING BOTTOM DRILLER
 BSD .F               837:   BIT SIZE AT DEPTH
 DFT .              WATER:   DRILLING FLUID TYPE
 TCS .HRS             1.5:   TIME CURCULATED STOPPED
 ENGI.          BANGERTER:   RECORDING ENGINEER
 WITN.               LOWE:   WITNESSED BY
 CLNT.            A2DTECH:   CLIENT CODE
 ORIG.           5" PRINT:   ORIGIN OF DATA
 UWI .       490251108600:   UNIQUE WELL ID
 DICO. A2D Technologies, Inc.:   DIGITIZING COMPANY
~OTHER INFORMATION
~A    DEPT     ROP          GR      TGAS   
# ...
 1551.0000     0.2636  -999.2500     9.5111
 1551.5000     0.2638  -999.2500     9.6008
 1552.0000     0.2640  -999.2500     9.6905
 1552.5000     0.2642  -999.2500     9.7801
 1553.0000     0.2644  -999.2500     9.8698
 1553.5000     0.2646  -999.2500     9.9595
 1554.0000     0.2648  -999.2500    10.0491
 1554.5000     0.2650  -999.2500    10.1388
 1555.0000     0.2652  -999.2500    10.2285
 1555.5000     0.2654  -999.2500    10.3181
 1556.0000     0.2656  -999.2500    10.4078
 1556.5000     0.2658  -999.2500    10.4620
 1557.0000     0.2660  -999.2500    10.6623
 1557.5000     0.2662  -999.2500    12.2869
 1558.0000     0.2664  -999.2500    14.7409
 1558.5000     0.2666  -999.2500    15.3560
 1559.0000     0.2668  -999.2500    14.8583
 1559.5000     0.2670  -999.2500    14.1740
 1560.0000     0.2672  -999.2500    13.0992
 1560.5000     0.2674  -999.2500    11.9551
 1561.0000     0.2676  -999.2500    11.8825
 1561.5000     0.2678  -999.2500    11.6756
 1562.0000     0.2680  -999.2500    11.3685
 1562.5000     0.2682  -999.2500    11.0614
 1563.0000     0.2684  -999.2500    10.7544
 1563.5000     0.2686  -999.2500    10.4473
 1564.0000     0.2688  -999.2500    10.1402
 1564.5000     0.2690  -999.2500     9.8331
 1565.0000     0.2692  -999.2500     9.5260
 1565.5000     0.2694  -999.2500     9.2189
 1566.0000     0.2696  -999.2500     8.9118
 1566.5000     0.2698  -999.2500     8.6047
 1567.0000     0.2700  -999.2500     8.2976
 1567.5000     0.2702  -999.2500     7.9905
 1568.0000     0.2704  -999.2500     6.4289
 1568.5000     0.2706  -999.2500     3.5357
 1569.0000     0.2708  -999.2500     3.4631
 1569.5000     0.2710  -999.2500     2.9447
 1570.0000     0.2712  -999.2500     2.2811
 1570.5000     0.2714  -999.2500     2.2085
 1571.0000     0.2716  -999.2500     2.6958
 1571.5000     0.2718  -999.2500     3.6982
 1572.0000     0.2720  -999.2500     4.7005
 1572.5000     0.2722  -999.2500     5.0288
 1573.0000     0.2724  -999.2500     6.3802
 1573.5000     0.2726  -999.2500     6.9574
 1574.0000     0.2728  -999.2500     6.8848
 1574.5000     0.2730  -999.2500     6.7980
 1575.0000     0.2732  -999.2500     6.7280
 1575.5000     0.2734  -999.2500     6.6579
 1576.0000     0.2737  -999.2500     6.5879
 1576.5000     0.2739  -999.2500     8.5917
 1577.0000     0.2741  -999.2500    16.8166
 1577.5000     0.2743  -999.2500    63.4055
 1578.0000     0.2745  -999.2500    48.7500
 1578.5000     0.2747  -999.2500    28.1086
 1579.0000     0.2749  -999.2500    17.9453
 1579.5000     0.2751  -999.2500    13.0058
 1580.0000     0.2753  -999.2500    10.5756
 1580.5000     0.2755  -999.2500     8.0150
 1581.0000     0.2757  -999.2500     7.9424
 1581.5000     0.2759  -999.2500     7.8698
 1582.0000     0.2761  -999.2500     7.7977
 1582.5000     0.2763  -999.2500     7.7635
 1583.0000     0.2765  -999.2500     7.7293
 1583.5000     0.2767  -999.2500     7.6952
 1584.0000     0.2769  -999.2500     7.6610
 1584.5000     0.2771  -999.2500     7.6268
 1585.0000     0.2773  -999.2500     7.5926
 1585.5000     0.2775  -999.2500     7.5584
 1586.0000     0.2777  -999.2500     7.5242
 1586.5000     0.2779  -999.2500     7.4900
 1587.0000     0.2781  -999.2500     7.4558
 1587.5000     0.2783  -999.2500     7.4216
 1588.0000     0.2785  -999.2500     7.3874
 1588.5000     0.2787  -999.2500     7.3532
 1589.0000     0.2789  -999.2500     7.3190
 1589.5000     0.2791  -999.2500     7.2849
 1590.0000     0.2793  -999.2500     7.2507
 1590.5000     0.2795  -999.2500     7.2165
 1591.0000     0.2797  -999.2500     7.1823
 1591.5000     0.2799  -999.2500     7.1481
 1592.0000     0.2801  -999.2500     7.1139
 1592.5000     0.2803  -999.2500     7.0797
 1593.0000     0.2805  -999.2500     7.0455
 1593.5000     0.2807  -999.2500     7.0113
 1594.0000     0.2809  -999.2500     6.9771
 1594.5000     0.2811  -999.2500     6.9429
 1595.0000     0.2813  -999.2500     6.9087
 1595.5000     0.2815  -999.2500     6.8747
 1596.0000     0.2817  -999.2500    14.5575
 1596.5000     0.2819  -999.2500    27.7020
 1597.0000     0.2821  -999.2500    44.7105
 1597.5000     0.2823  -999.2500    58.4379
 1598.0000     0.2825  -999.2500    32.1854
 1598.5000     0.2827  -999.2500    20.6019
 1599.0000     0.2829  -999.2500    14.3506
 1599.5000     0.2831  -999.2500     9.8261
 1600.0000     0.2834  -999.2500     8.3282
 1600.5000     0.2833  -999.2500     8.3592
 1601.0000     0.2832  -999.2500     8.3902
 1601.5000     0.2831  -999.2500     8.4211
 1602.0000     0.2830  -999.2500     8.4521
 1602.5000     0.2829  -999.2500     8.4830
 1603.0000     0.2828  -999.2500     8.5140
 1603.5000     0.2827  -999.2500     8.5450
 1604.0000     0.2826  -999.2500     8.5759
 1604.5000     0.2825  -999.2500     8.6069
 1605.0000     0.2824  -999.2500     8.6379
 1605.5000     0.2823  -999.2500     8.6688
 1606.0000     0.2822  -999.2500     8.6998
 1606.5000     0.2820  -999.2500     8.7308
 1607.0000     0.2819  -999.2500     8.7617
 1607.5000     0.2818  -999.2500     8.7927
 1608.0000     0.2817  -999.2500     8.8237
 1608.5000     0.2816  -999.2500     8.8546
 1609.0000     0.2815  -999.2500     8.8856
 1609.5000     0.2814  -999.2500     8.9166
 1610.0000     0.2813  -999.2500     8.9475
 1610.5000     0.2812  -999.2500     8.9785
 1611.0000     0.2811  -999.2500     9.0095
 1611.5000     0.2810  -999.2500     9.0404
 1612.0000     0.2809  -999.2500     9.0714
 1612.5000     0.2808  -999.2500     9.1024
 1613.0000     0.2807  -999.2500     9.1333
 1613.5000     0.2806  -999.2500     9.1643
 1614.0000     0.2805  -999.2500     9.1953
 1614.5000     0.2804  -999.2500     9.2262
 1615.0000     0.2803  -999.2500     9.2572
 1615.5000     0.2802  -999.2500     9.2882
 1616.0000     0.2801  -999.2500     9.3191
 1616.5000     0.2800  -999.2500     9.7490
 1617.0000     0.2799  -999.2500    13.0645
 1617.5000     0.2798  -999.2500    16.7237
 1618.0000     0.2797  -999.2500    17.5500
 1618.5000     0.2796  -999.2500    11.6207
 1619.0000     0.2795  -999.2500     9.1866
 1619.5000     0.2794  -999.2500     9.1555
 1620.0000     0.2793  -999.2500     9.1244
 1620.5000     0.2792  -999.2500     9.0933
 1621.0000     0.2791  -999.2500     9.4236
 1621.5000     0.2790  -999.2500    10.0680
 1622.0000     0.2789  -999.2500    10.0513
 1622.5000     0.2788  -999.2500    10.0573
 1623.0000     0.2787  -999.2500    10.0633
 1623.5000     0.2786  -999.2500    10.0694
 1624.0000     0.2785  -999.2500    10.0754
 1624.5000     0.2784  -999.2500    10.0815
 1625.0000     0.2783  -999.2500    10.0875
 1625.5000     0.2782  -999.2500    10.0936
 1626.0000     0.2781  -999.2500    10.0996
 1626.5000     0.2780  -999.2500    10.1057
 1627.0000     0.2779  -999.2500    10.1117
 1627.5000     0.2778  -999.2500    10.1178
 1628.0000     0.2777  -999.2500    10.1238
 1628.5000     0.2776  -999.2500    10.1299
 1629.0000     0.2775  -999.2500    10.1359
 1629.5000     0.2774  -999.2500    10.1419
 1630.0000     0.2773  -999.2500    10.1480
 1630.5000     0.2772  -999.2500    10.1540
 1631.0000     0.2771  -999.2500    10.1601
 1631.5000     0.2770  -999.2500    10.1661
 1632.0000     0.2769  -999.2500    10.1722
 1632.5000     0.2768  -999.2500    10.1782
 1633.0000     0.2767  -999.2500    10.1843
 1633.5000     0.2766  -999.2500    10.1903
 1634.0000     0.2765  -999.2500    10.1964
 1634.5000     0.2764  -999.2500    10.2024
 1635.0000     0.2763  -999.2500    10.2084
 1635.5000     0.2762  -999.2500    10.2145
 1636.0000     0.2761  -999.2500    11.2189
 1636.5000     0.2760  -999.2500    13.3116
 1637.0000     0.2759  -999.2500    15.4045
 1637.5000     0.2758  -999.2500    16.3306
 1638.0000     0.2757  -999.2500    13.2582
 1638.5000     0.2756  -999.2500     9.1838
 1639.0000     0.2755  -999.2500     7.2840
 1639.5000     0.2754  -999.2500     6.8744
 1640.0000     0.2753  -999.2500     6.8433
 1640.5000     0.2752  -999.2500     6.8122
 1641.0000     0.2751  -999.2500     6.7811
 1641.5000     0.2750  -999.2500     6.7500
