~VERSION INFORMATION
 VERS.                2.0:   CWLS LOG ASCII STANDARD - VERSION 2.0
 WRAP.                 NO:   ONE LINE PER DEPTH STEP
~WELL INFORMATION
#MNEM.UNIT      DATA TYPE    INFORMATION
#----------   ------------   ------------------------------
 STRT.F           80.0000:   START DEPTH
 STOP.F          744.0000:   STOP DEPTH
 STEP.F            0.5000:   STEP LENGTH
 NULL.          -999.2500:   NO VALUE
 COMP.               NAVY:   COMPANY
 WELL. RES 3 TEAPOT DOM #44-S-11:   WELL
 FLD .             TEAPOT:   FIELD
 LOC .      S11 T38N R78W:   LOCATION
 CNTY.            NATRONA:   COUNTY
 STAT.            WYOMING:   STATE
 CTRY. UNITED STATES OF AMERICA:   COUNTRY
 SRVC.       Schlumberger:   SERVICE COMPANY
 DATE.        09-JUL-1962:   LOGDATE
 API .       490250634600:   API NUMBER
~CURVE INFORMATION
#MNEM.UNIT       API CODE    CURVE DESCRIPTION
#----------   ------------   ------------------------------
 DEPT.F                  :   
 SPR .MV     05 010 01 00:   SPONTANEOUS POTENTIAL FROM RES.
 ASN .OHMM   05 041 16 00:   AMPLIFIED SHORT NORMAL 16"
 ILD .OHMM   05 120 46 00:   INDUCTION LOG DEEP
 CILD.MMHO   05 110 46 00:   CONDUCTIVITY INDUCTION LOG DEEP
 GR  .GAPI   30 310 01 00:   GAMMA RAY
~PARAMETER INFORMATION
#MNEM.UNIT          VALUE    DESCRIPTION
#----------   ------------   ------------------------------
 PD  .                 KB:   PERMANENT DATUM
 EPD .F              5182:   ELEVATION PERMANENT DATUM
 EKB .F              5182:   KELLING BUSHING
 EGL .F              5177:   GROUND LEVEL
 DATE.        09-JUL-1962:   RUN DATE
 RUN .                  1:   RUN NUMBER
 DD  .F               745:   DEPTH DRILLER
 DL  .F               745:   DEPTH LOGGER
 BLI .F               744:   BOTTOM LOG INTERVAL
 TLI .F                90:   TOP LOG INTERVAL
 BS  .IN             6.75:   BIT SIZE
 BSD .F               745:   BIT SIZE AT DEPTH
 DFT .           OIL EMUL:   DRILLING FLUID TYPE
 DFD .               10.3:   DRILLING FLUID DENSITY
 DFV .                 50:   DRILLING FLUID VISCOSITY
 DFL .                3.4:   DRILLING FLUID LOSS
 RMS .OHMM            7.0:   RESISTIVITY MUD SAMPLE
 MST .F                73:   MUD SAMPLE TEMPERATURE
 RMF .OHMM            4.5:   RESISTIVITY MUD FILTRATE SAMPLE
 MFST.F                73:   MUD FILTRATE SAMPLE TEMPERATURE
 RMC .OHMM           13.5:   RESISTIVITY MUD CAKE
 MCST.F                73:   MUD CAKE SAMPLE TEMPERATURE
 MFSS.               MEAS:   MUD FILTRATE SAMPLE SOURCE
 MCSS.               MEAS:   MUD CAKE SAMPLE SOURCE
 TCS .HRS            0030:   TIME CURCULATED STOPPED
 LUN .               2503:   LOGGING UNIT NUMBER
 LUL .               CSPR:   LOGGING UNIT LOCATION
 ENGI.           ELLERMAN:   RECORDING ENGINEER
 WITN.          JORGENSON:   WITNESSED BY
 CLNT.            A2DTECH:   CLIENT CODE
 ORIG.           5" PRINT:   ORIGIN OF DATA
 UWI .       490250634600:   UNIQUE WELL ID
 DICO. A2D Technologies, Inc.:   DIGITIZING COMPANY
~OTHER INFORMATION
~A   DEPT      SPR        ASN        ILD       CILD         GR   
# ...
  141.0000   -57.0013     3.0707     2.8624   411.4441  -999.2500
  141.5000   -58.0774     2.9034     3.0104   392.2365  -999.2500
  142.0000   -58.3913     3.0549     3.1592   366.6795  -999.2500
  142.5000   -58.5505     3.4795     3.3839   340.4596  -999.2500
  143.0000   -58.4071     3.7523     3.6843   312.1452  -999.2500
  143.5000   -58.1135     3.7824     4.2124   283.8308  -999.2500
  144.0000   -57.5105     3.7821     4.5129   261.1883  -999.2500
  144.5000   -58.4365     3.7666     4.2003   261.2327  -999.2500
  145.0000   -58.5979     3.7359     3.9757   268.8414  -999.2500
  145.5000   -58.6070     3.6598     3.8068   283.2071  -999.2500
  146.0000   -58.7684     3.5988     3.5897   297.9253  -999.2500
  146.5000   -58.7775     3.5226     3.4350   312.6434  -999.2500
  147.0000   -58.7866     3.4464     3.2802   327.3615  -999.2500
  147.5000   -58.7957     3.3399     3.0496   346.7504  -999.2500
  148.0000   -58.8049     3.2334     2.9708   386.1607  -999.2500
  148.5000   -58.6612     3.1420     2.8919   425.5710  -999.2500
  149.0000   -58.5178     3.0355     2.7372   464.9813  -999.2500
  149.5000   -58.3744     2.8835     2.5824   495.7450  -999.2500
  150.0000   -58.2310     2.8073     2.7312   516.6340  -999.2500
  150.5000   -57.9351     2.8695     2.8048   488.7942  -999.2500
  151.0000   -57.9464     3.0834     2.8777   456.9767  -999.2500
  151.5000   -57.4981     3.2920     2.8566   436.6515  -999.2500
  152.0000   -57.2000     3.1733     2.7882   415.1975  -999.2500
  152.5000   -57.5162     3.0181     3.3148   379.5053  -999.2500
  153.0000   -57.5252     3.3062     3.8414   338.5683  -999.2500
  153.5000   -57.5447     3.8864     4.2163   303.6553  -999.2500
  154.0000   -57.4025     4.3489     4.5153   279.9400  -999.2500
  154.5000   -57.2606     4.5606     4.8143   256.2246  -999.2500
  155.0000   -57.1189     4.7571     5.0375   232.5092  -999.2500
  155.5000   -57.4446     4.9081     5.2606   208.7939  -999.2500
  156.0000   -57.7703     5.0289     5.4078   200.2340  -999.2500
  156.5000   -58.0676     4.9976     5.4803   200.2899  -999.2500
  157.0000   -58.5355     5.1183     5.4747   200.3346  -999.2500
  157.5000   -59.3082     5.3452     5.6220   194.3279  -999.2500
  158.0000   -59.9284     5.5417     5.6935   183.7826  -999.2500
  158.5000   -60.2438     5.7686     5.8406   174.7197  -999.2500
  159.0000   -60.4067     5.9954     6.1427   168.6835  -999.2500
  159.5000   -60.4172     6.1919     6.5904   164.2496  -999.2500
  160.0000   -60.4277     6.2974     6.5858   162.0362  -999.2500
  160.5000   -60.2831     6.4029     6.5803   162.0809  -999.2500
  161.0000   -60.2963     6.3697     6.5758   161.3580  -999.2500
  161.5000   -60.0015     6.3557     6.5713   160.6575  -999.2500
  162.0000   -59.4026     6.4005     6.5668   159.9346  -999.2500
  162.5000   -59.1082     6.4454     6.5623   159.9904  -999.2500
  163.0000   -58.4990     6.3686     6.5578   161.5480  -999.2500
  163.5000   -57.5848     6.3831     6.5533   162.3492  -999.2500
  164.0000   -57.4629     6.4128     6.5489   162.3939  -999.2500
  164.5000   -58.5431     6.4424     6.4685   163.9515  -999.2500
  165.0000   -58.8585     6.4569     6.3881   164.7526  -999.2500
  165.5000   -59.0214     6.4256     6.3836   165.5538  -999.2500
  166.0000   -59.0319     6.3945     6.3792   166.3549  -999.2500
  166.5000   -59.1948     6.3634     6.3747   167.9125  -999.2500
  167.0000   -59.2053     6.3171     6.2943   169.5005  -999.2500
  167.5000   -59.0608     6.2860     6.2139   171.0287  -999.2500
  168.0000   -58.9214     6.2398     6.1336   171.8306  -999.2500
  168.5000   -57.8649     6.1914     6.0531   172.6411  -999.2500
  169.0000   -57.8754     6.1470     5.9611   172.6858  -999.2500
  169.5000   -57.8858     6.1311     6.1190   171.9741  -999.2500
  170.0000   -57.7439     6.1152     6.1915   171.2512  -999.2500
  170.5000   -57.7544     6.2207     6.3388   169.0378  -999.2500
  171.0000   -57.4600     6.3413     6.4849   166.5524  -999.2500
  171.5000   -57.1683     6.4772     6.5563   162.5295  -999.2500
  172.0000   -56.5664     6.6585     6.6288   158.5067  -999.2500
  172.5000   -57.0368     6.6426     6.7760   154.4838  -999.2500
  173.0000   -56.4375     6.7329     6.9233   150.4610  -999.2500
  173.5000   -56.6005     6.8687     7.1453   146.4381  -999.2500
  174.0000   -57.3732     6.9742     7.2926   141.3704  -999.2500
  174.5000   -57.5361     7.0341     7.5916   138.3782  -999.2500
  175.0000   -57.0893     7.0486     7.8149   136.1648  -999.2500
  175.5000   -56.9447     7.0013     7.8102   133.9402  -999.2500
  176.0000   -56.9578     6.9236     7.8057   133.9849  -999.2500
  176.5000   -56.9683     6.8033     7.7251   134.0296  -999.2500
  177.0000   -56.9788     6.6205     7.6404   134.8308  -999.2500
  177.5000   -57.1418     6.5439     7.4886   137.1448  -999.2500
  178.0000   -57.6301     6.4976     7.3191   141.7281  -999.2500
  178.5000   -58.5757     6.3451     6.9475   148.5807  -999.2500
  179.0000   -59.4625     6.1016     6.4119   164.5104  -999.2500
  179.5000   -59.4730     5.7518     5.8005   191.0302  -999.2500
  180.0000   -59.4835     5.3414     5.1890   221.3321  -999.2500
  180.5000   -59.4940     4.9309     4.2740   308.9277  -999.2500
  181.0000   -59.3494     4.2170     2.9039   385.4901  -999.2500
  181.5000   -59.2074     3.7003     2.5959   460.0657  -999.2500
  182.0000   -58.4584     3.2746     2.2879   503.3153  -999.2500
  182.5000   -56.4872     3.0918     2.1317   532.1348  -999.2500
  183.0000   -54.8208     2.9363     2.2789   571.9135  -999.2500
  183.5000   -54.6763     2.8172     2.3503   618.0254  -999.2500
  184.0000   -54.3845     2.8769     2.4976   604.9267  -999.2500
  184.5000   -54.0901     3.1190     2.7207   520.5156  -999.2500
  185.0000   -53.7957     3.3459     3.0197   439.2182  -999.2500
  185.5000   -54.7414     3.5727     3.5498   366.9466  -999.2500
  186.0000   -55.9919     3.7389     4.4705   310.3784  -999.2500
  186.5000   -57.1835     4.4058     5.7134   250.7318  -999.2500
  187.0000   -57.6513     5.6190     7.3253   190.8936  -999.2500
  187.5000   -57.0521     7.2116     8.8383   137.9973  -999.2500
  188.0000   -57.3674     7.8786    10.3513   111.9896  -999.2500
  188.5000   -57.3779     8.6062    11.5607    81.4149  -999.2500
  189.0000   -57.5409     9.0000    11.9367    79.9356  -999.2500
  189.5000   -58.0087     9.1661    11.7035    81.5044  -999.2500
  190.0000   -58.9338     9.1199    11.0162    84.5748  -999.2500
  190.5000   -59.7065     8.9340     9.8736    89.9145  -999.2500
  191.0000   -60.1743     8.7461     8.5793   112.6521  -999.2500
  191.5000   -60.1848     8.2070     7.2849   142.9540  -999.2500
  192.0000   -60.0427     7.6144     6.1424   170.2302  -999.2500
  192.5000   -59.5960     6.4452     5.5309   188.5847  -999.2500
  193.0000   -59.1392     5.6858     5.2988   201.1597  -999.2500
  193.5000   -58.2048     5.7004     5.3703   209.7024  -999.2500
  194.0000   -55.5143     5.6995     5.3657   209.7471  -999.2500
  194.5000   -54.9124     5.7746     5.3612   208.2790  -999.2500
  195.0000   -56.2975     6.1077     5.5235   203.7851  -999.2500
  195.5000   -57.5275     6.7139     6.3979   184.8181  -999.2500
  196.0000   -58.3002     7.8361     7.6228   158.9580  -999.2500
  196.5000   -58.4631     8.4878     8.4529   129.2601  -999.2500
  197.0000   -58.3185     8.7754     9.0554   113.4837  -999.2500
  197.5000   -58.3317     9.0478     9.5820   100.7194  -999.2500
  198.0000   -58.4366     9.2938    10.0328    96.2381  -999.2500
  198.5000   -58.5985     9.5400    10.4076    97.7810  -999.2500
  199.0000   -58.9130     9.8951    10.7066    96.3118  -999.2500
  199.5000   -59.2292    10.3194    10.9309    94.8427  -999.2500
  200.0000   -59.6962    10.6980    11.2288    92.6205  -999.2500
  200.5000   -60.4685    11.0058    11.4519    88.0096  -999.2500
  201.0000   -61.0881    11.3035    11.7509    82.6458  -999.2500
  201.5000   -62.0131    11.4543    11.8225    79.9298  -999.2500
