~VERSION INFORMATION
 VERS.                2.0:   CWLS LOG ASCII STANDARD - VERSION 2.0
 WRAP.                 NO:   ONE LINE PER DEPTH STEP
~WELL INFORMATION
#MNEM.UNIT      DATA TYPE    INFORMATION
#----------   ------------   ------------------------------
 STRT.F           30.0000:   START DEPTH
 STOP.F          637.0000:   STOP DEPTH
 STEP.F            0.5000:   STEP LENGTH
 NULL.          -999.2500:   NO VALUE
 COMP.    FENIX & SCISSON:   COMPANY
 WELL.        NPR #82-S-3:   WELL
 FLD .             TEAPOT:   FIELD
 LOC .       S3 T38N R78W:   LOCATION
 CNTY.            NATRONA:   COUNTY
 STAT.            WYOMING:   STATE
 CTRY. UNITED STATES OF AMERICA:   COUNTRY
 SRVC.              Welex:   SERVICE COMPANY
 DATE.        08-MAY-1977:   LOGDATE
 API .       490251035100:   API NUMBER
~CURVE INFORMATION
#MNEM.UNIT       API CODE    CURVE DESCRIPTION
#----------   ------------   ------------------------------
 DEPT.F                  :   
 SPR .MV     07 010 01 00:   SPONTANEOUS POTENTIAL FROM RES.
 ILD .OHMM   07 120 46 00:   INDUCTION LOG DEEP
 ILM .OHMM   07 120 44 00:   INDUCTION LOG MEDIUM
 SGRD.OHMM   07 220 05 00:   SHALLOW GUARD RESISTIVITY
 GRD .GAPI   45 310 01 00:   GAMMA RAY FROM DENSITY LOG
 CALD.IN     45 280 60 00:   CALIPER FROM DENSITY LOG
 CORR.G/C3   45 356 01 00:   DENSITY CORRECTION
 RHOB.G/C3   45 350 01 00:   BULK DENSITY
 DPHI.DEC    45 890 12 00:   DENSITY POROSITY SANDSTONE
~PARAMETER INFORMATION
#MNEM.UNIT          VALUE    DESCRIPTION
#----------   ------------   ------------------------------
 PD  .                 GL:   PERMANENT DATUM
 EPD .F              5100:   ELEVATION PERMANENT DATUM
 LMF .                 GL:   LOG MEASURED FROM
 DMF .                 GL:   DRILLING MEASURED FROM
 EGL .F              5100:   GROUND LEVEL
 DATE.        08-MAY-1977:   RUN DATE
 RUN .                  1:   RUN NUMBER
 DD  .F               635:   DEPTH DRILLER
 DL  .F               640:   DEPTH LOGGER
 BLI .F               638:   BOTTOM LOG INTERVAL
 TLI .F                30:   TOP LOG INTERVAL
 CS  .IN            8.625:   CASING SIZE
 CBD .F                40:   CASING BOTTOM DRILLER
 CBL .F                38:   CASING BOTTOM LOGGER
 BS  .IN            7.875:   BIT SIZE
 BSD .F               635:   BIT SIZE AT DEPTH
 DFT .            KCL MUD:   DRILLING FLUID TYPE
 DFD .                8.8:   DRILLING FLUID DENSITY
 DFV .                 32:   DRILLING FLUID VISCOSITY
 DFPH.                7.5:   DRILLING FLUID PH
 MSS .           FLOWLINE:   MUD SAMPLE SOURCE
 RMS .OHMM            .25:   RESISTIVITY MUD SAMPLE
 MST .F                80:   MUD SAMPLE TEMPERATURE
 RMF .OHMM            .22:   RESISTIVITY MUD FILTRATE SAMPLE
 MFST.F                80:   MUD FILTRATE SAMPLE TEMPERATURE
 RMC .OHMM            .31:   RESISTIVITY MUD CAKE
 MCST.F                80:   MUD CAKE SAMPLE TEMPERATURE
 MFSS.               MEAS:   MUD FILTRATE SAMPLE SOURCE
 MCSS.               MEAS:   MUD CAKE SAMPLE SOURCE
 RMB .OHMM            .23:   RESISTIVITY MUD AT BHT
 BHT .F                87:   BOTTOM HOLE TEMPERATURE
 TCS .HRS            0130:   TIME CURCULATED STOPPED
 MRT .F                87:   MAXIMUM RECORDED TEMPERATURE
 LUN .               8611:   LOGGING UNIT NUMBER
 LUL .             CASPER:   LOGGING UNIT LOCATION
 ENGI.            C. DOAK:   RECORDING ENGINEER
 WITN.            R. LYON:   WITNESSED BY
 CLNT.            A2DTECH:   CLIENT CODE
 ORIG.           5" PRINT:   ORIGIN OF DATA
 UWI .       490251035100:   UNIQUE WELL ID
 DICO. A2D Technologies, Inc.:   DIGITIZING COMPANY
~OTHER INFORMATION
~A   DEPT      SPR        ILD        ILM       SGRD         GRD      CALD        CORR        RHOB     DPHI   
# ...
  395.0000   -52.6464     5.9746     7.5936    10.8359   139.2863     7.9762     0.0421     2.5004     0.1050
  395.5000   -52.4851     6.3607     7.8657    10.9795   136.9202     7.9777     0.0407     2.5034     0.1037
  396.0000   -52.4717     6.6791     8.1008    11.2299   133.2148     7.9643     0.0408     2.5125     0.0930
  396.5000   -52.3104     7.0134     8.2656    11.3036   134.5689     7.9509     0.0410     2.5260     0.0885
  397.0000   -52.4483     7.2637     8.3866    11.3122   139.3456     7.9527     0.0396     2.5343     0.0858
  397.5000   -52.5828     7.2183     8.5752    11.2427   139.8069     7.9542     0.0412     2.5525     0.0740
  398.0000   -52.7174     6.8355     8.7106    11.0972   136.2502     7.9557     0.0399     2.5823     0.0662
  398.5000   -52.7006     6.6529     9.3206    11.2647   135.3722     7.9572     0.0385     2.5613     0.0772
  399.0000   -52.8385     6.4326     8.8220    11.4281   134.4942     7.9587     0.0357     2.5353     0.0901
  399.5000   -53.2689     6.1760     8.3006    11.6726   131.3840     7.9601     0.0268     2.5167     0.0958
  400.0000   -53.5514     5.9948     7.5978     9.6309   130.5060     7.9612     0.0269     2.5058     0.1084
  400.5000   -53.4403     5.8515     6.9501     6.2848   135.2953     7.9419     0.0240     2.4937     0.1161
  401.0000   -53.2162     5.8551     6.8132     5.2557   137.4039     7.9211     0.0226     2.4780     0.1197
  401.5000   -52.9027     5.9021     7.0148     8.1199   139.9590     7.9231     0.0196     2.4729     0.1221
  402.0000   -52.2933     5.9886     7.5741     9.6511   141.1748     7.9250     0.0182     2.4811     0.1092
  402.5000   -51.9798     6.1608     8.0043    10.7099   137.4799     7.9270     0.0183     2.4968     0.1080
  403.0000   -51.6663     6.3879     8.1217    11.5600   136.3147     7.9290     0.0183     2.4984     0.1092
  403.5000   -51.3528     6.7485     8.4904    11.6464   134.8520     7.9310     0.0184     2.4969     0.1110
  404.0000   -51.0393     7.0388     9.2839    11.9786   133.3892     7.9330     0.0184     2.4947     0.1121
  404.5000   -50.8737     7.3825     9.8596    12.2356   131.1824     7.9196     0.0185     2.4805     0.1295
  405.0000   -50.4123     7.6988    10.0717    12.0747   127.7851     7.9221     0.0141     2.4134     0.1617
  405.5000   -50.2467     7.9735     9.9384    12.2491   123.3461     7.9087     0.0081     2.4052     0.1701
  406.0000   -50.2291     8.2013    10.5096    12.5984   121.4369     7.9112     0.0067     2.4396     0.1279
  406.5000   -50.2114     8.3202    10.0210    12.4327   122.5039     7.9132     0.0217     2.4643     0.1240
  407.0000   -50.3417     8.4408     9.9568    12.4396   123.7197     7.9151     0.0263     2.4792     0.1159
  407.5000   -50.3240     8.6224    10.5291    12.3608   124.6378     7.9171     0.0353     2.5017     0.0920
  408.0000   -50.4587     8.8079    10.6068    12.2827   125.1033     7.9340     0.0444     2.5420     0.0881
  408.5000   -50.5890     8.8742    10.1152    12.1212   123.2004     7.9359     0.0414     2.5219     0.0929
  409.0000   -50.5670     9.0029     9.9814    12.3836   122.1840     7.9379     0.0370     2.5167     0.0941
  409.5000   -50.5493     8.9452    10.7015    12.8226   121.4653     7.9399     0.0371     2.5242     0.0893
  410.0000   -50.6840     8.9521    10.2745    12.5669   122.9787     7.9419     0.0371     2.5280     0.0886
  410.5000   -50.8107     8.9576     9.8631    12.6610   123.8969     7.9285     0.0372     2.5258     0.0943
  411.0000   -50.7922     8.9632    10.1464    12.7556   124.8151     7.9310     0.0417     2.5154     0.0928
  411.5000   -50.7746     8.9687    10.5795    12.6639   123.7924     7.9330     0.0463     2.5214     0.0919
  412.0000   -50.7569     8.9112    10.0199    12.3368   125.6098     7.9201     0.0449     2.5132     0.0981
  412.5000   -50.8876     8.9181    10.3775    12.0773   126.8256     7.9221     0.0419     2.5036     0.1023
  413.0000   -50.8696     8.9853    10.3126    11.8350   121.3449     7.9241     0.0360     2.4969     0.1032
  413.5000   -50.7040     8.9277     9.7641    11.6137   118.2452     7.9107     0.0360     2.4932     0.1032
  414.0000   -50.6863     8.8719    10.4685    12.0292   114.8479     7.9132     0.0391     2.5007     0.1008
  414.5000   -50.5208     8.6958    10.3317    12.8948   113.2364     7.9151     0.0451     2.5097     0.0972
  415.0000   -50.5031     8.3501    10.1250    13.8228   113.4105     7.9171     0.0497     2.5172     0.0939
  415.5000   -50.6334     7.9619    10.2734    14.1194   114.3287     7.9191     0.0543     2.5254     0.0915
  416.0000   -50.4674     7.5397    10.2797    13.6484   117.1814     7.9211     0.0573     2.5277     0.0944
  416.5000   -50.4497     7.0908    10.1453    14.0378   120.0341     7.9231     0.0589     2.4994     0.1070
  417.0000   -50.4319     6.6686     9.7405    14.2385   122.4403     7.9250     0.0604     2.4830     0.1177
  417.5000   -50.4142     6.3149     9.1606    12.1591   123.5073     7.9270     0.0620     2.4755     0.1229
  418.0000   -50.2485     6.1471     8.3811     8.4422   124.7231     7.9439     0.0665     2.4532     0.1345
  418.5000   -50.0793     6.1086     7.2069     5.2857   129.2127     7.9458     0.0681     2.4181     0.1494
  419.0000   -49.4699     6.1547     7.9964     4.4815   132.9583     7.9478     0.0622     2.3965     0.1655
  419.5000   -48.8606     6.3305     8.9336     8.8132   131.1979     7.9498     0.0472     2.3794     0.1774
  420.0000   -48.2512     6.6474     9.8442    16.0617   124.6756     7.9518     0.0428     2.4130     0.1535
  420.5000   -47.9377     7.1751    10.5528    15.4194   118.4509     7.9538     0.0414     2.4593     0.1200
  421.0000   -47.6242     7.7447    11.2347    15.8614   116.9818     7.9558     0.0444     2.5079     0.0964
  421.5000   -47.3107     8.4761    11.7973    16.0904   119.8408     7.9577     0.0490     2.5326     0.0870
  422.0000   -47.1451     9.2150    12.2202    16.2084   121.3542     7.9444     0.0505     2.5483     0.0829
  422.5000   -46.6837     9.7429    12.4851    15.7762   118.1057     7.9315     0.0521     2.5551     0.0796
  423.0000   -46.2222    10.0179    12.8374    15.6764   113.9644     7.9186     0.0537     2.5551     0.0781
  423.5000   -45.7608    10.1632    12.9342    15.5773   116.2218     7.9211     0.0537     2.5402     0.0829
  424.0000   -45.2994    10.3190    13.2456    15.5879   117.7289     7.9231     0.0493     2.5179     0.0919
  424.5000   -44.6900    10.4704    14.5026    15.5965   113.5939     7.9250     0.0419     2.4925     0.1008
  425.0000   -44.2286    10.6851    15.3412    15.4957   109.3038     7.9270     0.0344     2.4761     0.1139
  425.5000   -43.3233    10.9293    16.5672    15.5064   108.1386     7.9137     0.0270     2.4634     0.1270
  426.0000   -42.5660    11.4627    17.9371    15.1973   106.5270     7.9161     0.0241     2.4695     0.1240
  426.5000   -41.9567    12.0364    19.3611    15.9574   102.2369     7.9181     0.0286     2.4777     0.1201
  427.0000   -41.3473    12.7262    20.3301    18.4533    91.6967     7.9201     0.0332     2.4830     0.1174
  427.5000   -40.4421    13.7365    20.0612    24.3262    82.4958     7.9221     0.0437     2.4838     0.1159
  428.0000   -39.3889    15.2413    22.4161    32.9647    75.8247     7.9241     0.0513     2.4793     0.1186
  428.5000   -38.8540    17.2640    24.3629    27.8200    74.3619     7.9260     0.0573     2.4614     0.1293
  429.0000   -38.2761    18.6345    26.2970    24.1452    74.0896     7.9280     0.0589     2.4279     0.1413
  429.5000   -37.6982    19.9758    27.9963    23.3907    73.6685     7.9300     0.0574     2.3921     0.1658
  430.0000   -37.1203    21.2665    29.8053    25.7785    72.6522     7.9320     0.0545     2.3702     0.1858
  430.5000   -36.6380    22.4853    29.6190    30.6440    71.4870     7.9340     0.0471     2.3478     0.1983
  431.0000   -36.3245    23.2876    28.4372    34.9519    70.0242     7.9359     0.0396     2.3299     0.2064
