~VERSION INFORMATION
 VERS.                2.0:   CWLS LOG ASCII STANDARD - VERSION 2.0
 WRAP.                 NO:   ONE LINE PER DEPTH STEP
~WELL INFORMATION
#MNEM.UNIT      DATA TYPE    INFORMATION
#----------   ------------   ------------------------------
 STRT.F           40.0000:   START DEPTH
 STOP.F          459.0000:   STOP DEPTH
 STEP.F            0.5000:   STEP LENGTH
 NULL.          -999.2500:   NO VALUE
 COMP. BROWN JOHN E&C INC:   COMPANY
 WELL. NPR 3 63-34  X 10 #63-10:   WELL
 FLD .             TEAPOT:   FIELD
 LOC .      S10 T38N R78W:   LOCATION
 CNTY.            NATRONA:   COUNTY
 STAT.            WYOMING:   STATE
 CTRY. UNITED STATES OF AMERICA:   COUNTRY
 SRVC.       Schlumberger:   SERVICE COMPANY
 DATE.        25-SEP-1990:   LOGDATE
 API .       490251132100:   API NUMBER
~CURVE INFORMATION
#MNEM.UNIT       API CODE    CURVE DESCRIPTION
#----------   ------------   ------------------------------
 DEPT.F                  :   
 GRR .GAPI   07 310 01 00:   GAMMA RAY FROM RES. LOG.
 ILD .OHMM   07 120 46 00:   INDUCTION LOG DEEP
 ILM .OHMM   07 120 44 00:   INDUCTION LOG MEDIUM
~PARAMETER INFORMATION
#MNEM.UNIT          VALUE    DESCRIPTION
#----------   ------------   ------------------------------
 PD  .                 GL:   PERMANENT DATUM
 EPD .F              5178:   ELEVATION PERMANENT DATUM
 LMF .                 KB:   LOG MEASURED FROM
 DAPD.F                10:   FEET ABOVE PERMANENT DATUM
 DMF .                 KB:   DRILLING MEASURED FROM
 EKB .F              5188:   KELLING BUSHING
 EDF .F              5187:   DRILLING FLOOR
 EGL .F              5178:   GROUND LEVEL
 DATE.          9-25-1990:   RUN DATE
 RUN .                  1:   RUN NUMBER
 DD  .F               464:   DEPTH DRILLER
 DL  .F               465:   DEPTH LOGGER
 BLI .F               459:   BOTTOM LOG INTERVAL
 TLI .F                40:   TOP LOG INTERVAL
 CS  .IN            8.625:   CASING SIZE
 CBD .F                48:   CASING BOTTOM DRILLER
 CBL .F                46:   CASING BOTTOM LOGGER
 BS  .IN            7.875:   BIT SIZE
 BSD .F               464:   BIT SIZE AT DEPTH
 DFT .                AIR:   DRILLING FLUID TYPE
 TLAB.HRS            2200:   TIME LOGGER AT BOTTOM
 LUN .               5882:   LOGGING UNIT NUMBER
 LUL .               CODY:   LOGGING UNIT LOCATION
 ENGI.             FISHER:   RECORDING ENGINEER
 WITN.             STRONG:   WITNESSED BY
 CLNT.            A2DTECH:   CLIENT CODE
 ORIG.       2", 5" PRINT:   ORIGIN OF DATA
 UWI .       490251132100:   UNIQUE WELL ID
 DICO. A2D Technologies, Inc.:   DIGITIZING COMPANY
~OTHER INFORMATION
~A   DEPT       GRR       ILD        ILM   
# ...
  131.0000   124.4478     8.8334     8.4724
  131.5000   125.3517     8.8345     8.4060
  132.0000   128.3360     8.5901     8.3403
  132.5000   127.5806     8.5089     8.2756
  133.0000   123.4989     8.4262     8.1633
  133.5000   120.5187     8.3526     8.0538
  134.0000   119.8464     8.2007     7.9460
  134.5000   126.4530     8.0372     7.8397
  135.0000   132.4935     7.8770     7.7365
  135.5000   132.7456     7.7532     7.5767
  136.0000   129.2492     7.5559     7.3702
  136.5000   123.3953     7.3453     7.1668
  137.0000   122.5410     7.1375     6.9696
  137.5000   124.3825     6.9384     6.7778
  138.0000   123.7979     6.8417     6.6173
  138.5000   120.1372     6.7905     6.7571
  139.0000   116.7735     6.7418     6.8819
  139.5000   119.8293     6.7414     7.0091
  140.0000   123.2586     6.8426     7.1386
  140.5000   122.8746     7.0437     7.2706
  141.0000   120.7799     7.2508     7.4049
  141.5000   123.1440     7.4637     7.5418
  142.0000   126.3576     7.6828     7.6813
  142.5000   127.5053     7.8285     7.7937
  143.0000   126.4780     7.8445     7.9158
  143.5000   126.0390     7.8605     8.0397
  144.0000   126.4635     7.8765     8.1991
  144.5000   126.4796     7.8924     8.1065
  145.0000   125.9145     7.8992     7.9824
  145.5000   125.3422     7.8991     7.8603
  146.0000   124.6173     7.8991     7.7532
  146.5000   123.5239     7.8991     7.8258
  147.0000   121.5752     7.8555     7.6408
  147.5000   120.3829     7.6436     7.4435
  148.0000   119.0465     7.4374     7.2514
  148.5000   121.2776     7.2368     7.0643
  149.0000   125.2511     7.0374     6.8817
  149.5000   129.4824     6.9920     6.7040
  150.0000   130.0490     6.5008     6.3266
  150.5000   125.2411     6.1286     5.9149
  151.0000   120.6977     5.7763     5.5297
  151.5000   118.6252     5.3907     5.1693
  152.0000   118.2261     5.4350     4.7298
  152.5000   117.8150     5.4925     4.9159
  153.0000   117.9851     5.4894     5.2174
  153.5000   118.3135     5.4889     5.5384
  154.0000   118.8769     5.6738     5.8780
  154.5000   118.1754     5.9982     6.2384
  155.0000   118.8854     6.3692     6.6209
  155.5000   119.7258     6.7648     6.9979
  156.0000   120.5988     7.1845     7.3330
  156.5000   122.1199     7.6101     7.6978
  157.0000   124.1917     7.6556     7.8991
  157.5000   127.0019     7.6994     7.8991
  158.0000   129.6237     7.7435     8.0020
  158.5000   130.6951     7.8519     8.1137
  159.0000   129.0087     7.9730     8.2271
  159.5000   126.6042     8.1145     8.3420
  160.0000   124.5891     8.2510     8.4585
  160.5000   126.4583     8.3899     8.5189
  161.0000   128.7940     8.5312     8.5419
  161.5000   129.7931     8.6747     8.5649
  162.0000   129.4093     8.8337     8.5901
  162.5000   128.7684     8.8337     8.6159
  163.0000   128.9724     8.8337     8.6518
  163.5000   130.0700     8.8337     8.6879
  164.0000   131.1378     8.8337     8.7241
  164.5000   129.1039     8.8337     8.7605
  165.0000   125.7004     8.8433     8.7971
  165.5000   123.7432     8.8538     8.8337
  166.0000   126.5770     8.8643     8.8158
  166.5000   129.5568     8.8748     8.7980
  167.0000   129.5263     8.8853     8.7801
  167.5000   127.4370     8.8958     8.7624
  168.0000   126.6930     8.9063     8.7517
  168.5000   127.6264     8.9162     8.6964
  169.0000   127.9384     8.8119     8.6088
  169.5000   127.3558     8.7137     8.5222
  170.0000   126.6518     8.6166     8.4364
  170.5000   126.9699     8.5206     8.3533
  171.0000   128.6106     8.4315     8.4315
  171.5000   130.3419     8.2473     8.3137
  172.0000   129.4544     8.0775     8.1803
  172.5000   127.1281     7.8991     8.1176
  173.0000   126.3881     7.5463     7.8113
  173.5000   128.7262     7.1266     7.4433
  174.0000   132.3186     6.7303     7.0634
  174.5000   135.4925     6.3560     6.6244
  175.0000   137.0428     6.0025     6.1778
  175.5000   137.8775     5.5001     5.7586
  176.0000   136.3139     4.8372     5.1806
  176.5000   131.8601     4.2542     4.5332
  177.0000   127.7571     3.7415     3.9700
  177.5000   125.1203     3.2906     3.4766
  178.0000   123.7669     2.8940     3.0446
  178.5000   121.3930     2.7050     2.6662
  179.0000   118.7287     2.7559     2.5579
  179.5000   115.8714     2.7753     2.6115
  180.0000   114.2903     2.8059     2.7646
  180.5000   114.9693     2.8046     3.1256
  181.0000   120.5099     3.2405     3.5317
  181.5000   126.8126     3.6453     4.0283
  182.0000   130.3708     4.1497     4.5914
  182.5000   131.1238     4.7291     5.1742
  183.0000   131.0942     5.3848     5.8314
  183.5000   131.9733     5.8988     6.1323
  184.0000   135.8618     6.1676     6.3424
  184.5000   139.4453     6.4508     6.5616
  185.0000   139.5573     6.6566     6.7885
  185.5000   136.6802     6.7432     6.9330
  186.0000   133.7718     6.7428     6.9330
  186.5000   131.1457     6.3800     6.8724
  187.0000   131.4881     6.1171     6.5045
  187.5000   133.8163     5.8575     6.1563
  188.0000   138.9199     5.6002     5.9172
  188.5000   145.9538     5.3501     5.6790
  189.0000   147.3325     5.2171     5.4686
  189.5000   145.4901     5.0821     5.2670
  190.0000   143.0109     4.9542     5.1301
  190.5000   138.4541     4.8608     4.9608
  191.0000   135.2097     4.8656     5.0035
  191.5000   133.5580     5.1106     5.1684
  192.0000   133.8960     5.3302     5.4751
  192.5000   136.8826     5.5436     5.8000
  193.0000   140.1890     5.8851     6.1442
  193.5000   143.1609     6.2242     6.5089
  194.0000   144.3814     6.5831     6.8958
  194.5000   143.3732     6.9617     7.2226
  195.0000   143.0647     7.3334     7.4550
  195.5000   142.9115     7.5609     7.6684
  196.0000   141.1794     7.7467     7.8863
  196.5000   137.8757     7.9371     8.1297
  197.0000   134.7361     8.0558     8.1212
  197.5000   134.4422     7.9677     8.1230
  198.0000   135.1619     7.9746     8.1991
  198.5000   136.7012     7.8579     8.0569
  199.0000   136.4254     7.7720     7.8695
  199.5000   136.3933     7.6868     7.6864
  200.0000   137.0319     7.5777     7.5074
  200.5000   137.4928     7.2488     7.3332
  201.0000   136.7903     6.9330     7.1296
  201.5000   136.6850     6.9729     7.1307
  202.0000   137.5037     6.9420     6.7101
  202.5000   144.3820     6.7155     6.3175
  203.0000   149.8629     6.3127     5.9474
  203.5000   150.5420     5.9341     5.5992
  204.0000   149.9761     5.5782     5.2715
  204.5000   146.1675     5.2436     4.9629
  205.0000   142.4232     4.9291     4.7757
  205.5000   136.2140     4.8656     4.9620
  206.0000   130.4990     5.0035     5.2892
  206.5000   128.3710     5.3137     5.6379
  207.0000   134.2888     5.6231     6.0097
  207.5000   139.7044     6.0145     6.4059
  208.0000   143.1463     6.4811     6.8289
  208.5000   143.5222     6.9917     7.2772
  209.0000   142.9607     7.2215     7.6855
  209.5000   142.4611     7.4023     7.6813
  210.0000   143.2982     7.5853     7.7622
  210.5000   144.2124     7.6871     7.8430
  211.0000   145.1298     7.7770     7.9247
  211.5000   146.0085     7.8679     8.0072
  212.0000   145.5463     7.9600     8.0904
  212.5000   143.9625     7.9730     8.1748
  213.0000   143.9059     7.9730     8.1991
  213.5000   143.7733     7.9730     8.1991
  214.0000   143.6261     7.9730     8.2781
  214.5000   143.0333     7.9730     8.2632
  215.0000   142.2597     7.9731     8.2436
  215.5000   140.4896     7.9731     8.2266
  216.0000   139.2257     7.9716     8.2094
  216.5000   141.3349     7.9642     8.1922
  217.0000   144.2721     7.9570     8.1751
  217.5000   147.1883     7.9498     8.1580
  218.0000   149.2151     7.9426     8.1410
  218.5000   150.6750     7.9355     8.1240
  219.0000   148.7237     7.9283     8.1070
  219.5000   143.3826     7.9211     8.0900
  220.0000   139.4199     7.9140     8.0731
  220.5000   137.1685     7.9068     8.0562
  221.0000   144.9418     7.8991     8.0477
  221.5000   153.2561     7.7361     7.8396
