~VERSION INFORMATION
 VERS.                2.0:   CWLS LOG ASCII STANDARD - VERSION 2.0
 WRAP.                 NO:   ONE LINE PER DEPTH STEP
~WELL INFORMATION
#MNEM.UNIT      DATA TYPE    INFORMATION
#----------   ------------   ------------------------------
 STRT.F           43.0000:   START DEPTH
 STOP.F          973.0000:   STOP DEPTH
 STEP.F            0.5000:   STEP LENGTH
 NULL.          -999.2500:   NO VALUE
 COMP. LAWRENCE/ALLISON INC:   COMPANY
 WELL.    68-11 SX #11-11:   WELL
 FLD .           NPR NO 3:   FIELD
 LOC .      S11 T38N R78W:   LOCATION
 CNTY.            NATRONA:   COUNTY
 STAT.            WYOMING:   STATE
 CTRY. UNITED STATES OF AMERICA:   COUNTRY
 SRVC.           Gearhart:   SERVICE COMPANY
 DATE.        15-MAY-1986:   LOGDATE
 API .       490251105800:   API NUMBER
~CURVE INFORMATION
#MNEM.UNIT       API CODE    CURVE DESCRIPTION
#----------   ------------   ------------------------------
 DEPT.F                  :   
 GRN .GAPI   42 310 01 00:   GAMMA RAY FROM COMPENSATED NEUTRON LOG
 CNS .DEC    42 890 01 00:   NEUTRON POROSITY LIMESTONE
~PARAMETER INFORMATION
#MNEM.UNIT          VALUE    DESCRIPTION
#----------   ------------   ------------------------------
 PD  .                 GL:   PERMANENT DATUM
 LMF .                 KB:   LOG MEASURED FROM
 DMF .                 KB:   DRILLING MEASURED FROM
 DATE.        15-MAY-1986:   RUN DATE
 RUN .                  1:   RUN NUMBER
 DD  .F               974:   DEPTH DRILLER
 DL  .F               974:   DEPTH LOGGER
 BLI .F               973:   BOTTOM LOG INTERVAL
 TLI .F                39:   TOP LOG INTERVAL
 CS  .IN              4.5:   CASING SIZE
 BS  .IN             7.87:   BIT SIZE
 BSD .F               974:   BIT SIZE AT DEPTH
 DFT .              WATER:   DRILLING FLUID TYPE
 DFD .               8.34:   DRILLING FLUID DENSITY
 BHT .F                66:   BOTTOM HOLE TEMPERATURE
 LUN .               6084:   LOGGING UNIT NUMBER
 LUL .           GILLETTE:   LOGGING UNIT LOCATION
 ENGI.              BAUER:   RECORDING ENGINEER
 WITN.       STRONG/FIVAS:   WITNESSED BY
 CLNT.            A2DTECH:   CLIENT CODE
 ORIG.           5" PRINT:   ORIGIN OF DATA
 UWI .       490251105800:   UNIQUE WELL ID
 DICO. A2D Technologies, Inc.:   DIGITIZING COMPANY
 R1  . POROSITY WITH LIMESTONE:   REMARKS 1
~OTHER INFORMATION
~A   DEPT       GRN       CNS   
# ...
  772.0000   100.3668     0.3247
  772.5000   100.0741     0.3310
  773.0000    99.7851     0.3367
  773.5000    98.8919     0.3502
  774.0000    97.9950     0.3704
  774.5000    97.7060     0.3780
  775.0000    98.3289     0.3632
  775.5000   101.0794     0.3532
  776.0000   100.4865     0.3484
  776.5000    96.8469     0.3575
  777.0000    96.5650     0.3647
  777.5000    98.1459     0.3575
  778.0000   101.1580     0.3478
  778.5000   102.9966     0.3385
  779.0000   101.7958     0.3262
  779.5000   100.2910     0.3098
  780.0000   100.9138     0.3035
  780.5000   102.1446     0.3062
  781.0000   104.2872     0.3071
  781.5000   106.1259     0.3002
  782.0000   104.9251     0.2875
  782.5000   103.1163     0.2839
  783.0000   102.5228     0.2851
  783.5000   101.9304     0.2890
  784.0000   100.7296     0.3005
  784.5000   100.1366     0.3089
  785.0000   100.1520     0.3140
  785.5000   100.1176     0.3080
  786.0000   100.4892     0.3090
  786.5000   101.4160     0.3184
  787.0000   102.0389     0.3147
  787.5000   102.3578     0.3032
  788.0000   101.7611     0.2992
  788.5000   100.8680     0.2998
  789.0000   100.2750     0.3038
  789.5000   100.2900     0.3074
  790.0000    99.9973     0.3186
  790.5000   100.0160     0.3186
  791.0000   100.3349     0.3222
  791.5000   101.5656     0.3297
  792.0000   104.0122     0.3520
  792.5000   106.1704     0.3587
  793.0000   104.5814     0.3438
  793.5000   101.8227     0.3216
  794.0000    99.5165     0.3183
  794.5000    96.7959     0.3249
  795.0000    94.3793     0.3225
  795.5000    90.7468     0.3143
  796.0000    92.2815     0.3113
  796.5000    96.5518     0.3264
  797.0000    96.8707     0.3502
  797.5000    96.5780     0.3804
  798.0000    96.9006     0.3988
  798.5000    99.0433     0.3789
  799.0000   102.4017     0.3656
  799.5000   104.5443     0.3560
  800.0000   106.0790     0.3303
  800.5000   107.3192     0.3128
  801.0000   106.3588     0.3056
  801.5000   103.2347     0.2959
  802.0000    99.3435     0.2866
  802.5000    97.0237     0.2854
  803.0000    94.6041     0.3002
  803.5000    94.0052     0.3143
  804.0000    97.0598     0.3315
  804.5000   100.1114     0.3493
  805.0000   100.7313     0.3608
  805.5000   102.2631     0.3674
  806.0000   103.7949     0.3484
  806.5000   102.8951     0.3318
  807.0000   100.1715     0.3137
  807.5000    97.7520     0.3025
  808.0000    95.6363     0.2891
  808.5000    95.0375     0.2800
  809.0000    95.6604     0.2774
  809.5000    96.8883     0.2802
  810.0000    98.4201     0.2811
  810.5000    99.9518     0.2781
  811.0000   101.1797     0.2769
  811.5000   101.4957     0.2799
  812.0000   101.2037     0.2814
  812.5000   100.9118     0.2830
  813.0000   100.3160     0.2851
  813.5000    99.3921     0.2875
  814.0000    96.6926     0.2911
  814.5000    96.7052     0.2974
  815.0000    98.5434     0.2989
  815.5000   100.0752     0.2920
  816.0000   100.3912     0.2887
  816.5000   100.0963     0.2872
  817.0000    99.8074     0.2875
  817.5000    97.9927     0.2890
  818.0000    98.3117     0.2992
  818.5000    98.9317     0.2943
  819.0000    98.3358     0.2870
  819.5000    96.5241     0.2777
  820.0000    93.8006     0.2643
  820.5000    91.9889     0.2615
  821.0000    90.7852     0.2633
  821.5000    90.1893     0.2661
  822.0000    89.5904     0.2703
  822.5000    89.9094     0.2766
  823.0000    92.3531     0.2971
  823.5000    97.5323     0.3382
  824.0000   105.4470     0.3843
  824.5000   108.4986     0.3753
  825.0000   105.1672     0.3451
  825.5000    98.0684     0.3110
  826.0000    92.0730     0.2899
  826.5000    89.9329     0.2724
  827.0000    88.4980     0.2633
  827.5000    87.9051     0.2582
  828.0000    88.5251     0.2549
  828.5000    89.1450     0.2561
  829.0000    90.9808     0.2606
  829.5000    92.8165     0.2643
  830.0000    93.4365     0.2571
  830.5000    93.4485     0.2531
  831.0000    93.4605     0.2646
  831.5000    94.0805     0.2709
  832.0000    94.7004     0.2911
  832.5000    95.6243     0.2932
  833.0000    95.6363     0.2802
  833.5000    94.7365     0.2670
  834.0000    89.8853     0.2545
  834.5000    82.6025     0.2416
  835.0000    74.4079     0.2368
  835.5000    69.8607     0.2359
  836.0000    65.6174     0.2383
  836.5000    64.3891     0.2474
  837.0000    65.9454     0.2579
  837.5000    68.3891     0.2609
  838.0000    71.1488     0.2552
  838.5000    70.4925     0.2513
  839.0000    68.9969     0.2495
  839.5000    69.3496     0.2582
  840.0000    71.1878     0.2600
  840.5000    73.0236     0.2576
  841.0000    73.9475     0.2552
  841.5000    73.0476     0.2513
  842.0000    71.5399     0.2498
  842.5000    69.4243     0.2558
  843.0000    67.9166     0.2609
  843.5000    68.2326     0.2530
  844.0000    70.3723     0.2439
  844.5000    72.8159     0.2367
  845.0000    71.3052     0.2353
  845.5000    71.6242     0.2383
  846.0000    74.9797     0.2368
  846.5000    78.9431     0.2320
  847.0000    80.4749     0.2275
  847.5000    80.4869     0.2314
  848.0000    80.4990     0.2407
  848.5000    79.9031     0.2437
  849.0000    79.6112     0.2486
  849.5000    78.7114     0.2549
  850.0000    78.7234     0.2670
  850.5000    78.7386     0.2697
  851.0000    78.7538     0.2644
  851.5000    79.0745     0.2588
  852.0000    81.5210     0.2558
  852.5000    82.1439     0.2589
  853.0000    80.0311     0.2637
  853.5000    77.0065     0.2634
  854.0000    73.6779     0.2619
  854.5000    73.3889     0.2634
  855.0000    74.7015     0.2661
  855.5000    77.3737     0.2634
  856.0000    78.9084     0.2610
  856.5000    80.7470     0.2589
  857.0000    81.3698     0.2562
  857.5000    81.9926     0.2500
  858.0000    81.6998     0.2392
  858.5000    82.6303     0.2384
  859.0000    83.2531     0.2451
  859.5000    82.6601     0.2526
  860.0000    81.4592     0.2580
  860.5000    80.5584     0.2544
  861.0000    79.6373     0.2514
  861.5000    79.0723     0.2538
  862.0000    77.8751     0.2626
  862.5000    75.7624     0.2641
  863.0000    75.7773     0.2569
  863.5000    76.0961     0.2514
  864.0000    76.1110     0.2478
  864.5000    78.5575     0.2541
  865.0000    79.4843     0.2672
  865.5000    79.8031     0.2732
  866.0000    80.4259     0.2711
  866.5000    80.4408     0.2660
  867.0000    80.4559     0.2581
  867.5000    79.8225     0.2587
  868.0000    77.4497     0.2618
  868.5000    78.3765     0.2618
  869.0000    81.7349     0.2612
  869.5000    85.3972     0.2603
  870.0000    87.5397     0.2588
  870.5000    83.9072     0.2600
  871.0000    80.2747     0.2627
  871.5000    79.0738     0.2612
  872.0000    81.8242     0.2597
  872.5000    82.1631     0.2582
  873.0000    80.3225     0.2576
  873.5000    78.8294     0.2597
  874.0000    80.3235     0.2612
  874.5000    84.3341     0.2688
  875.0000    84.9569     0.2733
  875.5000    84.6641     0.2724
  876.0000    83.1630     0.2715
  876.5000    81.6544     0.2700
  877.0000    81.9770     0.2652
  877.5000    82.2958     0.2607
  878.0000    82.6147     0.2608
  878.5000    82.6296     0.2619
  879.0000    82.3405     0.2565
  879.5000    81.4117     0.2462
  880.0000    78.2983     0.2200
  880.5000    74.1823     0.2094
  881.0000    71.1577     0.1974
  881.5000    69.6528     0.1934
  882.0000    71.7953     0.1925
  882.5000    75.4577     0.2028
  883.0000    78.2081     0.2303
  883.5000    80.0467     0.2457
  884.0000    79.7577     0.2535
  884.5000    80.3805     0.2499
  885.0000    81.3072     0.2481
  885.5000    81.9340     0.2472
  886.0000    82.8855     0.2535
  886.5000    85.3039     0.2635
  887.0000    83.4982     0.2686
  887.5000    79.5618     0.2614
  888.0000    76.5371     0.2560
  888.5000    76.8560     0.2602
  889.0000    78.9986     0.2668
  889.5000    81.1411     0.2777
  890.0000    82.3718     0.2886
  890.5000    82.3867     0.2893
  891.0000    83.0095     0.2789
  891.5000    85.4560     0.2681
  892.0000    84.5432     0.2538
  892.5000    80.5824     0.2467
  893.0000    79.4254     0.2449
