~VERSION INFORMATION
 VERS.                2.0:   CWLS LOG ASCII STANDARD - VERSION 2.0
 WRAP.                 NO:   ONE LINE PER DEPTH STEP
~WELL INFORMATION
#MNEM.UNIT      DATA TYPE    INFORMATION
#----------   ------------   ------------------------------
 STRT.F           80.0000:   START DEPTH
 STOP.F          820.0000:   STOP DEPTH
 STEP.F            0.5000:   STEP LENGTH
 NULL.          -999.2500:   NO VALUE
 COMP. U S NAVY/INTEX OIL CO:   COMPANY
 WELL.      GOVT #15-S-35:   WELL
 FLD .        EAST TEAPOT:   FIELD
 LOC .      S35 T39N R78W:   LOCATION
 CNTY.            NATRONA:   COUNTY
 STAT.            WYOMING:   STATE
 CTRY. UNITED STATES OF AMERICA:   COUNTRY
 SRVC.       Schlumberger:   SERVICE COMPANY
 DATE.        12-FEB-1961:   LOGDATE
 API .       490250654500:   API NUMBER
~CURVE INFORMATION
#MNEM.UNIT       API CODE    CURVE DESCRIPTION
#----------   ------------   ------------------------------
 DEPT.F                  :   
 SPR .MV     05 010 01 00:   SPONTANEOUS POTENTIAL FROM RES.
 ASN .OHMM   05 041 16 00:   AMPLIFIED SHORT NORMAL 16"
 ILD .OHMM   05 120 46 00:   INDUCTION LOG DEEP
 CILD.MMHO   05 110 46 00:   CONDUCTIVITY INDUCTION LOG DEEP
 GR  .GAPI   30 310 01 00:   GAMMA RAY
~PARAMETER INFORMATION
#MNEM.UNIT          VALUE    DESCRIPTION
#----------   ------------   ------------------------------
 PD  .                 GL:   PERMANENT DATUM
 EPD .F              5069:   ELEVATION PERMANENT DATUM
 LMF .                 KB:   LOG MEASURED FROM
 DAPD.F                 4:   FEET ABOVE PERMANENT DATUM
 DMF .                 KB:   DRILLING MEASURED FROM
 EKB .F              5073:   KELLING BUSHING
 EGL .F              5069:   GROUND LEVEL
 DATE.            2-12-61:   RUN DATE
 RUN .                  1:   RUN NUMBER
 DD  .F               820:   DEPTH DRILLER
 DL  .F               820:   DEPTH LOGGER
 BLI .F               819:   BOTTOM LOG INTERVAL
 TLI .F                90:   TOP LOG INTERVAL
 CBD .F                12:   CASING BOTTOM DRILLER
 BS  .IN            7.875:   BIT SIZE
 BSD .F               820:   BIT SIZE AT DEPTH
 DFT .   GEL OIL EMULSION:   DRILLING FLUID TYPE
 DFD .                9.5:   DRILLING FLUID DENSITY
 DFV .                 50:   DRILLING FLUID VISCOSITY
 DFPH.                  8:   DRILLING FLUID PH
 DFL .                  9:   DRILLING FLUID LOSS
 MSS .          FLOW LINE:   MUD SAMPLE SOURCE
 RMS .OHMM           1.04:   RESISTIVITY MUD SAMPLE
 MST .F                56:   MUD SAMPLE TEMPERATURE
 MFSS.                  C:   MUD FILTRATE SAMPLE SOURCE
 MCSS.                  C:   MUD CAKE SAMPLE SOURCE
 RMB .OHMM           2.78:   RESISTIVITY MUD AT BHT
 BHT .F                77:   BOTTOM HOLE TEMPERATURE
 TCS .HRS               1:   TIME CURCULATED STOPPED
 MRT .F                77:   MAXIMUM RECORDED TEMPERATURE
 LUN .               2523:   LOGGING UNIT NUMBER
 LUL .               CSPR:   LOGGING UNIT LOCATION
 ENGI.             KNOBEL:   RECORDING ENGINEER
 WITN.          JORGENSEN:   WITNESSED BY
 CLNT.            A2DTECH:   CLIENT CODE
 ORIG.       2", 5" PRINT:   ORIGIN OF DATA
 UWI .       490250654500:   UNIQUE WELL ID
 DICO. A2D Technologies, Inc.:   DIGITIZING COMPANY
~OTHER INFORMATION
~A   DEPT      SPR          ASN        ILD      CILD        GR   
# ...
  446.0000   -24.5562    11.8006     9.0716   108.9670  -999.2500
  446.5000   -24.4009    11.6684     9.0448   109.4692  -999.2500
  447.0000   -24.2466    11.5358     9.0180   108.3607  -999.2500
  447.5000   -24.0924    11.3980     8.9911   107.2505  -999.2500
  448.0000   -24.0656    11.4606     8.9643   106.1410  -999.2500
  448.5000   -24.1732    11.5783     8.9374   105.0325  -999.2500
  449.0000   -24.2806    11.6978     8.9106   104.7559  -999.2500
  449.5000   -24.3891    11.8174     8.8838   105.3555  -999.2500
  450.0000   -24.4983    11.9414     8.8569   106.1542  -999.2500
  450.5000   -24.5997    11.8853     8.8301   106.9508  -999.2500
  451.0000   -24.5145    11.7797     8.8032   107.7458  -999.2500
  451.5000   -24.4219    11.6724     8.7765   108.5402  -999.2500
  452.0000   -24.3302    11.5652     8.7495   109.3347  -999.2500
  452.5000   -24.2388    11.4583     8.7228   110.1284  -999.2500
  453.0000   -24.1473    11.3513     8.6991   110.9199  -999.2500
  453.5000   -24.0559    11.2444     8.5591   111.7075  -999.2500
  454.0000   -23.9644    11.1374     8.3874   112.5124  -999.2500
  454.5000   -23.8730    11.0305     8.2144   115.2982  -999.2500
  455.0000   -23.7815    10.9235     8.0415   118.7477  -999.2500
  455.5000   -23.6901    10.8176     7.8688   122.1973  -999.2500
  456.0000   -23.5985    10.7119     7.6961   125.6468  -999.2500
  456.5000   -23.5068    10.5913     7.5234   129.0963  -999.2500
  457.0000   -23.4203    10.3400     7.3507   132.5459  -999.2500
  457.5000   -23.4147     9.9039     7.1777   135.9954  -999.2500
  458.0000   -23.4319     9.5268     7.0045   139.4449  -999.2500
  458.5000   -23.6115     9.4281     6.8336   142.8945  -999.2500
  459.0000   -23.6160     9.3197     6.7252   145.4816  -999.2500
  459.5000   -23.6174     9.2101     6.8448   144.8544  -999.2500
  460.0000   -23.6617     9.2821     6.9586   142.3603  -999.2500
  460.5000   -23.7418     9.6140     7.0718   139.8413  -999.2500
  461.0000   -23.8222     9.9273     7.1854   137.3288  -999.2500
  461.5000   -23.9030    10.3919     7.2989   134.8194  -999.2500
  462.0000   -23.9837    10.4539     7.4124   132.3107  -999.2500
  462.5000   -24.0645    10.4923     7.5259   129.8019  -999.2500
  463.0000   -24.1452    10.5703     7.6393   127.2932  -999.2500
  463.5000   -24.2259    10.6447     7.7530   124.7715  -999.2500
  464.0000   -24.3066    10.7183     7.8698   122.2554  -999.2500
  464.5000   -24.3873    10.7665     7.8623   122.2104  -999.2500
  465.0000   -24.4681    10.7214     7.8207   122.9918  -999.2500
  465.5000   -24.5488    10.6788     7.7779   123.7725  -999.2500
  466.0000   -24.6295    10.6363     7.7351   124.5449  -999.2500
  466.5000   -24.7102    10.5936     7.6927   125.3172  -999.2500
  467.0000   -24.7909    10.5507     7.6499   126.0896  -999.2500
  467.5000   -24.8716    10.5091     7.6035   126.8620  -999.2500
  468.0000   -24.9524    10.4984     7.7017   127.6343  -999.2500
  468.5000   -25.0331    10.6007     7.8396   128.4067  -999.2500
  469.0000   -25.1138    10.7002     7.9789   127.6360  -999.2500
  469.5000   -25.1945    10.7995     8.1183   126.3508  -999.2500
  470.0000   -25.2752    10.8991     8.2606   125.0657  -999.2500
  470.5000   -25.3559    10.9975     8.2779   123.7806  -999.2500
  471.0000   -25.4366    11.0633     8.2608   122.4955  -999.2500
  471.5000   -25.5174    11.0105     8.2425   121.2104  -999.2500
  472.0000   -25.5981    10.9607     8.2242   119.9252  -999.2500
  472.5000   -25.6787    10.9111     8.2062   118.6401  -999.2500
  473.0000   -25.7602    10.8613     8.1881   117.8376  -999.2500
  473.5000   -25.7902    10.8120     8.1701   118.4831  -999.2500
  474.0000   -25.7907    10.7741     8.1520   119.1286  -999.2500
  474.5000   -25.7905    10.7546     8.1340   119.7741  -999.2500
  475.0000   -25.7895    10.7283     8.1159   120.4196  -999.2500
  475.5000   -25.7936    10.7018     8.0979   121.0650  -999.2500
  476.0000   -25.5878    10.6753     8.0798   121.7105  -999.2500
  476.5000   -25.5583    10.6488     8.0618   122.3560  -999.2500
  477.0000   -25.5298    10.6223     8.0437   123.0015  -999.2500
  477.5000   -25.4999    10.5958     8.0258   123.6470  -999.2500
  478.0000   -25.4702    10.5694     8.0074   124.2924  -999.2500
  478.5000   -25.4404    10.5429     7.9801   124.9379  -999.2500
  479.0000   -25.4107    10.5164     7.9196   125.5834  -999.2500
  479.5000   -25.3810    10.4899     7.8600   126.2289  -999.2500
  480.0000   -25.3513    10.4635     7.8004   126.8744  -999.2500
  480.5000   -25.3216    10.4364     7.7408   127.5199  -999.2500
  481.0000   -25.2918    10.4095     7.6812   128.1653  -999.2500
  481.5000   -25.2621    10.3935     7.6217   128.8108  -999.2500
  482.0000   -24.8328     9.9104     7.7191   130.9761  -999.2500
  482.5000   -25.0121     9.9583     7.6195   131.1715  -999.2500
  483.0000   -25.0838     9.9140     7.6579   131.7821  -999.2500
  483.5000   -25.1556     9.9362     7.6979   131.2549  -999.2500
  484.0000   -25.1811     9.9528     7.7278   130.8596  -999.2500
  484.5000   -25.0605     9.9750     7.7681   130.3325  -999.2500
  485.0000   -24.9418     9.9902     7.8105   130.3029  -999.2500
  485.5000   -24.8237     9.9748     7.7693   131.2766  -999.2500
  486.0000   -24.7052     9.9469     7.7032   132.2503  -999.2500
  486.5000   -24.5877     9.9189     7.6362   133.2240  -999.2500
  487.0000   -24.4706     9.8910     7.5693   134.1978  -999.2500
  487.5000   -24.4759     9.8628     7.5027   135.1715  -999.2500
  488.0000   -24.6193     9.8583     7.4348   136.1452  -999.2500
  488.5000   -24.7685     9.8717     7.4544   136.9522  -999.2500
  489.0000   -24.7046     9.8854     7.5119   136.4087  -999.2500
  489.5000   -24.5724     9.9370     7.5703   134.9620  -999.2500
  490.0000   -24.4349    10.0109     7.6288   133.5153  -999.2500
  490.5000   -24.4325    10.1134     7.6873   132.0686  -999.2500
  491.0000   -24.4640    10.1082     7.7457   130.6220  -999.2500
  491.5000   -24.4968    10.1460     7.8041   129.1753  -999.2500
  492.0000   -24.5293    10.1915     7.8625   127.7286  -999.2500
  492.5000   -24.5617    10.2369     7.9210   126.2819  -999.2500
  493.0000   -24.5961    10.2822     7.9794   124.8352  -999.2500
  493.5000   -24.5657    10.3249     8.0378   123.7909  -999.2500
  494.0000   -24.5089    10.3636     8.0970   123.2902  -999.2500
  494.5000   -24.4514    10.4013     8.1063   122.7894  -999.2500
  495.0000   -24.3939    10.4388     8.0893   122.2886  -999.2500
  495.5000   -24.3366    10.4749     8.0721   122.2942  -999.2500
  496.0000   -24.2789    10.5045     8.0548   122.9154  -999.2500
  496.5000   -24.2180    10.4211     8.0378   123.5356  -999.2500
  497.0000   -24.2978    10.3328     8.0202   124.5088  -999.2500
  497.5000   -24.4083    10.3520     7.9312   126.4594  -999.2500
  498.0000   -24.5203    10.4072     7.8311   128.4001  -999.2500
  498.5000   -24.6321    10.3458     7.7308   130.3408  -999.2500
  499.0000   -24.7436    10.2383     7.6306   132.2815  -999.2500
  499.5000   -24.8552    10.1058     7.5298   134.2222  -999.2500
  500.0000   -24.9710     9.9002     7.4240   136.1629  -999.2500
  500.5000   -24.9700     9.8434     7.3196   138.1036  -999.2500
  501.0000   -24.9296     9.7547     7.2091   140.0443  -999.2500
  501.5000   -24.8877     9.7283     7.0979   141.9575  -999.2500
  502.0000   -24.8454     9.7392     6.9873   142.8820  -999.2500
  502.5000   -24.8046     9.6924     6.8765   143.2047  -999.2500
  503.0000   -24.8492     9.6481     6.8794   141.9152  -999.2500
  503.5000   -24.8997     9.6021     6.9849   140.6195  -999.2500
  504.0000   -24.9505     9.6047     7.0908   139.3070  -999.2500
  504.5000   -24.9967     9.6932     7.1973   137.9945  -999.2500
  505.0000   -24.9202     9.8041     7.3038   136.6820  -999.2500
  505.5000   -24.8381     9.9152     7.4101   135.3695  -999.2500
  506.0000   -24.7564    10.0066     7.5166   134.0570  -999.2500
  506.5000   -24.6749     9.9817     7.6234   132.7445  -999.2500
