~VERSION INFORMATION
 VERS.                2.0:   CWLS LOG ASCII STANDARD - VERSION 2.0
 WRAP.                 NO:   ONE LINE PER DEPTH STEP
~WELL INFORMATION
#MNEM.UNIT      DATA TYPE    INFORMATION
#----------   ------------   ------------------------------
 STRT.F           85.0000:   START DEPTH
 STOP.F          780.0000:   STOP DEPTH
 STEP.F            0.5000:   STEP LENGTH
 NULL.          -999.2500:   NO VALUE
 COMP. U S NAVY-INTEX OIL:   COMPANY
 WELL.        NPR #47-S-2:   WELL
 FLD .             TEAPOT:   FIELD
 LOC .       S2 T38N R78W:   LOCATION
 CNTY.            NATRONA:   COUNTY
 STAT.            WYOMING:   STATE
 CTRY. UNITED STATES OF AMERICA:   COUNTRY
 SRVC.       Schlumberger:   SERVICE COMPANY
 DATE.        30-JUN-1962:   LOGDATE
 API .       490250640200:   API NUMBER
~CURVE INFORMATION
#MNEM.UNIT       API CODE    CURVE DESCRIPTION
#----------   ------------   ------------------------------
 DEPT.F                  :   
 SPR .MV     05 010 01 00:   SPONTANEOUS POTENTIAL FROM RES.
 ASN .OHMM   05 041 18 00:   AMPLIFIED SHORT NORMAL 18"
 ILD .OHMM   05 120 46 00:   INDUCTION LOG DEEP
 CILD.MMHO   05 110 46 00:   CONDUCTIVITY INDUCTION LOG DEEP
 CALM.IN     15 280 01 00:   CALIPER FROM MICRO LOG
 GR  .GAPI   30 310 01 00:   GAMMA RAY
~PARAMETER INFORMATION
#MNEM.UNIT          VALUE    DESCRIPTION
#----------   ------------   ------------------------------
 PD  .                 KB:   PERMANENT DATUM
 LMF .                 KB:   LOG MEASURED FROM
 DMF .                 KB:   DRILLING MEASURED FROM
 EKB .F              5175:   KELLING BUSHING
 EGL .F              5170:   GROUND LEVEL
 DATE.          6-30-1962:   RUN DATE
 RUN .                  1:   RUN NUMBER
 DD  .F               775:   DEPTH DRILLER
 DL  .F               781:   DEPTH LOGGER
 BLI .F               780:   BOTTOM LOG INTERVAL
 TLI .F                86:   TOP LOG INTERVAL
 BS  .IN             6.75:   BIT SIZE
 BSD .F               775:   BIT SIZE AT DEPTH
 DFT .            GEL-OIL:   DRILLING FLUID TYPE
 DFD .                 10:   DRILLING FLUID DENSITY
 DFV .                 50:   DRILLING FLUID VISCOSITY
 DFL .                3.6:   DRILLING FLUID LOSS
 MSS .           FLOWLINE:   MUD SAMPLE SOURCE
 RMS .OHMM           5.75:   RESISTIVITY MUD SAMPLE
 MST .F                69:   MUD SAMPLE TEMPERATURE
 RMF .OHMM           4.96:   RESISTIVITY MUD FILTRATE SAMPLE
 MFST.F                69:   MUD FILTRATE SAMPLE TEMPERATURE
 RMC .OHMM           4.80:   RESISTIVITY MUD CAKE
 MCST.F                69:   MUD CAKE SAMPLE TEMPERATURE
 RMB .OHMM           5.13:   RESISTIVITY MUD AT BHT
 BHT .F                78:   BOTTOM HOLE TEMPERATURE
 TCS .HRS               1:   TIME CURCULATED STOPPED
 MRT .F                78:   MAXIMUM RECORDED TEMPERATURE
 LUN .               2503:   LOGGING UNIT NUMBER
 LUL .              CSPR.:   LOGGING UNIT LOCATION
 ENGI.             KNOBEL:   RECORDING ENGINEER
 WITN.          JORGENSEN:   WITNESSED BY
 CLNT.            A2DTECH:   CLIENT CODE
 ORIG.      2" & 5" PRINT:   ORIGIN OF DATA
 UWI .       490250640200:   UNIQUE WELL ID
 DICO. A2D Technologies, Inc.:   DIGITIZING COMPANY
~OTHER INFORMATION
~A   DEPT      SPR        ASN        ILD         CILD     CALM         GR   
# ...
  241.0000   -27.7052     3.6677     2.8265   327.3568  -999.2500  -999.2500
  241.5000   -27.5549     3.5180     2.8275   347.1131  -999.2500  -999.2500
  242.0000   -27.4046     3.4731     2.8282   352.3014  -999.2500  -999.2500
  242.5000   -27.5519     3.6377     2.8290   355.1133  -999.2500  -999.2500
  243.0000   -27.8481     3.5180     2.9792   354.3459  -999.2500  -999.2500
  243.5000   -27.9958     3.4431     3.2789   348.5874  -999.2500  -999.2500
  244.0000   -28.1431     3.8922     3.7281   333.2024  -999.2500  -999.2500
  244.5000   -28.1412     4.0868     3.9530   295.2812  -999.2500  -999.2500
  245.0000   -27.9909     4.2066     4.1780   258.7940  -999.2500  -999.2500
  245.5000   -27.9894     4.3713     4.4029   233.2151  -999.2500  -999.2500
  246.0000   -27.9880     4.5060     4.5532   218.1625  -999.2500  -999.2500
  246.5000   -28.1353     4.6257     4.7034   214.3881  -999.2500  -999.2500
  247.0000   -28.1338     4.7006     4.7789   212.1175  -999.2500  -999.2500
  247.5000   -28.1323     4.8054     4.7796   210.5988  -999.2500  -999.2500
  248.0000   -28.1308     4.8503     4.7803   210.5838  -999.2500  -999.2500
  248.5000   -27.9805     4.8802     4.7811   212.0725  -999.2500  -999.2500
  249.0000   -27.8302     4.8503     4.7069   214.3132  -999.2500  -999.2500
  249.5000   -27.5311     4.7455     4.5584   217.3057  -999.2500  -999.2500
  250.0000   -27.3808     4.6527     4.4096   222.4724  -999.2500  -999.2500
  250.5000   -27.4034     4.5364     4.1770   230.5032  -999.2500  -999.2500
  251.0000   -27.5189     4.3422     3.9642   241.3534  -999.2500  -999.2500
  251.5000   -27.2139     4.1181     3.5920   251.8797  -999.2500  -999.2500
  252.0000   -27.2080     4.1035     3.2945   258.6466  -999.2500  -999.2500
  252.5000   -27.2021     4.1340     3.1466   266.9173  -999.2500  -999.2500
  253.0000   -27.1962     4.1045     3.1480   278.1955  -999.2500  -999.2500
  253.5000   -27.0415     3.9253     3.0748   292.4812  -999.2500  -999.2500
  254.0000   -27.0356     3.6713     3.1510   306.7669  -999.2500  -999.2500
  254.5000   -26.8809     3.6118     3.2272   321.8045  -999.2500  -999.2500
  255.0000   -26.7262     3.5953     3.3035   327.0677  -999.2500  -999.2500
  255.5000   -26.7203     3.7175     3.3797   322.3453  -999.2500  -999.2500
  256.0000   -26.7143     3.8377     3.4579   307.1183  -999.2500  -999.2500
  256.5000   -26.7083     3.9583     3.6858   291.8334  -999.2500  -999.2500
  257.0000   -26.8514     4.0793     4.0633   270.3456  -999.2500  -999.2500
  257.5000   -26.9943     4.2902     4.6076   248.1203  -999.2500  -999.2500
  258.0000   -26.6893     4.5828     5.2776   225.5639  -999.2500  -999.2500
  258.5000   -27.1298     5.3453     5.9694   196.2406  -999.2500  -999.2500
  259.0000   -28.3144     6.7439     7.1273   154.1353  -999.2500  -999.2500
  259.5000   -28.1597     7.8189     8.3246   124.0602  -999.2500  -999.2500
  260.0000   -26.9633     9.7546     9.7462   104.5113  -999.2500  -999.2500
  260.5000   -27.1062    10.8492    10.4950    92.4812  -999.2500  -999.2500
  261.0000   -27.8444    12.0598    11.0197    85.7143  -999.2500  -999.2500
  261.5000   -28.2849    13.1092    11.4696    81.2030  -999.2500  -999.2500
  262.0000   -28.2790    13.4091    11.7700    78.1955  -999.2500  -999.2500
  262.5000   -28.2731    13.7838    11.9957    75.9398  -999.2500  -999.2500
  263.0000   -28.4160    14.0088    12.1467    73.6842  -999.2500  -999.2500
  263.5000   -28.5604    14.3086    12.2977    73.6842  -999.2500  -999.2500
  264.0000   -28.8506    14.5336    12.3735    75.1880  -999.2500  -999.2500
  264.5000   -28.8447    14.6837    12.1511    75.9398  -999.2500  -999.2500
  265.0000   -28.6900    14.6842    12.1526    75.9398  -999.2500  -999.2500
  265.5000   -28.6841    14.7595    12.3036    75.1880  -999.2500  -999.2500
  266.0000   -28.3806    14.9096    12.4545    74.4361  -999.2500  -999.2500
  266.5000   -28.3747    15.0598    12.6802    72.9323  -999.2500  -999.2500
  267.0000   -28.8152    15.2099    12.8312    71.4286  -999.2500  -999.2500
  267.5000   -29.4045    15.3601    12.9822    70.6767  -999.2500  -999.2500
  268.0000   -29.6964    15.5102    13.1331    69.1729  -999.2500  -999.2500
  268.5000   -29.8393    15.6604    13.3588    68.4035  -999.2500  -999.2500
  269.0000   -29.9821    15.8105    13.5845    66.9173  -999.2500  -999.2500
  269.5000   -29.9761    15.9607    13.7355    66.0926  -999.2500  -999.2500
  270.0000   -30.1190    16.0360    13.8864    65.3132  -999.2500  -999.2500
  270.5000   -30.4158    16.1113    14.1121    64.5337  -999.2500  -999.2500
  271.0000   -30.8513    16.2614    14.2631    63.1579  -999.2500  -999.2500
  271.5000   -31.1430    16.4115    14.4141    62.4060  -999.2500  -999.2500
  272.0000   -31.4347    16.5617    14.5650    61.6541  -999.2500  -999.2500
  272.5000   -31.5776    16.7867    14.7907    60.1504  -999.2500  -999.2500
  273.0000   -31.8679    17.0117    14.9452    59.3985  -999.2500  -999.2500
  273.5000   -32.3084    17.1618    15.1731    58.6466  -999.2500  -999.2500
  274.0000   -32.8977    17.4617    15.4838    57.1429  -999.2500  -999.2500
  274.5000   -33.1909    17.9112    15.8635    55.6391  -999.2500  -999.2500
  275.0000   -33.1835    18.4356    16.3179    54.8872  -999.2500  -999.2500
  275.5000   -33.0288    18.8143    16.8927    53.3835  -999.2500  -999.2500
  276.0000   -32.7253    19.2639    17.2679    52.6316  -999.2500  -999.2500
  276.5000   -32.7194    19.5657    17.4935    51.8797  -999.2500  -999.2500
  277.0000   -33.0111    19.8676    17.6445    51.8797  -999.2500  -999.2500
  277.5000   -33.6005    19.9349    17.7207    51.8797  -999.2500  -999.2500
  278.0000   -34.4874    19.7856    17.7970    51.8797  -999.2500  -999.2500
  278.5000   -35.5232    20.2492    17.7984    51.8797  -999.2500  -999.2500
  279.0000   -36.2613    20.6100    17.7999    52.6316  -999.2500  -999.2500
  279.5000   -36.9995    20.4607    17.6516    52.6316  -999.2500  -999.2500
  280.0000   -37.5888    20.3115    17.5783    52.6316  -999.2500  -999.2500
  280.5000   -37.2853    20.1622    17.5802    53.3835  -999.2500  -999.2500
  281.0000   -37.4297    19.9381    17.5069    53.3835  -999.2500  -999.2500
  281.5000   -38.1663    19.7888    17.4336    53.3835  -999.2500  -999.2500
  282.0000   -39.0533    19.5647    17.2857    54.1353  -999.2500  -999.2500
  282.5000   -39.0725    19.3406    17.1373    54.1353  -999.2500  -999.2500
  283.0000   -38.1486    19.2661    16.8402    54.1353  -999.2500  -999.2500
  283.5000   -37.6963    19.1918    16.6171    54.2281  -999.2500  -999.2500
  284.0000   -37.2439    18.7432    16.3947    54.8872  -999.2500  -999.2500
  284.5000   -36.9404    18.2945    16.1720    55.6391  -999.2500  -999.2500
  285.0000   -36.4881    17.9956    16.0236    56.3910  -999.2500  -999.2500
  285.5000   -36.3283    17.6966    16.1002    57.1429  -999.2500  -999.2500
  286.0000   -35.7221    17.3976    16.1017    58.6466  -999.2500  -999.2500
  286.5000   -35.2649    17.1734    15.8042    60.1504  -999.2500  -999.2500
  287.0000   -34.9762    17.0243    15.1331    63.9098  -999.2500  -999.2500
  287.5000   -35.4415    16.5756    14.0882    68.4211  -999.2500  -999.2500
  288.0000   -35.7086    15.7527    13.2676    73.6842  -999.2500  -999.2500
  288.5000   -35.2548    15.0047    12.1480    80.4511  -999.2500  -999.2500
  289.0000   -34.2073    13.8686    10.8775    89.4737  -999.2500  -999.2500
  289.5000   -33.1597    12.6420     9.8260    98.4962  -999.2500  -999.2500
  290.0000   -31.5169    11.4890     9.0034   109.7744  -999.2500  -999.2500
  290.5000   -29.5764    10.4647     8.2459   119.5489  -999.2500  -999.2500
  291.0000   -27.6360     9.3782     7.3627   130.8271  -999.2500  -999.2500
  291.5000   -26.5884     8.8846     7.0631   143.6090  -999.2500  -999.2500
  292.0000   -26.4337     8.3012     6.9267   150.3759  -999.2500  -999.2500
  292.5000   -26.4278     8.0173     6.8534   154.8872  -999.2500  -999.2500
