~VERSION INFORMATION
 VERS.                2.0:   CWLS LOG ASCII STANDARD - VERSION 2.0
 WRAP.                 NO:   ONE LINE PER DEPTH STEP
~WELL INFORMATION
#MNEM.UNIT      DATA TYPE    INFORMATION
#----------   ------------   ------------------------------
 STRT.F           37.5000:   START DEPTH
 STOP.F          525.5000:   STOP DEPTH
 STEP.F            0.5000:   STEP LENGTH
 NULL.          -999.2500:   NO VALUE
 COMP. LAWRENCE/ALLISON INC:   COMPANY
 WELL.    74-11 SX #10-10:   WELL
 FLD .             TEAPOT:   FIELD
 LOC .      S10 T38N R78W:   LOCATION
 CNTY.            NATRONA:   COUNTY
 STAT.            WYOMING:   STATE
 CTRY. UNITED STATES OF AMERICA:   COUNTRY
 SRVC.            Unknown:   SERVICE COMPANY
 DATE.        08-AUG-1984:   LOGDATE
 API .       490251097800:   API NUMBER
~CURVE INFORMATION
#MNEM.UNIT       API CODE    CURVE DESCRIPTION
#----------   ------------   ------------------------------
 DEPT.F                  :   
 CNC .DEC    42 890 03 00:   NEUTRON POROSITY SANDSTONE
 AC  .US/F   60 520 00 00:   ACCOUSTIC
 GRD .GAPI   45 310 01 00:   GAMMA RAY FROM DENSITY LOG
 CALD.IN     45 280 60 00:   CALIPER FROM DENSITY LOG
 CORR.G/C3   45 356 01 00:   DENSITY CORRECTION
 DPHI.DEC    45 890 12 00:   DENSITY POROSITY SANDSTONE
 DEN .G/C3   45 350 01 00:   COMPENSATED BULK DENSTIY
 RILD.OHMM   07 120 46 00:   RESISTIVITY INDUCTION LOG DEEP
 RILM.OHMM   07 120 44 00:   RESISTIVITY INDUCTION LOG MEDIUM
 RFOC.OHMM   07 220 04 00:   RESISTIVITY FOCUSED LOG
 SPR .MV     07 010 01 00:   SPONTANEOUS POTENTIAL FROM RES.
~PARAMETER INFORMATION
#MNEM.UNIT          VALUE    DESCRIPTION
#----------   ------------   ------------------------------
 PD  .                 GL:   PERMANENT DATUM
 EPD .F              5180:   ELEVATION PERMANENT DATUM
 LMF .                 GL:   LOG MEASURED FROM
 DMF .                 GL:   DRILLING MEASURED FROM
 EGL .F              5180:   GROUND LEVEL
 DATE.             8-8-84:   RUN DATE
 RUN .                  1:   RUN NUMBER
 DD  .F               525:   DEPTH DRILLER
 DL  .F               526:   DEPTH LOGGER
 BLI .F               525:   BOTTOM LOG INTERVAL
 TLI .F                42:   TOP LOG INTERVAL
 CS  .IN            9.625:   CASING SIZE
 CBD .F                42:   CASING BOTTOM DRILLER
 CBL .F                42:   CASING BOTTOM LOGGER
 BS  .IN            7.875:   BIT SIZE
 BSD .F               525:   BIT SIZE AT DEPTH
 DFT .          KCL WATER:   DRILLING FLUID TYPE
 MSS .           FLOWLINE:   MUD SAMPLE SOURCE
 RMS .OHMM           .141:   RESISTIVITY MUD SAMPLE
 MST .F                78:   MUD SAMPLE TEMPERATURE
 RMF .OHMM            .12:   RESISTIVITY MUD FILTRATE SAMPLE
 MFST.F                78:   MUD FILTRATE SAMPLE TEMPERATURE
 RMC .OHMM             .2:   RESISTIVITY MUD CAKE
 MCST.F                78:   MUD CAKE SAMPLE TEMPERATURE
 MFSS.               MEAS:   MUD FILTRATE SAMPLE SOURCE
 MCSS.               MEAS:   MUD CAKE SAMPLE SOURCE
 RMB .OHMM            .13:   RESISTIVITY MUD AT BHT
 BHT .F                89:   BOTTOM HOLE TEMPERATURE
 MRT .F                89:   MAXIMUM RECORDED TEMPERATURE
 LUN .               6307:   LOGGING UNIT NUMBER
 LUL .               GLTE:   LOGGING UNIT LOCATION
 ENGI.            JOHNSON:   RECORDING ENGINEER
 WITN.              FIVAS:   WITNESSED BY
 CLNT.            A2DTECH:   CLIENT CODE
 ORIG.           5" PRINT:   ORIGIN OF DATA
 UWI .       490251097800:   UNIQUE WELL ID
 DICO. A2D Technologies, Inc.:   DIGITIZING COMPANY
~OTHER INFORMATION
~A   DEPT      CNC         AC        GRD       CALD       CORR       DPHI        DEN       RILD       RILM       RFOC        SPR   
# ...
  190.0000     0.3165   103.1680   113.7930     7.9840     0.0210     0.1310     2.4630    10.4480     6.6870    10.2560   -66.1320
  190.5000     0.3177   103.4230   111.6370     8.0050     0.0360     0.1370     2.4580    10.5450     6.7150    10.5450   -66.5580
  191.0000     0.3176   103.6780   109.5390     8.0260     0.0500     0.1360     2.4530    10.1490     6.5920    10.4940   -66.9830
  191.5000     0.3216   103.9330   111.0180     8.0370     0.0610     0.1310     2.4580     9.8540     6.4830    10.3990   -67.4100
  192.0000     0.3358   104.2740   113.7000     8.0340     0.0650     0.1280     2.4650     9.5580     6.3750    10.3040   -67.8380
  192.5000     0.3423   104.7110   116.0750     8.0310     0.0660     0.1270     2.4700     9.2630     6.2670    10.2100   -68.2720
  193.0000     0.3376   105.1480   112.5500     8.0290     0.0500     0.1310     2.4670     8.9670     6.2040    10.1150   -68.2030
  193.5000     0.3351   105.5850   106.6000     8.0260     0.0280     0.1320     2.4600     8.6720     6.1020     9.8940   -68.0250
  194.0000     0.3462   106.0230   102.9960     8.0230     0.0410     0.1320     2.4550     8.3410     6.0000     9.3570   -67.8430
  194.5000     0.3396   106.4980   108.0740     8.0200     0.0630     0.1320     2.4590     7.9780     5.8970     8.8190   -67.6600
  195.0000     0.3316   107.0630   112.7860     8.0170     0.0560     0.1350     2.4580     7.6150     5.6970     8.4330   -67.4770
  195.5000     0.3246   107.6830   116.1330     8.0150     0.0380     0.1390     2.4440     7.2290     5.4060     8.2600   -67.2940
  196.0000     0.3392   108.3020   116.6100     8.0120     0.0210     0.1480     2.4300     6.6730     5.1160     8.0730   -67.1110
  196.5000     0.3534   108.9220   115.1570     8.0090     0.0170     0.1570     2.4180     6.1160     4.8250     7.5640   -66.9280
  197.0000     0.3596   109.5410   113.6890     8.0060     0.0140     0.1650     2.4090     5.8340     4.5340     7.0080   -66.7450
  197.5000     0.3443   109.9390   109.6250     8.0030     0.0190     0.1670     2.4030     5.7020     4.2760     6.4520   -66.5620
  198.0000     0.3266   109.9390   101.1400     8.0010     0.0230     0.1580     2.4090     5.5850     4.2760     6.0680   -66.3790
  198.5000     0.3198   108.2380    92.8830     7.9980     0.0260     0.1550     2.4210     5.6220     4.4400     6.7010   -66.1970
  199.0000     0.3194   106.0270    97.7610     7.9990     0.0240     0.1560     2.4190     5.8410     4.6030     7.3370   -66.0140
  199.5000     0.3213   104.2790   104.7860     8.0000     0.0230     0.1580     2.4170     6.2460     4.9030     7.7810   -65.8310
  200.0000     0.3420   104.0680   110.8200     8.0020     0.0210     0.1570     2.4160     6.6510     5.2350     7.6390   -65.6480
  200.5000     0.3518   104.4060   106.6720     8.0030     0.0190     0.1500     2.4290     7.0570     5.5670     7.6390   -65.4650
  201.0000     0.3648   104.6760   102.8990     8.0040     0.0170     0.1430     2.4440     7.4620     5.8990     8.3170   -65.2820
  201.5000     0.3685   104.0690   105.4200     8.0050     0.0150     0.1370     2.4490     7.8670     6.1610     8.8360   -65.1000
  202.0000     0.3415   104.0350   110.5410     8.0060     0.0150     0.1370     2.4490     8.2990     6.2580     9.2260   -64.9700
  202.5000     0.3049   104.3160   116.0320     8.0080     0.0200     0.1380     2.4480     8.6900     6.3200     9.3550   -64.9160
  203.0000     0.3030   104.5970   115.4920     8.0090     0.0270     0.1390     2.4480     8.9660     6.3820     9.4840   -64.8600
  203.5000     0.3135   104.8790   110.0640     8.0100     0.0360     0.1370     2.4530     9.1760     6.4450     9.6130   -64.8040
  204.0000     0.3190   104.4990   108.7940     8.0110     0.0400     0.1320     2.4600     9.3860     6.4720     9.7420   -64.7480
  204.5000     0.3116   104.1190   110.3300     8.0130     0.0340     0.1270     2.4680     9.5970     6.4720     9.8700   -64.6920
  205.0000     0.3087   103.6640   113.1340     8.0140     0.0500     0.1220     2.4750     9.8070     6.5840     9.9990   -64.6360
  205.5000     0.3107   103.6640   116.3010     8.0150     0.0720     0.1150     2.4840     9.9780     6.7000    10.1280   -64.5910
  206.0000     0.3341   103.6640   119.3570     8.0160     0.0910     0.1080     2.4980     9.7820     6.8400    10.2570   -64.7210
  206.5000     0.3340   103.6640   120.5320     8.0180     0.1090     0.0980     2.5150     9.7690     6.7880    10.2390   -64.8520
  207.0000     0.3340   103.7880   120.5070     8.0190     0.1150     0.1000     2.5180     9.7560     6.6530    10.2200   -64.9820
  207.5000     0.3321   103.9950   119.5070     8.0200     0.1050     0.1040     2.5090     9.7420     6.7350    10.2020   -65.1110
  208.0000     0.3076   104.2020   118.4740     8.0210     0.0880     0.1080     2.5050     9.7290     6.9670    10.1830   -65.0950
  208.5000     0.2979   104.4090   119.7590     8.0230     0.0760     0.1090     2.5030     9.7160     6.7790    10.1650   -64.7950
  209.0000     0.2988   104.6160   117.2840     8.0240     0.0720     0.1030     2.5070     9.7060     6.5520    10.1460   -64.5040
  209.5000     0.3012   104.8230   114.6030     8.0250     0.0690     0.0980     2.5180     9.7310     6.4720    10.1280   -64.2140
  210.0000     0.3272   105.0300   113.2980     8.0260     0.0610     0.0940     2.5220     9.7540     6.4720    10.1080   -63.9230
  210.5000     0.3352   105.2370   114.3700     8.0270     0.0510     0.0950     2.5220     9.7780     6.4720    10.0910   -63.6330
  211.0000     0.3393   105.4860   113.3470     8.0290     0.0540     0.1000     2.5180     9.7950     6.4720     9.8860   -63.3430
  211.5000     0.3356   105.6480   113.4760     8.0300     0.0590     0.1060     2.5090     9.7840     6.4950     9.9000   -63.0550
  212.0000     0.3233   105.8910   114.0870     8.0310     0.0640     0.1120     2.4950     9.7600     6.5430     9.9280   -62.7650
  212.5000     0.3221   105.7690   112.6050     8.0320     0.0600     0.1180     2.4840     9.7360     6.5910     9.9560   -62.7570
  213.0000     0.3152   105.4660   109.7550     8.0340     0.0520     0.1180     2.4830     9.7110     6.6530     9.9840   -63.1150
  213.5000     0.3108   105.4050   110.7750     8.0350     0.0460     0.1170     2.4850     9.7040     6.5210    10.0120   -63.4680
  214.0000     0.3343   105.7090   114.0800     8.0360     0.0400     0.1150     2.4900     9.7060     6.4720    10.0400   -63.7770
  214.5000     0.3551   105.8100   117.2560     8.0370     0.0500     0.1150     2.4890     9.2170     6.2590    10.0700   -64.0440
  215.0000     0.3749   105.6070   119.4280     8.0380     0.0600     0.1210     2.4830     8.8470     5.9660     9.6890   -64.7070
  215.5000     0.3692   105.4180   119.7480     8.0390     0.0670     0.1260     2.4760     8.4970     5.6730     9.2810   -65.3580
  216.0000     0.3342   105.2830   121.4580     8.0400     0.0730     0.1320     2.4630     8.2620     5.4830     8.8720   -66.0200
  216.5000     0.3273   106.9030   123.0880     8.0410     0.0690     0.1400     2.4500     8.0270     5.5340     8.4640   -66.1350
  217.0000     0.3216   108.2520   119.9360     8.0420     0.0650     0.1370     2.4440     7.8350     5.6760     8.0550   -65.9630
  217.5000     0.3303   109.6020   116.8680     8.0420     0.0610     0.1290     2.4580     7.5910     5.9020     7.6390   -65.7870
  218.0000     0.3449   110.3440   115.6020     8.0430     0.0690     0.1210     2.4740     7.3460     5.6840     7.9490   -65.6100
  218.5000     0.3482   109.4770   117.8270     8.0440     0.0730     0.1150     2.4900     7.0720     5.4040     9.2330   -65.4330
  219.0000     0.3476   108.7540   119.8170     8.0450     0.0690     0.1210     2.4800     6.7900     5.0910    10.3060   -65.2560
  219.5000     0.3519   108.3200   119.3730     8.0460     0.0400     0.1360     2.4660     6.5070     4.7280     9.7060   -65.0790
  220.0000     0.3599   108.3200   119.2290     8.0470     0.0110     0.1620     2.4400     6.2250     4.3640     8.5010   -65.0610
