~VERSION INFORMATION
 VERS.                2.0:   CWLS LOG ASCII STANDARD - VERSION 2.0
 WRAP.                 NO:   ONE LINE PER DEPTH STEP
~WELL INFORMATION
#MNEM.UNIT      DATA TYPE    INFORMATION
#----------   ------------   ------------------------------
 STRT.F           32.0000:   START DEPTH
 STOP.F          557.0000:   STOP DEPTH
 STEP.F            0.5000:   STEP LENGTH
 NULL.          -999.2500:   NO VALUE
 COMP. FENIX & SCISSON U.S. NAVY:   COMPANY
 WELL.   S-3 NPR #3 #31-3:   WELL
 FLD .              NPR-3:   FIELD
 LOC .       S3 T38N R78W:   LOCATION
 CNTY.            NATRONA:   COUNTY
 STAT.            WYOMING:   STATE
 CTRY. UNITED STATES OF AMERICA:   COUNTRY
 SRVC.              Welex:   SERVICE COMPANY
 DATE.        05-MAR-1977:   LOGDATE
 API .       490251039500:   API NUMBER
~CURVE INFORMATION
#MNEM.UNIT       API CODE    CURVE DESCRIPTION
#----------   ------------   ------------------------------
 DEPT.F                  :   
 CALD.IN     45 280 60 00:   CALIPER FROM DENSITY LOG
 DPHI.DEC    45 890 12 00:   DENSITY POROSITY SANDSTONE
 DRHO.G/C3   45 356 01 00:   DENSITY CORRECTION
 GRD .GAPI   45 310 01 00:   GAMMA RAY FROM DENSITY LOG
 RHOB.G/C3   45 350 01 00:   BULK DENSITY
 ILD .OHMM   07 120 46 00:   INDUCTION LOG DEEP
 ILM .OHMM   07 120 44 00:   INDUCTION LOG MEDIUM
 SGRD.OHMM   07 220 05 00:   SHALLOW GUARD RESISTIVITY
 SPR .MV     07 010 01 00:   SPONTANEOUS POTENTIAL FROM RES.
~PARAMETER INFORMATION
#MNEM.UNIT          VALUE    DESCRIPTION
#----------   ------------   ------------------------------
 PD  .                 GL:   PERMANENT DATUM
 EPD .F              5178:   ELEVATION PERMANENT DATUM
 LMF .                 GL:   LOG MEASURED FROM
 DMF .                 GL:   DRILLING MEASURED FROM
 EGL .F              5178:   GROUND LEVEL
 DATE.        05-MAR-1977:   RUN DATE
 RUN .                  1:   RUN NUMBER
 DD  .F               560:   DEPTH DRILLER
 DL  .F               560:   DEPTH LOGGER
 BLI .F               558:   BOTTOM LOG INTERVAL
 TLI .F                40:   TOP LOG INTERVAL
 CS  .IN            8.625:   CASING SIZE
 CBD .F                43:   CASING BOTTOM DRILLER
 CBL .F                43:   CASING BOTTOM LOGGER
 BS  .IN            7.875:   BIT SIZE
 BSD .F               560:   BIT SIZE AT DEPTH
 DFT .                KCL:   DRILLING FLUID TYPE
 DFD .                8.8:   DRILLING FLUID DENSITY
 DFV .                 32:   DRILLING FLUID VISCOSITY
 MSS .           FLOWLINE:   MUD SAMPLE SOURCE
 RMS .OHMM           1.46:   RESISTIVITY MUD SAMPLE
 MST .F                48:   MUD SAMPLE TEMPERATURE
 RMF .OHMM          0.972:   RESISTIVITY MUD FILTRATE SAMPLE
 MFST.F                48:   MUD FILTRATE SAMPLE TEMPERATURE
 RMC .OHMM           2.32:   RESISTIVITY MUD CAKE
 MCST.F                48:   MUD CAKE SAMPLE TEMPERATURE
 MFSS.               MEAS:   MUD FILTRATE SAMPLE SOURCE
 MCSS.               MEAS:   MUD CAKE SAMPLE SOURCE
 RMB .OHMM           1.03:   RESISTIVITY MUD AT BHT
 BHT .F                68:   BOTTOM HOLE TEMPERATURE
 TCS .HRS               2:   TIME CURCULATED STOPPED
 MRT .F                68:   MAXIMUM RECORDED TEMPERATURE
 LUN .               8611:   LOGGING UNIT NUMBER
 LUL .           GILLETTE:   LOGGING UNIT LOCATION
 ENGI.          D. LAWSON:   RECORDING ENGINEER
 WITN.     MR. STUEBINGER:   WITNESSED BY
 CLNT.            A2DTECH:   CLIENT CODE
 ORIG.           5" PRINT:   ORIGIN OF DATA
 UWI .       490251039500:   UNIQUE WELL ID
 DICO. A2D Technologies, Inc.:   DIGITIZING COMPANY
~OTHER INFORMATION
~A   DEPT       CALD     DPHI        DRHO        GRD        RHOB      ILD        ILM       SGRD        SPR   
# ...
  105.0000     8.3346     0.0566     0.0205   128.4535     2.5517     9.0175     9.7301     9.8336   -20.1181
  105.5000     8.3362     0.0554     0.0237   124.7480     2.5541     8.9516     9.7355     9.7044   -20.1064
  106.0000     8.3375     0.0589     0.0268   125.0665     2.5511     8.9032     9.7409     9.5754   -20.0947
  106.5000     8.3239     0.0703     0.0165   127.1733     2.5242     8.9092     9.6121     9.4510   -20.0829
  107.0000     8.3103     0.0820     0.0121   128.3858     2.5062     8.9141     9.4852     9.3268   -20.0712
  107.5000     8.3120     0.0865     0.0092   129.5985     2.5001     8.7952     9.3600     9.2043   -20.0595
  108.0000     8.3282     0.0911     0.0079   130.9128     2.4945     8.8012     9.3664     9.0751   -20.0476
  108.5000     8.3443     0.0935     0.0066   127.2045     2.4900     8.7453     9.3715     8.8248   -20.0357
  109.0000     8.3457     0.0971     0.0067   127.3731     2.4826     8.6886     9.2466     8.5467   -20.0215
  109.5000     8.3470     0.1018     0.0069   127.2395     2.4767     8.4573     9.2528     8.3762   -20.0098
  110.0000     8.6459     0.1024     0.0071   126.3628     2.4730     8.2311     9.2579     8.2091   -19.9980
  110.5000     8.6769     0.0982     0.0073   127.8749     2.4873     8.1223     9.2629     8.0454   -19.9863
  111.0000     8.3186     0.0916     0.0089   130.4259     2.4979     8.0152     9.1405     7.9385   -19.9746
  111.5000     8.2483     0.0888     0.0121   128.9531     2.5010     7.8008     9.0200     7.7277   -19.9629
  112.0000     8.2344     0.0879     0.0138   127.6293     2.4965     7.5921     8.6582     7.5213   -19.9512
  112.5000     8.2361     0.0927     0.0139   127.0463     2.4874     7.3890     8.3014     7.3205   -19.9395
  113.0000     8.2820     0.0998     0.0110   127.6642     2.4810     7.1923     7.9774     0.6066   -19.9278
  113.5000     8.3279     0.1028     0.0097   126.7875     2.4728     7.1963     7.9828     0.8881   -19.9161
  114.0000     8.3140     0.1075     0.0099   126.2089     2.4684     7.2002     7.9872     1.6913   -19.9044
  114.5000     8.3007     0.0985     0.0116   126.0773     2.4864     7.2041     8.1028     4.8449   -19.8927
  115.0000     8.3021     0.0931     0.0132   127.5360     2.4970     7.3084     8.2201     8.2026   -19.8810
  115.5000     8.3034     0.0868     0.0149   128.3477     2.5046     7.3123     8.4552     8.8040   -19.8690
  116.0000     8.3050     0.0850     0.0181   121.2161     2.5017     7.4182     8.5185     9.9277   -19.8571
  116.5000     8.2911     0.0897     0.0138   115.2723     2.5032     7.4222     8.5823    10.1152   -19.8429
  117.0000     8.2775     0.0840     0.0109   112.0111     2.5070     7.5297     8.5870     9.7098   -19.8312
  117.5000     8.2792     0.0890     0.0095   110.8319     2.4944     7.6387     8.6512     9.6473   -19.8195
  118.0000     8.2805     0.0935     0.0067   112.9402     2.4885     7.7493     8.5961     9.7217   -19.9566
  118.5000     8.2818     0.0947     0.0069   114.7461     2.4885     7.7535     8.6010     9.8632   -19.9449
  119.0000     8.2831     0.0959     0.0040   116.2539     2.4841     7.7578     8.6057     9.9378   -20.0849
  119.5000     8.2844     0.0982     0.0042   117.6126     2.4827     7.7629     8.6104     9.6057   -20.0703
  120.0000     8.2857     0.0970     0.0044   117.7794     2.4857     7.8211     8.6830     9.2193   -20.2074
  120.5000     8.2871     0.0988     0.0045   116.6826     2.4783     7.8796     8.7409     9.6843   -20.3474
  121.0000     8.2886     0.1041     0.0047   114.2417     2.4739     7.8839     8.8675    10.1696   -20.1839
  121.5000     8.2747     0.1041     0.0018   110.6824     2.4732     7.9980     8.9958     9.3664   -20.0234
  122.0000     8.2611     0.0986    -0.0010   108.9072     2.4788     8.1138     9.0007     9.9744   -20.1607
  122.5000     8.2628     0.0937    -0.0008   108.7756     2.4890     8.1182     9.1310    14.2043   -20.1488
  123.0000     8.2641     0.0854     0.0024   109.2446     2.5057     8.3504     9.2632    11.0490   -19.9881
  123.5000     8.2654     0.0764     0.0055   110.4543     2.5216     8.5893     9.5282    10.4887   -19.9762
  124.0000     8.2667     0.0734     0.0087   115.0917     2.5164     8.8349     9.8007    10.4967   -19.9619
  124.5000     8.2382     0.0773     0.0058   110.4892     2.5172     8.9628    10.0811    10.9484   -19.9502
  125.0000     8.2396     0.0739     0.0060   105.4396     2.5285     9.0299    10.3694    20.5634   -19.9385
  125.5000     8.2709     0.0676     0.0062    99.2499     2.5391     9.0975    10.6660    31.1609   -19.9268
  126.0000     8.3169     0.0631     0.0094    98.3211     2.5415     8.9686    10.2381    12.5966   -19.9151
  126.5000     8.2438     0.0673     0.0112   104.7513     2.5272     8.8590     9.8927    10.3126   -19.9034
  127.0000     8.1855     0.0806     0.0127   111.3261     2.5082     8.6220     9.5572    10.3906   -19.8917
  127.5000     8.1868     0.0908     0.0129   120.4345     2.4898     8.3913     9.2854    10.4675   -19.8800
  128.0000     8.2477     0.0941     0.0130   127.3074     2.4892     8.1669     8.9364    10.2587   -19.8683
  128.5000     8.3680     0.0935     0.0132   131.0507     2.4900     8.0591     8.8785    10.1239   -19.8566
  129.0000     8.3693     0.0929     0.0134   130.6211     2.4916     7.9527     8.8221    10.1317   -19.8448
  129.5000     8.3706     0.0928     0.0135   128.9992     2.4917     7.9581     8.8281    10.2792   -19.8331
  130.0000     8.3422     0.0955     0.0092   126.7812     2.4887     7.8520     8.8329    10.5742   -19.9702
  130.5000     8.3438     0.0994     0.0078   124.3905     2.4813     7.7494     8.8377    10.5807   -19.9583
  131.0000     8.3451     0.1035     0.0050   122.3452     2.4709     7.7536     8.8425    10.4416   -19.9464
  131.5000     8.3464     0.1065     0.0052   124.1554     2.4680     7.7579     8.8473    10.2349   -20.0839
  132.0000     8.3477     0.1064     0.0053   124.7647     2.4711     7.7621     8.8521    10.1690   -20.0693
  132.5000     8.3639     0.1033     0.0070   123.5899     2.4756     7.7128     8.8569    10.1768   -20.0576
  133.0000     8.3652     0.1016     0.0072   123.6117     2.4772     7.7171     8.8617    10.1830   -20.0459
  133.5000     8.3516     0.1004     0.0058   124.6724     2.4788     7.7222     8.8666    10.4752   -20.0342
  134.0000     8.3530     0.0998     0.0060   125.1370     2.4804     7.7264     8.8715    10.0554   -20.0224
  134.5000     8.3546     0.0997     0.0062   125.1545     2.4812     7.7842     8.8764     9.7854   -20.0107
  135.0000     8.3559     0.1003     0.0063   125.4700     2.4790     7.7885     8.8822     9.9293   -19.9990
  135.5000     8.3572     0.1042     0.0065   124.2953     2.4746     7.7927     8.8871    10.2143   -19.9873
  136.0000     8.3585     0.1044     0.0067   121.8808     2.4717     7.7969     8.8294    10.2205   -19.9756
  136.5000     8.3449     0.1005     0.0068   122.9061     2.4807     7.8012     8.7734    10.1563   -19.9639
  137.0000     8.3310     0.0941     0.0100   124.6501     2.4930     7.8054     8.6587     9.9536   -19.9522
  137.5000     8.2880     0.0854     0.0117   124.9657     2.5056     7.8096     8.6635    10.0986   -19.9405
  138.0000     8.2744     0.0756     0.0133   124.0889     2.5215     7.8139     8.7283    10.1749   -19.9286
  138.5000     8.2757     0.0731     0.0165   123.5103     2.5260     7.8181     8.7937     9.8943   -19.9167
  139.0000     8.2773     0.0803     0.0122   123.3744     2.5141     7.8224     8.7984     9.7731   -20.0512
  139.5000     8.2935     0.0875     0.0063   124.1414     2.4969     7.8268     8.9258     9.9858   -20.0395
  140.0000     8.3395     0.0958    -0.0010   122.6685     2.4858     7.7769     8.8079    10.1311   -20.1795
  140.5000     8.3705     0.0985    -0.0009   121.4933     2.4866     7.7275     8.6918     9.9980   -20.1649
  141.0000     8.3718     0.0957     0.0008   122.5545     2.4889     7.6785     8.5771     9.8666   -20.0044
