~VERSION INFORMATION
 VERS.                2.0:   CWLS LOG ASCII STANDARD - VERSION 2.0
 WRAP.                 NO:   ONE LINE PER DEPTH STEP
~WELL INFORMATION
#MNEM.UNIT      DATA TYPE    INFORMATION
#----------   ------------   ------------------------------
 STRT.F           28.0000:   START DEPTH
 STOP.F          630.0000:   STOP DEPTH
 STEP.F            0.5000:   STEP LENGTH
 NULL.          -999.2500:   NO VALUE
 COMP. FENIX & SCISSON INC:   COMPANY
 WELL. NAVAL PETROLEUM RESERVE 3 SX-1 #81-15:   WELL
 FLD .             TEAPOT:   FIELD
 LOC .      S15 T38N R78W:   LOCATION
 CNTY.            NATRONA:   COUNTY
 STAT.            WYOMING:   STATE
 CTRY. UNITED STATES OF AMERICA:   COUNTRY
 SRVC.           BIRDWELL:   SERVICE COMPANY
 DATE.        03-JUN-1978:   LOGDATE
 API .       490251063900:   API NUMBER
~CURVE INFORMATION
#MNEM.UNIT       API CODE    CURVE DESCRIPTION
#----------   ------------   ------------------------------
 DEPT.F                  :   
 SPR .MV     05 010 01 00:   SPONTANEOUS POTENTIAL FROM RES.
 SN  .OHMM   05 040 16 00:   SHORT NORMAL 16"
 ILD .OHMM   05 120 46 00:   INDUCTION LOG DEEP
 CALD.IN     45 280 60 00:   CALIPER FROM DENSITY LOG
 GRD .GAPI   45 310 01 00:   GAMMA RAY FROM DENSITY LOG
 CORR.G/C3   45 356 01 00:   DENSITY CORRECTION
 DPHI.DEC    45 890 12 00:   DENSITY POROSITY SANDSTONE
 DEN .G/C3   45 350 01 00:   COMPENSATED BULK DENSITY
~PARAMETER INFORMATION
#MNEM.UNIT          VALUE    DESCRIPTION
#----------   ------------   ------------------------------
 PD  .                 GL:   PERMANENT DATUM
 EPD .F              5263:   ELEVATION PERMANENT DATUM
 LMF .                 KB:   LOG MEASURED FROM
 DAPD.F                 4:   FEET ABOVE PERMANENT DATUM
 DMF .                 KB:   DRILLING MEASURED FROM
 EKB .F              5267:   KELLING BUSHING
 EGL .F              5263:   GROUND LEVEL
 DATE.        03-JUN-1978:   RUN DATE
 RUN .                  1:   RUN NUMBER
 DD  .F               632:   DEPTH DRILLER
 DL  .F               636:   DEPTH LOGGER
 BLI .F               630:   BOTTOM LOG INTERVAL
 TLI .F                40:   TOP LOG INTERVAL
 CS  .IN            8.625:   CASING SIZE
 CBD .F                40:   CASING BOTTOM DRILLER
 CBL .F                40:   CASING BOTTOM LOGGER
 BS  .IN            7.875:   BIT SIZE
 BSD .F               632:   BIT SIZE AT DEPTH
 DFT .                KCL:   DRILLING FLUID TYPE
 DFD .                8.7:   DRILLING FLUID DENSITY
 DFV .                 31:   DRILLING FLUID VISCOSITY
 DFPH.                 10:   DRILLING FLUID PH
 DFL .                9.2:   DRILLING FLUID LOSS
 MSS .           FLOWLINE:   MUD SAMPLE SOURCE
 RMS .OHMM            .26:   RESISTIVITY MUD SAMPLE
 MST .F                66:   MUD SAMPLE TEMPERATURE
 RMF .OHMM            .24:   RESISTIVITY MUD FILTRATE SAMPLE
 MFST.F                74:   MUD FILTRATE SAMPLE TEMPERATURE
 RMC .OHMM            .34:   RESISTIVITY MUD CAKE
 MCST.F                75:   MUD CAKE SAMPLE TEMPERATURE
 MFSS.               MEAS:   MUD FILTRATE SAMPLE SOURCE
 MCSS.               MEAS:   MUD CAKE SAMPLE SOURCE
 RMB .OHMM            .23:   RESISTIVITY MUD AT BHT
 BHT .F                74:   BOTTOM HOLE TEMPERATURE
 TCS .HRS            0100:   TIME CURCULATED STOPPED
 MRT .F                74:   MAXIMUM RECORDED TEMPERATURE
 LUN .               2958:   LOGGING UNIT NUMBER
 LUL .               CASP:   LOGGING UNIT LOCATION
 ENGI.             MILLER:   RECORDING ENGINEER
 WITN.           MCGINLEY:   WITNESSED BY
 CLNT.            A2DTECH:   CLIENT CODE
 ORIG.           5" PRINT:   ORIGIN OF DATA
 UWI .       490251063900:   UNIQUE WELL ID
 DICO. A2D Technologies, Inc.:   DIGITIZING COMPANY
~OTHER INFORMATION
~A   DEPT      SPR         SN        ILD       CALD         GRD      CORR       DPHI        DEN   
# ...
  433.0000   -19.3663    10.5541    10.3846     8.5668    64.0243     0.0292     0.1178     2.4826
  433.5000   -19.5218    10.5506    10.4540     8.5952    65.1633     0.0305     0.1179     2.4810
  434.0000   -19.5261    10.6942    10.5336     8.6092    66.9129     0.0304     0.1191     2.4801
  434.5000   -19.3792    10.8479    10.8911     8.6225    67.9756     0.0318     0.1262     2.4778
  435.0000   -18.7840    11.1396    11.4290     8.6210    67.2824     0.0362     0.1274     2.4717
  435.5000   -17.7323    11.4487    11.9935     8.6043    66.8183     0.0405     0.1265     2.4678
  436.0000   -16.3913    11.8481    12.9394     8.4668    66.9649     0.0451     0.1326     2.4632
  436.5000   -15.7950    12.2615    14.5777     8.6164    72.1496     0.0510     0.1421     2.4547
  437.0000   -15.6480    12.8770    17.7828     8.7664    73.6702     0.0552     0.1436     2.4372
  437.5000   -15.6534    13.7832    20.1382     8.8255    74.1221     0.0548     0.1434     2.4341
  438.0000   -15.3574    14.5635    21.4276     8.8396    73.2764     0.0530     0.1467     2.4315
  438.5000   -14.7437    15.2818    22.3308     8.8377    69.9878     0.0501     0.1534     2.4200
  439.0000   -14.1648    15.9249    23.4337     8.8059    63.7222     0.0211     0.1629     2.4163
  439.5000   -14.0190    16.3679    24.2529     8.7589    58.2199     0.0164     0.1863     2.4090
  440.0000   -13.7230    16.8195    24.4150     8.7119    53.6337     0.0329     0.2067     2.3737
  440.5000   -13.5781    16.9322    23.9051     8.6498    51.7954     0.0676     0.2092     2.3311
  441.0000   -13.4324    16.9252    23.0854     8.6028    48.9650     0.0781     0.2071     2.3249
  441.5000   -13.4378    16.9196    22.7618     8.5256    42.6993     0.0810     0.1983     2.3340
  442.0000   -13.4421    16.9140    22.7558     8.4331    38.9528     0.0732     0.1816     2.3643
  442.5000   -13.4464    16.9082    23.0655     8.3862    42.5345     0.0655     0.1719     2.3878
  443.0000   -13.2995    16.9014    23.3810     8.3847    44.3604     0.0668     0.1875     2.3786
  443.5000   -13.3049    16.7792    23.5373     8.3680    44.6597     0.0666     0.1908     2.3649
  444.0000   -13.3093    16.7737    23.5310     8.3665    44.0428     0.0513     0.1924     2.3572
  444.5000   -13.3146    16.6524    23.6883     8.3650    43.6551     0.0390     0.1964     2.3518
  445.0000   -13.4690    16.6468    23.8466     8.3483    43.4192     0.0388     0.2016     2.3419
  445.5000   -13.3232    16.6401    23.8387     8.3014    43.5658     0.0402     0.2074     2.3342
  446.0000   -13.3275    16.6346    23.9996     8.2089    44.0177     0.0385     0.2080     2.3258
  446.5000   -13.3318    16.6291    23.9916     8.1923    45.2330     0.0383     0.2047     2.3325
  447.0000   -13.3372    16.6236    23.8197     8.1756    48.1277     0.0397     0.2075     2.3332
  447.5000   -13.3415    16.6180    23.6490     8.1741    48.2743     0.0425     0.2084     2.3271
  448.0000   -13.3458    16.6112    23.4781     8.1726    48.2682     0.0651     0.2078     2.3278
  448.5000   -13.1989    16.6057    23.1490     8.1711    48.7201     0.0771     0.2048     2.3330
  449.0000   -13.2042    16.6002    22.9832     8.1544    50.0880     0.0694     0.1900     2.3436
  449.5000   -13.2087    16.5947    22.6611     7.9408    51.3033     0.0419     0.1919     2.3580
  450.0000   -13.2129    16.5893    22.6551     7.5689    50.8635     0.0357     0.1891     2.3602
  450.5000   -13.1793    16.5336    23.0191     7.3620    49.4505     0.0446     0.1880     2.3601
  451.0000   -13.1481    16.4625    23.3831     7.3150    48.2140     0.0444     0.1874     2.3593
  451.5000   -13.1170    16.3435    23.7555     7.3287    48.8096     0.0458     0.1920     2.3546
  452.0000   -13.0869    16.2253    23.9126     7.2666    50.4738     0.0577     0.2005     2.3439
  452.5000   -13.0940    16.2199    24.0708     7.1742    51.2221     0.0742     0.2056     2.3302
  453.0000   -13.0998    16.1026    24.3965     7.0666    49.9856     0.0619     0.2018     2.3377
  453.5000   -13.1055    15.9849    24.5599     7.0954    46.7643     0.0541     0.2140     2.3103
  454.0000   -13.2614    15.9796    25.0651     7.3363    44.4591     0.0691     0.2213     2.3042
  454.5000   -13.2873    15.9739    25.4063     7.4712    43.9860     0.0795     0.2237     2.3018
  455.0000   -13.4244    15.9690    25.9289     7.9545    43.8182     0.0915     0.2222     2.3048
  455.5000   -13.4301    15.8536    26.2819     8.2106    43.8031     0.0898     0.2065     2.3267
  456.0000   -13.4358    15.8481    26.2732     8.2545    45.3128     0.0805     0.2007     2.3381
  456.5000   -13.4415    15.7324    26.0832     8.2379    47.1297     0.0743     0.1895     2.3585
  457.0000   -13.4474    15.7272    25.7160     8.2364    48.0306     0.0741     0.1880     2.3623
  457.5000   -13.4544    15.6135    25.1768     8.2349    47.8628     0.0800     0.1923     2.3538
  458.0000   -13.4601    15.3936    24.6510     8.2485    50.1377     0.0950     0.1936     2.3530
  458.5000   -13.6160    15.1768    23.9696     8.2621    53.3268     0.1145     0.1909     2.3567
  459.0000   -13.6217    15.1706    23.4690     8.3074    53.7697     0.1220     0.1730     2.3741
  459.5000   -13.7978    15.1656    22.8203     8.3517    52.0752     0.0914     0.1666     2.3999
  460.0000   -14.2352    15.0559    22.0159     8.3940    47.9379     0.0608     0.1779     2.3793
  460.5000   -14.3911    14.9471    21.1308     8.4099    47.1594     0.0545     0.1876     2.3557
  461.0000   -14.6971    14.7366    20.4049     8.4391    48.5184     0.0482     0.1768     2.3769
  461.5000   -14.8529    14.5149    19.9787     8.4800    49.1139     0.0421     0.1743     2.3860
  462.0000   -14.8789    14.2245    19.6974     8.4940    49.0988     0.0480     0.1744     2.3867
  462.5000   -15.0160    14.0242    19.5549     8.5077    49.2363     0.0539     0.1720     2.3889
  463.0000   -15.0217    13.8267    19.5470     8.5213    50.7479     0.0582     0.1723     2.3903
  463.5000   -15.0274    13.7267    19.4056     8.5194    54.5496     0.0595     0.1723     2.3894
  464.0000   -15.0331    13.6274    19.3992     8.5335    56.5192     0.0578     0.1712     2.3875
  464.5000   -15.1892    13.6218    19.2590     8.5471    56.6567     0.0531     0.1745     2.3855
  465.0000   -15.1961    13.6173    19.2526     8.5452    56.3363     0.0469     0.1743     2.3824
  465.5000   -15.2019    13.6128    19.2447     8.5592    56.4738     0.0436     0.1773     2.3702
  466.0000   -15.3577    13.5144    19.2383     8.5725    56.6113     0.0404     0.1868     2.3633
  466.5000   -15.3635    13.5099    19.3656     8.5710    56.7489     0.0402     0.1932     2.3541
  467.0000   -15.5195    13.5050    19.3592     8.5850    57.0391     0.0401     0.1938     2.3548
  467.5000   -15.6766    13.4998    19.3528     8.5831    57.6347     0.0399     0.1908     2.3601
  468.0000   -15.9826    13.4954    19.2113     8.5816    59.1462     0.0382     0.1884     2.3638
  468.5000   -15.9884    13.4909    19.2050     8.5957    58.6731     0.0380     0.1857     2.3683
  469.0000   -16.1442    13.5803    19.0661     8.5786    57.4366     0.0378     0.1860     2.3675
  469.5000   -16.1504    13.5756    18.9283     8.5926    54.9769     0.0361     0.1870     2.3636
  470.0000   -16.3073    13.4764    18.7914     8.5760    54.1220     0.0344     0.1882     2.3628
  470.5000   -16.3135    13.4719    18.5109     8.5896    54.6413     0.0327     0.1895     2.3604
  471.0000   -16.3187    13.3745    18.2645     8.5877    55.8475     0.0326     0.1901     2.3581
  471.5000   -16.4750    13.1862    18.0073     8.5877    56.5957     0.0324     0.1889     2.3580
  472.0000   -16.4805    13.0908    17.8771     8.5894    56.7314     0.0337     0.1865     2.3595
  472.5000   -16.6376    12.9064    17.6254     8.5911    56.7162     0.0350     0.1838     2.3632
  473.0000   -16.6433    12.8121    17.4890     8.5928    54.4110     0.0364     0.1839     2.3692
