~VERSION INFORMATION
 VERS.                2.0:   CWLS LOG ASCII STANDARD - VERSION 2.0
 WRAP.                 NO:   ONE LINE PER DEPTH STEP
~WELL INFORMATION
#MNEM.UNIT      DATA TYPE    INFORMATION
#----------   ------------   ------------------------------
 STRT.F           19.5000:   START DEPTH
 STOP.F         1292.5000:   STOP DEPTH
 STEP.F            0.5000:   STEP LENGTH
 NULL.          -999.2500:   NO VALUE
 COMP. FENIX & SCISSON INC:   COMPANY
 WELL.  NPR-3 "SX" #74-14:   WELL
 FLD .             TEAPOT:   FIELD
 LOC .      S14 T38N R78W:   LOCATION
 CNTY.            NATRONA:   COUNTY
 STAT.            WYOMING:   STATE
 CTRY. UNITED STATES OF AMERICA:   COUNTRY
 SRVC.            Unknown:   SERVICE COMPANY
 DATE.        22-MAR-1978:   LOGDATE
 API .       490251060300:   API NUMBER
~CURVE INFORMATION
#MNEM.UNIT       API CODE    CURVE DESCRIPTION
#----------   ------------   ------------------------------
 DEPT.F                  :   
 SPR .MV     05 010 01 00:   SPONTANEOUS POTENTIAL
 SN  .OHMM   05 040 16 00:   SHORT NORMAL 16'
 ILD .OHMM   05 120 46 00:   INDUCTION LOG DEEP
 CALD.IN     45 280 60 00:   CALIPER
 GRD .GAPI   45 310 01 00:   GAMMA RAY FROM DENSITY LOG
 CORR.G/C3   45 356 01 00:   DENSITY CORRECTION
 RHOB.G/C3   45 350 01 00:   BULK DENSITY
 DPHI.DEC    45 890 12 00:   DENSITY POROSITY SANDSTONE
~PARAMETER INFORMATION
#MNEM.UNIT          VALUE    DESCRIPTION
#----------   ------------   ------------------------------
 PD  .                 GL:   PERMANENT DATUM
 EPD .F              5312:   ELEVATION PERMANENT DATUM
 LMF .                 KB:   LOG MEASURED FROM
 DMF .                 KB:   DRILLING MEASURED FROM
 EKB .F              5316:   KELLING BUSHING
 EGL .F              5312:   GROUND LEVEL
 DATE.          3-22-1978:   RUN DATE
 RUN .                  1:   RUN NUMBER
 DD  .F              1280:   DEPTH DRILLER
 DL  .F              1292:   DEPTH LOGGER
 BLI .F              1286:   BOTTOM LOG INTERVAL
 TLI .F                50:   TOP LOG INTERVAL
 CS  .IN            8.625:   CASING SIZE
 CBD .F                50:   CASING BOTTOM DRILLER
 CBL .F                50:   CASING BOTTOM LOGGER
 BS  .IN            7.875:   BIT SIZE
 BSD .F              1280:   BIT SIZE AT DEPTH
 DFT .                KCL:   DRILLING FLUID TYPE
 DFD .                8.6:   DRILLING FLUID DENSITY
 DFV .                 31:   DRILLING FLUID VISCOSITY
 DFPH.               10.5:   DRILLING FLUID PH
 DFL .               11.6:   DRILLING FLUID LOSS
 MSS .            MUD PIT:   MUD SAMPLE SOURCE
 RMS .OHMM            .38:   RESISTIVITY MUD SAMPLE
 MST .F                52:   MUD SAMPLE TEMPERATURE
 RMF .OHMM            .32:   RESISTIVITY MUD FILTRATE SAMPLE
 MFST.F                66:   MUD FILTRATE SAMPLE TEMPERATURE
 RMC .OHMM             .4:   RESISTIVITY MUD CAKE
 MCST.F                68:   MUD CAKE SAMPLE TEMPERATURE
 MFSS.           MEASURED:   MUD FILTRATE SAMPLE SOURCE
 RMB .OHMM            .24:   RESISTIVITY MUD AT BHT
 BHT .F                82:   BOTTOM HOLE TEMPERATURE
 TCS .HRS               4:   TIME CURCULATED STOPPED
 MRT .F                82:   MAXIMUM RECORDED TEMPERATURE
 LUN .               2958:   LOGGING UNIT NUMBER
 LUL .               CASP:   LOGGING UNIT LOCATION
 ENGI.            POINTER:   RECORDING ENGINEER
 WITN.           MCGINLEY:   WITNESSED BY
 CLNT.            A2DTECH:   CLIENT CODE
 ORIG.        2" 5" PRINT:   ORIGIN OF DATA
 UWI .       490251060300:   UNIQUE WELL ID
 DICO. A2D Technologies, Inc.:   DIGITIZING COMPANY
~OTHER INFORMATION
~A   DEPT      SPR         SN        ILD       CALD         GRD      CORR       RHOB       DPHI   
# ...
 1153.5000   -39.7390    10.4244    10.7500     7.9933    84.6440     0.0124     2.4260     0.1250
 1154.0000   -39.7417    10.4076    10.7398     7.9915    83.7653     0.0142     2.4144     0.1294
 1154.5000   -39.7413    10.3910    10.7295     7.9896    80.7786     0.0159     2.4108     0.1313
 1155.0000   -39.7410    10.3743    10.7193     7.9878    79.3708     0.0177     2.4139     0.1258
 1155.5000   -39.7410    10.3577    10.7091     7.9859    84.6047     0.0196     2.4185     0.1253
 1156.0000   -39.7409    10.3411    10.6989     7.9840    91.7731     0.0169     2.4187     0.1219
 1156.5000   -39.7418    10.3245    10.6887     7.9822    92.1355     0.0199     2.4245     0.1197
 1157.0000   -39.7408    10.3079    10.6785     7.9802    92.4630     0.0180     2.4228     0.1188
 1157.5000   -39.7224    10.2914    10.6684     7.9779    92.4570     0.0151     2.4327     0.1172
 1158.0000   -40.3570    10.2749    10.6582     7.9755    91.5384     0.0124     2.4371     0.1176
 1158.5000   -41.0447    10.2584    10.6481     7.9730    87.4127     0.0114     2.4313     0.1190
 1159.0000   -41.3323    10.2420    10.6379     7.9706    87.2470     0.0105     2.4304     0.1190
 1159.5000   -41.3300    10.2256    10.6278     7.9681    88.0904     0.0104     2.4297     0.1190
 1160.0000   -41.2029    10.2092    10.6177     7.9657    87.6972     0.0126     2.4311     0.1164
 1160.5000   -40.7523    10.1928    10.6076     7.9633    88.4431     0.0147     2.4329     0.1114
 1161.0000   -40.6698    10.1765    10.5974     7.9617    92.1263     0.0182     2.4424     0.1070
 1161.5000   -40.6049    10.1601    10.5870     7.9350    94.8343     0.0170     2.4474     0.1050
 1162.0000   -40.5374    10.1439    10.5864     7.9052    96.4424     0.0159     2.4510     0.1047
 1162.5000   -40.4685    10.1276    10.5865     7.8812    91.7933     0.0149     2.4512     0.1086
 1163.0000   -40.3980    10.1106    10.5865     7.9119    90.9752     0.0139     2.4487     0.1102
 1163.5000   -40.3542    10.1163    10.5865     7.9431    91.4824     0.0129     2.4439     0.1120
 1164.0000   -40.7338    10.1239    10.5865     7.9737    91.8257     0.0118     2.4369     0.1137
 1164.5000   -40.9343    10.1315    10.5865     8.0007    91.7313     0.0101     2.4362     0.1150
 1165.0000   -40.9353    10.1391    10.5865     7.9982    91.7225     0.0084     2.4358     0.1176
 1165.5000   -40.9365    10.1467    10.5865     7.9965    93.7189     0.0067     2.4338     0.1191
 1166.0000   -40.9362    10.1543    10.5865     7.9949    94.2859     0.0050     2.4300     0.1221
 1166.5000   -40.9357    10.1620    10.5865     7.9933    93.4249     0.0058     2.4262     0.1253
 1167.0000   -40.9381    10.1696    10.5865     7.9917    90.0197     0.0099     2.4223     0.1199
 1167.5000   -41.0282    10.1772    10.5865     7.9900    87.9788     0.0139     2.4209     0.1148
 1168.0000   -41.1357    10.1848    10.5865     7.9884    92.4631     0.0130     2.4371     0.1094
 1168.5000   -40.7323    10.1925    10.5865     7.9868    91.5754     0.0118     2.4469     0.1085
 1169.0000   -40.8845    10.2001    10.5865     7.9852    88.1521     0.0105     2.4475     0.1075
 1169.5000   -41.4301    10.2078    10.5865     7.9836    85.0090     0.0125     2.4483     0.1066
 1170.0000   -41.9798    10.2154    10.5865     7.9820    86.5764     0.0143     2.4459     0.1095
 1170.5000   -42.3351    10.2231    10.5865     7.9804    88.4183     0.0162     2.4409     0.1130
 1171.0000   -42.3307    10.2308    10.5865     7.9787    88.2302     0.0180     2.4358     0.1124
 1171.5000   -42.3289    10.2384    10.5823     7.9771    88.6635     0.0175     2.4366     0.1118
 1172.0000   -42.2454    10.2461    10.5701     7.9755    90.0552     0.0171     2.4382     0.1138
 1172.5000   -42.1600    10.2538    10.5580     7.9739    89.9884     0.0166     2.4365     0.1161
 1173.0000   -41.8886    10.2615    10.5460     7.9723    89.7474     0.0160     2.4336     0.1193
 1173.5000   -41.5563    10.2692    10.5339     7.9707    89.3519     0.0206     2.4303     0.1233
 1174.0000   -41.1613    10.2769    10.5223     7.9690    90.8944     0.0276     2.4182     0.1274
 1174.5000   -40.5541    10.2849    10.5106     7.9674    90.9023     0.0346     2.4137     0.1280
 1175.0000   -40.0959    10.2925    10.4986     7.9658    94.2205     0.0416     2.4143     0.1271
 1175.5000   -39.9820    10.2976    10.4895     7.9642    93.1039     0.0464     2.4154     0.1281
 1176.0000   -39.5984    10.4711    10.8593     7.9625    81.2839     0.0475     2.4131     0.1309
 1176.5000   -39.1043    10.6695    11.1562     7.9609    74.9281     0.0487     2.4089     0.1362
 1177.0000   -38.6122    10.8716    11.4606     7.9633    76.1071     0.0499     2.3995     0.1434
 1177.5000   -38.5451    11.0776    12.0732     7.9762    77.8690     0.0511     2.3869     0.1506
 1178.0000   -38.5511    11.2874    12.7696     7.9889    77.8117     0.0512     2.3724     0.1537
 1178.5000   -38.1405    11.5011    13.5084     8.0015    77.8520     0.0486     2.3713     0.1529
 1179.0000   -37.5547    11.7189    14.0994     8.0141    79.9807     0.0462     2.3700     0.1667
 1179.5000   -37.3280    11.9345    14.4840     8.0268    82.8535     0.0454     2.3547     0.1685
 1180.0000   -37.1201    12.0859    14.4840     8.0392    83.7648     0.0449     2.3510     0.1603
 1180.5000   -36.9961    12.2715    14.4840     8.0400    82.1705     0.0444     2.3492     0.1584
 1181.0000   -37.2518    12.3829    14.4840     8.0403    76.3463     0.0441     2.3482     0.1574
 1181.5000   -37.5017    12.3829    14.4840     8.0406    72.5661     0.0495     2.3471     0.1567
 1182.0000   -37.7432    12.3829    14.4840     8.0410    80.8844     0.0542     2.3542     0.1535
 1182.5000   -37.7458    12.3829    14.4682     8.0413    80.9173     0.0549     2.3662     0.1485
 1183.0000   -37.5744    12.3828    14.4269     8.0417    80.4739     0.0555     2.3753     0.1479
 1183.5000   -36.8618    12.3818    14.3857     8.0421    81.9958     0.0610     2.3806     0.1474
 1184.0000   -36.5765    12.3844    14.3511     8.0424    83.8018     0.0630     2.3800     0.1472
 1184.5000   -36.6339    12.2987    14.1346     8.0428    80.3811     0.0615     2.3794     0.1494
 1185.0000   -36.6912    12.1537    13.9116     8.0431    80.1006     0.0599     2.3790     0.1516
 1185.5000   -36.7498    12.0083    13.6921     8.0435    81.0109     0.0542     2.3758     0.1538
 1186.0000   -36.7052    11.8647    13.4760     8.0439    82.3617     0.0481     2.3717     0.1557
 1186.5000   -36.6526    11.7165    13.3307     8.0442    87.6125     0.0419     2.3686     0.1537
 1187.0000   -36.6004    11.6405    13.2684     8.0446    85.0310     0.0358     2.3681     0.1495
 1187.5000   -36.5542    11.5630    13.1476     8.0449    84.7041     0.0297     2.3713     0.1453
 1188.0000   -36.5536    11.4844    13.0279     8.0453    84.4529     0.0236     2.3791     0.1430
 1188.5000   -36.5538    11.4058    12.8884     8.0457    83.7659     0.0204     2.3812     0.1450
 1189.0000   -36.5538    11.3755    12.7287     8.0460    82.8016     0.0214     2.3781     0.1455
 1189.5000   -36.5538    11.3310    12.5443     8.0464    82.7658     0.0214     2.3821     0.1408
 1190.0000   -36.5538    11.2866    12.2919     8.0468    82.7641     0.0201     2.3945     0.1390
 1190.5000   -36.5538    11.2425    12.1300     8.0471    83.1763     0.0187     2.3976     0.1393
 1191.0000   -36.5530    11.1986    12.0718     8.0475    85.7830     0.0173     2.3918     0.1406
 1191.5000   -36.5500    11.1552    12.0138     8.0478    89.1275     0.0160     2.3839     0.1422
 1192.0000   -36.5709    11.1120    11.9561     8.0482    89.8832     0.0146     2.3857     0.1426
 1192.5000   -37.1052    11.0495    11.8539     8.0485    89.7474     0.0140     2.3925     0.1415
 1193.0000   -37.6508    10.8814    11.6657     8.0489    89.6015     0.0140     2.3950     0.1405
 1193.5000   -37.7440    10.7168    11.4805     8.0493    89.4756     0.0140     2.3974     0.1346
