~VERSION INFORMATION
 VERS.                2.0:   CWLS LOG ASCII STANDARD - VERSION 2.0
 WRAP.                 NO:   ONE LINE PER DEPTH STEP
~WELL INFORMATION
#MNEM.UNIT      DATA TYPE    INFORMATION
#----------   ------------   ------------------------------
 STRT.F            6.0000:   START DEPTH
 STOP.F          534.0000:   STOP DEPTH
 STEP.F            0.5000:   STEP LENGTH
 NULL.          -999.2500:   NO VALUE
 COMP. LAWRENCE/ALLISON INC:   COMPANY
 WELL.     NPR3 #33-66 SX:   WELL
 FLD .          MPR NO. 3:   FIELD
 LOC .      S10 T38N R78W:   LOCATION
 CNTY.            NATRONA:   COUNTY
 STAT.            WYOMING:   STATE
 CTRY. UNITED STATES OF AMERICA:   COUNTRY
 SRVC.           Gearhart:   SERVICE COMPANY
 DATE.        20-JUN-1986:   LOGDATE
 API .       490251109300:   API NUMBER
~CURVE INFORMATION
#MNEM.UNIT       API CODE    CURVE DESCRIPTION
#----------   ------------   ------------------------------
 DEPT.F                  :   
 GRR .GAPI   07 310 01 00:   GAMMA RAY
 RILD.OHMM   07 120 46 00:   INDUCTION LOG DEEP
 RILM.OHMM   07 120 44 00:   INDUCTION LOG MEDIUM
~PARAMETER INFORMATION
#MNEM.UNIT          VALUE    DESCRIPTION
#----------   ------------   ------------------------------
 PD  .                 GL:   PERMANENT DATUM
 EPD .F              5213:   ELEVATION PERMANENT DATUM
 LMF .                 KB:   LOG MEASURED FROM
 DMF .                 KB:   DRILLING MEASURED FROM
 EKB .F              5218:   KELLING BUSHING
 EGL .F              5213:   GROUND LEVEL
 DATE.        20-JUN-1986:   RUN DATE
 RUN .                  1:   RUN NUMBER
 DD  .F               555:   DEPTH DRILLER
 DL  .F               548:   DEPTH LOGGER
 BLI .F               539:   BOTTOM LOG INTERVAL
 CS  .IN            8.625:   CASING SIZE
 CBD .F                47:   CASING BOTTOM DRILLER
 CBL .F                39:   CASING BOTTOM LOGGER
 BS  .IN            7.875:   BIT SIZE
 BSD .F               555:   BIT SIZE AT DEPTH
 DFT .                AIR:   DRILLING FLUID TYPE
 TCS .HRS            0300:   TIME CURCULATED STOPPED
 TLAB.HRS            0500:   TIME LOGGER AT BOTTOM
 MRT .F                64:   MAXIMUM RECORDED TEMPERATURE
 LUN .               7609:   LOGGING UNIT NUMBER
 LUL .           GILLETTE:   LOGGING UNIT LOCATION
 ENGI.            WANGLER:   RECORDING ENGINEER
 WITN.              FIVAS:   WITNESSED BY
 CLNT.            A2DTECH:   CLIENT CODE
 ORIG.           5" PRINT:   ORIGIN OF DATA
 UWI .       490251109300:   UNIQUE WELL ID
 DICO. A2D Technologies, Inc.:   DIGITIZING COMPANY
~OTHER INFORMATION
~A    DEPT     GRR       RILD       RILM   
    6.0000  -999.2500  -999.2500  -999.2500
    6.5000    81.6507  -999.2500  -999.2500
    7.0000    78.8919  -999.2500  -999.2500
    7.5000    78.8700  -999.2500  -999.2500
    8.0000    78.8518  -999.2500  -999.2500
    8.5000    77.0071  -999.2500  -999.2500
    9.0000    75.1624  -999.2500  -999.2500
    9.5000    74.8444  -999.2500  -999.2500
   10.0000    76.3437  -999.2500  -999.2500
   10.5000    77.5431  -999.2500  -999.2500
   11.0000    78.7426  -999.2500  -999.2500
   11.5000    80.2465  -999.2500  -999.2500
   12.0000    82.0593  -999.2500  -999.2500
   12.5000    80.8189  -999.2500  -999.2500
   13.0000    79.8874  -999.2500  -999.2500
   13.5000    80.1736  -999.2500  -999.2500
   14.0000    81.9819  -999.2500  -999.2500
   14.5000    83.4903  -999.2500  -999.2500
   15.0000    83.7766  -999.2500  -999.2500
   15.5000    83.4494  -999.2500  -999.2500
   16.0000    79.7782  -999.2500  -999.2500
   16.5000    82.4997  -999.2500  -999.2500
   17.0000    83.3993  -999.2500  -999.2500
   17.5000    82.1589  -999.2500  -999.2500
   18.0000    79.4010  -999.2500  -999.2500
   18.5000    79.6872  -999.2500  -999.2500
   19.0000    80.8866  -999.2500  -999.2500
   19.5000    82.6949  -999.2500  -999.2500
   20.0000    82.0679  -999.2500  -999.2500
   20.5000    76.8746  -999.2500  -999.2500
   21.0000    69.8549  -999.2500  -999.2500
   21.5000    68.9280  -999.2500  -999.2500
   22.0000    79.5598  -999.2500  -999.2500
   22.5000    88.0652  -999.2500  -999.2500
   23.0000    94.1352  -999.2500  -999.2500
   23.5000    95.3392  -999.2500  -999.2500
   24.0000    95.3165  -999.2500  -999.2500
   24.5000    94.0806  -999.2500  -999.2500
   25.0000    91.0183  -999.2500  -999.2500
   25.5000    89.4780  -999.2500  -999.2500
   26.0000    90.3730  -999.2500  -999.2500
   26.5000    91.5770  -999.2500  -999.2500
   27.0000    92.7765  -999.2500  -999.2500
   27.5000    92.7537  -999.2500  -999.2500
   28.0000    92.7355  -999.2500  -999.2500
   28.5000    91.8041  -999.2500  -999.2500
   29.0000    90.2638  -999.2500  -999.2500
   29.5000    89.0279  -999.2500  -999.2500
   30.0000    89.6186  -999.2500  -999.2500
   30.5000    91.4268  -999.2500  -999.2500
   31.0000    91.4086  -999.2500  -999.2500
   31.5000    89.8684  -999.2500  -999.2500
   32.0000    87.7193  -999.2500  -999.2500
   32.5000    85.2658  -999.2500  -999.2500
   33.0000    84.6387  -999.2500  -999.2500
   33.5000    84.3161  -999.2500  -999.2500
   34.0000    84.9067  -999.2500  -999.2500
   34.5000    86.1062  -999.2500  -999.2500
   35.0000    87.6100  -999.2500  -999.2500
   35.5000    88.8097  -999.2500  -999.2500
   36.0000    90.9222  -999.2500  -999.2500
   36.5000    88.7731  -999.2500  -999.2500
   37.0000    85.4063  -999.2500  -999.2500
   37.5000    82.6484  -999.2500  -999.2500
   38.0000    80.1949  -999.2500  -999.2500
   38.5000    84.1827  -999.2500  -999.2500
   39.0000    91.2633  -999.2500  -999.2500
   39.5000   100.0081    13.8053   709.4819
   40.0000   107.6205     6.3022   551.2317
   40.5000   110.5692     5.0719    66.3335
   41.0000   111.7447     4.8963    32.2680
   41.5000   113.0411     4.9295     9.5300
   42.0000   115.7382     5.2857     7.4098
   42.5000   119.6854     9.3154     6.7683
   43.0000   118.5835    12.4956     6.8188
   43.5000   113.8934    13.9730     7.3762
   44.0000   111.6355    14.2670     9.5115
   44.5000   113.4438    12.9316    10.7416
   45.0000   111.5945    11.8042    10.8910
   45.5000   105.4881    11.5563    10.9607
   46.0000    96.9463    11.4730    11.0403
   46.5000    99.0589    11.4703    11.2669
   47.0000   102.9981    11.7116    10.9530
   47.5000   104.8064    11.7912    10.9505
   48.0000   105.0972    11.4623    10.9479
   48.5000   105.0744    11.0655    11.1071
   49.0000   105.9694    10.7576    11.2616
   49.5000   107.1689    10.4581    11.3302
   50.0000   110.1948    10.2385    11.2397
   50.5000   111.0944    10.2361    11.0030
   51.0000   111.0717    10.1623    10.5384
   51.5000   111.3624    10.1599    10.2623
   52.0000   113.7750    10.1576    10.1883
   52.5000   117.1053    10.1552    10.1959
   53.0000   118.3048    10.1528    10.2552
   53.5000   116.4601    10.1505    10.2527
   54.0000   114.9198    10.1481    10.2503
   54.5000   113.0751    10.1457    10.2480
   55.0000   110.9260    10.1434    10.2456
   55.5000   107.5593    10.0703    10.1717
   56.0000   105.1058     9.9977    10.1820
   56.5000   107.8273     9.9954    10.2384
   57.0000   112.0709     9.9931    10.2359
   57.5000   116.0100     9.9907    10.2335
   58.0000   117.2141     9.9187    10.2307
   58.5000   114.7560     9.9164    10.2284
   59.0000   112.9113     9.8450    10.2260
   59.5000   112.5887     9.7740    10.2236
   60.0000   114.0925     9.6359    10.1499
   60.5000   118.3361     9.6337    10.0767
   61.0000   120.7578     9.5643    10.0040
   61.5000   120.7350     9.4953     9.9319
   62.0000   120.7168     9.3612     9.7914
   62.5000   121.0031     9.2289     9.7891
   63.0000   121.5982     9.0985    10.0649
   63.5000   120.9666     8.9074    10.5682
   64.0000   118.5131     8.7815    11.3323
   64.5000   117.5817     8.6574    12.4969
   65.0000   118.1768     8.5351    13.2141
   65.5000   119.3718     8.3558    12.8460
   66.0000   120.5758     8.1803    11.8907
   66.5000   121.7752     8.0647    10.7023
   67.0000   122.0614     7.8953     9.7004
   67.5000   121.7342     7.8384     8.4898
   68.0000   120.4984     7.8921     7.7491
   68.5000   121.6978     7.8898     7.7473
   69.0000   125.6370     7.9438     8.1919
   69.5000   127.4460     7.9415     8.6620
   70.0000   124.9918     7.9954     8.7213
   70.5000   120.4074     8.5133     8.9039
   71.0000   111.8656     8.8144     9.0909
   71.5000   103.0194     9.0630     9.2170
   72.0000   103.0012     9.3176     9.4105
   72.5000   105.7227     9.5131     9.5410
   73.0000   106.9224     9.5783     9.6064
   73.5000   105.0774     9.6433     9.7391
   74.0000   101.4063     9.5732     9.8058
   74.5000    99.5616     9.5042     9.8029
   75.0000   101.6743     9.3700     9.8007
   75.5000   106.5388     9.3024     9.7300
   76.0000   111.1152     9.3003     9.6598
   76.5000   115.3668     9.3639     9.6576
   77.0000   120.2029     9.4275     9.6553
   77.5000   121.0658     9.5576     9.6531
   78.0000   119.7565     9.5554     9.6508
   78.5000   114.5794     9.6208     9.6486
   79.0000   112.7266     9.6180     9.7824
   79.5000   111.8600     9.6158     9.9187
   80.0000   114.0944     9.6135    10.1269
   80.5000   116.0859     9.5443    10.1957
   81.0000   115.4094     9.5420    10.1927
   81.5000   113.9178     9.5398    10.1904
   82.0000   113.5960     9.4711     9.9762
   82.5000   114.7909     9.4028     9.6306
   83.0000   115.0816     9.2700     9.4281
   83.5000   114.1456     9.2678     9.3602
   84.0000   111.6921     9.2656     9.3543
   84.5000   110.7607     9.1994     9.3194
   85.0000   110.4426     9.2619     9.2883
   85.5000   111.3376     9.2592     9.3520
   86.0000   113.7502     9.2570     9.3493
   86.5000   114.9542     9.2548     9.3471
   87.0000   115.5183     9.3831     9.3449
   87.5000   114.2511     9.5800     9.2775
   88.0000   112.3757     9.7810     9.1463
   88.5000   114.1589     9.7787     9.0809
   89.0000   115.9420     9.7764     9.1426
   89.5000   117.1270     9.5710     9.2689
   90.0000   116.7645     9.3046     9.3324
   90.5000   112.1452     9.2376     9.5278
   91.0000   111.8057     9.1710     9.7278
   91.5000   116.6261     9.1050     9.8633
   92.0000   120.5434     9.0393     9.8604
   92.5000   120.1924     9.0372     9.8581
   93.0000   118.9268     8.9721     9.8558
   93.5000   117.3563     8.9700     9.7848
   94.0000   116.3955     8.9679     9.7142
   94.5000   116.3494     8.9658     9.5100
   95.0000   120.5716     8.9012     9.2451
   95.5000   126.9279     8.8992     8.9876
   96.0000   129.0159     8.8350     8.7987
   96.5000   128.0552     8.7714     8.7966
