~VERSION INFORMATION
 VERS.                2.0:   CWLS LOG ASCII STANDARD - VERSION 2.0
 WRAP.                 NO:   ONE LINE PER DEPTH STEP
~WELL INFORMATION
#MNEM.UNIT      DATA TYPE    INFORMATION
#----------   ------------   ------------------------------
 STRT.F           19.5000:   START DEPTH
 STOP.F         1292.5000:   STOP DEPTH
 STEP.F            0.5000:   STEP LENGTH
 NULL.          -999.2500:   NO VALUE
 COMP. FENIX & SCISSON INC:   COMPANY
 WELL.  NPR-3 "SX" #74-14:   WELL
 FLD .             TEAPOT:   FIELD
 LOC .      S14 T38N R78W:   LOCATION
 CNTY.            NATRONA:   COUNTY
 STAT.            WYOMING:   STATE
 CTRY. UNITED STATES OF AMERICA:   COUNTRY
 SRVC.            Unknown:   SERVICE COMPANY
 DATE.        22-MAR-1978:   LOGDATE
 API .       490251060300:   API NUMBER
~CURVE INFORMATION
#MNEM.UNIT       API CODE    CURVE DESCRIPTION
#----------   ------------   ------------------------------
 DEPT.F                  :   
 SPR .MV     05 010 01 00:   SPONTANEOUS POTENTIAL
 SN  .OHMM   05 040 16 00:   SHORT NORMAL 16'
 ILD .OHMM   05 120 46 00:   INDUCTION LOG DEEP
 CALD.IN     45 280 60 00:   CALIPER
 GRD .GAPI   45 310 01 00:   GAMMA RAY FROM DENSITY LOG
 CORR.G/C3   45 356 01 00:   DENSITY CORRECTION
 RHOB.G/C3   45 350 01 00:   BULK DENSITY
 DPHI.DEC    45 890 12 00:   DENSITY POROSITY SANDSTONE
~PARAMETER INFORMATION
#MNEM.UNIT          VALUE    DESCRIPTION
#----------   ------------   ------------------------------
 PD  .                 GL:   PERMANENT DATUM
 EPD .F              5312:   ELEVATION PERMANENT DATUM
 LMF .                 KB:   LOG MEASURED FROM
 DMF .                 KB:   DRILLING MEASURED FROM
 EKB .F              5316:   KELLING BUSHING
 EGL .F              5312:   GROUND LEVEL
 DATE.          3-22-1978:   RUN DATE
 RUN .                  1:   RUN NUMBER
 DD  .F              1280:   DEPTH DRILLER
 DL  .F              1292:   DEPTH LOGGER
 BLI .F              1286:   BOTTOM LOG INTERVAL
 TLI .F                50:   TOP LOG INTERVAL
 CS  .IN            8.625:   CASING SIZE
 CBD .F                50:   CASING BOTTOM DRILLER
 CBL .F                50:   CASING BOTTOM LOGGER
 BS  .IN            7.875:   BIT SIZE
 BSD .F              1280:   BIT SIZE AT DEPTH
 DFT .                KCL:   DRILLING FLUID TYPE
 DFD .                8.6:   DRILLING FLUID DENSITY
 DFV .                 31:   DRILLING FLUID VISCOSITY
 DFPH.               10.5:   DRILLING FLUID PH
 DFL .               11.6:   DRILLING FLUID LOSS
 MSS .            MUD PIT:   MUD SAMPLE SOURCE
 RMS .OHMM            .38:   RESISTIVITY MUD SAMPLE
 MST .F                52:   MUD SAMPLE TEMPERATURE
 RMF .OHMM            .32:   RESISTIVITY MUD FILTRATE SAMPLE
 MFST.F                66:   MUD FILTRATE SAMPLE TEMPERATURE
 RMC .OHMM             .4:   RESISTIVITY MUD CAKE
 MCST.F                68:   MUD CAKE SAMPLE TEMPERATURE
 MFSS.           MEASURED:   MUD FILTRATE SAMPLE SOURCE
 RMB .OHMM            .24:   RESISTIVITY MUD AT BHT
 BHT .F                82:   BOTTOM HOLE TEMPERATURE
 TCS .HRS               4:   TIME CURCULATED STOPPED
 MRT .F                82:   MAXIMUM RECORDED TEMPERATURE
 LUN .               2958:   LOGGING UNIT NUMBER
 LUL .               CASP:   LOGGING UNIT LOCATION
 ENGI.            POINTER:   RECORDING ENGINEER
 WITN.           MCGINLEY:   WITNESSED BY
 CLNT.            A2DTECH:   CLIENT CODE
 ORIG.        2" 5" PRINT:   ORIGIN OF DATA
 UWI .       490251060300:   UNIQUE WELL ID
 DICO. A2D Technologies, Inc.:   DIGITIZING COMPANY
~OTHER INFORMATION
~A   DEPT      SPR         SN        ILD       CALD         GRD      CORR       RHOB       DPHI   
# ...
  384.0000   -53.5213     5.9616     5.7865     8.1852    89.4842     0.0120     2.4152     0.1259
  384.5000   -53.4868     6.0833     5.8917     8.1851    90.4603     0.0129     2.4207     0.1198
  385.0000   -53.4884     6.2153     6.0201     8.1850    89.3380     0.0138     2.4261     0.1181
  385.5000   -53.7597     6.3502     6.1513     8.1849    86.4259     0.0147     2.4302     0.1192
  386.0000   -54.1999     6.4330     6.2581     8.1848    88.1187     0.0156     2.4269     0.1216
  386.5000   -54.4404     6.4160     6.2444     8.1847    89.8795     0.0165     2.4245     0.1231
  387.0000   -54.3232     6.4025     6.2304     8.1846    90.8558     0.0174     2.4227     0.1243
  387.5000   -53.8324     6.3888     6.2172     8.1845    92.4666     0.0183     2.4206     0.1253
  388.0000   -53.2303     6.3752     6.2040     8.1844    94.6658     0.0192     2.4142     0.1263
  388.5000   -53.0910     6.3617     6.1908     8.1843    98.0852     0.0195     2.4104     0.1266
  389.0000   -53.0863     6.3481     6.1777     8.1842    98.5932     0.0165     2.4150     0.1254
  389.5000   -53.0871     6.3343     6.1647     8.1840    97.6416     0.0135     2.4159     0.1260
  390.0000   -53.0877     6.3175     6.1452     8.1840    93.0661     0.0121     2.4153     0.1301
  390.5000   -53.0882     6.4029     6.1917     8.1838    87.0227     0.0123     2.4107     0.1279
  391.0000   -53.0890     6.5277     6.2864     8.1837    85.0093     0.0125     2.4144     0.1250
  391.5000   -53.0825     6.6549     6.3826     8.1836    81.2606     0.0127     2.4198     0.1217
  392.0000   -52.9269     6.7847     6.4805     8.1835    88.0639     0.0129     2.4258     0.1194
  392.5000   -52.2720     6.9170     6.5799     8.1834    86.6537     0.0131     2.4209     0.1285
  393.0000   -52.4289     6.9915     6.6807     8.1833    84.4534     0.0133     2.4155     0.1285
  393.5000   -53.2774     6.9945     6.7832     8.1832    85.1078     0.0135     2.4152     0.1300
  394.0000   -53.2911     6.9990     6.8243     8.1831    93.2949     0.0137     2.4117     0.1308
  394.5000   -53.1210     7.0036     6.8526     8.1830    97.8604     0.0139     2.4046     0.1304
  395.0000   -52.8476     7.0082     6.8638     8.1829    98.1406     0.0154     2.4098     0.1289
  395.5000   -52.3449     7.0127     6.8638     8.1828    98.8727     0.0190     2.4098     0.1233
  396.0000   -51.5539     7.0173     6.8638     8.1827    96.9206     0.0214     2.4181     0.1165
  396.5000   -52.9439     7.0219     6.8638     8.1826    90.1430     0.0173     2.4306     0.1189
  397.0000   -53.7518     7.0265     6.8638     8.1825    87.9303     0.0146     2.4301     0.1226
  397.5000   -54.3197     7.0310     6.8638     8.1824    87.9392     0.0193     2.4283     0.1274
  398.0000   -54.3978     7.0356     6.8638     8.1823    88.5160     0.0239     2.4192     0.1250
  398.5000   -54.4161     7.0402     6.8638     8.1822    89.7892     0.0275     2.4193     0.1240
  399.0000   -53.9279     7.0447     6.8639     8.1821    88.7075     0.0241     2.4214     0.1235
  399.5000   -53.4173     7.0493     6.8639     8.1819    88.1273     0.0206     2.4204     0.1212
  400.0000   -53.4888     7.0563     6.8634     8.1819    88.1163     0.0171     2.4204     0.1225
  400.5000   -53.6100     7.0092     6.8646     8.1817    88.9586     0.0140     2.4221     0.1293
  401.0000   -53.4643     6.9151     6.7453     8.1816    92.0562     0.0140     2.4093     0.1350
  401.5000   -53.3201     6.8222     6.6544     8.1815    96.3799     0.0140     2.4031     0.1380
  402.0000   -53.1738     6.7306     6.5649     8.1814    94.6258     0.0139     2.3989     0.1385
  402.5000   -53.0263     6.6386     6.4767     8.1813    87.8834     0.0168     2.3986     0.1379
  403.0000   -52.8850     6.4963     6.3897     8.1812    86.1314     0.0215     2.3999     0.1355
  403.5000   -53.0461     6.5149     6.3173     8.1811    86.6693     0.0281     2.4012     0.1314
  404.0000   -53.2302     6.5432     6.4070     8.1810    87.2890     0.0349     2.4113     0.1216
  404.5000   -53.4182     6.6729     6.4953     8.1809    87.4553     0.0302     2.4331     0.1156
  405.0000   -53.4664     6.8696     6.5849     8.1808    87.6219     0.0211     2.4359     0.1214
  405.5000   -53.4374     6.9915     6.6766     8.1807    88.2742     0.0122     2.4303     0.1277
  406.0000   -53.4076     7.0016     6.6891     8.1806    90.5423     0.0119     2.4198     0.1249
  406.5000   -53.3776     7.0144     6.7019     8.1805    89.2850     0.0120     2.4170     0.1296
  407.0000   -53.3472     7.0272     6.7146     8.1804    86.3583     0.0151     2.4136     0.1311
  407.5000   -53.3154     7.0401     6.7274     8.1803    78.6468     0.0207     2.4099     0.1282
  408.0000   -53.2954     7.0565     6.7611     8.1802    78.7026     0.0209     2.4148     0.1239
  408.5000   -53.6346     7.0558     6.9266     8.1801    78.7885     0.0217     2.4203     0.1191
  409.0000   -53.9972     7.1799     7.0961     8.1800    78.1464     0.0262     2.4259     0.1159
  409.5000   -54.2918     7.3151     7.2698     8.1798    77.6205     0.0268     2.4308     0.1134
  410.0000   -54.3729     7.4530     7.5371     8.1798    79.2040     0.0275     2.4427     0.1112
  410.5000   -53.9832     7.5934     7.8531     8.1796    82.0607     0.0297     2.4466     0.1090
  411.0000   -53.6137     7.6668     8.1028     8.1795    84.4691     0.0358     2.4460     0.1059
  411.5000   -53.2867     7.6479     8.0462     8.1794    84.0061     0.0342     2.4547     0.0986
  412.0000   -53.1185     7.6305     7.9631     8.1793    83.4120     0.0206     2.4594     0.1068
  412.5000   -52.9365     7.6131     7.8810     8.1792    86.3576     0.0109     2.4442     0.1190
  413.0000   -52.7533     7.5964     7.7997     8.1791    85.3240     0.0104     2.4326     0.1251
  413.5000   -52.5710     7.3831     7.7166     8.1790    83.3951     0.0109     2.4254     0.1277
  414.0000   -52.3891     7.1876     7.6258     8.1789    83.0316     0.0115     2.4188     0.1283
  414.5000   -52.3163     7.2101     7.5361     8.1788    84.3609     0.0121     2.4162     0.1284
  415.0000   -52.3680     7.2542     7.4475     8.1787    84.6294     0.0127     2.4147     0.1285
  415.5000   -52.4192     7.1893     7.3599     8.1786    84.7264     0.0133     2.4147     0.1283
  416.0000   -52.4718     7.0271     7.2730     8.1785    86.1852     0.0138     2.4147     0.1280
  416.5000   -52.4898     6.9864     7.2425     8.1784    88.2247     0.0144     2.4147     0.1277
  417.0000   -52.4901     6.9774     7.2279     8.1783    88.4258     0.0150     2.4149     0.1274
  417.5000   -52.4904     6.9684     7.2134     8.1776    89.8754     0.0156     2.4163     0.1265
  418.0000   -52.4884     6.9595     7.1988     8.1761    90.1542     0.0162     2.4177     0.1238
  418.5000   -52.4344     6.9506     7.1842     8.1747    90.3982     0.0168     2.4193     0.1208
  419.0000   -52.3797     6.9416     7.1697     8.1732    90.6498     0.0173     2.4226     0.1226
  419.5000   -52.3274     6.9327     7.1552     8.1717    90.5891     0.0179     2.4266     0.1244
  420.0000   -52.5075     6.9238     7.1407     8.1702    90.2091     0.0185     2.4223     0.1232
  420.5000   -53.0928     6.9149     7.1262     8.1687    89.3498     0.0191     2.4190     0.1198
  421.0000   -53.6667     6.9060     7.1118     8.1673    91.2105     0.0196     2.4256     0.1174
  421.5000   -53.8228     6.8971     7.0973     8.1658    94.6823     0.0199     2.4316     0.1186
  422.0000   -53.5758     6.8883     7.0830     8.1643    91.6401     0.0196     2.4330     0.1169
  422.5000   -53.0197     6.8794     7.0686     8.1629    92.9993     0.0194     2.4342     0.1146
  423.0000   -52.8320     6.8706     7.0543     8.1614    94.7351     0.0192     2.4355     0.1157
  423.5000   -52.7407     6.8607     7.0400     8.1599    91.8602     0.0190     2.4341     0.1168
  424.0000   -52.5336     6.8468     7.0257     8.1584    90.1330     0.0188     2.4320     0.1195
