~VERSION INFORMATION
 VERS.                2.0:   CWLS LOG ASCII STANDARD - VERSION 2.0
 WRAP.                 NO:   ONE LINE PER DEPTH STEP
~WELL INFORMATION
#MNEM.UNIT      DATA TYPE    INFORMATION
#----------   ------------   ------------------------------
 STRT.F            0.5000:   START DEPTH
 STOP.F          696.0000:   STOP DEPTH
 STEP.F            0.5000:   STEP LENGTH
 NULL.          -999.2500:   NO VALUE
 COMP. LAWRENCE/ALLISON INC:   COMPANY
 WELL. SX 11 WP #26-44-11:   WELL
 FLD .             TEAPOT:   FIELD
 LOC .      S11 T38N R78W:   LOCATION
 CNTY.            NATRONA:   COUNTY
 STAT.            WYOMING:   STATE
 CTRY. UNITED STATES OF AMERICA:   COUNTRY
 SRVC.      Dresser Atlas:   SERVICE COMPANY
 DATE.        08-SEP-1984:   LOGDATE
 API .       490251097600:   API NUMBER
~CURVE INFORMATION
#MNEM.UNIT       API CODE    CURVE DESCRIPTION
#----------   ------------   ------------------------------
 DEPT.F                  :   
 AC  .US/F   60 520 00 00:   ACCOUSTIC
 SPR .MV     07 010 01 00:   SPONTANEOUS POTENTIAL FROM RES.
 RILD.OHMM   07 120 46 00:   RESISTIVITY INDUCTION LOG DEEP
 RILM.OHMM   07 120 44 00:   RESISTIVITY INDUCTION LOG MEDIUM
 RFOC.OHMM   07 220 04 00:   RESISTIVITY FOCUSED LOG
 GRR .GAPI   07 310 01 00:   GAMMA RAY FROM RESISTIVITY
 CALD.IN     45 280 60 00:   CALIPER FROM DENSITY LOG
 DEN .G/C3   45 350 01 00:   COMPENSATED BULK DENSTIY
 CORR.G/C3   45 356 01 00:   DENSITY CORRECTION
 PORD.DEC    45 890 12 00:   POROSITY DENSITY SANDSTONE
 CNC .DEC    42 890 03 00:   NEUTRON POROSITY SANDSTONE
~PARAMETER INFORMATION
#MNEM.UNIT          VALUE    DESCRIPTION
#----------   ------------   ------------------------------
 PD  .                 GL:   PERMANENT DATUM
 EPD .F              5186:   ELEVATION PERMANENT DATUM
 LMF .                 GL:   LOG MEASURED FROM
 DMF .                 GL:   DRILLING MEASURED FROM
 EGL .F              5186:   GROUND LEVEL
 DATE.         8-SEP-1984:   RUN DATE
 RUN .                  1:   RUN NUMBER
 DD  .F               712:   DEPTH DRILLER
 DL  .F               695:   DEPTH LOGGER
 BLI .F               693:   BOTTOM LOG INTERVAL
 CS  .IN            8.625:   CASING SIZE
 CBD .F                40:   CASING BOTTOM DRILLER
 CBL .F                45:   CASING BOTTOM LOGGER
 BS  .IN            7.875:   BIT SIZE
 BSD .F               712:   BIT SIZE AT DEPTH
 DFT .          KCL WATER:   DRILLING FLUID TYPE
 MSS .           FLOWLINE:   MUD SAMPLE SOURCE
 RMS .OHMM            .22:   RESISTIVITY MUD SAMPLE
 MST .F                72:   MUD SAMPLE TEMPERATURE
 RMF .OHMM            .17:   RESISTIVITY MUD FILTRATE SAMPLE
 MFST.F                72:   MUD FILTRATE SAMPLE TEMPERATURE
 RMC .OHMM            .28:   RESISTIVITY MUD CAKE
 MCST.F                72:   MUD CAKE SAMPLE TEMPERATURE
 MFSS.               CALC:   MUD FILTRATE SAMPLE SOURCE
 MCSS.               CALC:   MUD CAKE SAMPLE SOURCE
 RMB .OHMM            .18:   RESISTIVITY MUD AT BHT
 BHT .F                90:   BOTTOM HOLE TEMPERATURE
 TCS .HRS               3:   TIME CURCULATED STOPPED
 MRT .F                90:   MAXIMUM RECORDED TEMPERATURE
 LUN .               6274:   LOGGING UNIT NUMBER
 LUL .               GLTE:   LOGGING UNIT LOCATION
 ENGI.             RAUTIO:   RECORDING ENGINEER
 WITN.           JENNINGS:   WITNESSED BY
 CLNT.            A2DTECH:   CLIENT CODE
 ORIG. 1", 2', 2.5", 5" PRNT:   ORIGIN OF DATA
 UWI .       490251097600:   UNIQUE WELL ID
 DICO. A2D Technologies, Inc.:   DIGITIZING COMPANY
~OTHER INFORMATION
~A    DEPT      AC        SPR       RILD       RILM       RFOC         GRR      CALD        DEN       CORR       PORD        CNC   
# ...
  366.5000   102.0020    -9.2330     7.6980     7.8970     8.2270    95.8483     7.9000     2.4760     0.0140     0.1220     0.2849
  367.0000   101.8530    -9.0240     7.7640     8.0260     8.3480    94.3926     7.8980     2.4820     0.0130     0.1190     0.2997
  367.5000   101.6820    -9.2260     7.8150     8.1560     8.4700    92.3443     7.8960     2.4880     0.0120     0.1150     0.3024
  368.0000   101.4680    -9.4250     7.8670     8.2470     8.5540    90.2960     7.8950     2.4900     0.0150     0.1130     0.3100
  368.5000   101.2550    -9.6010     7.9180     8.2730     8.5740    88.8360     7.8930     2.4900     0.0240     0.1130     0.3074
  369.0000   101.0600    -9.6070     7.9690     8.2980     8.5940    87.9729     7.8920     2.4900     0.0320     0.1130     0.3046
  369.5000   100.8650    -9.4480     8.0210     8.3240     8.6150    90.6740     7.8900     2.4900     0.0240     0.1130     0.2965
  370.0000   100.6700    -9.2290     8.0720     8.3500     8.6350    93.9590     7.8880     2.4920     0.0210     0.1130     0.2839
  370.5000   100.4750    -9.0100     8.1240     8.3750     8.6550    93.3922     7.8870     2.4990     0.0240     0.1120     0.2873
  371.0000   100.2810    -8.7910     8.1750     8.4010     8.6750    92.5248     7.8850     2.4980     0.0270     0.1100     0.2952
  371.5000   100.0860    -8.5750     8.2380     8.4270     8.6960    91.6617     7.8830     2.4970     0.0270     0.1090     0.3038
  372.0000    99.8910    -8.4710     8.2230     8.4650     8.7160    92.5850     7.8820     2.4970     0.0200     0.1090     0.2979
  372.5000    99.6960    -8.6920     8.1990     8.4530     8.7360    93.7959     7.8800     2.4980     0.0140     0.1100     0.2852
  373.0000    99.4620    -8.9050     8.1740     8.4140     8.7570    94.1180     7.8780     2.4980     0.0090     0.1110     0.2722
  373.5000    99.4620    -9.1160     8.1500     8.3760     8.7850    92.9586     7.8770     2.4880     0.0060     0.1180     0.2744
  374.0000    99.4620    -9.3280     8.1260     8.3370     8.7730    90.9146     7.8750     2.4780     0.0030     0.1250     0.2960
  374.5000    99.4620    -9.5400     8.1010     8.3030     8.7410    90.0429     7.8730     2.4680    -0.0060     0.1280     0.3010
  375.0000    99.8110    -9.7530     8.0770     8.2760     8.7100    92.7440     7.8720     2.4670    -0.0160     0.1260     0.3005
  375.5000   100.1590    -9.9660     8.0520     8.2490     8.6780    96.3253     7.8750     2.4720    -0.0100     0.1240     0.2949
  376.0000   100.5080   -10.1880     8.0280     8.2220     8.6470    99.9066     7.8810     2.4730     0.0040     0.1230     0.2904
  376.5000   100.8570   -10.3150     7.9790     8.1950     8.6150    96.6775     7.8870     2.4720     0.0170     0.1240     0.2989
  377.0000   101.1060   -10.4440     7.8920     8.1680     8.5840    95.2132     7.8900     2.4720     0.0310     0.1240     0.2924
  377.5000   101.3550   -10.5700     7.8060     8.1410     8.5520    94.9470     7.8880     2.4770     0.0320     0.1210     0.2751
  378.0000   101.4210   -10.6900     7.7200     8.1140     8.4630    96.1622     7.8850     2.4830     0.0270     0.1170     0.2692
  378.5000   101.3660   -10.6610     7.6340     8.0880     8.3600    93.2251     7.8830     2.4870     0.0200     0.1150     0.2975
  379.0000   101.3100   -11.0460     7.5480     7.9790     8.2580    89.6996     7.8810     2.4830     0.0120     0.1180     0.3054
  379.5000   101.2550   -11.4620     7.4620     7.8720     8.1550    87.9476     7.8780     2.4760     0.0050     0.1240     0.3234
  380.0000   101.5160   -11.8790     7.3770     7.7650     8.0520    87.0802     7.8760     2.4700     0.0000     0.1260     0.3173
  380.5000   101.9520   -12.2930     7.0590     7.4890     7.8450    88.5918     7.8730     2.4680     0.0070     0.1270     0.3123
  381.0000   102.3880   -12.7080     6.7480     7.1110     7.5720    90.6916     7.8710     2.4670     0.0150     0.1290     0.3135
  381.5000   103.1750   -13.1230     6.4360     6.7330     7.3000    91.9069     7.8710     2.4600     0.0130     0.1340     0.3217
  382.0000   104.4880   -13.5380     6.1380     6.3540     7.0280    92.8216     7.8710     2.4520     0.0070     0.1380     0.3664
  382.5000   105.8000   -13.9520     5.5310     5.9280     6.6730    93.4399     7.8710     2.4480     0.0020     0.1410     0.3807
  383.0000   107.1130   -14.4770     4.9410     5.4380     6.3010    94.3546     7.8710     2.4390     0.0060     0.1450     0.3797
  383.5000   108.4260   -15.1120     4.3500     4.9470     5.9290    95.5656     7.8710     2.4240     0.0100     0.1550     0.3680
  384.0000   109.8210   -15.7460     3.8490     4.4570     5.5570    96.4846     7.8710     2.4070     0.0070     0.1690     0.3661
  384.5000   111.7130   -16.3800     3.3980     3.9660     5.1260    95.6129     7.8760     2.3760     0.0090     0.1790     0.3657
  385.0000   113.6060   -17.0140     2.9480     3.4760     4.6180    94.7583     7.8810     2.3450     0.0200     0.2060     0.3657
  385.5000   117.4300   -17.6480     2.5170     2.9860     4.1100    93.2984     7.8860     2.2950     0.0320     0.2280     0.3656
  386.0000   119.9800   -18.2830     2.3890     2.5170     3.6030    91.8513     7.8920     2.2650     0.0440     0.2490     0.3659
  386.5000   129.5420   -18.9350     2.2750     2.4060     3.0950    90.9839     7.8970     2.2510     0.0480     0.2600     0.3658
  387.0000   130.5380   -19.0930     2.2750     2.3600     2.9150    90.7090     7.9020     2.2780     0.0400     0.2400     0.3642
  387.5000   129.3430   -18.9640     2.3190     2.4870     3.3260    89.8502     7.9070     2.3230     0.0280     0.2080     0.3605
  388.0000   126.0700   -18.4240     2.4120     2.7590     3.8110    91.0655     7.9110     2.3590     0.0290     0.1960     0.3444
  388.5000   122.7970   -17.8980     2.8070     3.2440     4.1950    93.7623     7.9110     2.3820     0.0320     0.1830     0.3284
  389.0000   120.1790   -17.3730     3.2530     3.7290     4.2840    94.6769     7.9110     2.4120     0.0280     0.1660     0.3104
  389.5000   115.9960   -16.8470     3.7000     4.2140     4.3690    93.5175     7.9110     2.4420     0.0210     0.1440     0.2944
  390.0000   112.5100   -16.3180     4.1470     4.6990     5.5950    93.8396     7.9110     2.4580     0.0020     0.1340     0.2879
  390.5000   109.0240   -15.7700     4.5940     5.1840     6.7550    97.1247     7.9110     2.4590    -0.0170     0.1320     0.2937
  391.0000   107.0320   -15.6240     5.0720     5.4550     7.4450   101.8955     7.9110     2.4550    -0.0300     0.1340     0.2964
  391.5000   106.2850   -15.4940     5.5880     5.7640     7.0880   105.7731     7.9110     2.4510    -0.0280     0.1380     0.2891
  392.0000   106.0360   -15.3650     5.9400     6.0730     6.8060   104.3174     7.9110     2.4490    -0.0190     0.1390     0.2817
  392.5000   106.7830   -15.2350     6.1070     6.3810     6.5230   101.0797     7.9090     2.4490    -0.0110     0.1390     0.2768
  393.0000   106.8940   -15.1040     6.2520     6.6680     6.4860   102.5912     7.9060     2.4510    -0.0150     0.1380     0.2848
  393.5000   106.6640   -14.9750     6.2520     6.7920     6.7920   105.2880     7.9040     2.4530    -0.0210     0.1360     0.2943
  394.0000   106.4340   -14.8470     5.9490     6.5730     7.0320   102.9434     7.9020     2.4540    -0.0240     0.1350     0.3016
  394.5000   106.2040   -14.7840     5.6660     6.2490     7.2720   100.8908     7.9000     2.4520    -0.0170     0.1370     0.3160
  395.0000   105.9750   -14.9130     5.3840     5.9260     7.4450   100.6203     7.8980     2.4390     0.0070     0.1460     0.3353
  395.5000   106.5840   -15.0370     5.1010     5.6020     6.8180   102.1319     7.8960     2.4140     0.0310     0.1610     0.3479
  396.0000   108.4510   -15.1590     4.8180     5.2780     5.7760   105.4212     7.8940     2.3910     0.0300     0.1740     0.3524
  396.5000   110.3190   -15.2830     4.6160     4.9540     4.6160   103.3729     7.8910     2.4040     0.0250     0.1680     0.3493
