~VERSION INFORMATION
 VERS.                2.0:   CWLS LOG ASCII STANDARD - VERSION 2.0
 WRAP.                 NO:   ONE LINE PER DEPTH STEP
~WELL INFORMATION
#MNEM.UNIT      DATA TYPE    INFORMATION
#----------   ------------   ------------------------------
 STRT.F            0.0000:   START DEPTH
 STOP.F          612.5000:   STOP DEPTH
 STEP.F            0.5000:   STEP LENGTH
 NULL.          -999.2500:   NO VALUE
 COMP.   FLUOR DANIEL INC:   COMPANY
 WELL. NAVAL PETROLEUM RESERVE 3 SX-3 82 #2-3:   WELL
 FLD .             TEAPOT:   FIELD
 LOC .       S3 T38N R78W:   LOCATION
 CNTY.            NATRONA:   COUNTY
 STAT.            WYOMING:   STATE
 CTRY. UNITED STATES OF AMERICA:   COUNTRY
 SRVC.      Western Atlas:   SERVICE COMPANY
 DATE.        28-JUL-1995:   LOGDATE
 API .       490252274000:   API NUMBER
~CURVE INFORMATION
#MNEM.UNIT       API CODE    CURVE DESCRIPTION
#----------   ------------   ------------------------------
 DEPT.F                  :   
 GRR .GAPI   07 310 01 00:   GAMMA RAY FROM RES. LOG.
 RILD.OHMM   07 120 46 00:   INDUCTION LOG DEEP RESISTIVITY
 RILM.OHMM   07 120 44 00:   INDUCTION LOG MEDIUM RESISTIVITY
~PARAMETER INFORMATION
#MNEM.UNIT          VALUE    DESCRIPTION
#----------   ------------   ------------------------------
 PD  .                 GL:   PERMANENT DATUM
 EPD .F              5123:   ELEVATION PERMANENT DATUM
 LMF .                 KB:   LOG MEASURED FROM
 DAPD.F                10:   FEET ABOVE PERMANENT DATUM
 DMF .                 KB:   DRILLING MEASURED FROM
 EKB .F              5133:   KELLING BUSHING
 EDF .F              5132:   DRILLING FLOOR
 EGL .F              5123:   GROUND LEVEL
 DATE.            7-28-95:   RUN DATE
 RUN .                  1:   RUN NUMBER
 DD  .F               620:   DEPTH DRILLER
 DL  .F               620:   DEPTH LOGGER
 BLI .F               612:   BOTTOM LOG INTERVAL
 TLI .F                54:   TOP LOG INTERVAL
 CS  .IN            9.625:   CASING SIZE
 CBD .F                53:   CASING BOTTOM DRILLER
 CBL .F                54:   CASING BOTTOM LOGGER
 BS  .IN             8.75:   BIT SIZE
 BSD .F               620:   BIT SIZE AT DEPTH
 DFT .                AIR:   DRILLING FLUID TYPE
 BHT .F                91:   BOTTOM HOLE TEMPERATURE
 MRT .F                91:   MAXIMUM RECORDED TEMPERATURE
 LUN .            HL 6530:   LOGGING UNIT NUMBER
 LUL .             CASPER:   LOGGING UNIT LOCATION
 ENGI.          RASMUSSEN:   RECORDING ENGINEER
 WITN.              HARDY:   WITNESSED BY
 CLNT.            A2DTECH:   CLIENT CODE
 ORIG.       2", 5" PRINT:   ORIGIN OF DATA
 UWI .       490252274000:   UNIQUE WELL ID
 DICO. A2D Technologies, Inc.:   DIGITIZING COMPANY
~OTHER INFORMATION
~A    DEPT      GRR      RILD       RILM   
# ...
  364.0000   136.3142     6.6535     6.8489
  364.5000   137.9539     6.6381     6.8036
  365.0000   137.0940     6.6365     6.7622
  365.5000   136.3377     6.7161     6.9084
  366.0000   136.3481     6.7643     6.9800
  366.5000   136.3452     6.8147     7.0524
  367.0000   136.3452     6.8655     7.1255
  367.5000   136.3489     6.9167     7.2602
  368.0000   136.3587     7.0165     7.4884
  368.5000   136.3196     7.1723     7.7238
  369.0000   134.8230     7.4634     7.9842
  369.5000   131.1079     7.7664     8.3358
  370.0000   127.4018     8.0612     8.7304
  370.5000   123.7599     8.3613     9.1756
  371.0000   121.6350     8.2084     8.9354
  371.5000   120.7909     7.5813     8.5272
  372.0000   121.6606     6.9731     7.6243
  372.5000   125.5552     6.4132     6.4673
  373.0000   131.9770     5.8862     5.5141
  373.5000   141.8447     5.7803     5.1268
  374.0000   151.5601     5.7803     5.3053
  374.5000   157.4572     5.8535     5.7726
  375.0000   153.8476     5.9563     6.2809
  375.5000   144.1054     6.0609     6.8760
  376.0000   134.4818     6.1661     7.5275
  376.5000   128.4054     6.9616     8.2407
  377.0000   127.6552     7.8486     9.0020
  377.5000   126.8441     8.6452     9.5303
  378.0000   126.4536     9.5172    10.0562
  378.5000   126.6599     9.5145    10.0054
  379.0000   124.9574     9.4925     9.9566
  379.5000   122.5408     9.4637     9.9081
  380.0000   123.1074     9.4271     9.8723
  380.5000   125.3487     9.6735    10.2505
  381.0000   126.7162    10.2276    10.6993
  381.5000   126.0206    11.1338    11.1307
  382.0000   122.0355    11.1256    12.2848
  382.5000   116.6759    12.2729    13.6008
  383.0000   105.6341    13.4225    15.0578
  383.5000    88.8917    14.8173    16.6709
  384.0000    75.2118    15.9663    18.4568
  384.5000    69.5910    17.2062    19.3150
  385.0000    72.4175    18.5423    19.7527
  385.5000    77.4437    20.0925    20.2003
  386.0000    80.3147    20.3826    20.6581
  386.5000    84.2791    20.7005    21.1263
  387.0000    88.1613    21.0505    21.6321
  387.5000    90.0986    21.7552    22.2522
  388.0000    88.8911    22.7144    23.0406
  388.5000    84.4728    23.7181    24.0209
  389.0000    79.9874    24.5666    25.2562
  389.5000    75.4471    25.6543    26.3827
  390.0000    74.4736    26.7903    27.5587
  390.5000    75.1000    27.7533    28.5539
  391.0000    77.4422    28.1641    28.9403
  391.5000    80.5453    28.3912    29.1856
  392.0000    83.6870    28.6288    29.4340
  392.5000    81.9014    29.1202    29.9351
  393.0000    79.4013    29.6054    30.4365
  393.5000    76.9789    30.0547    31.1533
  394.0000    75.3192    30.2701    31.6935
  394.5000    73.3134    30.5333    32.2431
  395.0000    71.9010    30.9531    32.8023
  395.5000    71.4177    31.3786    33.3711
  396.0000    70.9291    31.8099    33.8543
  396.5000    70.5028    32.1981    34.2261
  397.0000    70.8964    32.4677    34.6040
  397.5000    71.2757    32.4677    34.9581
  398.0000    72.0131    31.3394    32.9963
  398.5000    72.8541    30.0919    30.8794
  399.0000    74.2526    28.8941    29.0639
  399.5000    77.4411    28.4748    28.9905
  400.0000    81.2495    28.2785    28.7408
  400.5000    84.5704    28.0836    28.4932
  401.0000    84.2860    27.8901    28.2760
  401.5000    80.6793    27.7533    28.9948
  402.0000    76.7686    27.6121    29.8826
  402.5000    74.9607    27.4983    29.2594
  403.0000    76.1999    26.4932    28.0078
  403.5000    77.9140    25.5955    26.8112
  404.0000    78.1069    24.7283    25.6658
  404.5000    78.0594    23.8181    24.6182
  405.0000    79.5610    22.9307    23.6672
  405.5000    81.5655    22.0765    22.7530
  406.0000    85.2309    21.2540    21.8741
  406.5000    88.5621    20.6500    21.2365
  407.0000    90.0763    20.3039    20.9233
  407.5000    89.5124    19.9796    20.4479
  408.0000    87.8791    19.6587    19.9834
  408.5000    87.1136    19.5438    19.6934
  409.0000    88.4728    19.3269    19.5581
  409.5000    91.3350    19.1190    19.4237
  410.0000    91.5758    18.9134    19.2903
  410.5000    91.0156    18.6625    19.1864
  411.0000    91.4001    18.6625    19.2946
  411.5000    91.7341    18.6625    19.4280
  412.0000    90.9212    18.6625    19.5624
  412.5000    90.2421    18.7095    19.6978
  413.0000    92.7433    18.9455    19.8340
  413.5000    95.6920    19.1845    19.9712
  414.0000    96.9452    19.4265    20.1094
  414.5000    98.1283    19.6715    20.2485
  415.0000    97.1624    19.7496    20.3041
  415.5000    94.8645    19.8863    20.4445
  416.0000    93.4912    20.0238    20.5860
  416.5000    94.1459    20.1623    20.7284
  417.0000    95.2121    20.2788    20.8481
  417.5000    96.1583    20.2041    20.7713
  418.0000    95.6128    20.1072    20.6710
  418.5000    93.3817    20.0097    20.5714
  419.0000    92.4551    19.9081    20.4668
  419.5000    95.5261    19.6325    20.2246
  420.0000    95.0267    19.3457    19.9724
  420.5000    92.8304    19.0633    19.8236
  421.0000    91.8318    18.7850    19.7100
  421.5000    92.8209    18.4911    19.5971
  422.0000    93.8647    18.2742    19.3162
  422.5000    94.8962    17.9751    18.8942
  423.0000    95.9232    17.6817    18.4813
  423.5000    96.9552    17.3932    18.0762
  424.0000    98.0049    17.1106    17.6784
  424.5000    98.8891    16.8609    17.3287
  425.0000    95.9154    16.7061    17.1691
  425.5000    92.8123    16.7061    17.1702
  426.0000    91.1199    16.7061    17.1737
  426.5000    91.7723    16.7868    17.3044
  427.0000    93.7220    16.9530    17.5716
  427.5000    95.0991    17.1765    17.8209
  428.0000    93.0557    17.1742    17.6572
  428.5000    91.3058    17.1755    17.7119
  429.0000    91.8796    17.1749    17.7747
  429.5000    93.4387    17.1049    17.8209
  430.0000    93.5480    16.9561    17.5787
  430.5000    92.9997    16.8083    17.3023
  431.0000    91.6612    16.6618    17.0303
  431.5000    91.9466    16.5165    16.7625
  432.0000    94.1773    16.3726    16.4989
  432.5000    96.3982    16.2299    16.2499
  433.0000    98.4765    16.0884    16.2052
  433.5000    98.5624    15.9527    16.1355
  434.0000    97.9718    15.8312    16.0662
  434.5000    97.1171    15.7583    15.9971
  435.0000    97.3458    15.6822    15.9283
  435.5000    98.7752    15.6084    15.8598
  436.0000    99.6913    15.5343    15.7367
  436.5000    98.8748    15.2013    15.4146
  437.0000    95.3412    14.8160    15.0991
  437.5000    91.8694    14.4409    14.7900
  438.0000    92.6788    14.1499    14.5463
  438.5000    96.6098    13.9973    14.3908
  439.0000    99.6937    13.8089    14.1976
  439.5000    99.7953    13.6245    14.0070
  440.0000    99.0920    13.5111    13.7627
  440.5000    97.3284    13.3747    13.7742
  441.0000    94.2504    13.3535    13.7940
  441.5000    93.5419    13.3323    13.8136
  442.0000    94.8036    13.3112    13.8338
  442.5000    97.3088    13.2902    13.8539
  443.0000    96.6533    13.2691    13.8743
  443.5000    95.1218    13.2302    13.8897
  444.0000    96.0103    13.1695    13.6196
  444.5000    98.8125    13.0728    13.4423
  445.0000   100.4306    12.8740    13.2366
  445.5000    98.9848    12.6783    13.0342
  446.0000    95.7391    12.4855    12.8361
  446.5000    92.2749    12.3737    12.7703
  447.0000    91.1938    12.2605    12.7458
  447.5000    91.4921    12.1483    12.7215
  448.0000    93.3189    12.0372    12.6971
  448.5000    94.4895    11.9270    12.6728
  449.0000    94.0617    11.8679    12.5675
  449.5000    94.4809    11.8167    12.4306
  450.0000    97.9503    11.7658    12.2951
  450.5000   100.9849    11.7151    12.1611
  451.0000   101.2363    11.6646    12.0827
  451.5000   101.4437    11.6143    12.0429
  452.0000   103.3375    11.5492    12.0033
  452.5000   104.6477    11.6563    11.9835
  453.0000   103.5094    11.7848    12.1257
  453.5000   102.2686    11.8529    12.2297
  454.0000   102.6578    11.9215    12.3347
  454.5000   102.8348    11.9835    12.4406
