~VERSION INFORMATION
 VERS.                2.0:   CWLS LOG ASCII STANDARD - VERSION 2.0
 WRAP.                 NO:   ONE LINE PER DEPTH STEP
~WELL INFORMATION
#MNEM.UNIT      DATA TYPE    INFORMATION
#----------   ------------   ------------------------------
 STRT.F           33.0000:   START DEPTH
 STOP.F          560.0000:   STOP DEPTH
 STEP.F            0.5000:   STEP LENGTH
 NULL.          -999.2500:   NO VALUE
 COMP. BROWN JOHN E&C INC:   COMPANY
 WELL.        SX 85 #25-3:   WELL
 FLD .             TEAPOT:   FIELD
 LOC .       S3 T38N R78W:   LOCATION
 CNTY.            NATRONA:   COUNTY
 STAT.            WYOMING:   STATE
 CTRY. UNITED STATES OF AMERICA:   COUNTRY
 SRVC.       Schlumberger:   SERVICE COMPANY
 DATE.        23-SEP-1980:   LOGDATE
 API .       490251130600:   API NUMBER
~CURVE INFORMATION
#MNEM.UNIT       API CODE    CURVE DESCRIPTION
#----------   ------------   ------------------------------
 DEPT.F                  :   
 ILD .OHMM   07 120 46 00:   INDUCTION LOG DEEP
 ILM .OHMM   07 120 44 00:   INDUCTION LOG MEDIUM
 DPHI.DEC    45 890 12 00:   DENSITY POROSITY SANDSTONE
 RHOB.G/C3   45 350 01 00:   BULK DENSITY
 DRHO.G/C3   45 356 01 00:   DENSITY CORRECTION
 CALD.IN     45 280 60 00:   CALIPER
 GRD .GAPI   45 310 01 00:   GAMMA RAY FROM DENSITY LOG
~PARAMETER INFORMATION
#MNEM.UNIT          VALUE    DESCRIPTION
#----------   ------------   ------------------------------
 PD  .                 GL:   PERMANENT DATUM
 EPD .F              5144:   ELEVATION PERMANENT DATUM
 LMF .                 KB:   LOG MEASURED FROM
 DAPD.F                10:   FEET ABOVE PERMANENT DATUM
 DMF .                 KB:   DRILLING MEASURED FROM
 EKB .F              5154:   KELLING BUSHING
 EDF .F              5153:   DRILLING FLOOR
 EGL .F              5144:   GROUND LEVEL
 DATE.            9-23-90:   RUN DATE
 RUN .                  1:   RUN NUMBER
 DD  .F               564:   DEPTH DRILLER
 DL  .F               565:   DEPTH LOGGER
 BLI .F               559:   BOTTOM LOG INTERVAL
 TLI .F                40:   TOP LOG INTERVAL
 CS  .IN            8.625:   CASING SIZE
 CBD .F                50:   CASING BOTTOM DRILLER
 CBL .F                50:   CASING BOTTOM LOGGER
 BS  .IN            7.875:   BIT SIZE
 BSD .F               564:   BIT SIZE AT DEPTH
 DFT .                AIR:   DRILLING FLUID TYPE
 TCS .HRS            1900:   TIME CURCULATED STOPPED
 TLAB.HRS            2000:   TIME LOGGER AT BOTTOM
 LUN .               5882:   LOGGING UNIT NUMBER
 LUL .               CODY:   LOGGING UNIT LOCATION
 ENGI.          M. FISHER:   RECORDING ENGINEER
 WITN.          G. STRONG:   WITNESSED BY
 CLNT.            A2DTECH:   CLIENT CODE
 ORIG.        2" 5" PRINT:   ORIGIN OF DATA
 UWI .       490251130600:   UNIQUE WELL ID
 DICO. A2D Technologies, Inc.:   DIGITIZING COMPANY
~OTHER INFORMATION
~A   DEPT      ILD        ILM       DPHI       RHOB       DRHO       CALD         GRD  
# ...
   78.5000     7.0186     7.0898     0.1258     2.4426    -0.0117     7.8612   130.6378
   79.0000     7.0699     7.1842     0.1253     2.4434    -0.0085     7.8612   130.5845
   79.5000     7.1177     7.2799     0.1219     2.4467    -0.0054     7.8612   128.8204
   80.0000     7.1784     7.3864     0.1187     2.4547    -0.0030     7.8612   126.2633
   80.5000     7.2351     7.3668     0.1153     2.4631    -0.0019     7.8612   124.6857
   81.0000     7.3244     7.3452     0.1129     2.4689    -0.0035     7.8612   125.0117
   81.5000     7.3359     7.3232     0.1156     2.4604    -0.0050     7.8612   124.5732
   82.0000     7.3475     7.3183     0.1186     2.4491    -0.0066     7.8612   124.1439
   82.5000     7.3591     7.3182     0.1209     2.4403    -0.0081     7.8612   124.2168
   83.0000     7.3702     7.3184     0.1204     2.4446    -0.0096     7.8611   124.7780
   83.5000     7.3833     7.3169     0.1201     2.4471    -0.0108     7.8630   123.9427
   84.0000     7.5156     7.3758     0.1207     2.4447    -0.0096     7.8655   123.6985
   84.5000     7.6862     7.4658     0.1213     2.4434    -0.0084     7.8680   125.3217
   85.0000     7.7635     7.5568     0.1166     2.4570    -0.0073     7.8704   126.5254
   85.5000     7.8411     7.6490     0.1088     2.4705    -0.0060     7.8729   126.9948
   86.0000     7.9192     7.7422     0.1034     2.4822    -0.0058     7.8753   125.3779
   86.5000     7.9642     7.8366     0.1073     2.4760    -0.0064     7.8778   123.8688
   87.0000     7.9813     7.9321     0.1121     2.4697    -0.0069     7.8803   124.4307
   87.5000     7.9984     8.0288     0.1131     2.4663    -0.0075     7.8827   125.7430
   88.0000     8.0156     8.1242     0.1100     2.4696    -0.0078     7.8852   128.6549
   88.5000     8.0736     8.2208     0.1069     2.4727    -0.0066     7.8877   131.7927
   89.0000     8.2672     8.3185     0.1051     2.4758    -0.0052     7.8901   132.3326
   89.5000     8.4642     8.4174     0.1038     2.4790    -0.0038     7.8926   129.0740
   90.0000     8.5372     8.5172     0.1032     2.4799    -0.0024     7.8951   126.0278
   90.5000     8.5927     8.6466     0.1026     2.4799    -0.0010     7.8975   123.8387
   91.0000     8.6488     8.6402     0.1035     2.4795     0.0003     7.9000   125.9989
   91.5000     8.7054     8.6282     0.1051     2.4764     0.0016     7.9002   128.2056
   92.0000     8.7623     8.6162     0.1045     2.4769     0.0027     7.8941   130.3232
   92.5000     8.8083     8.6043     0.1004     2.4857     0.0039     7.8880   131.8784
   93.0000     8.8083     8.5925     0.0963     2.4938     0.0031     7.8821   133.3913
   93.5000     8.8083     8.5804     0.0955     2.4935     0.0011     7.8793   134.7331
   94.0000     8.8083     8.5668     0.1038     2.4808    -0.0009     7.8770   134.0086
   94.5000     8.8083     8.6886     0.1148     2.4662    -0.0028     7.8747   131.3044
   95.0000     8.9173     8.8319     0.1185     2.4562    -0.0048     7.8725   130.6680
   95.5000     9.0825     8.9776     0.1187     2.4510    -0.0066     7.8702   132.7560
   96.0000     9.2490     9.1256     0.1154     2.4565    -0.0082     7.8679   135.4550
   96.5000     9.4187     9.2761     0.1121     2.4629    -0.0098     7.8657   135.1860
   97.0000     9.5914     9.4291     0.1089     2.4693    -0.0105     7.8634   131.9357
   97.5000     9.7740     9.5846     0.1056     2.4757    -0.0085     7.8611   130.4156
   98.0000     9.9648     9.7427     0.1023     2.4820    -0.0065     7.8588   132.4980
   98.5000    10.1591     9.9026     0.0992     2.4857    -0.0045     7.8566   135.1046
   99.0000    10.3590    10.0686     0.1000     2.4800    -0.0042     7.8543   134.6485
   99.5000    10.5899    10.3574     0.1061     2.4741    -0.0053     7.8520   131.6504
  100.0000    10.9235    10.7279     0.1125     2.4681    -0.0063     7.8497   125.8083
  100.5000    11.2643    11.1088     0.1106     2.4695    -0.0073     7.8475   119.6502
  101.0000    11.6307    11.5237     0.1074     2.4748    -0.0083     7.8452   116.6177
  101.5000    11.6061    11.4949     0.1042     2.4810    -0.0075     7.8429   114.5377
  102.0000    11.5799    11.4647     0.1010     2.4849    -0.0051     7.8412   114.1808
  102.5000    11.5538    11.4345     0.0986     2.4880    -0.0027     7.8424   115.8546
  103.0000    11.5277    11.3871     0.0996     2.4860    -0.0003     7.8435   117.6326
  103.5000    11.3820    11.2607     0.1005     2.4840     0.0021     7.8447   119.4431
  104.0000    11.2171    11.1357     0.1012     2.4832     0.0042     7.8458   121.5223
  104.5000    11.0545    11.0121     0.1002     2.4847     0.0028     7.8470   124.1055
  105.0000    10.8943    10.8899     0.0992     2.4856     0.0014     7.8481   127.3387
  105.5000    10.7365    10.7690     0.1012     2.4824     0.0000     7.8492   128.6527
  106.0000    10.6614    10.6494     0.1035     2.4791    -0.0015     7.8504   128.7403
  106.5000    10.6110    10.5312     0.1052     2.4760    -0.0019     7.8515   125.1939
  107.0000    10.5607    10.4143     0.1049     2.4767    -0.0021     7.8527   124.5320
  107.5000    10.5108    10.2987     0.1046     2.4775    -0.0022     7.8538   126.9806
  108.0000    10.4609    10.2160     0.1042     2.4783    -0.0024     7.8549   130.8819
  108.5000    10.4076    10.1832     0.1039     2.4792    -0.0026     7.8561   132.2707
  109.0000    10.3039    10.1531     0.1036     2.4797    -0.0028     7.8572   131.0680
  109.5000    10.1917    10.1230     0.1056     2.4768    -0.0040     7.8583   129.1083
  110.0000    10.1217    10.0931     0.1074     2.4739    -0.0051     7.8595   127.1898
  110.5000    10.1215    10.0631     0.1092     2.4710    -0.0049     7.8606   125.8678
  111.0000    10.1216    10.0329     0.1071     2.4747     0.0008     7.8612   128.9091
  111.5000    10.1165    10.0054     0.1038     2.4830     0.0064     7.8612   132.1946
  112.0000    10.0940     9.9686     0.0974     2.4914     0.0121     7.8612   132.4262
  112.5000    10.0717     9.9324     0.0923     2.5000     0.0156     7.8601   131.5423
  113.0000    10.0495     9.8962     0.0946     2.4945     0.0115     7.8586   131.5042
  113.5000    10.0274     9.8601     0.1001     2.4867     0.0076     7.8572   131.7009
  114.0000    10.0052     9.8242     0.1022     2.4797     0.0037     7.8558   132.2271
  114.5000     9.9832     9.7884     0.1003     2.4813    -0.0002     7.8544   133.6427
  115.0000     9.9612     9.7528     0.0984     2.4859    -0.0018     7.8529   135.0069
  115.5000     9.9392     9.7172     0.0965     2.4905     0.0010     7.8515   136.3487
  116.0000     9.9211     9.6818     0.0946     2.4949     0.0038     7.8501   137.5067
  116.5000     9.9037     9.6466     0.0937     2.4958     0.0066     7.8486   136.4957
  117.0000     9.8863     9.6114     0.0963     2.4908     0.0093     7.8472   133.4964
  117.5000     9.8690     9.5765     0.0989     2.4865     0.0093     7.8458   129.1441
  118.0000     9.8512     9.5416     0.1008     2.4848     0.0093     7.8444   127.4762
  118.5000     9.7746     9.5068     0.1015     2.4831     0.0069     7.8429   128.3373
  119.0000     9.6543     9.4283     0.1028     2.4814     0.0036     7.8415   130.8283
  119.5000     9.5356     9.2863     0.1049     2.4789     0.0002     7.8421   134.7928
  120.0000     9.4183     9.1464     0.1084     2.4722    -0.0032     7.8436   136.7004
  120.5000     9.3119     9.0085     0.1120     2.4655    -0.0065     7.8451   135.0469
  121.0000     9.0402     8.8739     0.1150     2.4588    -0.0098     7.8466   133.1462
  121.5000     8.7961     8.6909     0.1173     2.4536    -0.0105     7.8481   135.5634
  122.0000     8.5586     8.4712     0.1181     2.4538    -0.0112     7.8496   141.5244
  122.5000     8.3275     8.2559     0.1189     2.4538    -0.0118     7.8511   144.1564
  123.0000     8.1036     8.0466     0.1197     2.4514    -0.0108     7.8526   143.6222
  123.5000     7.9548     7.8093     0.1205     2.4467    -0.0097     7.8541   141.5172
