~VERSION INFORMATION
 VERS.                2.0:   CWLS LOG ASCII STANDARD - VERSION 2.0
 WRAP.                 NO:   ONE LINE PER DEPTH STEP
~WELL INFORMATION
#MNEM.UNIT      DATA TYPE    INFORMATION
#----------   ------------   ------------------------------
 STRT.F            0.5000:   START DEPTH
 STOP.F          696.0000:   STOP DEPTH
 STEP.F            0.5000:   STEP LENGTH
 NULL.          -999.2500:   NO VALUE
 COMP. LAWRENCE/ALLISON INC:   COMPANY
 WELL. SX 11 WP #26-44-11:   WELL
 FLD .             TEAPOT:   FIELD
 LOC .      S11 T38N R78W:   LOCATION
 CNTY.            NATRONA:   COUNTY
 STAT.            WYOMING:   STATE
 CTRY. UNITED STATES OF AMERICA:   COUNTRY
 SRVC.      Dresser Atlas:   SERVICE COMPANY
 DATE.        08-SEP-1984:   LOGDATE
 API .       490251097600:   API NUMBER
~CURVE INFORMATION
#MNEM.UNIT       API CODE    CURVE DESCRIPTION
#----------   ------------   ------------------------------
 DEPT.F                  :   
 AC  .US/F   60 520 00 00:   ACCOUSTIC
 SPR .MV     07 010 01 00:   SPONTANEOUS POTENTIAL FROM RES.
 RILD.OHMM   07 120 46 00:   RESISTIVITY INDUCTION LOG DEEP
 RILM.OHMM   07 120 44 00:   RESISTIVITY INDUCTION LOG MEDIUM
 RFOC.OHMM   07 220 04 00:   RESISTIVITY FOCUSED LOG
 GRR .GAPI   07 310 01 00:   GAMMA RAY FROM RESISTIVITY
 CALD.IN     45 280 60 00:   CALIPER FROM DENSITY LOG
 DEN .G/C3   45 350 01 00:   COMPENSATED BULK DENSTIY
 CORR.G/C3   45 356 01 00:   DENSITY CORRECTION
 PORD.DEC    45 890 12 00:   POROSITY DENSITY SANDSTONE
 CNC .DEC    42 890 03 00:   NEUTRON POROSITY SANDSTONE
~PARAMETER INFORMATION
#MNEM.UNIT          VALUE    DESCRIPTION
#----------   ------------   ------------------------------
 PD  .                 GL:   PERMANENT DATUM
 EPD .F              5186:   ELEVATION PERMANENT DATUM
 LMF .                 GL:   LOG MEASURED FROM
 DMF .                 GL:   DRILLING MEASURED FROM
 EGL .F              5186:   GROUND LEVEL
 DATE.         8-SEP-1984:   RUN DATE
 RUN .                  1:   RUN NUMBER
 DD  .F               712:   DEPTH DRILLER
 DL  .F               695:   DEPTH LOGGER
 BLI .F               693:   BOTTOM LOG INTERVAL
 CS  .IN            8.625:   CASING SIZE
 CBD .F                40:   CASING BOTTOM DRILLER
 CBL .F                45:   CASING BOTTOM LOGGER
 BS  .IN            7.875:   BIT SIZE
 BSD .F               712:   BIT SIZE AT DEPTH
 DFT .          KCL WATER:   DRILLING FLUID TYPE
 MSS .           FLOWLINE:   MUD SAMPLE SOURCE
 RMS .OHMM            .22:   RESISTIVITY MUD SAMPLE
 MST .F                72:   MUD SAMPLE TEMPERATURE
 RMF .OHMM            .17:   RESISTIVITY MUD FILTRATE SAMPLE
 MFST.F                72:   MUD FILTRATE SAMPLE TEMPERATURE
 RMC .OHMM            .28:   RESISTIVITY MUD CAKE
 MCST.F                72:   MUD CAKE SAMPLE TEMPERATURE
 MFSS.               CALC:   MUD FILTRATE SAMPLE SOURCE
 MCSS.               CALC:   MUD CAKE SAMPLE SOURCE
 RMB .OHMM            .18:   RESISTIVITY MUD AT BHT
 BHT .F                90:   BOTTOM HOLE TEMPERATURE
 TCS .HRS               3:   TIME CURCULATED STOPPED
 MRT .F                90:   MAXIMUM RECORDED TEMPERATURE
 LUN .               6274:   LOGGING UNIT NUMBER
 LUL .               GLTE:   LOGGING UNIT LOCATION
 ENGI.             RAUTIO:   RECORDING ENGINEER
 WITN.           JENNINGS:   WITNESSED BY
 CLNT.            A2DTECH:   CLIENT CODE
 ORIG. 1", 2', 2.5", 5" PRNT:   ORIGIN OF DATA
 UWI .       490251097600:   UNIQUE WELL ID
 DICO. A2D Technologies, Inc.:   DIGITIZING COMPANY
~OTHER INFORMATION
~A    DEPT      AC        SPR       RILD       RILM       RFOC         GRR      CALD        DEN       CORR       PORD        CNC   
# ...
  641.0000   100.5780   -14.6330     8.0790     8.3510     9.1660    95.0775     7.7930     2.5080     0.0400     0.1010     0.2876
  641.5000   100.7570   -14.9090     8.0410     8.2600     9.0650    97.7739     7.7900     2.5010     0.0350     0.1060     0.2884
  642.0000    99.8610   -15.1860     8.0030     8.1700     8.9640    99.5772     7.7880     2.4940     0.0270     0.1100     0.2819
  642.5000   100.4580   -15.2840     7.9650     8.0800     8.8400    98.7095     7.7850     2.4920     0.0200     0.1110     0.2805
  643.0000   102.6040   -15.1410     7.9270     7.9900     8.6700    97.5498     7.7830     2.4920     0.0120     0.1110     0.2809
  643.5000   105.1850   -14.9900     7.8890     7.8990     8.5000    96.3901     7.7810     2.4920     0.0070     0.1110     0.2793
  644.0000   107.7650   -15.1880     7.7410     7.7320     8.3300    96.1193     7.7780     2.4900     0.0060     0.1140     0.2761
  644.5000   110.3460   -15.5450     7.4610     7.5230     8.2380    99.7089     7.7760     2.4840     0.0050     0.1180     0.2773
  645.0000   112.8090   -15.7030     7.1810     7.3140     8.6740    98.8455     7.7740     2.4820     0.0070     0.1190     0.2858
  645.5000   111.6140   -15.6190     6.9010     7.1050     9.1980    94.4308     7.7750     2.4880     0.0100     0.1140     0.2975
  646.0000   108.6250   -15.5550     6.6210     6.8960     8.8490    91.4933     7.7810     2.4930     0.0120     0.1110     0.3023
  646.5000   105.6370   -15.7690     6.3410     6.6860     8.1000    91.8151     7.7870     2.4770     0.0080     0.1220     0.3084
  647.0000   102.6490   -15.9790     6.0820     6.4770     7.3520    93.0301     7.7900     2.4530     0.0050     0.1340     0.3025
  647.5000   100.5630   -16.0860     6.0820     6.3680     6.6030    94.2408     7.7830     2.4430     0.0100     0.1430     0.2778
  648.0000    99.8280   -15.7690     6.3100     6.4990     5.9170    95.4514     7.7760     2.4490     0.0180     0.1380     0.2732
  648.5000    99.0940   -15.1480     6.5530     6.9620     7.1740    96.0695     7.7780     2.4610     0.0270     0.1300     0.2716
  649.0000    98.3590   -14.9320     6.8920     7.4250     8.5950    96.0993     7.7910     2.4730     0.0350     0.1220     0.2715
  649.5000    97.6240   -14.7350     7.3490     7.8880     9.1980    96.4211     7.7920     2.4850     0.0210     0.1160     0.2811
  650.0000    96.8900   -14.5330     7.8070     8.3520     9.3270    95.8519     7.7920     2.4960     0.0130     0.1110     0.2880
  650.5000    96.1550   -14.0820     8.2640     8.8150     9.4710    97.6625     7.7920     2.5030     0.0250     0.1070     0.2775
  651.0000    95.5630   -13.6480     8.7220     9.0310     9.6150   113.3943     7.7920     2.5100     0.0360     0.1030     0.2648
  651.5000    95.0800   -13.2150     9.1140     9.2300     9.7590   118.4548     7.7920     2.5110     0.0200     0.1010     0.2607
  652.0000    94.9920   -12.7820     9.1530     9.4480     9.9030   103.6775     7.7920     2.5110     0.0000     0.1010     0.2699
  652.5000    94.9070   -12.4830     9.2060     9.6650    10.0840    89.7797     7.7920     2.5120     0.0040     0.1010     0.2683
  653.0000    94.9840   -12.3050     9.2830     9.7290    10.0810    86.2570     7.7920     2.5120     0.0080     0.1010     0.2667
  653.5000    95.1350   -12.1270     9.2630     9.7410    10.0750    85.6831     7.7920     2.5090     0.0060     0.1020     0.2596
  654.0000    95.2870   -11.9490     9.2280     9.7530    10.0700    88.9799     7.7920     2.5050     0.0020     0.1050     0.2660
  654.5000    95.4380   -11.7710     9.1920     9.7640    10.0640    89.0127     7.7920     2.5010     0.0140     0.1080     0.2754
  655.0000    95.4030   -11.5890     9.1570     9.7760    10.0590    89.9297     7.7920     2.4970     0.0260     0.1100     0.2745
  655.5000    95.3020   -11.7210     9.1140     9.7880    10.0530    90.5505     7.7920     2.4950     0.0320     0.1110     0.2670
  656.0000    95.2010   -11.9000     9.1320     9.8000    10.0480    92.3611     7.7900     2.4980     0.0350     0.1100     0.2586
  656.5000    95.0800   -12.0790     9.1530     9.8100    10.0420    93.5744     7.7870     2.5050     0.0390     0.1040     0.2598
  657.0000    95.1810   -12.2580     9.1750     9.7960    10.0370    93.6025     7.7840     2.5110     0.0420     0.1010     0.2576
  657.5000    95.3070   -12.2800     9.1970     9.7830    10.0320    92.4502     7.7810     2.5050     0.0330     0.1050     0.2557
  658.0000    95.4330   -12.0090     9.2190     9.7710    10.0260    91.2837     7.7780     2.4930     0.0130     0.1110     0.2544
  658.5000    95.5600   -11.7940     9.2410     9.7580    10.0210    90.1314     7.7750     2.4820    -0.0070     0.1180     0.2602
  659.0000    95.6860   -11.9110     9.2620     9.7450    10.0150    89.2706     7.7720     2.4820    -0.0140     0.1190     0.2638
  659.5000    95.8120   -12.0220     9.2830     9.7340    10.0090    90.7896     7.7700     2.4840    -0.0150     0.1180     0.2687
  660.0000    95.9390   -12.1340     9.2370     9.7200    10.0040    92.8918     7.7670     2.4860    -0.0140     0.1160     0.2788
  660.5000    96.0760   -12.1030     9.1980     9.4320     9.9980    93.8088     7.7640     2.4880    -0.0010     0.1150     0.2987
  661.0000    96.7410   -11.9810     8.8960     9.1660     9.9940    92.9434     7.7620     2.4900     0.0130     0.1130     0.2998
  661.5000    97.4680   -11.8600     8.6190     8.9010     9.7690    92.9809     7.7590     2.4910     0.0260     0.1110     0.3050
  662.0000    98.1950   -11.9340     8.3420     8.6350     9.4530    93.3053     7.7570     2.4940     0.0340     0.1100     0.3096
  662.5000    98.9210   -12.3100     8.0650     8.3690     9.1360    93.6345     7.7540     2.4950     0.0110     0.1100     0.2880
  663.0000    99.6480   -12.6830     7.7880     8.1030     8.8200    93.6626     7.7530     2.4910     0.0040     0.1120     0.2876
  663.5000   100.3750   -13.1040     7.5100     7.8370     8.5040    93.6907     7.7560     2.4850     0.0100     0.1170     0.2953
  664.0000   101.7690   -13.7010     7.2330     7.5710     8.1870    93.1263     7.7580     2.4770     0.0160     0.1230     0.2974
  664.5000   103.5890   -14.3490     6.8950     7.3050     7.8710    92.8534     7.7610     2.4690     0.0150     0.1260     0.2991
  665.0000   106.1850   -15.1720     6.2950     6.7310     7.5540    92.8909     7.7630     2.4650     0.0070     0.1280     0.3009
  665.5000   109.7970   -15.9950     5.6960     6.0610     7.2380    92.0349     7.7650     2.4630     0.0030     0.1320     0.3061
  666.0000   115.5800   -16.8180     4.9700     5.2510     6.8890    91.4657     7.7680     2.4540     0.0060     0.1400     0.3196
  666.5000   122.0950   -17.6390     4.1550     4.4000     6.4010    92.9800     7.7700     2.4290     0.0040     0.1550     0.3318
  667.0000   128.6100   -18.4590     3.3400     3.5500     5.9170    95.3832     7.7730     2.4000    -0.0060     0.1670     0.3411
  667.5000   134.9200   -19.2650     2.8820     2.9710     4.9170    95.1127     7.7750     2.3650    -0.0090     0.2010     0.3723
  668.0000   132.1310   -20.0590     2.6490     2.7760     3.9260    91.8863     7.7780     2.3230     0.0000     0.2420     0.3867
  668.5000   124.1060   -20.3500     2.5170     2.5630     3.1670    91.6134     7.7800     2.2390     0.0100     0.2830     0.3808
  669.0000   115.5760   -20.0510     2.5780     2.6620     3.0560    91.9426     7.7820     2.1890     0.0150     0.2920     0.3490
  669.5000   105.2390   -19.6620     2.6750     2.7790     2.9970    91.9668     7.7850     2.1980     0.0120     0.2920     0.3354
  670.0000   101.6530   -19.1660     2.7710     2.8890     3.8930    91.9719     7.7870     2.2710     0.0110     0.2190     0.2750
  670.5000    98.2670   -18.6700     3.3580     3.6700     5.1720  -999.2500     7.7900     2.3610     0.0150     0.1610     0.2778
  671.0000    97.7900   -18.1740     4.0220     4.4040     6.4510  -999.2500     7.7920     2.4420     0.0200     0.1370     0.2796
