~VERSION INFORMATION
 VERS.                2.0:   CWLS LOG ASCII STANDARD - VERSION 2.0
 WRAP.                 NO:   ONE LINE PER DEPTH STEP
~WELL INFORMATION
#MNEM.UNIT      DATA TYPE    INFORMATION
#----------   ------------   ------------------------------
 STRT.F           84.0000:   START DEPTH
 STOP.F          860.0000:   STOP DEPTH
 STEP.F            0.5000:   STEP LENGTH
 NULL.          -999.2500:   NO VALUE
 COMP.               NAVY:   COMPANY
 WELL. 52-S-11  NPR #3 #52S-11:   WELL
 FLD .        TEAPOT DOME:   FIELD
 LOC .      S11 T38N R78W:   LOCATION
 CNTY.            NATRONA:   COUNTY
 STAT.            WYOMING:   STATE
 CTRY. UNITED STATES OF AMERICA:   COUNTRY
 SRVC.       Schlumberger:   SERVICE COMPANY
 DATE.        01-JUL-1962:   LOGDATE
 API .       490250637300:   API NUMBER
~CURVE INFORMATION
#MNEM.UNIT       API CODE    CURVE DESCRIPTION
#----------   ------------   ------------------------------
 DEPT.F                  :   
 ASN .OHMM   05 041 16 00:   AMPLIFIED SHORT NORMAL 16"
 CILD.MMHO   05 110 46 00:   CONDUCTIVITY INDUCTION LOG DEEP
 ILD .OHMM   05 120 46 00:   INDUCTION LOG DEEP
 SPR .MV     05 010 01 00:   SPONTANEOUS POTENTIAL FROM RES.
 GR  .GAPI   30 310 01 00:   GAMMA RAY
~PARAMETER INFORMATION
#MNEM.UNIT          VALUE    DESCRIPTION
#----------   ------------   ------------------------------
 LMF .                 KB:   LOG MEASURED FROM
 DMF .                 KB:   DRILLING MEASURED FROM
 EKB .F              5191:   KELLING BUSHING
 EGL .F              5186:   GROUND LEVEL
 DATE.           7-1-1962:   RUN DATE
 RUN .                  1:   RUN NUMBER
 DD  .F               860:   DEPTH DRILLER
 DL  .F               861:   DEPTH LOGGER
 BLI .F               860:   BOTTOM LOG INTERVAL
 TLI .F                91:   TOP LOG INTERVAL
 CBD .F                10:   CASING BOTTOM DRILLER
 BS  .IN             6.75:   BIT SIZE
 BSD .F               860:   BIT SIZE AT DEPTH
 DFT .            GEL-OIL:   DRILLING FLUID TYPE
 DFD .               10.2:   DRILLING FLUID DENSITY
 DFV .                 45:   DRILLING FLUID VISCOSITY
 DFL .                  4:   DRILLING FLUID LOSS
 MSS .           FLOWLINE:   MUD SAMPLE SOURCE
 RMS .OHMM           5.54:   RESISTIVITY MUD SAMPLE
 MST .F                75:   MUD SAMPLE TEMPERATURE
 RMB .OHMM           5.19:   RESISTIVITY MUD AT BHT
 BHT .F                80:   BOTTOM HOLE TEMPERATURE
 TCS .HRS               1:   TIME CURCULATED STOPPED
 MRT .F                80:   MAXIMUM RECORDED TEMPERATURE
 LUN .               2503:   LOGGING UNIT NUMBER
 LUL .              CSPR.:   LOGGING UNIT LOCATION
 ENGI.             KNOBEL:   RECORDING ENGINEER
 WITN.          JORGENSEN:   WITNESSED BY
 CLNT.            A2DTECH:   CLIENT CODE
 ORIG.      2" & 5" PRINT:   ORIGIN OF DATA
 UWI .       490250637300:   UNIQUE WELL ID
 DICO. A2D Technologies, Inc.:   DIGITIZING COMPANY
~OTHER INFORMATION
~A   DEPT      ASN       CILD        ILD        SPR         GR   
   84.0000  -999.2500  -999.2500  -999.2500   -32.1850  -999.2500
   84.5000  -999.2500  -999.2500  -999.2500   -32.1872  -999.2500
   85.0000  -999.2500  -999.2500  -999.2500   -32.1963  -999.2500
   85.5000  -999.2500  -999.2500  -999.2500   -32.3577  -999.2500
   86.0000  -999.2500  -999.2500  -999.2500   -32.5192  -999.2500
   86.5000  -999.2500  -999.2500  -999.2500   -32.5282  -999.2500
   87.0000  -999.2500  -999.2500  -999.2500   -32.5373  -999.2500
   87.5000  -999.2500  -999.2500  -999.2500   -32.5463  -999.2500
   88.0000  -999.2500  -999.2500  -999.2500   -32.5553  -999.2500
   88.5000  -999.2500  -999.2500  -999.2500   -32.5644  -999.2500
   89.0000  -999.2500  -999.2500  -999.2500   -32.5734  -999.2500
   89.5000  -999.2500  -999.2500  -999.2500   -32.5824  -999.2500
   90.0000  -999.2500  -999.2500  -999.2500   -32.5915  -999.2500
   90.5000  -999.2500  -999.2500  -999.2500   -32.4481  -999.2500
   91.0000     0.9861    24.1127     1.0821   -32.3047  -999.2500
   91.5000     2.0153   141.9822     2.0857   -32.3140  -999.2500
   92.0000     3.0447   146.5586     3.2706   -32.3250  -999.2500
   92.5000     6.1498   146.6033     6.0726   -32.1793  -999.2500
   93.0000     7.4217   145.8913     6.9778   -32.1906  -999.2500
   93.5000     7.5422   145.1820     7.2015   -32.1996  -999.2500
   94.0000     7.4653   143.7162     7.1950   -32.0562  -999.2500
   94.5000     7.3584   142.2503     7.2669   -32.0653  -999.2500
   95.0000     7.3726   140.7844     7.2603   -32.0743  -999.2500
   95.5000     7.4778   140.8308     7.2551   -31.9286  -999.2500
   96.0000     7.5223   141.6402     7.1740   -31.9399  -999.2500
   96.5000     7.5063   142.4402     7.1687   -31.7943  -999.2500
   97.0000     7.4902   143.2401     7.1635   -31.8056  -999.2500
   97.5000     7.4590   144.0401     7.1582   -31.8146  -999.2500
   98.0000     7.4127   144.0848     7.1530   -31.8236  -999.2500
   98.5000     7.3512   144.8848     7.1478   -31.8327  -999.2500
   99.0000     7.3048   145.6847     7.0666   -31.6893  -999.2500
   99.5000     7.2433   147.2400     7.0614   -31.6983  -999.2500
  100.0000     7.1818   148.0400     7.0561   -31.7073  -999.2500
  100.5000     7.1196   149.5952     7.0508   -31.5639  -999.2500
  101.0000     7.0588   151.1505     7.0456   -31.5731  -999.2500
  101.5000     7.0276   151.9505     7.0402   -31.5595  -999.2500
  102.0000     7.0750   152.7504     7.0339   -31.4386  -999.2500
  102.5000     7.1319   153.5504     7.0286   -31.2952  -999.2500
  103.0000     7.1307   153.5952     7.1005   -31.1540  -999.2500
  103.5000     7.0541   154.3958     7.0940   -31.1631  -999.2500
  104.0000     6.9926   155.1964     7.0887   -31.1721  -999.2500
  104.5000     6.9159   155.2417     7.0835   -31.1811  -999.2500
  105.0000     6.8696   155.2956     7.1541   -31.0355  -999.2500
  105.5000     6.8990   153.8185     7.1489   -31.0467  -999.2500
  106.0000     6.9589   152.3638     7.1436   -31.2082  -999.2500
  106.5000     7.0184   150.1426     7.2156   -31.2173  -999.2500
  107.0000     7.0630   147.9214     7.2090   -31.2263  -999.2500
  107.5000     7.2136   146.4555     7.2810   -31.2353  -999.2500
  108.0000     7.3793   144.9897     7.3516   -31.2444  -999.2500
  108.5000     7.5300   143.5238     7.4205   -31.1006  -999.2500
  109.0000     7.5491   142.8020     7.4915   -31.1100  -999.2500
  109.5000     7.4524   142.0914     7.5622   -31.1190  -999.2500
  110.0000     7.3909   141.3808     7.6328   -31.1280  -999.2500
  110.5000     7.3900   139.9245     7.6274   -31.1372  -999.2500
  111.0000     7.4505   138.4592     7.6982   -31.1463  -999.2500
  111.5000     7.6502   136.9940     7.7688   -31.1554  -999.2500
  112.0000     7.8151   136.2638     7.7622   -31.1664  -999.2500
  112.5000     7.8914   134.8178     7.8342   -31.1755  -999.2500
  113.0000     7.9913   134.0028     7.9035   -31.1845  -999.2500
  113.5000     8.0361   132.6525     7.8982   -31.1935  -999.2500
  114.0000     8.0504   132.6972     7.8930   -31.2026  -999.2500
  114.5000     7.9280   131.9754     7.8877   -31.2116  -999.2500
  115.0000     7.8665   131.2648     7.8825   -31.2206  -999.2500
  115.5000     8.0323   131.3206     7.8773   -31.2297  -999.2500
  116.0000     8.1223   130.5989     7.8720   -31.2387  -999.2500
  116.5000     7.8638   129.1441     7.8668   -31.2477  -999.2500
  117.0000     7.8177   127.6783     7.8615   -31.2568  -999.2500
  117.5000     8.1651   126.9565     8.0080   -31.2658  -999.2500
  118.0000     8.3763   127.0123     8.0800   -31.2748  -999.2500
  118.5000     8.4059   127.8123     7.9975   -31.1311  -999.2500
  119.0000     8.1321   128.6123     7.7647   -30.9878  -999.2500
  119.5000     8.1160   130.1675     7.6835   -30.9971  -999.2500
  120.0000     8.0848   130.9675     7.6783   -31.0061  -999.2500
  120.5000     7.8263   133.2781     7.7489   -31.3278  -999.2500
  121.0000     7.9012   135.5891     7.6677   -31.9390  -999.2500
  121.5000     7.9761   136.4676     7.5106   -32.1006  -999.2500
  122.0000     7.9281   138.7009     7.3525   -31.9569  -999.2500
  122.5000     7.6742   140.2655     7.1955   -31.5108  -999.2500
  123.0000     7.3067   141.0655     7.1903   -31.5199  -999.2500
  123.5000     7.4722   143.3761     7.1850   -31.2240  -999.2500
  124.0000     7.5623   146.4419     7.1039   -30.9282  -999.2500
  124.5000     7.5462   147.9971     7.0228   -30.7848  -999.2500
  125.0000     7.4241   150.3077     7.0176   -30.6414  -999.2500
  125.5000     7.2565   151.8630     6.9364   -30.6504  -999.2500
  126.0000     7.1041   153.4182     6.8553   -30.6594  -999.2500
  126.5000     7.0426   154.2182     6.8501   -30.6685  -999.2500
  127.0000     7.0571   154.2629     6.8448   -30.6775  -999.2500
  127.5000     6.9802   153.5411     6.8396   -30.8390  -999.2500
  128.0000     6.9035   153.5970     6.8339   -30.8480  -999.2500
  128.5000     6.8877   153.6416     6.7532   -30.8570  -999.2500
  129.0000     6.9171   153.6863     6.7480   -31.0185  -999.2500
  129.5000     6.9465   154.4864     6.7427   -31.0276  -999.2500
  130.0000     6.9608   155.2870     6.6616   -31.0366  -999.2500
  130.5000     6.9445   156.9360     6.6563   -30.8932  -999.2500
  131.0000     6.8527   160.9366     6.5751   -30.9024  -999.2500
  131.5000     6.7003   166.0055     6.4939   -30.7588  -999.2500
  132.0000     6.5176   169.0714     6.3358   -30.6154  -999.2500
  132.5000     6.4101   173.6478     6.1030   -30.4743  -999.2500
  133.0000     6.4109   178.2242     5.8701   -30.4833  -999.2500
  133.5000     6.4562   182.0453     5.7131   -30.3376  -999.2500
  134.0000     6.4533   185.8664     5.5561   -30.3489  -999.2500
  134.5000     6.0735   188.9322     5.5509   -30.3579  -999.2500
  135.0000     5.4665   190.4875     5.6228   -30.3670  -999.2500
  135.5000     5.5414   189.0104     5.6921   -30.3760  -999.2500
  136.0000     6.0556   188.2998     5.6869   -30.3850  -999.2500
  136.5000     6.1762   189.1109     5.7588   -30.3941  -999.2500
  137.0000     6.0235   187.6451     5.7523   -30.4031  -999.2500
  137.5000     6.1287   183.1580     5.7470   -30.4121  -999.2500
  138.0000     6.1735   180.1816     5.8176   -30.4212  -999.2500
  138.5000     5.8845   177.1828     5.8124   -30.4302  -999.2500
  139.0000     6.0957   176.4945     5.8831   -30.4392  -999.2500
  139.5000     6.2311   177.2961     5.9538   -30.4483  -999.2500
  140.0000     6.2302   178.1056     6.0243   -30.4573  -999.2500
  140.5000     6.1990   178.9056     6.0949   -30.7713  -999.2500
  141.0000     6.1981   178.9503     6.1655   -31.2378  -999.2500
  141.5000     6.1972   178.2397     6.1601   -31.7042  -999.2500
  142.0000     6.1812   177.5179     6.1537   -31.7152  -999.2500
  142.5000     6.1803   175.3079     6.1485   -31.8767  -999.2500
  143.0000     6.1794   174.5861     6.2204   -31.5786  -999.2500
  143.5000     6.2097   174.6420     6.2139   -31.2827  -999.2500
  144.0000     6.2566   173.9202     6.2086   -31.1393  -999.2500
  144.5000     6.3154   173.2208     6.2034   -30.9959  -999.2500
