~VERSION INFORMATION
 VERS.                2.0:   CWLS LOG ASCII STANDARD - VERSION 2.0
 WRAP.                 NO:   ONE LINE PER DEPTH STEP
~WELL INFORMATION
#MNEM.UNIT      DATA TYPE    INFORMATION
#----------   ------------   ------------------------------
 STRT.F           18.0000:   START DEPTH
 STOP.F         2312.0000:   STOP DEPTH
 STEP.F            0.5000:   STEP LENGTH
 NULL.          -999.2500:   NO VALUE
 COMP. FENIX & SCISSON INC:   COMPANY
 WELL.  NPR 3 #51 SHX -15:   WELL
 FLD .             TEAPOT:   FIELD
 LOC .      S15 T38N R78W:   LOCATION
 CNTY.            NATRONA:   COUNTY
 STAT.            WYOMING:   STATE
 CTRY. UNITED STATES OF AMERICA:   COUNTRY
 SRVC.            Unknown:   SERVICE COMPANY
 DATE.        14-MAR-1978:   LOGDATE
 API .       490251060000:   API NUMBER
~CURVE INFORMATION
#MNEM.UNIT       API CODE    CURVE DESCRIPTION
#----------   ------------   ------------------------------
 DEPT.F                  :   
 ILD .OHMM   05 120 46 00:   INDUCTION LOG DEEP
 CILD.MMHO   05 110 46 00:   CONDUCTIVITY INDUCTION LOG DEEP
 CALD.IN     45 280 60 00:   CALIPER FROM DENSITY LOG
 GRD .GAPI   45 310 01 00:   GAMMA RAY FROM DENSITY LOG
 CORR.G/C3   45 356 01 00:   DENSITY CORRECTION
 RHOB.G/C3   45 350 01 00:   BULK DENSITY
 DPHI.DEC    45 890 12 00:   DENSITY POROSITY SANDSTONE
~PARAMETER INFORMATION
#MNEM.UNIT          VALUE    DESCRIPTION
#----------   ------------   ------------------------------
 PD  .                 GL:   PERMANENT DATUM
 EPD .F              5223:   ELEVATION PERMANENT DATUM
 LMF .                 KB:   LOG MEASURED FROM
 DAPD.F                10:   FEET ABOVE PERMANENT DATUM
 DMF .                 KB:   DRILLING MEASURED FROM
 EKB .F              5233:   KELLING BUSHING
 EGL .F              5223:   GROUND LEVEL
 DATE.            3-14-78:   RUN DATE
 RUN .                  1:   RUN NUMBER
 DD  .F              2323:   DEPTH DRILLER
 DL  .F              2314:   DEPTH LOGGER
 BLI .F              2312:   BOTTOM LOG INTERVAL
 TLI .F                20:   TOP LOG INTERVAL
 CS  .IN                9:   CASING SIZE
 CBD .F               680:   CASING BOTTOM DRILLER
 CBL .F               682:   CASING BOTTOM LOGGER
 BS  .IN            7.875:   BIT SIZE
 BSD .F              2323:   BIT SIZE AT DEPTH
 DFT .           AIR MIST:   DRILLING FLUID TYPE
 TCS .HRS               2:   TIME CURCULATED STOPPED
 LUN .               2958:   LOGGING UNIT NUMBER
 LUL .               CASP:   LOGGING UNIT LOCATION
 ENGI.             MILLER:   RECORDING ENGINEER
 WITN.           MCGINLEY:   WITNESSED BY
 CLNT.            A2DTECH:   CLIENT CODE
 ORIG.       2", 5" PRINT:   ORIGIN OF DATA
 UWI .       490251060000:   UNIQUE WELL ID
 DICO. A2D Technologies, Inc.:   DIGITIZING COMPANY
~OTHER INFORMATION
~A   DEPT      ILD       CILD       CALD         GRD      CORR       RHOB       DPHI   
# ...
  928.0000  -999.2500  -999.2500    10.1569    76.9897    -0.0044     2.5012     0.0923
  928.5000  -999.2500  -999.2500    10.1580    71.7196    -0.0041     2.5089     0.0921
  929.0000  -999.2500  -999.2500    10.1592    68.3900    -0.0038     2.5056     0.0948
  929.5000  -999.2500  -999.2500    10.1603    73.6047    -0.0034     2.4990     0.0940
  930.0000  -999.2500  -999.2500    10.1615    78.5283    -0.0063     2.5041     0.0923
  930.5000  -999.2500  -999.2500    10.1626    83.5181    -0.0096     2.5076     0.0976
  931.0000  -999.2500  -999.2500    10.1638    83.6725    -0.0127     2.4996     0.0993
  931.5000  -999.2500  -999.2500    10.1649    78.3719    -0.0140     2.4918     0.1009
  932.0000  -999.2500  -999.2500    10.1661    76.3145    -0.0123     2.4843     0.1018
  932.5000  -999.2500  -999.2500    10.1672    76.3364    -0.0105     2.4887     0.1005
  933.0000  -999.2500  -999.2500    10.1684    77.6903    -0.0086     2.4965     0.0993
  933.5000  -999.2500  -999.2500    10.1695    81.1871    -0.0067     2.5013     0.0980
  934.0000  -999.2500  -999.2500    10.1707    81.7971    -0.0055     2.4950     0.1004
  934.5000  -999.2500  -999.2500    10.1718    84.7893    -0.0055     2.4873     0.1024
  935.0000  -999.2500  -999.2500    10.1730    86.2655    -0.0060     2.4874     0.1006
  935.5000  -999.2500  -999.2500    10.1741    79.5631    -0.0070     2.4927     0.0988
  936.0000  -999.2500  -999.2500    10.1753    70.6684    -0.0080     2.4976     0.0969
  936.5000  -999.2500  -999.2500    10.1764    70.5498    -0.0090     2.5005     0.0977
  937.0000  -999.2500  -999.2500    10.1776    78.1902    -0.0100     2.4955     0.0996
  937.5000  -999.2500  -999.2500    10.1787    84.3489    -0.0110     2.4904     0.1014
  938.0000  -999.2500  -999.2500    10.1798    88.3148    -0.0114     2.4859     0.1005
  938.5000  -999.2500  -999.2500    10.1809    89.3117    -0.0078     2.4930     0.0975
  939.0000  -999.2500  -999.2500    10.1825    89.1142    -0.0043     2.5021     0.0944
  939.5000  -999.2500  -999.2500    10.1948    85.8033    -0.0009     2.5048     0.0972
  940.0000  -999.2500  -999.2500    10.2072    79.3114     0.0026     2.4961     0.0948
  940.5000  -999.2500  -999.2500    10.2196    72.4316     0.0060     2.5008     0.0960
  941.0000  -999.2500  -999.2500    10.2319    72.6837     0.0048     2.5054     0.0945
  941.5000  -999.2500  -999.2500    10.2442    73.1429     0.0028     2.5043     0.0928
  942.0000  -999.2500  -999.2500    10.2567    74.1171     0.0008     2.4983     0.0940
  942.5000  -999.2500  -999.2500    10.2637    77.0336    -0.0012     2.4956     0.0996
  943.0000  -999.2500  -999.2500    10.2672    78.2146    -0.0004     2.4947     0.1002
  943.5000  -999.2500  -999.2500    10.2707    78.5766     0.0008     2.4929     0.1009
  944.0000  -999.2500  -999.2500    10.2743    77.6998     0.0021     2.4910     0.1015
  944.5000  -999.2500  -999.2500    10.2778    78.8716     0.0034     2.4892     0.0948
  945.0000  -999.2500  -999.2500    10.2813    81.5261     0.0046     2.4927     0.0962
  945.5000  -999.2500  -999.2500    10.2848    84.2481     0.0059     2.4951     0.0987
  946.0000  -999.2500  -999.2500    10.2884    84.7688     0.0072     2.4936     0.1008
  946.5000  -999.2500  -999.2500    10.2919    76.2441     0.0084     2.4942     0.0844
  947.0000  -999.2500  -999.2500    10.2954    77.7874     0.0074     2.5157     0.0862
  947.5000  -999.2500  -999.2500    10.2990    81.7031     0.0063     2.5249     0.0878
  948.0000  -999.2500  -999.2500    10.3036    79.2516     0.0051     2.5129     0.0873
  948.5000  -999.2500  -999.2500    10.3114    74.2840     0.0040     2.5152     0.0902
  949.0000  -999.2500  -999.2500    10.3190    73.3763     0.0028     2.5069     0.0964
  949.5000  -999.2500  -999.2500    10.3266    73.8311     0.0042     2.4957     0.0986
  950.0000  -999.2500  -999.2500    10.3342    79.5105     0.0064     2.4913     0.1003
  950.5000  -999.2500  -999.2500    10.3418    78.6208     0.0084     2.4938     0.1000
  951.0000  -999.2500  -999.2500    10.3494    81.0164     0.0074     2.4918     0.0996
  951.5000  -999.2500  -999.2500    10.3569    86.2795     0.0077     2.4886     0.0993
  952.0000  -999.2500  -999.2500    10.3615    84.6575     0.0122     2.4855     0.1061
  952.5000  -999.2500  -999.2500    10.3627    84.3862     0.0172     2.4824     0.1076
  953.0000  -999.2500  -999.2500    10.3639    85.8350     0.0351     2.4872     0.1028
  953.5000  -999.2500  -999.2500    10.3651    87.4113     0.0484     2.4880     0.1136
  954.0000  -999.2500  -999.2500    10.3663    91.4078     0.0564     2.4696     0.1266
  954.5000  -999.2500  -999.2500    10.3675    89.0170     0.0650     2.4443     0.1356
  955.0000  -999.2500  -999.2500    10.3687    87.6751     0.1428     2.4314     0.1081
  955.5000  -999.2500  -999.2500    10.3699    91.4322     0.2339     2.4410     0.0839
  956.0000  -999.2500  -999.2500    10.3711    93.6216     0.2691     2.5646     0.1333
  956.5000  -999.2500  -999.2500    10.3723    87.2619     0.0599     2.4339     0.1276
  957.0000  -999.2500  -999.2500    10.3736    90.5221     0.0497     2.4457     0.1184
  957.5000  -999.2500  -999.2500    10.3748    94.6113     0.0331     2.4623     0.1455
  958.0000  -999.2500  -999.2500    10.3759    97.7500     0.0233     2.4152     0.1625
  958.5000  -999.2500  -999.2500    10.3772    92.0109     0.0405     2.3946     0.1773
  959.0000  -999.2500  -999.2500    10.3784    87.2469     0.0789     2.3612     0.1880
  959.5000  -999.2500  -999.2500    10.3800    83.0263     0.1963     2.3286     0.1989
  960.0000  -999.2500  -999.2500    10.3793    79.2402     0.3110     2.5367     0.1547
  960.5000  -999.2500  -999.2500    10.3166    80.8419     0.0628     2.4353     0.0924
  961.0000  -999.2500  -999.2500    10.2505    80.7204     0.1106     2.3967     0.1276
  961.5000  -999.2500  -999.2500    10.1849    81.3385     0.1424     2.4979     0.0547
  962.0000  -999.2500  -999.2500    10.1414    82.4619     0.1025     2.5642     0.1023
  962.5000  -999.2500  -999.2500    10.1402    83.7949     0.0035     2.4950     0.1112
  963.0000  -999.2500  -999.2500    10.1383    91.3788    -0.0140     2.4809     0.1100
  963.5000  -999.2500  -999.2500    10.1364    86.4069    -0.0074     2.4810     0.1074
  964.0000  -999.2500  -999.2500    10.1345    82.4802    -0.0020     2.4833     0.0997
  964.5000  -999.2500  -999.2500    10.1326    82.2983    -0.0054     2.4956     0.1003
  965.0000  -999.2500  -999.2500    10.1307    81.0060    -0.0023     2.4912     0.1012
  965.5000  -999.2500  -999.2500    10.1288    73.0859     0.0031     2.4943     0.0957
  966.0000  -999.2500  -999.2500    10.1269    67.3275     0.0039     2.5016     0.0948
  966.5000  -999.2500  -999.2500    10.1250    69.7971    -0.0121     2.4845     0.1032
  967.0000  -999.2500  -999.2500    10.1226    72.1646    -0.0162     2.4867     0.1043
  967.5000  -999.2500  -999.2500    10.1398    74.5055    -0.0175     2.4835     0.1056
  968.0000  -999.2500  -999.2500    10.1643    76.2420    -0.0145     2.4786     0.1028
  968.5000  -999.2500  -999.2500    10.1890    75.4961    -0.0055     2.4912     0.0951
  969.0000  -999.2500  -999.2500    10.2138    74.5164    -0.0035     2.5084     0.0913
  969.5000  -999.2500  -999.2500    10.2384    80.1171    -0.0035     2.5106     0.0907
  970.0000  -999.2500  -999.2500    10.2417    83.5742    -0.0035     2.5120     0.0901
  970.5000  -999.2500  -999.2500    10.2418    82.1266    -0.0035     2.5135     0.0896
  971.0000  -999.2500  -999.2500    10.2417    78.1445    -0.0021     2.5150     0.0903
  971.5000  -999.2500  -999.2500    10.2417    75.3019    -0.0005     2.5146     0.0912
  972.0000  -999.2500  -999.2500    10.2417    76.3193     0.0020     2.5094     0.0921
  972.5000  -999.2500  -999.2500    10.2417    75.7823     0.0071     2.5060     0.0861
  973.0000  -999.2500  -999.2500    10.2417    76.5939     0.0092     2.5152     0.0804
