~VERSION INFORMATION
 VERS.                2.0:   CWLS LOG ASCII STANDARD - VERSION 2.0
 WRAP.                 NO:   ONE LINE PER DEPTH STEP
~WELL INFORMATION
#MNEM.UNIT      DATA TYPE    INFORMATION
#----------   ------------   ------------------------------
 STRT.F           80.0000:   START DEPTH
 STOP.F          715.0000:   STOP DEPTH
 STEP.F            0.5000:   STEP LENGTH
 NULL.          -999.2500:   NO VALUE
 COMP. U S NAVY-INTEX OIL:   COMPANY
 WELL.     NPR #3 #37-S-2:   WELL
 FLD .             TEAPOT:   FIELD
 LOC .       S2 T38N R78W:   LOCATION
 CNTY.            NATRONA:   COUNTY
 STAT.            WYOMING:   STATE
 CTRY. UNITED STATES OF AMERICA:   COUNTRY
 SRVC.       Schlumberger:   SERVICE COMPANY
 DATE.        21-JUN-1962:   LOGDATE
 API .       490250640600:   API NUMBER
~CURVE INFORMATION
#MNEM.UNIT       API CODE    CURVE DESCRIPTION
#----------   ------------   ------------------------------
 DEPT.F                  :   
 ASN .OHMM   05 041 16 00:   AMPLIFIED SHORT NORMAL 16"
 CILD.MMHO   05 110 46 00:   CONDUCTIVITY INDUCTION LOG DEEP
 ILD .OHMM   05 120 46 00:   INDUCTION LOG DEEP
 SPR .MV     05 010 01 00:   SPONTANEOUS POTENTIAL FROM RES.
 GR  .GAPI   30 310 01 00:   GAMMA RAY
~PARAMETER INFORMATION
#MNEM.UNIT          VALUE    DESCRIPTION
#----------   ------------   ------------------------------
 LMF .                 KB:   LOG MEASURED FROM
 DMF .                 KB:   DRILLING MEASURED FROM
 EKB .F              5159:   KELLING BUSHING
 EGL .F              5154:   GROUND LEVEL
 DATE.        21-JUN-1962:   RUN DATE
 RUN .                  1:   RUN NUMBER
 DD  .F               715:   DEPTH DRILLER
 DL  .F               716:   DEPTH LOGGER
 BLI .F               715:   BOTTOM LOG INTERVAL
 TLI .F                80:   TOP LOG INTERVAL
 BS  .IN             6.75:   BIT SIZE
 BSD .F               715:   BIT SIZE AT DEPTH
 DFT .       OIL-EMULSION:   DRILLING FLUID TYPE
 DFD .                9.3:   DRILLING FLUID DENSITY
 DFV .                 50:   DRILLING FLUID VISCOSITY
 DFL .                3.8:   DRILLING FLUID LOSS
 RMS .OHMM            3.9:   RESISTIVITY MUD SAMPLE
 MST .F                72:   MUD SAMPLE TEMPERATURE
 RMF .OHMM            2.6:   RESISTIVITY MUD FILTRATE SAMPLE
 MFST.F                72:   MUD FILTRATE SAMPLE TEMPERATURE
 RMC .OHMM            5.2:   RESISTIVITY MUD CAKE
 MCST.F                72:   MUD CAKE SAMPLE TEMPERATURE
 TCS .HRS               1:   TIME CURCULATED STOPPED
 LUN .               2503:   LOGGING UNIT NUMBER
 LUL .               CSPR:   LOGGING UNIT LOCATION
 ENGI.             DANNER:   RECORDING ENGINEER
 WITN.          JORGENSEN:   WITNESSED BY
 CLNT.            A2DTECH:   CLIENT CODE
 ORIG.           5" PRINT:   ORIGIN OF DATA
 UWI .       490250640600:   UNIQUE WELL ID
 DICO. A2D Technologies, Inc.:   DIGITIZING COMPANY
~OTHER INFORMATION
~A   DEPT        ASN      CILD         ILD      SPR         GR   
# ...
  629.0000    12.4989    81.7760    10.9086   -69.7203    59.4968
  629.5000    12.5033    81.7109    10.9145   -70.0132    57.0407
  630.0000    12.3567    82.4295    10.9205   -69.9982    53.4067
  630.5000    12.3612    83.1219    10.9264   -69.9862    49.4655
  631.0000    12.2145    83.0699    10.8569   -69.9743    52.8224
  631.5000    12.0650    85.2905    10.6366   -69.9623    54.6630
  632.0000    11.9213    88.2687    10.4143   -70.2582    61.8159
  632.5000    11.7003    90.5024    10.1959   -70.0908    69.2796
  633.0000    11.6281    91.9545    10.0510   -69.9263    66.5541
  633.5000    11.4815    94.1731    10.0584   -69.9144    72.9551
  634.0000    11.4104    95.6362     9.8381   -70.3597    74.4883
  634.5000    11.2649    97.8568     9.6178   -70.5002    66.2951
  635.0000    11.1927    97.8030     9.4714   -70.3354    65.2447
  635.5000    11.1982    97.7397     9.4019   -70.3208    70.1214
  636.0000    11.3537    97.6876     9.3324   -70.0039    73.0191
  636.5000    11.4337    97.6355     9.4152   -69.6871    65.7411
  637.0000    11.6647    97.5835     9.4966   -69.2178    58.9157
  637.5000    11.8202    97.5314     9.5025   -69.2058    56.6495
  638.0000    12.1329    96.7217     9.6593   -69.1938    61.5262
  638.5000    12.4577    94.3969     9.8160   -69.4897    60.9318
  639.0000    12.8921    91.3145    10.1317   -69.7826    55.4416
  639.5000    13.5008    85.7892    10.7522   -70.2250    54.5757
  640.0000    14.3360    80.1818    11.5698   -71.7374    61.6413
  640.5000    15.1713    74.5745    12.4807   -72.1827    56.1258
  641.0000    16.5352    68.3703    13.7687   -72.1708    51.8840
  641.5000    18.9566    59.9849    15.2829   -73.0996    40.6513
  642.0000    21.3780    50.0843    17.2496   -74.8354    38.6890
  642.5000    24.1770    43.9716    19.3672   -77.0099    36.1189
  643.0000    26.8249    37.8589    21.3339   -78.6748    22.7585
  643.5000    31.8142    34.0190    23.1497   -79.7299    15.3218
  644.0000    33.5559    33.9669    23.7590   -81.2423    22.1776
  644.5000    33.0801    34.6724    23.4633   -82.4498    24.9266
  645.0000    30.9223    35.3779    22.7904   -84.2671    32.3869
  645.5000    30.6991    36.0834    22.1162   -84.2551    32.2450
  646.0000    30.8557    38.3637    21.6652   -83.9383    39.2528
  646.5000    30.5580    39.8815    21.5262   -83.0117    39.3055
  647.0000    29.5806    41.2302    21.4582   -83.1521    41.8633
  647.5000    28.3766    41.9357    21.3887   -83.2927    39.9011
  648.0000    28.5321    41.8706    21.2438   -82.3416    43.1061
  648.5000    28.8386    42.5891    20.8726   -80.4898    40.1394
  649.0000    28.7675    42.5241    20.6523   -79.1378    43.7443
  649.5000    27.6391    41.7144    20.2057   -77.4490    42.5420
  650.0000    26.5861    41.6623    19.9100   -76.5254    40.2724
  650.5000    26.2884    45.3981    19.6128   -78.0348    51.2315
  651.0000    26.5195    46.8742    19.3185   -78.6356    52.4574
  651.5000    25.5431    47.5682    18.8720   -78.7760    44.8755
  652.0000    24.5657    47.5146    18.4254   -78.1513    50.3601
  652.5000    23.8904    47.4621    17.9764   -77.3772    52.3493
  653.0000    23.5172    48.2477    17.5998   -76.7554    50.3837
  653.5000    23.2195    49.0076    17.2365   -76.5910    53.1361
  654.0000    23.0718    50.3366    17.1670   -76.8839    43.8790
  654.5000    23.3039    51.0421    17.4007   -77.3293    37.9655
  655.0000    23.3084    50.9770    17.2558   -76.8496    38.4548
  655.5000    23.0107    50.9250    16.9601   -76.2165    36.1687
  656.0000    21.3535    51.6305    16.5135   -75.7659    40.2938
  656.5000    20.5513    53.8511    16.2932   -75.4491    42.8826
  657.0000    20.3194    56.0848    15.9220   -75.1322    45.5919
  657.5000    20.7863    57.5348    15.1738   -74.9678    60.8427
  658.0000    20.4097    58.9979    14.9532   -75.1083    51.5856
  658.5000    19.6491    58.9458    15.1102   -75.4042    50.8426
  659.0000    19.3543    58.8938    15.1916   -75.0843    43.4093
  659.5000    19.3556    59.5993    15.1976   -74.6150    45.3984
  660.0000    19.2056    60.3048    15.2036   -74.7585    46.7797
  660.5000    18.8290    60.2397    15.2862   -74.7435    42.6898
  661.0000    18.5279    60.1876    15.3784   -74.7315    39.3598
  661.5000    18.3776    60.1355    15.5403   -75.0245    40.4371
  662.0000    18.6811    58.5683    15.5692   -75.1788    46.8213
  662.5000    18.8329    57.0141    15.5736   -75.3054    53.1407
  663.0000    17.4747    59.9793    15.5026   -74.5282    53.6590
  663.5000    17.4002    62.1999    15.4317   -73.9065    49.4187
  664.0000    17.4012    64.4336    14.9836   -73.4073    42.4399
  664.5000    16.9365    66.6543    14.5356   -73.0808    35.1571
  665.0000    16.4718    67.3485    14.0121   -72.7436    38.8166
  665.5000    15.8940    68.8098    13.4854   -72.5822    41.5612
  666.0000    15.1398    71.0506    13.0980   -72.2683    36.1052
  666.5000    14.9139    74.0731    12.6691   -72.8691    39.7646
  667.0000    14.8394    76.2294    12.4473   -72.8598    39.0138
  667.5000    14.8407    76.1643    12.2998   -72.2391    41.9134
  668.0000    14.8418    76.1122    12.3053   -71.1631    37.2172
  668.5000    14.8428    76.0601    12.3098   -71.0017    38.5970
  669.0000    14.6928    75.2505    12.3896   -71.4500    43.9283
  669.5000    14.4672    75.2085    12.3940   -71.5957    50.0193
  670.0000    14.3927    75.1856    12.3985   -71.5845    49.4235
  670.5000    14.2427    75.1628    12.4029   -71.2706    49.1286
  671.0000    14.2312    75.1400    12.3318   -70.8043    51.8792
  671.5000    14.1693    75.0931    12.1856   -70.6429    57.9703
  672.0000    14.1706    76.5412    11.9638   -70.9390    53.4231
  672.5000    14.0958    77.2349    11.8928   -71.5396    49.6358
  673.0000    13.9461    77.9242    11.6721   -71.8355    48.4316
  673.5000    13.8716    78.6136    11.6765   -71.8262    49.8119
  674.0000    13.6457    79.3035    11.4547   -71.0531    40.8573
  674.5000    13.4957    79.2348    11.3826   -70.2819    37.5055
  675.0000    13.3459    80.0504    11.3117   -70.2729    37.8419
  675.5000    13.2715    81.3752    11.2407   -70.1115    42.1093
  676.0000    13.2725    82.0657    11.1697   -69.9523    39.3858
  676.5000    13.1980    83.5139    11.0987   -70.0958    45.0818
  677.0000    13.0480    83.4301    11.1043   -70.0845    53.6960
  677.5000    12.8982    83.3631    10.9578   -70.2302    54.2403
  678.0000    12.7479    83.2961    10.8869   -70.2190    59.4979
  678.5000    12.5982    83.2291    10.8914   -70.0576    58.5981
  679.0000    12.4482    84.6772    10.8204   -69.5913    51.6192
  679.5000    12.4492    86.8830    10.8259   -68.9725    56.4945
  680.0000    12.2992    89.0909    10.8304   -68.6484    58.9382
  680.5000    12.2244    89.0217    10.6829   -68.3445    63.8104
  681.0000    12.1502    88.9545    10.6119   -68.0310    53.6431
  681.5000    12.1512    88.8864    10.6175   -68.7819    53.1963
  682.0000    12.0012    88.8182    10.6973   -69.5351    54.7281
  682.5000    12.0023    88.7369    10.7772   -69.9857  -999.2500
  683.0000    12.0033    87.1547    10.7051   -68.9074  -999.2500
  683.5000    11.9288    86.3301    10.5587   -68.4411  -999.2500
  684.0000    11.8543    85.5223    10.4133   -68.5846  -999.2500
  684.5000    11.8556    86.2129    10.2670   -68.8827  -999.2500
  685.0000    11.8566    86.9034    10.2715   -69.0239  -999.2500
  685.5000    11.7819    87.5940    10.2005   -69.1677  -999.2500
  686.0000    11.7832    88.2846    10.1295   -69.3109  -999.2500
  686.5000    11.7084    88.2008    10.1351   -69.3018  -999.2500
  687.0000    11.7097    89.6489    10.1395   -69.1402  -999.2500
  687.5000    11.5597    91.0971    10.1439   -69.1056  -999.2500
  688.0000    11.5607    92.5452    10.1484   -68.8154  -999.2500
  688.5000    11.5618    93.9934    10.0020   -68.8064  -999.2500
  689.0000    11.5628    95.4415    10.0064   -68.7974  -999.2500
  689.5000    11.4883    96.1321    10.0109   -68.6360  -999.2500
