~VERSION INFORMATION
 VERS.                2.0:   CWLS LOG ASCII STANDARD - VERSION 2.0
 WRAP.                 NO:   ONE LINE PER DEPTH STEP
~WELL INFORMATION
#MNEM.UNIT      DATA TYPE    INFORMATION
#----------   ------------   ------------------------------
 STRT.F           86.5000:   START DEPTH
 STOP.F         1282.0000:   STOP DEPTH
 STEP.F            0.5000:   STEP LENGTH
 NULL.          -999.2500:   NO VALUE
 COMP.      UNITED STATES:   COMPANY
 WELL.             NPR #3:   WELL
 FLD .        TEAPOT DOME:   FIELD
 LOC .      S14 T38N R78W:   LOCATION
 CNTY.            NATRONA:   COUNTY
 STAT.            WYOMING:   STATE
 CTRY. UNITED STATES OF AMERICA:   COUNTRY
 SRVC.       Schlumberger:   SERVICE COMPANY
 DATE.        06-JUL-1962:   LOGDATE
 API .       490250631800:   API NUMBER
~CURVE INFORMATION
#MNEM.UNIT       API CODE    CURVE DESCRIPTION
#----------   ------------   ------------------------------
 DEPT.F                  :   
 SPR .MV     05 010 01 00:   SPONTANEOUS POTENTIAL FROM RES.
 CILD.MMHO   05 110 00 00:   CONDUCTIVITY INDUCTION LOG
 ASN .OHMM   05 041 16 00:   AMPLIFIED SHORT NORMAL 16"
 ILD .OHMM   05 120 46 00:   INDUCTION LOG DEEP
 GR  .GAPI   30 310 01 00:   GAMMA RAY
~PARAMETER INFORMATION
#MNEM.UNIT          VALUE    DESCRIPTION
#----------   ------------   ------------------------------
 PD  .                 GL:   PERMANENT DATUM
 EPD .F              5288:   ELEVATION PERMANENT DATUM
 LMF .                 KB:   LOG MEASURED FROM
 DAPD.F                 5:   FEET ABOVE PERMANENT DATUM
 DMF .                 KB:   DRILLING MEASURED FROM
 EKB .F              5293:   KELLING BUSHING
 EGL .F              5288:   GROUND LEVEL
 DATE.             7-6-62:   RUN DATE
 RUN .                  1:   RUN NUMBER
 DD  .F              1286:   DEPTH DRILLER
 DL  .F              1283:   DEPTH LOGGER
 BLI .F              1282:   BOTTOM LOG INTERVAL
 TLI .F                87:   TOP LOG INTERVAL
 CBD .F                10:   CASING BOTTOM DRILLER
 BS  .IN             6.75:   BIT SIZE
 BSD .F              1286:   BIT SIZE AT DEPTH
 DFT .            GEL-OIL:   DRILLING FLUID TYPE
 DFD .               10.3:   DRILLING FLUID DENSITY
 DFV .                 53:   DRILLING FLUID VISCOSITY
 DFL .                3.6:   DRILLING FLUID LOSS
 MSS .           FLOWLINE:   MUD SAMPLE SOURCE
 RMS .OHMM           5.66:   RESISTIVITY MUD SAMPLE
 MST .F                78:   MUD SAMPLE TEMPERATURE
 RMF .OHMM           5.59:   RESISTIVITY MUD FILTRATE SAMPLE
 MFST.F                78:   MUD FILTRATE SAMPLE TEMPERATURE
 RMC .OHMM           4.47:   RESISTIVITY MUD CAKE
 MCST.F                78:   MUD CAKE SAMPLE TEMPERATURE
 MFSS.                  M:   MUD FILTRATE SAMPLE SOURCE
 MCSS.                  M:   MUD CAKE SAMPLE SOURCE
 RMB .OHMM           5.08:   RESISTIVITY MUD AT BHT
 BHT .F                88:   BOTTOM HOLE TEMPERATURE
 TCS .HRS               1:   TIME CURCULATED STOPPED
 MRT .F                88:   MAXIMUM RECORDED TEMPERATURE
 LUN .               2503:   LOGGING UNIT NUMBER
 LUL .               CSPR:   LOGGING UNIT LOCATION
 ENGI.             KNOBEL:   RECORDING ENGINEER
 WITN.          JORGENSEN:   WITNESSED BY
 CLNT.            A2DTECH:   CLIENT CODE
 ORIG.       2", 5" PRINT:   ORIGIN OF DATA
 UWI .       490250631800:   UNIQUE WELL ID
 DICO. A2D Technologies, Inc.:   DIGITIZING COMPANY
~OTHER INFORMATION
~A   DEPT      SPR       CILD        ASN        ILD         GR   
# ...
  696.5000   -35.2752   171.0763     5.8964     5.8313  -999.2500
  697.0000   -35.2063   172.5573     5.9112     5.7926  -999.2500
  697.5000   -35.2556   174.0385     5.9379     5.7539  -999.2500
  698.0000   -35.5414   175.5188     5.9553     5.7152  -999.2500
  698.5000   -35.8229   176.9993     5.9405     5.6767  -999.2500
  699.0000   -35.9002   177.9273     5.9145     5.6502  -999.2500
  699.5000   -35.4595   178.3759     5.8883     5.6506  -999.2500
  700.0000   -35.0134   178.8650     5.8621     5.6505  -999.2500
  700.5000   -34.5675   180.6094     5.8358     5.6218  -999.2500
  701.0000   -34.1682   182.3538     5.8095     5.5644  -999.2500
  701.5000   -34.2351   184.0982     5.7835     5.5070  -999.2500
  702.0000   -34.5494   185.6955     5.7213     5.4493  -999.2500
  702.5000   -34.9300   185.6955     5.6442     5.3921  -999.2500
  703.0000   -34.9613   185.6955     5.6337     5.3493  -999.2500
  703.5000   -34.8402   184.7505     5.6391     5.3484  -999.2500
  704.0000   -34.7217   182.7564     5.7531     5.4438  -999.2500
  704.5000   -34.6043   180.7623     5.8651     5.5814  -999.2500
  705.0000   -34.5620   177.8053     5.9798     5.7191  -999.2500
  705.5000   -34.5378   173.7355     6.0533     5.8555  -999.2500
  706.0000   -34.4791   169.3484     6.1368     6.0474  -999.2500
  706.5000   -34.4200   164.0458     6.2178     6.2352  -999.2500
  707.0000   -34.3672   158.7417     6.2985     6.4224  -999.2500
  707.5000   -34.4944   153.6617     6.3746     6.6093  -999.2500
  708.0000   -34.6302   150.2048     6.3887     6.7961  -999.2500
  708.5000   -34.7654   146.6544     6.4461     6.9850  -999.2500
  709.0000   -34.9013   146.6544     6.4038     7.0514  -999.2500
  709.5000   -34.9572   147.6554     6.2815     7.0542  -999.2500
  710.0000   -34.8478   150.5272     6.1592     6.9494  -999.2500
  710.5000   -34.4531   153.3314     6.0390     6.7822  -999.2500
  711.0000   -34.3643   156.1356     5.9775     6.5278  -999.2500
  711.5000   -34.3319   164.3041     5.8635     5.9201  -999.2500
  712.0000   -34.0871   173.6828     5.6909     5.3175  -999.2500
  712.5000   -33.8387   201.7123     5.3696     4.5910  -999.2500
  713.0000   -33.5939   246.5796     5.0474     3.6678  -999.2500
  713.5000   -33.5655   310.3030     4.6260     2.7559  -999.2500
  714.0000   -33.5649   386.8945     4.0397     2.1011  -999.2500
  714.5000   -33.5643   457.7899     3.4545     1.4507  -999.2500
  715.0000   -33.4063   507.1450     3.0512     1.2462  -999.2500
  715.5000   -33.0622   543.9112     2.9153     1.2457  -999.2500
  716.0000   -32.7192   577.5817     2.8157     1.2449  -999.2500
  716.5000   -32.3749   569.8650     2.8098     1.2453  -999.2500
  717.0000   -32.0286   549.5322     2.8143     1.2668  -999.2500
  717.5000   -31.9611   500.9115     2.9593     1.3901  -999.2500
  718.0000   -32.2816   438.9621     3.1544     1.8020  -999.2500
  718.5000   -32.6573   353.9860     3.5377     2.6616  -999.2500
  719.0000   -33.0365   293.0031     4.0297     3.8639  -999.2500
  719.5000   -33.4147   206.1012     5.1097     5.3249  -999.2500
  720.0000   -33.7928   154.0077     6.1885     6.7961  -999.2500
  720.5000   -34.1729   125.7277     7.1761     8.3371  -999.2500
  721.0000   -34.5522   103.0387     7.6233    10.1032  -999.2500
  721.5000   -34.6827    95.2357     8.0762    10.8934  -999.2500
  722.0000   -34.7629    91.5488     8.4327    11.1114  -999.2500
  722.5000   -34.7656    96.0524     8.5198    10.6038  -999.2500
  723.0000   -34.5962   104.5745     8.3776     9.5581  -999.2500
  723.5000   -34.3753   130.0547     8.2197     8.3163  -999.2500
  724.0000   -34.1525   155.5348     7.8085     7.0685  -999.2500
  724.5000   -33.9300   181.0150     7.0775     5.7900  -999.2500
  725.0000   -33.7074   197.9941     6.2913     5.1033  -999.2500
  725.5000   -33.4851   205.7165     5.5646     4.6507  -999.2500
  726.0000   -33.2637   207.9939     5.3639     4.6437  -999.2500
  726.5000   -33.0341   210.0711     5.5633     4.4691  -999.2500
  727.0000   -33.1523   210.7218     5.5811     4.4633  -999.2500
  727.5000   -33.5369   203.9147     5.5502     4.8290  -999.2500
  728.0000   -33.9232   194.7050     6.1768     5.6467  -999.2500
  728.5000   -34.3112   166.2257     7.2070     6.6706  -999.2500
  729.0000   -34.6992   139.7656     7.7597     7.6947  -999.2500
  729.5000   -34.7613   122.0430     7.9594     8.6592  -999.2500
  730.0000   -34.7584   114.3385     8.1643     9.1868  -999.2500
  730.5000   -35.0310   108.5672     8.4023     9.6847  -999.2500
  731.0000   -35.4637   108.5712     8.6772     9.7556  -999.2500
  731.5000   -35.8982   108.5889     8.9410     9.7496  -999.2500
  732.0000   -36.3335   105.4200     9.1797     9.9288  -999.2500
  732.5000   -36.7708   102.3991     9.4113    10.1311  -999.2500
  733.0000   -37.0750    99.3646     9.6392    10.3352  -999.2500
  733.5000   -37.2863    96.3301     9.7772    10.5376  -999.2500
  734.0000   -37.5029    94.5996     9.8926    10.6541  -999.2500
  734.5000   -37.5502    95.2242     9.9919    10.6215  -999.2500
  735.0000   -37.6793    96.2213    10.0373    10.5886  -999.2500
  735.5000   -37.9105    97.2183    10.0851    10.5565  -999.2500
  736.0000   -38.1408    97.6027    10.1334    10.5556  -999.2500
  736.5000   -38.3441    97.3529    10.1816    10.5563  -999.2500
  737.0000   -38.1203    96.1564    10.2298    10.6078  -999.2500
  737.5000   -37.6818    94.9600    10.2781    10.7388  -999.2500
  738.0000   -37.2413    93.7635    10.3266    10.8687  -999.2500
  738.5000   -36.8013    92.5670    10.3981    10.9988  -999.2500
  739.0000   -36.7714    91.5964    10.5076    11.1287  -999.2500
  739.5000   -37.2788    91.5964    10.6166    11.2198  -999.2500
  740.0000   -37.7783    90.8707    10.7257    11.3003  -999.2500
  740.5000   -38.2733    89.6203    10.8348    11.3806  -999.2500
  741.0000   -38.7660    88.3778    10.9440    11.4608  -999.2500
  741.5000   -39.2571    87.1309    11.0554    11.5418  -999.2500
  742.0000   -39.7167    85.8805    11.1771    11.6227  -999.2500
  742.5000   -40.1326    84.6391    11.3015    11.7566  -999.2500
  743.0000   -40.5294    83.5880    11.4260    11.9297  -999.2500
  743.5000   -40.5398    83.5880    11.5564    12.1043  -999.2500
  744.0000   -40.5131    83.0074    11.7782    12.2798  -999.2500
  744.5000   -41.2942    81.3456    12.0108    12.5069  -999.2500
  745.0000   -42.2365    79.6839    12.2434    12.7757  -999.2500
  745.5000   -43.1873    78.0221    12.4767    13.0453  -999.2500
  746.0000   -44.1375    76.3604    12.7098    13.3156  -999.2500
  746.5000   -45.1013    74.6986    12.9571    13.5863  -999.2500
  747.0000   -45.4696    73.5775    13.4566    13.7613  -999.2500
  747.5000   -45.5197    73.5775    13.9921    13.7605  -999.2500
  748.0000   -45.5186    71.1087    14.5289    13.8463  -999.2500
  748.5000   -45.4994    68.4243    15.0656    14.4342  -999.2500
  749.0000   -46.3301    65.4148    15.6021    15.0608  -999.2500
  749.5000   -47.4554    61.6791    16.1387    15.6885  -999.2500
  750.0000   -47.2180    57.9378    16.6754    16.3161  -999.2500
  750.5000   -46.0323    54.1879    17.2120    16.9422  -999.2500
  751.0000   -43.9841    51.5302    17.7518    17.5054  -999.2500
  751.5000   -41.8228    52.9623    18.2836    18.0218  -999.2500
  752.0000   -39.5856    55.0481    18.5593    18.0759  -999.2500
  752.5000   -38.7427    56.5615    18.3949    17.8956  -999.2500
  753.0000   -39.8133    56.5566    17.6929    17.5810  -999.2500
  753.5000   -42.4365    58.8342    17.0078    16.8190  -999.2500
  754.0000   -45.0166    62.2840    16.3211    16.0718  -999.2500
  754.5000   -47.5664    65.7284    15.6345    15.3249  -999.2500
  755.0000   -49.7290    69.1728    14.9479    14.5865  -999.2500
  755.5000   -49.7030    72.6172    14.2617    14.1684  -999.2500
  756.0000   -48.6312    74.5785    13.5720    13.8273  -999.2500
  756.5000   -47.5778    74.5785    13.4595    13.5504  -999.2500
  757.0000   -46.5208    74.5785    13.4715    13.5595  -999.2500
