~VERSION INFORMATION
 VERS.                2.0:   CWLS LOG ASCII STANDARD - VERSION 2.0
 WRAP.                 NO:   ONE LINE PER DEPTH STEP
~WELL INFORMATION
#MNEM.UNIT      DATA TYPE    INFORMATION
#----------   ------------   ------------------------------
 STRT.F            0.0000:   START DEPTH
 STOP.F          533.0000:   STOP DEPTH
 STEP.F            0.5000:   STEP LENGTH
 NULL.          -999.2500:   NO VALUE
 COMP. LAWRENCE/ALLISON INC:   COMPANY
 WELL. NAVAL PETROLEUM RESERVE 3 SX-1 #56-66-SX-10:   WELL
 FLD .             TEAPOT:   FIELD
 LOC .      S10 T38N R78W:   LOCATION
 CNTY.            NATRONA:   COUNTY
 STAT.            WYOMING:   STATE
 CTRY. UNITED STATES OF AMERICA:   COUNTRY
 SRVC.           Gearhart:   SERVICE COMPANY
 DATE.        28-JUN-1987:   LOGDATE
 API .       490251114300:   API NUMBER
~CURVE INFORMATION
#MNEM.UNIT       API CODE    CURVE DESCRIPTION
#----------   ------------   ------------------------------
 DEPT.F                  :   
 RLL .OHMM   07 220 00 00:   LATEROLOG RESISTIVITY
 RILM.OHMM   07 120 44 00:   INDUCTION LOG MEDIUM RESISTIVITY
 RILD.OHMM   07 120 46 00:   INDUCTION LOG DEEP RESISTIVITY
 GRR .GAPI   07 310 01 00:   GAMMA RAY FROM RES. LOG.
 SPR .MV     07 010 01 00:   SPONTANEOUS POTENTIAL
~PARAMETER INFORMATION
#MNEM.UNIT          VALUE    DESCRIPTION
#----------   ------------   ------------------------------
 PD  .                 GL:   PERMANENT DATUM
 EPD .F              5198:   ELEVATION PERMANENT DATUM
 LMF .                 KB:   LOG MEASURED FROM
 DAPD.F                 8:   FEET ABOVE PERMANENT DATUM
 DMF .                 KB:   DRILLING MEASURED FROM
 EKB .F              5206:   KELLING BUSHING
 EDF .F              5204:   DRILLING FLOOR
 EGL .F              5198:   GROUND LEVEL
 DATE.            6-28-87:   RUN DATE
 RUN .                  1:   RUN NUMBER
 DD  .F               535:   DEPTH DRILLER
 DL  .F               536:   DEPTH LOGGER
 BLI .F               533:   BOTTOM LOG INTERVAL
 BS  .IN             7.87:   BIT SIZE
 BSD .F               535:   BIT SIZE AT DEPTH
 DFT .                MUD:   DRILLING FLUID TYPE
 RMS .OHMM            .84:   RESISTIVITY MUD SAMPLE
 MST .F                57:   MUD SAMPLE TEMPERATURE
 RMF .OHMM            .63:   RESISTIVITY MUD FILTRATE SAMPLE
 MFST.F                57:   MUD FILTRATE SAMPLE TEMPERATURE
 RMC .OHMM           1.05:   RESISTIVITY MUD CAKE
 MCST.F                57:   MUD CAKE SAMPLE TEMPERATURE
 MFSS.               CALC:   MUD FILTRATE SAMPLE SOURCE
 MCSS.               CALC:   MUD CAKE SAMPLE SOURCE
 RMB .OHMM            .59:   RESISTIVITY MUD AT BHT
 BHT .F                80:   BOTTOM HOLE TEMPERATURE
 TCS .HRS            1200:   TIME CURCULATED STOPPED
 TLAB.HRS            1322:   TIME LOGGER AT BOTTOM
 MRT .F                80:   MAXIMUM RECORDED TEMPERATURE
 LUN .               7650:   LOGGING UNIT NUMBER
 LUL .           GILLETTE:   LOGGING UNIT LOCATION
 ENGI. JOHNSTON/HUCKFELDT:   RECORDING ENGINEER
 WITN.             STRONG:   WITNESSED BY
 CLNT.            A2DTECH:   CLIENT CODE
 ORIG.       2", 5" PRINT:   ORIGIN OF DATA
 UWI .       490251114300:   UNIQUE WELL ID
 DICO. A2D Technologies, Inc.:   DIGITIZING COMPANY
~OTHER INFORMATION
~A    DEPT     RLL         RILM       RILD       GRR       SPR   
# ...
  488.0000     9.2610     9.4090     9.5371    95.2443   -25.5672
  488.5000     9.4802     9.5811     9.7275    95.9837   -21.5095
  489.0000     9.6573     9.7563     9.9216    96.7479   -19.7598
  489.5000     9.7630     9.9347    10.1196    95.8682   -27.6952
  490.0000     9.8684    10.0612    10.3216    94.9467   -24.3536
  490.5000     9.9741    10.2150    10.5050    94.0109   -22.3572
  491.0000    10.0261    10.1943    10.4756    93.0708   -24.1618
  491.5000     9.9619    10.1544    10.4434    92.1606   -18.8132
  492.0000     9.9135    10.1146    10.4114    91.2730   -27.3262
  492.5000     9.8652    10.0749    10.3795    91.9370   -23.4460
  493.0000     9.8170    10.0354    10.3476    93.1023   -18.8364
  493.5000     9.7696     9.9961    10.3159    94.2911   -16.7029
  494.0000     9.7493     9.9569    10.2842    95.4650   -15.9642
  494.5000     9.8407     9.9179    10.2517    97.0695   -19.9026
  495.0000     9.7699     9.8790    10.2253    98.6626   -17.7896
  495.5000     9.7254     9.8407    10.0543    99.5856   -15.6266
  496.0000     9.6812     9.7510     9.9536    96.3256   -16.8237
  496.5000     9.6371     9.6631     9.8511    94.1149   -19.7443
  497.0000     9.5933     9.5759     9.7497    94.5810   -23.1461
  497.5000     9.5690     9.4895     9.6494    94.8684   -26.5933
  498.0000     9.3176     9.4039     9.5501    93.1961   -20.6401
  498.5000     9.0841     9.2268     9.4518    91.5253   -17.0254
  499.0000     8.8566     9.0399     9.3546    90.8309   -16.6263
  499.5000     8.6347     8.8484     9.1089    93.2047   -17.4570
  500.0000     8.4183     8.5861     8.7178    95.8384   -22.3468
  500.5000     8.0215     8.1251     8.3435    98.2360   -21.6521
  501.0000     7.6241     7.6970     7.6933    96.1877   -20.7638
  501.5000     7.2464     7.1073     6.8420    93.9139   -20.8889
  502.0000     6.8874     6.4952     6.0850    92.5652   -21.7704
  502.5000     6.5269     5.9358     5.4117    93.1232   -25.3994
  503.0000     6.2493     5.4246     4.8429    93.7677   -21.9528
  503.5000     5.7958     4.9575     4.3578    95.4889   -20.5823
  504.0000     5.0802     4.3540     3.9214    97.3579   -19.5461
  504.5000     4.4530     3.5754     3.6257    99.2248   -18.5451
  505.0000     3.9032     3.1190     3.5920   101.1033   -17.3636
  505.5000     3.4604     2.8693     3.5920   102.9657   -15.2125
  506.0000     3.6802     2.8690     3.5920   103.0458   -18.8067
  506.5000     4.2528     3.1498     3.7083   102.8050   -15.2207
  507.0000     4.9332     3.4133     3.8704    99.6764   -18.5744
  507.5000     5.5510     3.9206     4.4523    95.8399   -21.9227
  508.0000     6.2661     4.5029     5.1420    92.0004   -20.4298
  508.5000     6.6499     5.1710     5.8729    88.7705   -18.9146
  509.0000     6.5881     5.8720     6.3617    90.0622   -17.6294
  509.5000     6.7718     6.3637     6.8282    92.0918   -18.3302
  510.0000     7.0100     6.8965     7.3091    94.1362   -17.5387
  510.5000     7.2565     7.2752     7.6071    94.4867   -16.0299
  511.0000     7.5075     7.4829     7.7480    93.3604   -15.6185
  511.5000     7.5335     7.6965     7.8917    92.1003   -14.9033
  512.0000     7.5759     7.8711     8.0378    95.3083   -14.5150
  512.5000     7.6181     7.8933     8.2454    99.2487   -17.6661
  513.0000     7.6607     7.9157     8.1624   103.2396   -20.4324
  513.5000     7.7036     7.9379     8.1630  -999.2500   -18.5459
  514.0000     7.7468     7.9602     8.1654  -999.2500   -17.5579
  514.5000     7.7902     7.9827     8.1653  -999.2500   -17.9613
  515.0000     7.8338     8.0052     8.1653  -999.2500   -18.0519
  515.5000     7.8661     8.0277     8.1653  -999.2500   -15.2046
  516.0000     7.8290     8.0503     8.1653  -999.2500   -18.2016
  516.5000     7.7997     8.0728     8.1653  -999.2500   -19.5387
  517.0000     7.7705     8.0891     8.1654  -999.2500   -20.1339
  517.5000     7.7414     8.0043     8.1662  -999.2500   -24.7927
  518.0000     7.7207     7.9384     8.1346  -999.2500   -25.1638
  518.5000     7.6443     7.8730     8.0999  -999.2500   -22.8200
  519.0000     7.5594     7.8080     8.0655  -999.2500   -25.6108
  519.5000     7.4755     7.7437     8.0312  -999.2500   -19.4876
  520.0000     7.3925     7.6490     7.9970  -999.2500   -28.6277
  520.5000     7.3687     7.6891     7.9630  -999.2500   -24.0808
  521.0000     7.4366     7.7679     7.9400  -999.2500   -22.6415
  521.5000     7.5323     7.8475     8.0636  -999.2500   -26.7908
  522.0000     7.6294     7.9279     8.1584  -999.2500   -24.0538
  522.5000     7.7285     8.0139     8.2418  -999.2500   -30.2439
  523.0000     7.7942     7.9814     8.1943  -999.2500   -24.1925
  523.5000     7.7631     7.9454     8.1526  -999.2500   -33.4680
  524.0000     7.7308     7.9099     8.1111  -999.2500   -34.1883
  524.5000     7.6988     7.8746     8.0699  -999.2500   -32.5272
  525.0000     7.6670     7.8395     8.0288  -999.2500   -30.9117
  525.5000     7.6353     7.8046     7.9880  -999.2500   -30.2139
  526.0000     7.6038     7.7698     7.9474  -999.2500   -30.2000
  526.5000     7.5779     7.7351     7.9070  -999.2500   -30.1997
  527.0000     7.4784     7.6490     7.8659  -999.2500   -30.2075
  527.5000     7.3510     7.5033     7.6778  -999.2500   -30.7707
  528.0000     7.0709     7.3580     7.4891  -999.2500   -29.9026
  528.5000     6.6950  -999.2500     7.3075  -999.2500   -30.2574
  529.0000     6.3418  -999.2500     7.1653  -999.2500  -999.2500
  529.5000     5.9454  -999.2500     8.5553  -999.2500  -999.2500
  530.0000     6.8794  -999.2500  -999.2500  -999.2500  -999.2500
  530.5000     7.5783  -999.2500  -999.2500  -999.2500  -999.2500
  531.0000     7.9084  -999.2500  -999.2500  -999.2500  -999.2500
  531.5000     8.2418  -999.2500  -999.2500  -999.2500  -999.2500
  532.0000     8.2226  -999.2500  -999.2500  -999.2500  -999.2500
  532.5000     8.1971  -999.2500  -999.2500  -999.2500  -999.2500
  533.0000     8.1660  -999.2500  -999.2500  -999.2500  -999.2500
