~VERSION INFORMATION
 VERS.                2.0:   CWLS LOG ASCII STANDARD - VERSION 2.0
 WRAP.                 NO:   ONE LINE PER DEPTH STEP
~WELL INFORMATION
#MNEM.UNIT      DATA TYPE    INFORMATION
#----------   ------------   ------------------------------
 STRT.F            8.0000:   START DEPTH
 STOP.F         2320.0000:   STOP DEPTH
 STEP.F            0.5000:   STEP LENGTH
 NULL.          -999.2500:   NO VALUE
 COMP.    FENIX & SCISSON:   COMPANY
 WELL. N.P.R #3 #77-SHX-10:   WELL
 FLD .             TEAPOT:   FIELD
 LOC .      S10 T38N R78W:   LOCATION
 CNTY.            NATRONA:   COUNTY
 STAT.            WYOMING:   STATE
 CTRY. UNITED STATES OF AMERICA:   COUNTRY
 SRVC.              Welex:   SERVICE COMPANY
 DATE.        05-JUN-1980:   LOGDATE
 API .       490251064900:   API NUMBER
~CURVE INFORMATION
#MNEM.UNIT       API CODE    CURVE DESCRIPTION
#----------   ------------   ------------------------------
 DEPT.F                  :   
 GRD .GAPI   45 310 01 00:   GAMMA RAY FROM DENSITY LOG
 CALD.IN     45 280 60 00:   CALIPER FROM DENSITY LOG
 RHOB.G/C3   45 350 01 00:   BULK DENSITY
 DPHI.DEC    45 890 12 00:   DENSITY POROSITY SANDSTONE
 ILD .OHMM   05 120 46 00:   INDUCTION LOG DEEP
 CORR.G/C3   45 356 01 00:   DENSITY CORRECTION
~PARAMETER INFORMATION
#MNEM.UNIT          VALUE    DESCRIPTION
#----------   ------------   ------------------------------
 PD  .                 GL:   PERMANENT DATUM
 EPD .F              5210:   ELEVATION PERMANENT DATUM
 LMF .                 KB:   LOG MEASURED FROM
 DAPD.F                10:   FEET ABOVE PERMANENT DATUM
 DMF .                 KB:   DRILLING MEASURED FROM
 EKB .F              5220:   KELLING BUSHING
 EGL .F              5210:   GROUND LEVEL
 DATE.        05-JUN-1980:   RUN DATE
 RUN .                  1:   RUN NUMBER
 DD  .F              2358:   DEPTH DRILLER
 DL  .F              2322:   DEPTH LOGGER
 BLI .F              2320:   BOTTOM LOG INTERVAL
 TLI .F               900:   TOP LOG INTERVAL
 CS  .IN                7:   CASING SIZE
 BS  .IN             6.25:   BIT SIZE
 BSD .F              2358:   BIT SIZE AT DEPTH
 DFT .        AIR DRILLED:   DRILLING FLUID TYPE
 MRT .F               107:   MAXIMUM RECORDED TEMPERATURE
 ENGI.               REIN:   RECORDING ENGINEER
 WITN.              AMEND:   WITNESSED BY
 CLNT.            A2DTECH:   CLIENT CODE
 ORIG.           5" PRINT:   ORIGIN OF DATA
 UWI .       490251064900:   UNIQUE WELL ID
 DICO. A2D Technologies, Inc.:   DIGITIZING COMPANY
~OTHER INFORMATION
~A    DEPT      GRD      CALD       RHOB       DPHI        ILD       CORR   
# ...
 1204.0000    97.2653     7.4418     2.4678     0.0530  -999.2500     0.1184
 1204.5000    97.4100     7.4410     2.4640     0.0591  -999.2500     0.1123
 1205.0000    97.4030     7.4402     2.4415     0.0810  -999.2500     0.0941
 1205.5000    97.3963     7.4395     2.4174     0.0906  -999.2500     0.0820
 1206.0000    97.0920     7.4387     2.4076     0.0955  -999.2500     0.0789
 1206.5000    96.7878     7.4231     2.3978     0.1018  -999.2500     0.0834
 1207.0000    95.8854     7.4075     2.4128     0.0937  -999.2500     0.1013
 1207.5000    95.4319     7.4066     2.4225     0.1003  -999.2500     0.1133
 1208.0000    94.8292     7.4357     2.4105     0.0949  -999.2500     0.0952
 1208.5000    94.5249     7.4350     2.3984     0.0943  -999.2500     0.0846
 1209.0000    94.6685     7.4494     2.4037     0.0946  -999.2500     0.0875
 1209.5000    95.4079     7.4334     2.4119     0.0880  -999.2500     0.0980
 1210.0000    95.8511     7.4327     2.4209     0.0847  -999.2500     0.1129
 1210.5000    95.9946     7.4320     2.4284     0.0796  -999.2500     0.1264
 1211.0000    96.2862     7.4313     2.4343     0.0721  -999.2500     0.1429
 1211.5000    96.2805     7.4306     2.4426     0.0724  -999.2500     0.1564
 1212.0000    96.2736     7.4148     2.4523     0.0577  -999.2500     0.1714
 1212.5000    96.2679     7.3842     2.4222     0.0851  -999.2500     0.1653
 1213.0000    96.0862     7.3387     2.4034     0.0920  -999.2500     0.1366
 1213.5000    95.9200     7.2932     2.4011     0.0968  -999.2500     0.1230
 1214.0000    95.6525     7.2627     2.4049     0.0965  -999.2500     0.1184
 1214.5000    95.4976     7.2170     2.4093     0.0935  -999.2500     0.1303
 1215.0000    95.4918     7.2014     2.4161     0.0863  -999.2500     0.1423
 1215.5000    95.6365     7.1858     2.4228     0.0854  -999.2500     0.1498
 1216.0000    95.9293     7.1701     2.4310     0.0782  -999.2500     0.1557
 1216.5000    96.2221     7.1992     2.4400     0.0737  -999.2500     0.1632
 1217.0000    96.5137     7.2730     2.4490     0.0692  -999.2500     0.1782
 1217.5000    97.1039     7.3469     2.4535     0.0602  -999.2500     0.1901
 1218.0000    97.3978     7.3761     2.4550     0.0695  -999.2500     0.1870
 1218.5000    97.0924     7.4052     2.3791     0.0918  -999.2500     0.1553
 1219.0000    96.6378     7.4195     2.3610     0.1221  -999.2500     0.0905
 1219.5000    96.4828     7.4484     2.3700     0.1194  -999.2500     0.0784
 1220.0000    96.7756     7.4477     2.3677     0.1173  -999.2500     0.0753
 1220.5000    97.2176     7.4620     2.3617     0.1234  -999.2500     0.0662
 1221.0000    97.5104     7.4761     2.3601     0.1252  -999.2500     0.0631
 1221.5000    97.3543     7.4752     2.3796     0.1129  -999.2500     0.0811
 1222.0000    97.0500     7.4745     2.3976     0.1045  -999.2500     0.0976
 1222.5000    96.7458     7.4738     2.4171     0.0876  -999.2500     0.1111
 1223.0000    96.4416     7.4582     2.4351     0.0747  -999.2500     0.1260
 1223.5000    95.8377     7.4574     2.4449     0.0693  -999.2500     0.1425
 1224.0000    95.5335     7.4417     2.4531     0.0627  -999.2500     0.1485
 1224.5000    95.2292     7.4409     2.4636     0.0531  -999.2500     0.1620
 1225.0000    95.0742     7.4402     2.4681     0.0513  -999.2500     0.1679
 1225.5000    95.0685     7.4246     2.4665     0.0549  -999.2500     0.1588
 1226.0000    95.0616     7.4089     2.4597     0.0576  -999.2500     0.1512
 1226.5000    95.2063     7.3932     2.4567     0.0598  -999.2500     0.1481
 1227.0000    95.3498     7.3775     2.4604     0.0601  -999.2500     0.1480
 1227.5000    95.7907     7.3768     2.4657     0.0550  -999.2500     0.1555
 1228.0000    96.0835     7.4061     2.4619     0.0592  -999.2500     0.1554
 1228.5000    96.5244     7.4351     2.4573     0.0604  -999.2500     0.1508
 1229.0000    96.6691     7.4641     2.4596     0.0577  -999.2500     0.1462
 1229.5000    96.5130     7.4783     2.4625     0.0574  -999.2500     0.1371
 1230.0000    96.3580     7.4926     2.4550     0.0613  -999.2500     0.1250
 1230.5000    96.0528     7.4918     2.4377     0.0655  -999.2500     0.1114
 1231.0000    95.5991     7.4909     2.4309     0.0767  -999.2500     0.1007
 1231.5000    95.4441     7.4753     2.4294     0.0797  -999.2500     0.0977
 1232.0000    95.4384     7.4596     2.4489     0.0659  -999.2500     0.1096
 1232.5000    95.8804     7.4440     2.4578     0.0617  -999.2500     0.1171
 1233.0000    96.6210     7.4433     2.4503     0.0599  -999.2500     0.1170
 1233.5000    97.5096     7.4575     2.4646     0.0560  -999.2500     0.1230
 1234.0000    97.8036     7.4417     2.4743     0.0479  -999.2500     0.1199
 1234.5000    97.4982     7.4410     2.4607     0.0599  -999.2500     0.1153
 1235.0000    96.8954     7.4403     2.4900     0.0428  -999.2500     0.1408
 1235.5000    96.7393     7.4545     2.4990     0.0365  -999.2500     0.1558
 1236.0000    96.8840     7.4536     2.4982     0.0359  -999.2500     0.1572
 1236.5000    97.1768     7.4678     2.4944     0.0428  -999.2500     0.1572
 1237.0000    97.3203     7.4671     2.4749     0.0467  -999.2500     0.1390
 1237.5000    97.0138     7.4664     2.4493     0.0479  -999.2500     0.1193
 1238.0000    96.8588     7.4655     2.4342     0.0762  -999.2500     0.1012
 1238.5000    96.8531     7.4649     2.4395     0.0732  -999.2500     0.1056
 1239.0000    96.8474     7.4670     2.4462     0.0666  -999.2500     0.1131
 1239.5000    96.9909     7.4784     2.4552     0.0633  -999.2500     0.1160
 1240.0000    97.1344     7.4776     2.4604     0.0582  -999.2500     0.1175
 1240.5000    97.5753     7.4918     2.4619     0.0591  -999.2500     0.1174
 1241.0000    98.3170     7.4909     2.4513     0.0606  -999.2500     0.1173
 1241.5000    98.7579     7.4902     2.4618     0.0618  -999.2500     0.1172
 1242.0000    98.6029     7.4895     2.4700     0.0552  -999.2500     0.1217
 1242.5000    97.8498     7.4888     2.4715     0.0510  -999.2500     0.1306
 1243.0000    97.2470     7.5030     2.4565     0.0564  -999.2500     0.1065
 1243.5000    97.0920     7.5021     2.4504     0.0640  -999.2500     0.1169
 1244.0000    97.3860     7.5014     2.4767     0.0456  -999.2500     0.1304
 1244.5000    98.1242     7.5158     2.4834     0.0433  -999.2500     0.1379
 1245.0000    97.5215     7.5149     2.4826     0.0445  -999.2500     0.1438
 1245.5000    96.4710     7.4991     2.4864     0.0469  -999.2500     0.1453
 1246.0000    95.4205     7.4686     2.4939     0.0337  -999.2500     0.1557
 1246.5000    94.6685     7.4081     2.4788     0.0529  -999.2500     0.1300
 1247.0000    94.0646     7.3776     2.4637     0.0517  -999.2500     0.1450
 1247.5000    94.5066     7.4366     2.4584     0.0613  -999.2500     0.1389
 1248.0000    95.0979     7.4657     2.4532     0.0647  -999.2500     0.1539
 1248.5000    95.5411     7.4201     2.4479     0.0656  -999.2500     0.1554
 1249.0000    95.5342     7.3447     2.4681     0.0527  -999.2500     0.1673
 1249.5000    95.2288     7.2843     2.4959     0.0343  -999.2500     0.2004
 1250.0000    95.0750     7.2536     2.4921     0.0470  -999.2500     0.2199
 1250.5000    95.6663     7.2529     2.4771     0.0482  -999.2500     0.1972
 1251.0000    95.2117     7.2821     2.4575     0.0664  -999.2500     0.1806
 1251.5000    94.9063     7.3411     2.4500     0.0613  -999.2500     0.1731
 1252.0000    95.4976     7.4369     2.4424     0.0721  -999.2500     0.1670
 1252.5000    95.6335     7.4801     2.4536     0.0700  -999.2500     0.1610
 1253.0000    96.3726     7.4776     2.4769     0.0622  -999.2500     0.1813
 1253.5000    96.3654     7.4458     2.4917     0.0523  -999.2500     0.2001
 1254.0000    96.0557     7.4289     2.5053     0.0385  -999.2500     0.2106
 1254.5000    96.2001     7.3966     2.5102     0.0226  -999.2500     0.2241
 1255.0000    96.6424     7.3798     2.4846     0.0425  -999.2500     0.2105
 1255.5000    96.7845     7.3778     2.4831     0.0450  -999.2500     0.1591
