~VERSION INFORMATION
 VERS.                2.0:   CWLS LOG ASCII STANDARD - VERSION 2.0
 WRAP.                 NO:   ONE LINE PER DEPTH STEP
~WELL INFORMATION
#MNEM.UNIT      DATA TYPE    INFORMATION
#----------   ------------   ------------------------------
 STRT.F           82.0000:   START DEPTH
 STOP.F         1194.0000:   STOP DEPTH
 STEP.F            0.5000:   STEP LENGTH
 NULL.          -999.2500:   NO VALUE
 COMP.       INTEX OIL CO:   COMPANY
 WELL.   76S-11 NPR #3-11:   WELL
 FLD .             TEAPOT:   FIELD
 LOC .      S11 T38N R78W:   LOCATION
 CNTY.            NATRONA:   COUNTY
 STAT.            WYOMING:   STATE
 CTRY. UNITED STATES OF AMERICA:   COUNTRY
 SRVC.       Schlumberger:   SERVICE COMPANY
 DATE.        30-AUG-1966:   LOGDATE
 API .       490250972800:   API NUMBER
~CURVE INFORMATION
#MNEM.UNIT       API CODE    CURVE DESCRIPTION
#----------   ------------   ------------------------------
 DEPT.F                  :   
 SPR .MV     05 010 01 00:   SPONTANEOUS POTENTIAL FROM RES.
 CILD.MMHO   05 110 46 00:   CONDUCTIVITY INDUCTION LOG DEEP
 ILD .OHMM   05 120 46 00:   INDUCTION LOG DEEP
 ASN .OHMM   05 041 16 00:   AMPLIFIED SHORT NORMAL 16"
 CALD.IN     45 280 60 00:   CALIPER FROM DENSITY LOG
 CORR.G/C3   45 356 01 00:   DENSITY CORRECTION
 RHOB.G/C3   45 350 01 00:   BULK DENSITY
 DPHI.DEC    45 890 12 00:   DENSITY POROSITY SANDSTONE
 GRD .GAPI   45 310 01 00:   GAMMA RAY FROM DENSITY LOG
~PARAMETER INFORMATION
#MNEM.UNIT          VALUE    DESCRIPTION
#----------   ------------   ------------------------------
 PD  .                 GL:   PERMANENT DATUM
 EPD .F              5261:   ELEVATION PERMANENT DATUM
 LMF .                 KB:   LOG MEASURED FROM
 DAPD.F                 5:   FEET ABOVE PERMANENT DATUM
 DMF .                 KB:   DRILLING MEASURED FROM
 EKB .F              5266:   KELLING BUSHING
 EGL .F              5261:   GROUND LEVEL
 DATE.            8-30-66:   RUN DATE
 RUN .                  1:   RUN NUMBER
 DD  .F              1191:   DEPTH DRILLER
 DL  .F              1191:   DEPTH LOGGER
 BLI .F              1190:   BOTTOM LOG INTERVAL
 TLI .F                87:   TOP LOG INTERVAL
 CS  .IN            8.625:   CASING SIZE
 CBD .F                10:   CASING BOTTOM DRILLER
 BS  .IN             6.75:   BIT SIZE
 BSD .F              1191:   BIT SIZE AT DEPTH
 DFT .           CHEM-GEL:   DRILLING FLUID TYPE
 DFD .                9.8:   DRILLING FLUID DENSITY
 DFV .                 60:   DRILLING FLUID VISCOSITY
 MSS .         CIRCULATED:   MUD SAMPLE SOURCE
 RMS .OHMM            .76:   RESISTIVITY MUD SAMPLE
 MST .F                85:   MUD SAMPLE TEMPERATURE
 RMF .OHMM            .46:   RESISTIVITY MUD FILTRATE SAMPLE
 MFST.F                88:   MUD FILTRATE SAMPLE TEMPERATURE
 MFSS.                  M:   MUD FILTRATE SAMPLE SOURCE
 RMB .OHMM           .695:   RESISTIVITY MUD AT BHT
 BHT .F                93:   BOTTOM HOLE TEMPERATURE
 TCS .HRS               1:   TIME CURCULATED STOPPED
 MRT .F                93:   MAXIMUM RECORDED TEMPERATURE
 LUN .               3527:   LOGGING UNIT NUMBER
 LUL .               CSPR:   LOGGING UNIT LOCATION
 ENGI.               HAUG:   RECORDING ENGINEER
 WITN.                MAY:   WITNESSED BY
 CLNT.            A2DTECH:   CLIENT CODE
 ORIG. 2", 2.5", 5" PRINT:   ORIGIN OF DATA
 UWI .       490250972800:   UNIQUE WELL ID
 DICO. A2D Technologies, Inc.:   DIGITIZING COMPANY
~OTHER INFORMATION
~A   DEPT      SPR        CILD       ILD          ASN     CALD       CORR       RHOB       DPHI        GRD   
# ...
  994.5000   -40.3919   187.3023     4.9927     7.6082     7.2001     0.0525     2.5147     0.0814   128.2942
  995.0000   -40.3866   202.1137     4.6725     7.5195     7.2010     0.0585     2.5214     0.0787   128.6459
  995.5000   -40.1947   216.7654     4.3558     7.2612     7.2021     0.0629     2.5087     0.0771   129.9339
  996.0000   -40.0479   227.6300     4.2233     6.8696     7.2017     0.0515     2.5023     0.0905   131.7146
  996.5000   -39.8822   234.2159     4.1688     6.5082     7.2002     0.0433     2.4977     0.0882   133.6004
  997.0000   -39.7233   239.1601     4.0557     6.1006     7.1989     0.0482     2.4871     0.0934   134.3351
  997.5000   -39.5673   241.7831     3.9742     5.8563     7.1975     0.0560     2.4761     0.1026   134.8990
  998.0000   -39.3938   242.4790     3.8588     5.7800     7.1961     0.0639     2.4572     0.1117   135.4165
  998.5000   -39.3007   238.2635     3.9414     5.9380     7.1947     0.0644     2.4390     0.1174   133.7665
  999.0000   -39.6109   225.1697     4.3151     6.4376     7.1934     0.0616     2.4677     0.1082   132.5153
  999.5000   -39.9602   210.6387     4.6747     6.9326     7.1920     0.0624     2.4948     0.0990   130.5487
 1000.0000   -40.0215   196.1078     5.0560     7.4338     7.1906     0.0643     2.5086     0.0897   127.6309
 1000.5000   -39.8832   181.5768     5.4080     7.9109     7.1893     0.0675     2.5218     0.0810   124.6007
 1001.0000   -39.9169   167.0459     5.8180     8.2706     7.1879     0.0652     2.5316     0.0716   123.1002
 1001.5000   -40.1455   156.1078     6.0930     8.5300     7.1865     0.0553     2.5269     0.0760   122.6531
 1002.0000   -40.2988   152.7545     6.1624     8.7496     7.1851     0.0461     2.5101     0.0890   121.8531
 1002.5000   -40.4104   149.4012     6.2805     8.9518     7.1838     0.0379     2.5173     0.0834   120.4080
 1003.0000   -40.3983   146.8899     6.3662     9.0805     7.1824     0.0507     2.5360     0.0706   119.0945
 1003.5000   -40.1899   145.9753     6.4869     9.2215     7.1810     0.0791     2.5591     0.0534   117.4105
 1004.0000   -39.9748   145.0608     6.5360     9.2739     7.1796     0.0827     2.5458     0.0575   118.5620
 1004.5000   -39.8433   144.1463     6.5619     9.3267     7.1783     0.0601     2.5283     0.0729   121.4398
 1005.0000   -39.7722   143.2136     6.6321     9.3610     7.1769     0.0533     2.5218     0.0779   122.6469
 1005.5000   -39.6487   143.2136     6.5918     9.3989     7.1755     0.0563     2.5151     0.0787   121.2036
 1006.0000   -39.7351   143.2136     6.5729     9.4361     7.1742     0.0579     2.5104     0.0858   120.0723
 1006.5000   -39.9169   144.2834     6.5430     9.4658     7.1728     0.0664     2.5230     0.0796   118.8782
 1007.0000   -40.1273   145.6248     6.5191     9.4428     7.1714     0.0790     2.5340     0.0692   117.6766
 1007.5000   -40.2191   147.2056     6.4922     9.4035     7.1700     0.0665     2.5217     0.0712   116.4788
 1008.0000   -39.9386   146.6891     6.4673     9.3010     7.1687     0.0473     2.5169     0.0775   115.9579
 1008.5000   -39.5189   146.2076     6.4464     9.1910     7.1673     0.0669     2.5381     0.0717   116.4487
 1009.0000   -39.3694   145.1730     6.5613     9.1381     7.1659     0.0948     2.5560     0.0622   116.8435
 1009.5000   -39.8963   144.2116     6.7167     9.1496     7.1646     0.0860     2.5631     0.0551   116.9568
 1010.0000   -39.9416   141.9008     6.8693     9.2995     7.1632     0.0595     2.5111     0.0835   116.2414
 1010.5000   -39.5926   139.1924     7.0191     9.4662     7.1627     0.0498     2.5212     0.0780   115.5063
 1011.0000   -39.3127   137.2256     7.0372     9.6234     7.1627     0.0646     2.5368     0.0714   114.7973
 1011.5000   -39.4898   138.2236     6.7302     9.8100     7.1627     0.0763     2.5543     0.0651   114.0256
 1012.0000   -39.8184   154.6326     6.1533     9.7670     7.1627     0.0835     2.5574     0.0582   114.2178
 1012.5000   -40.0139   170.9201     5.6471     9.4817     7.1627     0.0741     2.5452     0.0582   114.4189
 1013.0000   -39.7903   187.2075     5.0674     8.9718     7.1627     0.0653     2.5335     0.0708   115.3319
 1013.5000   -39.5259   203.4949     4.5451     8.2470     7.1627     0.0598     2.5164     0.0813   117.0667
 1014.0000   -39.5628   218.0639     4.3610     7.5414     7.1627     0.0596     2.5049     0.0904   118.6176
 1014.5000   -39.9290   217.8356     4.3302     6.7792     7.1627     0.0556     2.4943     0.0975   121.4416
 1015.0000   -39.9269   217.5212     4.3387     6.5526     7.1627     0.0619     2.4720     0.1056   124.0616
 1015.5000   -39.5274   217.2068     4.3342     6.6182     7.1627     0.0767     2.4440     0.1149   122.6632
 1016.0000   -39.0733   214.2914     4.3978     7.0907     7.1627     0.0948     2.4172     0.1237   119.6352
 1016.5000   -38.9413   205.6287     4.6301     7.9063     7.1627     0.0821     2.4333     0.1205   116.8339
 1017.0000   -39.2974   187.3832     5.3700     8.9059     7.1627     0.0560     2.4829     0.1022   113.5401
 1017.5000   -39.5991   163.7425     6.2021     9.9369     7.1627     0.0473     2.4971     0.0872   111.8537
 1018.0000   -39.8619   143.3932     6.9838    10.2798     7.1627     0.0395     2.5032     0.0808   109.6539
 1018.5000   -39.9392   128.3034     7.7634    10.7074     7.1627     0.0494     2.5278     0.0745   109.6294
 1019.0000   -40.0130   118.4551     8.0598    10.7180     7.1627     0.0627     2.5432     0.0639   110.8630
 1019.5000   -40.0810   116.8543     7.9782    10.7279     7.1627     0.0645     2.5243     0.0686   112.1077
 1020.0000   -40.1530   117.2348     7.9333    10.7471     7.1627     0.0424     2.5105     0.0832   114.3398
 1020.5000   -40.2218   119.5563     7.8621    10.7694     7.1627     0.0337     2.5068     0.0871   115.3354
 1021.0000   -40.3079   122.2555     7.8085    10.7958     7.1627     0.0339     2.5010     0.0902   115.7463
 1021.5000   -40.4122   121.5905     7.7354    10.8171     7.1627     0.0440     2.5067     0.0918   116.2762
 1022.0000   -40.5195   120.7963     7.7775    10.8269     7.1627     0.0572     2.5267     0.0772   115.9686
 1022.5000   -40.6210   120.0021     7.9054    10.8202     7.1627     0.0710     2.5460     0.0665   113.9406
 1023.0000   -40.7592   119.2615     8.1931    10.8528     7.1628     0.0686     2.5468     0.0643   110.9598
 1023.5000   -40.6698   114.6081     8.4811    11.2336     7.1627     0.0657     2.5415     0.0648   106.3043
 1024.0000   -40.4397   110.2488     8.7605    11.8935     7.1627     0.0720     2.5392     0.0678   101.2837
 1024.5000   -40.7843   106.2874     9.0297    12.5250     7.1633     0.0782     2.5355     0.0708    96.9386
 1025.0000   -41.5829    99.7360     9.5414    13.5313     7.1620     0.0824     2.5279     0.0716    89.1198
 1025.5000   -42.2835    93.7325    10.3378    14.4534     7.1623     0.0733     2.5201     0.0821    82.4384
 1026.0000   -43.1535    87.7291    11.1370    15.3756     7.1161     0.0646     2.5097     0.0910    75.3685
 1026.5000   -44.1189    81.7256    11.8975    16.0051     7.0581     0.0654     2.4901     0.1006    69.3323
 1027.0000   -45.0874    75.7221    12.7646    16.3644     7.0097     0.0705     2.4713     0.1103    65.7683
 1027.5000   -45.9973    69.3613    13.3149    16.7237     6.9712     0.0620     2.4522     0.1199    63.1695
 1028.0000   -46.6620    68.6335    13.6056    17.0830     6.9212     0.0488     2.4335     0.1296    64.1237
 1028.5000   -47.2706    67.8597    13.7608    17.3331     6.8680     0.0488     2.4177     0.1387    65.0589
 1029.0000   -47.5870    67.3653    13.6055    17.2995     6.8437     0.0506     2.3846     0.1602    66.9813
 1029.5000   -47.7309    69.5584    13.2921    17.3327     6.8453     0.0535     2.3599     0.1743    69.7895
 1030.0000   -47.8779    71.4446    12.9712    17.1317     6.8448     0.0493     2.3556     0.1821    72.4967
 1030.5000   -48.0481    73.3308    12.6450    16.8160     6.8466     0.0416     2.3489     0.1836    75.2780
