~VERSION INFORMATION
 VERS.                2.0:   CWLS LOG ASCII STANDARD - VERSION 2.0
 WRAP.                 NO:   ONE LINE PER DEPTH STEP
~WELL INFORMATION
#MNEM.UNIT      DATA TYPE    INFORMATION
#----------   ------------   ------------------------------
 STRT.F           32.0000:   START DEPTH
 STOP.F          551.0000:   STOP DEPTH
 STEP.F            0.5000:   STEP LENGTH
 NULL.          -999.2500:   NO VALUE
 COMP.    FENIX & SCISSON:   COMPANY
 WELL.   NPR ##3 84-SX-10:   WELL
 FLD .              NPR 3:   FIELD
 LOC .      S10 T38N R78W:   LOCATION
 CNTY.            NATRONA:   COUNTY
 STAT.            WYOMING:   STATE
 CTRY. UNITED STATES OF AMERICA:   COUNTRY
 SRVC.              Welex:   SERVICE COMPANY
 DATE.        25-JAN-1978:   LOGDATE
 API .       490251033700:   API NUMBER
~CURVE INFORMATION
#MNEM.UNIT       API CODE    CURVE DESCRIPTION
#----------   ------------   ------------------------------
 DEPT.F                  :   
 SPR .MV     07 010 01 00:   SPONTANEOUS POTENTIAL FROM RES.
 ILD .OHMM   07 120 46 00:   INDUCTION LOG DEEP
 ILM .OHMM   07 120 44 00:   INDUCTION LOG MEDIUM
 SGRD.OHMM   07 220 05 00:   SHALLOW GUARD RESISTIVITY
 CALD.IN     45 280 60 00:   CALIPER FROM DENSITY LOG
 GRD .GAPI   45 310 01 00:   GAMMA RAY FROM DENSITY LOG
 CORR.G/C3   45 356 01 00:   DENSITY CORRECTION
 RHOB.G/C3   45 350 01 00:   BULK DENSITY
 DPHI.DEC    45 890 12 00:   DENSITY POROSITY SANDSTONE
~PARAMETER INFORMATION
#MNEM.UNIT          VALUE    DESCRIPTION
#----------   ------------   ------------------------------
 CLNT.            A2DTECH:   CLIENT CODE
 ORIG.           5" PRINT:   ORIGIN OF DATA
 UWI .       490251033700:   UNIQUE WELL ID
 DICO. A2D Technologies, Inc.:   DIGITIZING COMPANY
~OTHER INFORMATION
~A   DEPT      SPR        ILD        ILM       SGRD         CALD      GRD       CORR       RHOB       DPHI   
# ...
  178.0000   -44.8290     8.8134     9.0334    14.8336     8.3189   114.4802     0.0517     2.5068     0.0930
  178.5000   -44.8304     8.6918     8.9094    14.5262     8.3188   113.5779     0.0547     2.5075     0.0912
  179.0000   -44.8319     8.5719     8.8481    14.0196     8.3336   113.7266     0.0577     2.5083     0.0890
  179.5000   -44.9835     8.5124     8.7873    13.7382     8.3335   113.7251     0.0592     2.5130     0.0867
  180.0000   -45.1351     8.4533     8.7269    14.0256     8.3484   112.8228     0.0607     2.5158     0.0852
  180.5000   -45.2870     8.3946     8.7272    14.3182     8.3332   111.9194     0.0636     2.5128     0.0870
  181.0000   -45.2885     8.3364     8.7275    14.2174     8.3330   111.1682     0.0666     2.5203     0.0825
  181.5000   -45.2899     8.3360     8.7884    13.9228     8.3329   111.4667     0.0666     2.5248     0.0795
  182.0000   -45.2914     8.3357     8.7886    13.7292     8.3327   112.9668     0.0636     2.5263     0.0786
  182.5000   -45.4430     8.2778     8.7889    13.4447     8.3326   114.6170     0.0621     2.5203     0.0828
  183.0000   -45.5966     8.2775     8.7284    13.3500     8.3174   116.4173     0.0636     2.5102     0.0891
  183.5000   -45.8964     8.3347     8.7894    13.3344     8.3323   119.1186     0.0621     2.5060     0.0918
  184.0000   -46.0483     8.3343     8.7896    13.3466     8.3321   115.2132     0.0620     2.5068     0.0915
  184.5000   -46.0497     8.3340     8.7899    13.6249     8.3320   113.5310     0.0605     2.5075     0.0909
  185.0000   -46.2013     8.3336     8.7901    14.7031     8.3168   111.6063     0.0605     2.5053     0.0918
  185.5000   -46.2028     8.3333     8.7903    14.9071     8.3167   110.4037     0.0605     2.4970     0.0940
  186.0000   -46.3544     8.3330     8.7203    13.7144     8.3165   113.7055     0.0575     2.5000     0.0955
  186.5000   -46.3559     8.3905     8.5507    12.9591     8.3164   114.3050     0.0560     2.5015     0.0937
  187.0000   -46.3577     8.3902     8.5509    13.4285     8.3162   113.4023     0.0544     2.5008     0.0961
  187.5000   -46.3591     8.3898     8.4921    12.9690     8.3160   112.5000     0.0529     2.4925     0.1015
  188.0000   -46.5107     8.2740     8.4924    13.3317     8.3009   111.8899     0.0529     2.4797     0.1084
  188.5000   -46.5121     8.2166     8.5516    13.6107     8.3007   111.4456     0.0514     2.4812     0.1075
  189.0000   -46.5136     8.1033     8.6712    13.4210     8.3006   111.4442     0.0469     2.4797     0.1072
  189.5000   -46.3649     7.9363     9.1021    13.5131     8.2854   111.5933     0.0409     2.4722     0.1121
  190.0000   -46.3664     7.7729     8.5445    13.6053     8.2703   112.1920     0.0378     2.4577     0.1178
  190.5000   -46.3682     7.6656     7.9804    12.6039     8.2701   113.2416     0.0348     2.4617     0.1157
  191.0000   -46.3696     7.5077     7.6558    11.7579     8.2700   114.1411     0.0348     2.4722     0.1118
  191.5000   -46.2205     7.4518     7.4986    11.5944     8.2698   114.4489     0.0348     2.4774     0.1100
  192.0000   -46.0718     7.3527     7.4470    10.5642     8.2697   117.4415     0.0348     2.4759     0.1097
  192.5000   -46.0736     7.2513     7.3448    11.4313     8.2845   115.6379     0.0333     2.4714     0.1112
  193.0000   -45.9249     7.2009     7.3450    12.4218     8.2844   115.0362     0.0332     2.4684     0.1127
  193.5000   -45.9264     7.2007     7.5516    12.2491     8.2842   116.3857     0.0332     2.4654     0.1133
  194.0000   -45.9282     7.2004     7.6571    11.9123     8.2841   117.1350     0.0332     2.4647     0.1127
  194.5000   -45.9296     7.2001     7.7641    11.5849     8.2689   117.3349     0.0332     2.4714     0.1124
  195.0000   -45.9311     7.1998     7.8183    11.5033     8.2838   115.6306     0.0332     2.4699     0.1133
  195.5000   -46.0827     7.1995     7.8729    11.7436     8.2836   115.4790     0.0332     2.4624     0.1142
  196.0000   -46.3844     7.2039     7.9278    12.3377     8.2835   117.8796     0.0332     2.4662     0.1121
  196.5000   -46.3859     7.2993     7.9831    12.7591     8.2683   118.7794     0.0331     2.4722     0.1109
  197.0000   -46.6877     7.3497     7.9833    12.4947     8.2682   118.7776     0.0331     2.4745     0.1100
  197.5000   -46.9898     7.4005     7.9835    12.2358     8.2680   118.9267     0.0361     2.4774     0.1085
  198.0000   -47.1414     7.4517     7.9838    12.1501     8.2679   119.0750     0.0436     2.4827     0.1061
  198.5000   -47.2930     7.5032     8.0395    12.7524     8.2677   119.0735     0.0511     2.4925     0.1013
  199.0000   -47.4446     7.5550     8.0955    12.6626     8.2676   119.3903     0.0526     2.5015     0.0977
  199.5000   -47.5961     7.6600     8.1521    12.9271     8.2674   120.4216     0.0481     2.5031     0.0974
  200.0000   -47.7477     7.7665     8.2238    13.1060     8.2673   122.1149     0.0360     2.4865     0.0999
  200.5000   -48.0499     7.6914     8.4141    13.1903     8.2623   122.0224     0.0330     2.4812     0.1077
  201.0000   -48.0513     7.9077     8.5300    13.2804     8.2573   121.3116     0.0345     2.4827     0.1071
  201.5000   -47.9026     8.1865     8.6475    13.3707     8.2523   121.0069     0.0345     2.4842     0.1062
  202.0000   -47.9040     8.4814     8.7666    13.3689     8.2660   120.7023     0.0375     2.4865     0.1050
  202.5000   -47.9055     8.5343     8.8874    13.1827     8.2958   120.5478     0.0412     2.4902     0.1026
  203.0000   -47.7568     8.1872     8.8855    13.0899     8.2955   120.5434     0.0480     2.4970     0.0999
  203.5000   -47.7332     7.8542     8.5790    12.9978     8.3102   120.9969     0.0449     2.5023     0.0960
  204.0000   -47.6095     7.6398     8.1738    12.9063     8.3099   122.1853     0.0404     2.4976     0.0972
  204.5000   -47.6113     7.5349     8.0600    12.7177     8.3246   123.9828     0.0419     2.4827     0.1002
  205.0000   -47.6127     7.5876     8.0030    12.3767     8.3244   125.0295     0.0479     2.4902     0.1014
  205.5000   -47.6142     7.6405     8.0016    12.1203     8.3240   123.9741     0.0524     2.4962     0.0987
  206.0000   -47.3153     7.6938     8.0558    12.1187     8.3237   122.1680     0.0547     2.5015     0.0948
  206.5000   -47.1666     7.7475     8.1104    12.4580     8.3234   120.9624     0.0479     2.5038     0.0927
  207.0000   -47.1684     7.7477     8.1654    12.6380     8.3231   120.0269     0.0418     2.5030     0.0936
  207.5000   -47.0193     7.8018     8.1636    13.0740     8.3228   119.3010     0.0343     2.4940     0.1014
  208.0000   -46.8706     7.8020     8.1059    13.1637     8.3225   120.9483     0.0283     2.4848     0.1057
  208.5000   -46.8724     7.8022     8.1045    12.5379     8.3223   120.1932     0.0268     2.4774     0.1083
  209.0000   -46.7237     7.8566     8.0469    12.6235     8.3219   118.6874     0.0336     2.4744     0.1071
  209.5000   -46.7252     7.7488     8.1017    12.7982     8.3216   117.7821     0.0403     2.4850     0.1035
  210.0000   -46.7270     7.7490     8.1563    12.7961     8.3213   118.0781     0.0402     2.4925     0.1014
  210.5000   -46.5779     7.6957     8.5009    12.7945     8.3210   119.7478     0.0357     2.4917     0.1023
  211.0000   -46.4292     7.6428     8.8600    12.7929     8.3358   120.4718     0.0357     2.4865     0.1047
  211.5000   -46.4310     7.6962     8.6161    12.7912     8.3355   120.3162     0.0417     2.4919     0.1038
  212.0000   -46.1321     7.6433     8.3793    12.7848     8.3277   119.5611     0.0462     2.5038     0.0989
  212.5000   -46.1339     7.5383     8.1490    12.5242     8.3198   118.8060     0.0455     2.5068     0.0969
  213.0000   -45.9849     7.4865     8.0355    12.0958     8.3345   118.0509     0.0432     2.4932     0.1008
  213.5000   -45.8362     7.4351     7.8146    11.8452     8.3342   117.7462     0.0446     2.4940     0.0993
  214.0000   -45.8380     7.3839     7.5471    11.9262     8.3339   117.7409     0.0491     2.5008     0.0954
