~VERSION INFORMATION
 VERS.                2.0:   CWLS LOG ASCII STANDARD - VERSION 2.0
 WRAP.                 NO:   ONE LINE PER DEPTH STEP
~WELL INFORMATION
#MNEM.UNIT      DATA TYPE    INFORMATION
#----------   ------------   ------------------------------
 STRT.F           29.0000:   START DEPTH
 STOP.F          642.0000:   STOP DEPTH
 STEP.F            0.5000:   STEP LENGTH
 NULL.          -999.2500:   NO VALUE
 COMP. FENIX & SCISSON INC:   COMPANY
 WELL.    NPR-3 SX #21-10:   WELL
 FLD .  TEAPOT DOME NPR 3:   FIELD
 LOC .      S10 T38N R78W:   LOCATION
 CNTY.            NATRONA:   COUNTY
 STAT.            WYOMING:   STATE
 CTRY. UNITED STATES OF AMERICA:   COUNTRY
 SRVC.            Unknown:   SERVICE COMPANY
 DATE.        03-JUL-1978:   LOGDATE
 API .       490251065400:   API NUMBER
~CURVE INFORMATION
#MNEM.UNIT       API CODE    CURVE DESCRIPTION
#----------   ------------   ------------------------------
 DEPT.F                  :   
 SPR .MV     05 010 01 00:   SPONTANEOUS POTENTIAL FROM RES.
 SN  .OHMM   05 040 16 00:   SHORT NORMAL 16"
 ILD .OHMM   05 120 46 00:   INDUCTION LOG DEEP
 CALD.IN     45 280 60 00:   CALIPER FROM DENSITY
 GRD .GAPI   45 310 01 00:   GAMMA RAY FROM DENSITY LOG
 CORR.G/C3   45 356 01 00:   DENSITY CORRECTION
 DPHI.DEC    45 890 12 00:   DENSITY POROSITY SANDSTONE
 DEN .G/C3   45 350 01 00:   COMPENSATED BULK DENSTIY
~PARAMETER INFORMATION
#MNEM.UNIT          VALUE    DESCRIPTION
#----------   ------------   ------------------------------
 PD  .                 GL:   PERMANENT DATUM
 EPD .F              5253:   ELEVATION PERMANENT DATUM
 LMF .                 KB:   LOG MEASURED FROM
 DAPD.F                 4:   FEET ABOVE PERMANENT DATUM
 DMF .                 KB:   DRILLING MEASURED FROM
 EKB .F              5257:   KELLING BUSHING
 EGL .F              5253:   GROUND LEVEL
 DATE.           7-3-1978:   RUN DATE
 RUN .                  1:   RUN NUMBER
 DD  .F               650:   DEPTH DRILLER
 DL  .F               648:   DEPTH LOGGER
 BLI .F               642:   BOTTOM LOG INTERVAL
 TLI .F                40:   TOP LOG INTERVAL
 CS  .IN            8.625:   CASING SIZE
 CBD .F                40:   CASING BOTTOM DRILLER
 CBL .F                40:   CASING BOTTOM LOGGER
 BS  .IN            7.875:   BIT SIZE
 BSD .F               650:   BIT SIZE AT DEPTH
 DFT .                KCL:   DRILLING FLUID TYPE
 DFD .                8.6:   DRILLING FLUID DENSITY
 DFV .                 32:   DRILLING FLUID VISCOSITY
 DFPH.                  9:   DRILLING FLUID PH
 MSS .           FLOWLINE:   MUD SAMPLE SOURCE
 RMS .OHMM            .24:   RESISTIVITY MUD SAMPLE
 MST .F                88:   MUD SAMPLE TEMPERATURE
 RMF .OHMM            .24:   RESISTIVITY MUD FILTRATE SAMPLE
 MFST.F                94:   MUD FILTRATE SAMPLE TEMPERATURE
 RMC .OHMM            .46:   RESISTIVITY MUD CAKE
 MCST.F                96:   MUD CAKE SAMPLE TEMPERATURE
 MFSS.               MEAS:   MUD FILTRATE SAMPLE SOURCE
 MCSS.               MEAS:   MUD CAKE SAMPLE SOURCE
 TCS .HRS               2:   TIME CURCULATED STOPPED
 LUN .               2958:   LOGGING UNIT NUMBER
 LUL .               CASP:   LOGGING UNIT LOCATION
 CLNT.            A2DTECH:   CLIENT CODE
 ORIG.           5" PRINT:   ORIGIN OF DATA
 UWI .       490251065400:   UNIQUE WELL ID
 DICO. A2D Technologies, Inc.:   DIGITIZING COMPANY
~OTHER INFORMATION
~A   DEPT      SPR         SN        ILD       CALD        GRD       CORR       DPHI        DEN   
# ...
  555.5000   -20.9524    12.4745    14.8959     8.1037   104.8013     0.0361     0.2046     2.3260
  556.0000   -20.9226    12.4031    14.6027     8.1042   104.2187     0.0390     0.1974     2.3514
  556.5000   -20.8929    12.3255    14.6211     8.1046   102.0136     0.0390     0.2007     2.3619
  557.0000   -20.8574    12.1777    14.5351     8.1051    99.3661     0.0389     0.2024     2.3559
  557.5000   -20.8282    12.1951    14.4505     8.1205    97.6036     0.0359     0.1914     2.3544
  558.0000   -20.7991    12.2091    14.3609     8.1210    95.3986     0.0298     0.1904     2.3739
  558.5000   -20.7700    12.1358    14.1840     8.1364    94.2257     0.0298     0.1983     2.3731
  559.0000   -20.8969    12.1532    14.1010     8.0620    94.0855     0.0327     0.1983     2.3559
  559.5000   -21.1581    12.1672    13.8270     8.0474    94.2407     0.0357     0.2085     2.3477
  560.0000   -21.4266    12.0941    13.8444     8.0479    94.8380     0.0386     0.1968     2.3461
  560.5000   -21.8452    12.1115    13.8584     8.0484    96.0253     0.0326     0.1932     2.3716
  561.0000   -22.2612    12.1254    13.8724     8.0488    97.5076     0.0221     0.1858     2.3805
  561.5000   -22.6785    12.1393    13.9823     8.0044    97.3674     0.0131     0.1873     2.3828
  562.0000   -22.9470    12.1532    14.1903     7.9899    94.2775     0.0055     0.1924     2.3828
  562.5000   -22.9167    12.2514    14.3027     7.9903    93.6701     0.0010     0.1948     2.3768
  563.0000   -22.7327    12.2657    14.3171     7.9908    96.6520     0.0054     0.1990     2.3670
  563.5000   -22.5547    12.2827    14.4312     8.0061    96.5119     0.0114     0.2032     2.3581
  564.0000   -22.6817    12.2968    14.6455     7.9767    95.7817     0.0173     0.2044     2.3409
  564.5000   -22.8014    12.3109    14.6607     7.9622    95.7892     0.0217     0.1999     2.3431
  565.0000   -22.7649    12.3250    14.6785     7.9626    94.9116     0.0217     0.1918     2.3618
  565.5000   -22.8919    12.3391    14.6933     7.9480    94.7714     0.0186     0.1939     2.3737
  566.0000   -23.1531    12.3532    14.7082     7.6490    95.3688     0.0111     0.1912     2.3707
  566.5000   -23.2738    12.3674    14.5219     7.8143    96.1136     0.0081     0.1897     2.3737
  567.0000   -23.2437    12.3816    14.4333     7.9943    97.0079     0.0095     0.1933     2.3767
  567.5000   -23.3633    12.3958    14.4515     8.0846    98.1957     0.0095     0.1999     2.3684
  568.0000   -23.7806    12.4100    14.4661     7.7556    97.8897     0.0094     0.1999     2.3595
  568.5000   -23.9003    12.4245    14.4807     7.9208    94.8156     0.0049     0.2000     2.3557
  569.0000   -24.1688    12.4390    14.5954     7.9363    94.9913    -0.0011     0.2009     2.3565
  569.5000   -24.2885    12.3709    14.6103     7.9216    97.3964    -0.0072     0.2076     2.3565
  570.0000   -24.2521    12.2123    14.5247     7.9071    98.5249    -0.0072     0.2125     2.3523
  570.5000   -24.2229    12.2298    14.5430     7.8927    96.7624     0.0002     0.2071     2.3316
  571.0000   -24.3426    12.1564    14.4543     7.8932    98.7768     0.0046     0.1979     2.3303
  571.5000   -24.7672    12.1739    14.1733     7.9086   100.7596     0.0046     0.1934     2.3531
  572.0000   -25.3333    12.1008    14.1912     7.9390    99.5830     0.0000     0.1853     2.3687
  572.5000   -25.4464    12.0316    14.1082     7.9693    94.8574     0.0030     0.1808     2.3843
  573.0000   -25.4166    11.9657    14.1225     8.0147    95.1043     0.0104     0.1763     2.3832
  573.5000   -25.8339    11.8979    13.8492     8.0152    98.0004     0.0148     0.1700     2.3854
  574.0000   -25.9535    11.8299    13.8632     8.0605   103.1388     0.0118     0.1671     2.4112
  574.5000   -26.2148    11.6816    13.7786     8.0759   105.1042     0.0043     0.1689     2.4140
  575.0000   -26.3417    11.6955    13.6040     8.0764   105.0882     0.0027     0.1781     2.4114
  575.5000   -26.6029    11.7117    13.5244     8.0768   104.9481     0.0042     0.1859     2.3837
  576.0000   -26.8787    11.7252    13.5415     8.0622   104.4581     0.0101     0.1835     2.3788
  576.5000   -27.2887    11.6548    13.5552     8.0477   102.2820     0.0190     0.1722     2.3826
  577.0000   -27.5645    11.6715    13.4747     8.0482    97.5973     0.0175     0.1665     2.3863
  577.5000   -27.9818    11.6849    13.2140     8.0637    97.3079     0.0159     0.1596     2.4117
  578.0000   -28.5406    11.4561    13.1400     8.0791    97.9070     0.0174     0.1542     2.4364
  578.5000   -28.6603    11.4725    13.0631     8.0944    98.5044     0.0173     0.1497     2.4266
  579.0000   -28.7837    11.4856    12.8944     8.0200    97.7742     0.0158     0.1605     2.4356
  579.5000   -28.9157    11.4988    12.8222     8.0205    96.1592     0.0113     0.1593     2.4423
  580.0000   -29.0193    11.4331    12.8351     8.0809    94.9866     0.0052     0.1569     2.4334
  580.5000   -28.9829    11.4464    12.7568     8.0664    94.8446     0.0007     0.1620     2.4274
  581.0000   -29.1026    11.4598    12.7729     7.9770    96.1813     0.0096     0.1629     2.4191
  581.5000   -29.0735    11.3970    12.7858     7.7828    98.1060     0.0171     0.1686     2.4176
  582.0000   -29.0443    11.3286    12.7987     7.7382    98.7033     0.0155     0.1624     2.4101
  582.5000   -29.3128    11.2639    12.7237     7.7837    99.0057     0.0230     0.1618     2.4184
  583.0000   -29.2837    11.2800    12.6494     7.8141    99.3080     0.0394     0.1534     2.4184
  583.5000   -29.4106    11.2929    12.6626     7.8295    99.3154     0.0453     0.1480     2.4288
  584.0000   -29.3742    11.3059    12.6782     7.8300   100.2077     0.0468     0.1414     2.4550
  584.5000   -29.1963    11.3188    12.6910     7.8304   100.6557     0.0515     0.1381     2.4595
  585.0000   -29.1667    11.3318    12.7915     7.8309    98.1575     0.0587     0.1369     2.4602
  585.5000   -29.2868    11.3448    12.8044     7.8313    98.7548     0.0631     0.1283     2.4662
  586.0000   -29.6968    11.3578    12.9949     7.8467   101.1221     0.0646     0.1286     2.4752
  586.5000   -29.8238    11.3711    13.0080     7.8622   101.4244     0.0629     0.1325     2.4781
  587.0000   -30.2338    11.3844    13.0212     7.9075   101.2824     0.0599     0.1349     2.4662
  587.5000   -30.5023    11.4002    13.0343     7.9379   104.6840     0.0585     0.1331     2.4647
  588.0000   -30.7781    11.4132    12.9581     7.9683   105.4288     0.0584     0.1325     2.4661
  588.5000   -30.8978    11.4263    12.7939     7.9987   105.5836     0.0584     0.1382     2.4661
  589.0000   -31.0174    11.4394    12.7191     8.0291   106.0335     0.0614     0.1451     2.4482
  589.5000   -31.1298    11.4525    12.7325     8.0295   104.7134     0.0688     0.1397     2.4452
  590.0000   -31.2500    11.4656    12.7480     8.0599   103.0965     0.0732     0.1220     2.4736
  590.5000   -31.3692    11.4788    12.7609     8.0604   103.8431     0.0732     0.1223     2.4871
  591.0000   -31.3393    11.4919    12.7738     8.0308   104.1455     0.0732     0.1229     2.4855
  591.5000   -31.3036    11.5051    12.7867     8.0013   105.1853     0.0731     0.1224     2.4848
  592.0000   -31.4306    11.5183    12.7996     8.0168   108.2900     0.0716     0.1186     2.4885
  592.5000   -31.3942    11.4525    12.8125     8.0322   112.2796     0.0611     0.1210     2.4930
  593.0000   -31.6627    11.2191    12.5635     8.0327   112.4345     0.0446     0.1309     2.4937
  593.5000   -31.7896    10.9391    12.4896     8.0331   109.6395     0.0444     0.1338     2.4810
  594.0000   -31.9093    10.9548    12.2472     8.0336   106.5495     0.0445     0.1281     2.4668
  594.5000   -32.1778    10.9674    12.2598     8.0340   105.5244     0.0445     0.1257     2.4780
  595.0000   -32.2975    10.9799    12.1879     8.0345   104.0568     0.0400     0.1227     2.4862
  595.5000   -32.4107    10.9925    12.0335     8.0349   102.4418     0.0160     0.1218     2.4900
