~VERSION INFORMATION
 VERS.                2.0:   CWLS LOG ASCII STANDARD - VERSION 2.0
 WRAP.                 NO:   ONE LINE PER DEPTH STEP
~WELL INFORMATION
#MNEM.UNIT      DATA TYPE    INFORMATION
#----------   ------------   ------------------------------
 STRT.F           30.0000:   START DEPTH
 STOP.F          507.0000:   STOP DEPTH
 STEP.F            0.5000:   STEP LENGTH
 NULL.          -999.2500:   NO VALUE
 COMP. FENIX & SCISSON INC:   COMPANY
 WELL.      NPR-3 #42S-10:   WELL
 FLD .             TEAPOT:   FIELD
 LOC .      S10 T38N R78W:   LOCATION
 CNTY.            NATRONA:   COUNTY
 STAT.            WYOMING:   STATE
 CTRY. UNITED STATES OF AMERICA:   COUNTRY
 SRVC.            Unknown:   SERVICE COMPANY
 DATE.        15-JUL-1978:   LOGDATE
 API .       490251065700:   API NUMBER
~CURVE INFORMATION
#MNEM.UNIT       API CODE    CURVE DESCRIPTION
#----------   ------------   ------------------------------
 DEPT.F                  :   
 SPR .MV     07 010 01 00:   SPONTANEOUS POTENTIAL
 ILD .OHMM   07 120 46 00:   INDUCTION LOG DEEP
 SN  .OHMM   07 040 16 00:   SHORT NORMAL
 CALD.IN     45 280 60 00:   CALIPER FROM DENSITY LOG
 GRD .GAPI   45 310 01 00:   GAMMA RAY FROM DENSITY LOG
 CORR.G/C3   45 356 01 00:   DENSITY CORRECTION
 RHOB.G/C3   45 350 01 00:   BULK DENSITY
 DPHI.DEC    45 890 12 00:   DENSITY POROSITY SANDSTONE
~PARAMETER INFORMATION
#MNEM.UNIT          VALUE    DESCRIPTION
#----------   ------------   ------------------------------
 PD  .                 GL:   PERMANENT DATUM
 EPD .F              5204:   ELEVATION PERMANENT DATUM
 LMF .                 KB:   LOG MEASURED FROM
 DAPD.F                 4:   FEET ABOVE PERMANENT DATUM
 DMF .                 KB:   DRILLING MEASURED FROM
 EKB .F              5208:   KELLING BUSHING
 EGL .F              5204:   GROUND LEVEL
 DATE.        15-JUL-1978:   RUN DATE
 RUN .                  1:   RUN NUMBER
 DD  .F               500:   DEPTH DRILLER
 DL  .F               511:   DEPTH LOGGER
 BLI .F               504:   BOTTOM LOG INTERVAL
 TLI .F                30:   TOP LOG INTERVAL
 CS  .IN            8.625:   CASING SIZE
 CBD .F                40:   CASING BOTTOM DRILLER
 CBL .F                40:   CASING BOTTOM LOGGER
 BS  .IN            7.875:   BIT SIZE
 BSD .F               500:   BIT SIZE AT DEPTH
 DFT .                KCL:   DRILLING FLUID TYPE
 DFD .                8.7:   DRILLING FLUID DENSITY
 DFV .                 32:   DRILLING FLUID VISCOSITY
 DFPH.                9.0:   DRILLING FLUID PH
 RMS .OHMM           0.18:   RESISTIVITY MUD SAMPLE
 MST .F                78:   MUD SAMPLE TEMPERATURE
 RMF .OHMM           0.16:   RESISTIVITY MUD FILTRATE SAMPLE
 MFST.F                88:   MUD FILTRATE SAMPLE TEMPERATURE
 RMC .OHMM           0.28:   RESISTIVITY MUD CAKE
 MCST.F                88:   MUD CAKE SAMPLE TEMPERATURE
 MFSS.               MEAS:   MUD FILTRATE SAMPLE SOURCE
 MCSS.               MEAS:   MUD CAKE SAMPLE SOURCE
 TCS .HRS               1:   TIME CURCULATED STOPPED
 LUN .               2958:   LOGGING UNIT NUMBER
 LUL .               CASP:   LOGGING UNIT LOCATION
 ENGI.              HONEA:   RECORDING ENGINEER
 WITN.           MCGINLEY:   WITNESSED BY
 CLNT.            A2DTECH:   CLIENT CODE
 ORIG.           5" PRINT:   ORIGIN OF DATA
 UWI .       490251065700:   UNIQUE WELL ID
 DICO. A2D Technologies, Inc.:   DIGITIZING COMPANY
~OTHER INFORMATION
~A   DEPT      SPR        ILD         SN       CALD        GRD       CORR       RHOB       DPHI   
# ...
  435.0000   -32.2939    11.6361     9.3650     8.2034    69.5116     0.0161     2.4664     0.1318
  435.5000   -32.4330    11.6409     9.3046     8.1909    68.9346     0.0148     2.4642     0.1309
  436.0000   -32.8635    11.6457     9.1815     8.1935    74.1642     0.0165     2.4674     0.1273
  436.5000   -33.1484    11.6505     9.0594     8.1960    78.6451     0.0153     2.4727     0.1243
  437.0000   -33.4332    11.6562     8.8789     8.1985    79.7084     0.0155     2.4780     0.1257
  437.5000   -33.7181    11.6610     8.7611     8.2015    77.9000     0.0157     2.4766     0.1263
  438.0000   -34.0029    11.2716     8.5857     8.1891    77.2288     0.0189     2.4753     0.1236
  438.5000   -34.1431    10.8206     8.4718     8.1613    77.4063     0.0221     2.4791     0.1230
  439.0000   -34.4362    10.6030     8.3022     8.1050    78.6182     0.0238     2.4830     0.1275
  439.5000   -34.7084    10.6084     8.1880     8.0778    80.5731     0.0240     2.4779     0.1294
  440.0000   -34.9899    10.6127     8.0208     8.0506    80.8935     0.0242     2.4713     0.1358
  440.5000   -35.1290    10.5432     7.8141     8.0381    81.2138     0.0244     2.4691     0.1396
  441.0000   -35.2648    10.2625     7.6576     8.0407    82.1286     0.0231     2.4588     0.1410
  441.5000   -35.2483     9.7844     7.4529     8.0280    84.0834     0.0233     2.4477     0.1511
  442.0000   -35.2351     7.3846     7.2535     8.0011    85.6028     0.0235     2.4351     0.1720
  442.5000   -35.2218     6.9444     7.0112     8.0042    86.3596     0.0269     2.4113     0.1696
  443.0000   -35.2086     6.8523     6.7769     7.9912    87.5763     0.0344     2.4040     0.1578
  443.5000   -35.1954     6.7615     6.5055     7.9943    93.5430     0.0391     2.4452     0.1431
  444.0000   -35.1822     6.8110     6.2881     8.0264    95.7951     0.0214     2.4684     0.1291
  444.5000   -35.1689     6.8138     6.1622     8.1179    89.5776     0.0186     2.4857     0.1156
  445.0000   -35.1557     6.8683     6.0805     8.1945    79.3481     0.0188     2.4978     0.1119
  445.5000   -34.9935     7.0095     6.2098     8.2118    76.3996     0.0175     2.5001     0.1119
  446.0000   -34.9802     7.2581     6.9351     8.2143    74.4911     0.0133     2.4950     0.1142
  446.5000   -34.9670     7.8314     7.4319     8.2168    74.0684     0.0075     2.4914     0.1253
  447.0000   -34.8036     8.7453     7.8555     8.2193    75.7465     0.0047     2.4817     0.1285
  447.5000   -34.6423     9.7659     8.2483     8.2223    76.8153     0.0051     2.4758     0.1272
  448.0000   -34.4799    10.4650     8.6030     8.2248    77.1157     0.0082     2.4730     0.1224
  448.5000   -34.4665    10.9853     8.9114     8.2118    77.8818     0.0128     2.4777     0.1104
  449.0000   -34.3014    11.3741     9.2180     8.2149    80.1339     0.0160     2.4927     0.1152
  449.5000   -34.1392    11.6157     9.4140     8.2019    81.3400     0.0192     2.4995     0.1145
  450.0000   -34.1284    11.7899     9.5562     8.1895    76.5326     0.0194     2.4951     0.1110
  450.5000   -34.1178    11.8495     9.6642     8.1921    76.0383     0.0184     2.5089     0.1040
  451.0000   -34.1073    11.9092     9.7508     8.1948    78.4347     0.0168     2.5110     0.1090
  451.5000   -33.9458    11.9564     9.7528     8.1816    84.3972     0.0095     2.4940     0.1209
  452.0000   -33.7865    12.0429     9.8221     8.1689    86.3478     0.0052     2.4821     0.1248
  452.5000   -33.6272    12.1301     9.9602     8.1420    77.7486     0.0039     2.4792     0.1232
  453.0000   -33.6170    12.2320    10.0411     8.1139    77.7682     0.0043     2.4823     0.1205
  453.5000   -33.4577    12.4776    10.3133     8.1013    77.9350     0.0058     2.4862     0.1199
  454.0000   -33.4475    12.6546    10.5305     8.0886    76.7700     0.0074     2.4870     0.1219
  454.5000   -33.2882    12.8341    10.6053     8.0765    75.6002     0.0076     2.4834     0.1252
  455.0000   -33.1289    13.0161    10.6807     8.0935    74.4305     0.0093     2.4783     0.1266
  455.5000   -33.1186    13.2007    10.7566     8.0957    74.4494     0.0124     2.4746     0.1191
  456.0000   -32.9594    13.2052    10.7588     8.1001    73.8740     0.0171     2.4821     0.1137
  456.5000   -32.9491    13.3007    10.7609     8.1154    72.8528     0.0202     2.4951     0.1092
  457.0000   -32.9388    13.3970    10.6888     8.1324    73.3175     0.0234     2.4989     0.1058
  457.5000   -32.7794    13.5870    10.6915     8.1346    74.3766     0.0221     2.5072     0.1028
  458.0000   -32.7690    13.6853    10.6203     8.1368    75.5842     0.0193     2.5125     0.1075
  458.5000   -32.6075    13.8795    10.6225     8.1235    76.3462     0.0180     2.4969     0.1168
  459.0000   -32.5972    13.9800    10.6247     8.1109    76.2011     0.0166     2.4903     0.1176
  459.5000   -32.5870    13.9857    10.5540     8.0691    75.2000     0.0153     2.4896     0.1155
  460.0000   -32.5767    13.9904    10.5566     8.0268    74.6198     0.0140     2.4928     0.1142
  460.5000   -32.5664    13.8993    10.4859     7.9694    74.3416     0.0142     2.4944     0.1154
  461.0000   -32.7078    13.9039    10.4161     7.9109    74.2119     0.0159     2.4915     0.1198
  461.5000   -32.6950    13.8122    10.4187     7.8701    74.0823     0.0191     2.4871     0.1201
  462.0000   -32.6847    13.7222    10.3494     7.8728    73.9574     0.0207     2.4864     0.1177
  462.5000   -32.8261    13.6328    10.3515     7.8750    73.5305     0.0224     2.4881     0.1173
  463.0000   -32.9623    13.4521    10.2821     7.8771    73.5495     0.0256     2.4934     0.1157
  463.5000   -32.9520    13.3646    10.2142     7.8941    73.7170     0.0257     2.4980     0.1092
  464.0000   -33.0909    13.1867    10.2163     7.9112    73.5874     0.0244     2.5026     0.1133
  464.5000   -33.0805    13.0110    10.2183     7.9430    71.8232     0.0216     2.5034     0.1115
  465.0000   -33.0703    13.0156    10.2204     7.9600    71.3964     0.0200     2.5027     0.1081
  465.5000   -33.2091    13.0209    10.1524     7.9325    73.1726     0.0175     2.5051     0.1060
  466.0000   -33.3479    13.0252    10.0848     7.8902    74.2606     0.0162     2.5082     0.1051
  466.5000   -33.3350    12.9393    10.0874     7.8948    74.8739     0.0164     2.5068     0.1089
  467.0000   -33.4772    12.9447    10.0198     7.9396    75.0415     0.0150     2.5031     0.1089
  467.5000   -33.6160    12.7712     9.9531     7.9863    75.3576     0.0152     2.5034     0.1085
  468.0000   -33.7505    12.6022     9.8869     8.0329    76.5652     0.0139     2.5064     0.1082
  468.5000   -33.8902    12.4343     9.7542     8.0499    79.8531     0.0141     2.5043     0.1123
  469.0000   -33.8799    12.1846     9.6888     8.0818    80.4666     0.0143     2.4976     0.1165
  469.5000   -34.1703    12.0222     9.6244     8.0988    80.4859     0.0159     2.4947     0.1146
  470.0000   -34.3091    11.7002     9.5608     8.1158    80.3557     0.0161     2.5031     0.1125
  470.5000   -34.5946    11.5378     9.4972     8.1328    81.1223     0.0193     2.4972     0.1158
  471.0000   -35.0311    11.3906     9.3693     8.1350    82.4785     0.0212     2.4891     0.1139
  471.5000   -35.4680    11.3164     9.3070     8.1521    84.5777     0.0227     2.4959     0.1085
  472.0000   -35.6068    11.3211     9.1822     8.1696    85.3348     0.0228     2.5102     0.1028
  472.5000   -35.5961    11.3250     9.0585     8.1717    82.6839     0.0230     2.5133     0.1007
  473.0000   -35.5837    11.4069     8.9978     8.1887    81.0684     0.0216     2.5157     0.1000
  473.5000   -35.5734    11.4107     8.8771     8.1909    80.3396     0.0203     2.5195     0.1045
  474.0000   -35.5632    11.4146     8.8176     8.1931    81.7006     0.0190     2.5069     0.1063
  474.5000   -35.4039    11.4184     8.7589     8.1953    83.3540     0.0192     2.5025     0.1059
  475.0000   -35.3937    11.5011     8.7006     8.1974    83.5215     0.0194     2.5049     0.1049
