~VERSION INFORMATION
 VERS.                2.0:   CWLS LOG ASCII STANDARD - VERSION 2.0
 WRAP.                 NO:   ONE LINE PER DEPTH STEP
~WELL INFORMATION
#MNEM.UNIT      DATA TYPE    INFORMATION
#----------   ------------   ------------------------------
 STRT.F           80.0000:   START DEPTH
 STOP.F          679.5000:   STOP DEPTH
 STEP.F            0.5000:   STEP LENGTH
 NULL.          -999.2500:   NO VALUE
 COMP. U S NAVY/INTEX OIL CO:   COMPANY
 WELL.      NPR 3 #23-S-2:   WELL
 FLD .        TEAPOT DOME:   FIELD
 LOC .       S2 T38N R78W:   LOCATION
 CNTY.            NATRONA:   COUNTY
 STAT.            WYOMING:   STATE
 CTRY. UNITED STATES OF AMERICA:   COUNTRY
 SRVC.       Schlumberger:   SERVICE COMPANY
 DATE.        16-JUL-1962:   LOGDATE
 API .       490250645000:   API NUMBER
~CURVE INFORMATION
#MNEM.UNIT       API CODE    CURVE DESCRIPTION
#----------   ------------   ------------------------------
 DEPT.F                  :   
 GR  .GAPI   30 310 01 00:   GAMMA RAY
 SPR .MV     05 010 01 00:   SPONTANEOUS POTENTIAL FROM RES.
 ILD .OHMM   05 120 46 00:   INDUCTION LOG DEEP
 CILD.MMHO   05 110 46 00:   CONDUCTIVITY INDUCTION LOG DEEP
 ASN .OHMM   05 041 16 00:   AMPLIFIED SHORT NORMAL 16"
~PARAMETER INFORMATION
#MNEM.UNIT          VALUE    DESCRIPTION
#----------   ------------   ------------------------------
 PD  .                 GL:   PERMANENT DATUM
 EPD .F              5126:   ELEVATION PERMANENT DATUM
 LMF .                 KB:   LOG MEASURED FROM
 DAPD.F                 5:   FEET ABOVE PERMANENT DATUM
 DMF .                 KB:   DRILLING MEASURED FROM
 EKB .F              5131:   KELLING BUSHING
 EGL .F              5126:   GROUND LEVEL
 DATE.            7-17-62:   RUN DATE
 RUN .                  1:   RUN NUMBER
 DD  .F               680:   DEPTH DRILLER
 DL  .F               680:   DEPTH LOGGER
 BLI .F               679:   BOTTOM LOG INTERVAL
 TLI .F                87:   TOP LOG INTERVAL
 BS  .IN             6.75:   BIT SIZE
 BSD .F               680:   BIT SIZE AT DEPTH
 DFT .       OIL EMULSION:   DRILLING FLUID TYPE
 DFD .                 10:   DRILLING FLUID DENSITY
 DFV .                 41:   DRILLING FLUID VISCOSITY
 DFL .                2.9:   DRILLING FLUID LOSS
 RMS .OHMM           5.86:   RESISTIVITY MUD SAMPLE
 MST .F                73:   MUD SAMPLE TEMPERATURE
 RMF .OHMM           4.19:   RESISTIVITY MUD FILTRATE SAMPLE
 MFST.F                73:   MUD FILTRATE SAMPLE TEMPERATURE
 RMC .OHMM           5.66:   RESISTIVITY MUD CAKE
 MCST.F                73:   MUD CAKE SAMPLE TEMPERATURE
 TCS .HRS               1:   TIME CURCULATED STOPPED
 LUN .               2503:   LOGGING UNIT NUMBER
 LUL .               CSPR:   LOGGING UNIT LOCATION
 ENGI.             DANNER:   RECORDING ENGINEER
 WITN.          JORGENSON:   WITNESSED BY
 CLNT.            A2DTECH:   CLIENT CODE
 ORIG.       2", 5" PRINT:   ORIGIN OF DATA
 UWI .       490250645000:   UNIQUE WELL ID
 DICO. A2D Technologies, Inc.:   DIGITIZING COMPANY
~OTHER INFORMATION
~A   DEPT       GR        SPR          ILD      CILD         ASN 
   80.0000  -999.2500   -48.1151     4.9500   206.5000     0.3500
   80.5000  -999.2500   -47.9167     4.9500   206.5000     0.3700
   81.0000  -999.2500   -47.9167     4.9500   201.5000     0.3905
   81.5000  -999.2500   -47.3214     4.9500   196.7434     0.4542
   82.0000  -999.2500   -47.1065     4.9383   192.8444     0.5020
   82.5000  -999.2500   -46.8477     5.0535   187.6458     0.5637
   83.0000  -999.2500   -46.4084     5.5011   182.4472     0.7073
   83.5000  -999.2500   -45.9607     5.6756   177.2486     0.9086
   84.0000  -999.2500   -45.5107     5.7244   172.0500     1.3736
   84.5000  -999.2500   -45.0607     5.7498   166.8514     3.0447
   85.0000  -999.2500   -44.6184     5.7971   162.3333     5.1759
   85.5000  -999.2500   -44.3378     5.8582   160.6833     6.1088
   86.0000  -999.2500   -44.0983     5.9198   159.5000     6.2073
   86.5000  -999.2500   -43.9721     5.9498   160.5737     6.2084
   87.0000  -999.2500   -44.0450     5.9500   161.7424     6.2088
   87.5000  -999.2500   -44.1150     5.9500   162.9110     6.2296
   88.0000  -999.2500   -44.3468     5.9447   164.0797     6.1957
   88.5000  -999.2500   -44.7325     5.9217   165.2483     6.1565
   89.0000  -999.2500   -44.9264     5.8993   166.4169     6.1404
   89.5000  -999.2500   -44.5766     5.8769   167.5856     6.1290
   90.0000  -999.2500   -44.2271     5.8545   168.7542     6.1177
   90.5000  -999.2500   -43.8779     5.8322   169.9229     6.1063
   91.0000  -999.2500   -43.5271     5.8098   171.0915     6.0949
   91.5000  -999.2500   -43.1667     5.7874   172.2602     6.0830
   92.0000  -999.2500   -42.9929     5.7651   173.5000     6.0708
   92.5000  -999.2500   -42.8223     5.7445   173.8304     6.0584
   93.0000  -999.2500   -42.6498     5.7039   174.1821     6.0464
   93.5000  -999.2500   -42.4764     5.6603   174.5000     6.0337
   94.0000  -999.2500   -42.3050     5.6968   172.1522     6.0213
   94.5000  -999.2500   -42.1576     5.7632   170.0109     6.0102
   95.0000  -999.2500   -42.1625     5.8303   167.8696     6.0370
   95.5000  -999.2500   -42.1628     5.8980   165.7283     6.1539
   96.0000  -999.2500   -42.1627     5.9867   162.6333     6.3131
   96.5000  -999.2500   -42.1631     6.1576   158.2556     6.4432
   97.0000  -999.2500   -42.1629     6.3276   153.2222     6.5278
   97.5000  -999.2500   -42.1618     6.4976   147.7363     6.6121
   98.0000  -999.2500   -42.0327     6.6677   142.2893     6.6954
   98.5000  -999.2500   -41.6398     6.8361   136.5137     6.7535
   99.0000  -999.2500   -40.9681     6.9350   133.3967     6.7613
   99.5000  -999.2500   -40.3328     6.8724   131.7842     6.7696
  100.0000  -999.2500   -39.9821     6.8146   130.7982     6.7560
  100.5000  -999.2500   -39.6369     6.7562   131.1257     6.6940
  101.0000  -999.2500   -39.3791     6.6525   133.2514     6.5769
  101.5000  -999.2500   -39.3870     6.5434   135.3771     6.4418
  102.0000  -999.2500   -39.3814     6.4291   140.8875     6.2869
  102.5000  -999.2500   -39.1996     6.1848   150.1875     6.0866
  103.0000  -999.2500   -38.4052     5.4856   166.8360     5.8630
  103.5000  -999.2500   -38.2375     4.8000   203.2600     5.5669
  104.0000  -999.2500   -38.0947     4.1156   257.8022     5.1442
  104.5000  -999.2500   -37.9506     3.4481   313.5000     4.5968
  105.0000  -999.2500   -37.7880     2.9383   391.4572     3.8755
  105.5000  -999.2500   -37.1596     2.4540   469.8900     3.3431
  106.0000  -999.2500   -36.4986     2.1956   533.0000     3.1193
  106.5000  -999.2500   -35.8389     1.9571   583.0250     2.9601
  107.0000  -999.2500   -35.8799     1.9094   615.5000     2.8346
  107.5000  -999.2500   -35.9620     1.8611   598.6000     2.8475
  108.0000  -999.2500   -35.6177     2.0136   553.1371     2.9650
  108.5000  -999.2500   -35.7994     2.2897   476.9067     3.1129
  109.0000  -999.2500   -36.5354     2.5699   425.5305     3.2636
  109.5000  -999.2500   -37.2424     3.0853   357.7689     3.4812
  110.0000  -999.2500   -37.9776     4.0983   277.9812     4.0597
  110.5000  -999.2500   -38.2364     5.2636   188.2130     5.6004
  111.0000  -999.2500   -38.3126     7.0041   133.9886     7.1586
  111.5000  -999.2500   -38.3618     8.6908   100.3086     7.7141
  112.0000  -999.2500   -38.9406    10.3765    82.5000     8.3161
  112.5000  -999.2500   -38.8346    11.7722    77.1250     8.9153
  113.0000  -999.2500   -38.2744    11.5973    75.5950     9.2032
  113.5000  -999.2500   -37.7075    11.0595    81.1300     9.2402
  114.0000  -999.2500   -37.1325    10.2491    88.5700     9.1305
  114.5000  -999.2500   -36.8180     9.0683   107.0176     8.9643
  115.0000  -999.2500   -36.6766     7.8343   127.4412     8.7036
  115.5000  -999.2500   -37.1658     6.8836   147.8647     8.1900
  116.0000  -999.2500   -37.5461     6.2875   168.2882     7.2907
  116.5000  -999.2500   -37.1263     5.6946   177.3520     6.4233
  117.0000  -999.2500   -36.6966     5.3472   184.2861     5.9587
  117.5000  -999.2500   -36.2711     5.2705   187.8192     5.9845
  118.0000  -999.2500   -35.8465     5.2496   189.4684     6.0448
  118.5000  -999.2500   -35.6962     5.5478   183.8221     6.1190
  119.0000  -999.2500   -36.0439     6.2976   173.9000     6.7383
  119.5000  -999.2500   -36.9891     7.0410   156.0350     7.5667
  120.0000  -999.2500   -37.1638     7.7869   132.4750     8.4375
  120.5000  -999.2500   -37.3081     8.5269   108.9150     8.8723
  121.0000  -999.2500   -37.4024     9.2703    97.9316     9.1882
  121.5000  -999.2500   -37.4043     9.7473    90.4815     9.4920
  122.0000  -999.2500   -37.8397    10.0059    87.7357     9.7662
  122.5000  -999.2500   -38.5609    10.2696    89.5000    10.3781
  123.0000  -999.2500   -39.1641    10.5322    86.8661    10.7280
  123.5000  -999.2500   -38.8427    10.7948    84.0626    11.0581
  124.0000  -999.2500   -38.5400    11.0569    81.2591    11.3891
  124.5000  -999.2500   -38.6086    11.3190    78.4557    11.7373
  125.0000  -999.2500   -39.0123    11.4750    76.5000    11.9024
  125.5000  -999.2500   -39.3944    11.5269    76.5000    12.0651
  126.0000  -999.2500   -39.7389    11.5787    76.5000    12.1889
  126.5000  -999.2500   -40.0680    11.6298    76.5000    12.2700
  127.0000  -999.2500   -40.3959    11.6810    76.5000    12.3510
  127.5000  -999.2500   -40.7192    11.7333    76.5000    12.4317
  128.0000  -999.2500   -40.9410    11.8111    75.7486    12.5124
  128.5000  -999.2500   -40.7479    11.9040    75.0400    12.5931
  129.0000  -999.2500   -40.5974    11.9964    74.3314    12.6739
  129.5000  -999.2500   -41.2236    12.0921    73.6229    12.7547
  130.0000  -999.2500   -41.8833    12.1918    72.9143    12.8336
  130.5000  -999.2500   -41.8664    12.2912    72.2057    12.9195
  131.0000  -999.2500   -41.3896    12.3904    71.4971    13.0038
  131.5000  -999.2500   -41.6572    12.4896    70.7886    13.0887
  132.0000  -999.2500   -41.9671    12.5888    70.0800    13.1734
  132.5000  -999.2500   -42.2888    12.6880    69.3714    13.2580
  133.0000  -999.2500   -42.1254    12.7873    68.6629    13.3426
  133.5000  -999.2500   -41.8009    12.8923    67.9543    13.4277
  134.0000  -999.2500   -41.0222    13.0082    67.2457    13.5128
  134.5000  -999.2500   -40.6583    13.1239    66.5371    13.6354
  135.0000  -999.2500   -40.8188    13.2395    65.8286    13.7872
  135.5000  -999.2500   -40.9798    13.3549    64.8616    13.9392
  136.0000  -999.2500   -41.1491    13.4720    63.6712    14.0914
  136.5000  -999.2500   -41.0333    13.6077    62.4808    14.2460
  137.0000  -999.2500   -40.8702    13.8110    61.2904    14.4364
  137.5000  -999.2500   -40.7097    14.0116    60.1000    14.7475
  138.0000  -999.2500   -40.6695    14.2599    58.4642    15.0506
  138.5000  -999.2500   -41.2193    14.6720    56.3758    15.3534
  139.0000  -999.2500   -41.5359    15.0737    54.2874    15.6566
  139.5000  -999.2500   -41.3183    15.4576    52.1990    15.9598
  140.0000  -999.2500   -41.3277    15.8022    50.7385    16.2625
  140.5000  -999.2500   -41.8751    16.1353    49.5938    16.5536
