~VERSION INFORMATION
 VERS.                2.0:   CWLS LOG ASCII STANDARD - VERSION 2.0
 WRAP.                 NO:   ONE LINE PER DEPTH STEP
~WELL INFORMATION
#MNEM.UNIT      DATA TYPE    INFORMATION
#----------   ------------   ------------------------------
 STRT.F            6.0000:   START DEPTH
 STOP.F         2600.0000:   STOP DEPTH
 STEP.F            0.5000:   STEP LENGTH
 NULL.          -999.2500:   NO VALUE
 COMP. FENIX & SCISSON INC:   COMPANY
 WELL.   NPR 3 SH #17 -34:   WELL
 FLD .             TEAPOT:   FIELD
 LOC .      S34 T39N R78W:   LOCATION
 CNTY.            NATRONA:   COUNTY
 STAT.            WYOMING:   STATE
 CTRY. UNITED STATES OF AMERICA:   COUNTRY
 SRVC.            Unknown:   SERVICE COMPANY
 DATE.        21-MAR-1978:   LOGDATE
 API .       490251060600:   API NUMBER
~CURVE INFORMATION
#MNEM.UNIT       API CODE    CURVE DESCRIPTION
#----------   ------------   ------------------------------
 DEPT.F                  :   
 NPHI.DEC    42 890 03 00:   NEUTRON POROSITY SANDSTONE
 CALD.IN     45 280 60 00:   CALIPER FROM DENSITY LOG
 GRD .GAPI   45 310 01 00:   GAMMA RAY FROM DENSITY LOG
 CORR.G/C3   45 356 01 00:   DENSITY CORRECTION
 RHOB.G/C3   45 350 01 00:   BULK DENSITY
 DPHI.DEC    45 890 12 00:   DENSITY POROSITY SANDSTONE
~PARAMETER INFORMATION
#MNEM.UNIT          VALUE    DESCRIPTION
#----------   ------------   ------------------------------
 PD  .                 GL:   PERMANENT DATUM
 EPD .F              5150:   ELEVATION PERMANENT DATUM
 LMF .                 KB:   LOG MEASURED FROM
 DMF .                 KB:   DRILLING MEASURED FROM
 EKB .F              5160:   KELLING BUSHING
 EGL .F              5150:   GROUND LEVEL
 DATE.          3-21-1978:   RUN DATE
 RUN .                  1:   RUN NUMBER
 DD  .F              2612:   DEPTH DRILLER
 DL  .F              2592:   DEPTH LOGGER
 BLI .F              2590:   BOTTOM LOG INTERVAL
 TLI .F                20:   TOP LOG INTERVAL
 CS  .IN            9.625:   CASING SIZE
 CBD .F               710:   CASING BOTTOM DRILLER
 CBL .F               710:   CASING BOTTOM LOGGER
 BS  .IN            8.625:   BIT SIZE
 BSD .F              2612:   BIT SIZE AT DEPTH
 DFT .           AIR MIST:   DRILLING FLUID TYPE
 BHT .F               110:   BOTTOM HOLE TEMPERATURE
 TCS .HRS               2:   TIME CURCULATED STOPPED
 MRT .F               110:   MAXIMUM RECORDED TEMPERATURE
 LUN .               2958:   LOGGING UNIT NUMBER
 LUL .               CASP:   LOGGING UNIT LOCATION
 ENGI.            POINTER:   RECORDING ENGINEER
 WITN.           MCGINLEY:   WITNESSED BY
 CLNT.            A2DTECH:   CLIENT CODE
 ORIG.      2" , 5" PRINT:   ORIGIN OF DATA
 UWI .       490251060600:   UNIQUE WELL ID
 DICO. A2D Technologies, Inc.:   DIGITIZING COMPANY
~OTHER INFORMATION
~A    DEPT      NPHI     CALD        GRD       CORR       RHOB       DPHI   
# ...
  682.0000     0.5286  -999.2500    60.2043  -999.2500  -999.2500  -999.2500
  682.5000     0.5338  -999.2500    60.4663  -999.2500  -999.2500  -999.2500
  683.0000     0.5408  -999.2500    61.5099  -999.2500  -999.2500  -999.2500
  683.5000     0.5443  -999.2500    64.2710  -999.2500  -999.2500  -999.2500
  684.0000     0.5408  -999.2500    69.5228  -999.2500  -999.2500  -999.2500
  684.5000     0.5346  -999.2500    68.2993  -999.2500  -999.2500  -999.2500
  685.0000     0.5285  -999.2500    66.0060  -999.2500  -999.2500  -999.2500
  685.5000     0.5211  -999.2500    65.8483  -999.2500  -999.2500  -999.2500
  686.0000     0.5246  -999.2500    66.1058  -999.2500  -999.2500  -999.2500
  686.5000     0.5298  -999.2500    66.3462  -999.2500  -999.2500  -999.2500
  687.0000     0.5300  -999.2500    66.5870  -999.2500  -999.2500  -999.2500
  687.5000     0.5274  -999.2500    66.7754  -999.2500  -999.2500  -999.2500
  688.0000     0.5240  -999.2500    66.7258  -999.2500  -999.2500  -999.2500
  688.5000     0.5202  -999.2500    65.5823  -999.2500  -999.2500  -999.2500
  689.0000     0.5167  -999.2500    65.5050  -999.2500  -999.2500  -999.2500
  689.5000     0.5163  -999.2500    65.3037  -999.2500  -999.2500  -999.2500
  690.0000     0.5186  -999.2500    64.6097  -999.2500  -999.2500  -999.2500
  690.5000     0.5236  -999.2500    64.1630  -999.2500  -999.2500  -999.2500
  691.0000     0.5302  -999.2500    65.3485  -999.2500  -999.2500  -999.2500
  691.5000     0.5368  -999.2500    66.6787  -999.2500  -999.2500  -999.2500
  692.0000     0.5392  -999.2500    66.8370  -999.2500  -999.2500  -999.2500
  692.5000     0.5379  -999.2500    66.9515  -999.2500  -999.2500  -999.2500
  693.0000     0.5338  -999.2500    67.0787  -999.2500  -999.2500  -999.2500
  693.5000     0.5299  -999.2500    67.1239  -999.2500  -999.2500  -999.2500
  694.0000     0.5265  -999.2500    66.2570  -999.2500  -999.2500  -999.2500
  694.5000     0.5235  -999.2500    63.2991  -999.2500  -999.2500  -999.2500
  695.0000     0.5222  -999.2500    62.8958  -999.2500  -999.2500  -999.2500
  695.5000     0.5220  -999.2500    65.3029  -999.2500  -999.2500  -999.2500
  696.0000     0.5216  -999.2500    65.2072  -999.2500  -999.2500  -999.2500
  696.5000     0.5202  -999.2500    64.9079  -999.2500  -999.2500  -999.2500
  697.0000     0.5198  -999.2500    66.4918  -999.2500  -999.2500  -999.2500
  697.5000     0.5225  -999.2500    66.9725  -999.2500  -999.2500  -999.2500
  698.0000     0.5300  -999.2500    65.9990  -999.2500  -999.2500  -999.2500
  698.5000     0.5339  -999.2500    65.3313  -999.2500  -999.2500  -999.2500
  699.0000     0.5318  -999.2500    64.7937  -999.2500  -999.2500  -999.2500
  699.5000     0.5295  -999.2500    64.1779  -999.2500  -999.2500  -999.2500
  700.0000     0.5304  -999.2500    62.9819  -999.2500  -999.2500  -999.2500
  700.5000     0.5321  -999.2500    58.0057  -999.2500  -999.2500  -999.2500
  701.0000     0.5320  -999.2500    58.0320  -999.2500  -999.2500  -999.2500
  701.5000     0.5312  -999.2500    59.3263  -999.2500  -999.2500  -999.2500
  702.0000     0.5311  -999.2500    62.0817  -999.2500  -999.2500  -999.2500
  702.5000     0.5328  -999.2500    64.2016  -999.2500  -999.2500  -999.2500
  703.0000     0.5346  -999.2500    64.5824  -999.2500  -999.2500  -999.2500
  703.5000     0.5359  -999.2500    68.0059  -999.2500  -999.2500  -999.2500
  704.0000     0.5325  -999.2500    69.4582  -999.2500  -999.2500  -999.2500
  704.5000     0.5239  -999.2500    69.4192  -999.2500  -999.2500  -999.2500
  705.0000     0.5153  -999.2500    69.3801  -999.2500  -999.2500  -999.2500
  705.5000     0.5121  -999.2500    69.6678  -999.2500  -999.2500  -999.2500
  706.0000     0.5129  -999.2500    70.9976  -999.2500  -999.2500  -999.2500
  706.5000     0.5093  -999.2500    72.2793  -999.2500  -999.2500  -999.2500
  707.0000     0.5067  -999.2500    72.7314  -999.2500  -999.2500  -999.2500
  707.5000     0.5087  -999.2500    73.1405  -999.2500  -999.2500  -999.2500
  708.0000     0.5107  -999.2500    75.1665  -999.2500  -999.2500  -999.2500
  708.5000     0.5103  -999.2500    81.4587  -999.2500  -999.2500  -999.2500
  709.0000     0.5044  -999.2500    83.7784  -999.2500     2.2369     0.2397
  709.5000     0.4981  -999.2500    83.2643    -0.1943     2.2463     0.2366
  710.0000     0.4932     9.3767    75.1574    -0.0893     2.2565     0.2256
  710.5000     0.4884     9.4513    68.0975     0.0496     2.2594     0.2133
  711.0000     0.4836     9.7217    69.1642     0.1937     2.2843     0.1751
  711.5000     0.4767    10.0020    70.7195     0.3894     2.3512     0.1202
  712.0000     0.4596    10.3896    74.7926     0.4407     2.4539     0.1271
  712.5000     0.4425    10.7772    85.8762     0.3495     2.4439     0.1374
  713.0000     0.4244    11.0574    96.5137     0.2473     2.4213     0.1187
  713.5000     0.4110    11.2288    98.2539     0.2095     2.4582     0.1380
  714.0000     0.3941    11.4036    98.8081     0.2038     2.4308     0.1507
  714.5000     0.3586    11.5971   101.2987     0.2101     2.4051     0.1581
  715.0000     0.3232    11.7880   105.8626     0.2163     2.3853     0.1677
  715.5000     0.2985    12.0494   110.4059     0.2181     2.3844     0.1833
  716.0000     0.2982    11.9070   110.8702     0.2189     2.3548     0.2092
  716.5000     0.2954    11.6160   110.5684     0.2251     2.3182     0.2244
  717.0000     0.2892    11.4949   110.3203     0.2603     2.2781     0.2355
  717.5000     0.2850    11.2569   110.5096     0.3153     2.2483     0.2466
  718.0000     0.2817    10.8369   112.0376     0.1859     2.2902     0.2906
  718.5000     0.2809    10.4181   104.6020     0.0112     2.0940     0.2233
  719.0000     0.2901    10.2581   103.1430     0.1083     1.9636     0.1678
  719.5000     0.2950    10.2441    98.2071     0.3999     1.9056     0.1123
  720.0000     0.2938    10.2772    93.6774     0.2287     2.4960     0.0929
  720.5000     0.2930    10.3111    93.9392     0.1271     2.4559     0.1011
  721.0000     0.2897    10.3180    96.9723     0.1281     2.4745     0.1036
  721.5000     0.2981    10.3182    99.8512     0.1299     2.4880     0.1029
  722.0000     0.3132    10.3181   103.9476     0.1339     2.4836     0.1022
  722.5000     0.3277    10.3181   105.1656     0.1385     2.4780     0.1015
  723.0000     0.3444    10.3181   105.5647     0.1470     2.4777     0.1008
  723.5000     0.3616    10.3181   105.9398     0.1495     2.4859     0.1027
  724.0000     0.3692    10.3181   106.7235     0.1518     2.4811     0.1044
  724.5000     0.3670    10.3181   108.1842     0.1557     2.4800     0.1027
  725.0000     0.3639    10.3181   108.8676     0.1643     2.4801     0.1004
  725.5000     0.3609    10.3181   107.3388     0.1730     2.4880     0.0993
  726.0000     0.3584    10.3181   105.6263     0.1776     2.4897     0.0996
  726.5000     0.3583    10.3181   104.7251     0.1810     2.4942     0.0974
  727.0000     0.3582    10.3181   105.1841     0.1867     2.4917     0.0948
  727.5000     0.3581    10.3181   106.1602     0.1903     2.4895     0.0930
  728.0000     0.3583    10.3181   106.0800     0.1858     2.5005     0.0955
  728.5000     0.3599    10.3181   105.6851     0.1814     2.4966     0.0900
  729.0000     0.3614    10.3181   106.9336     0.1828     2.5006     0.0926
  729.5000     0.3630    10.3181   109.3029     0.1801     2.4985     0.0971
  730.0000     0.3646    10.3181   108.8143     0.1726     2.4915     0.1032
  730.5000     0.3656    10.3181   107.4561     0.1653     2.4845     0.1077
  731.0000     0.3643    10.3181   106.6796     0.1592     2.4773     0.1063
  731.5000     0.3628    10.3181   106.2770     0.1605     2.4756     0.1048
  732.0000     0.3598    10.3181   103.5021     0.1669     2.4752     0.1034
  732.5000     0.3566    10.3181   104.4769     0.1731     2.4817     0.1028
  733.0000     0.3533    10.3181   106.0369     0.1729     2.4855     0.1032
  733.5000     0.3501    10.3181   107.7129     0.1725     2.4823     0.1055
