~VERSION INFORMATION
 VERS.                2.0:   CWLS LOG ASCII STANDARD - VERSION 2.0
 WRAP.                 NO:   ONE LINE PER DEPTH STEP
~WELL INFORMATION
#MNEM.UNIT      DATA TYPE    INFORMATION
#----------   ------------   ------------------------------
 STRT.F            7.0000:   START DEPTH
 STOP.F          690.0000:   STOP DEPTH
 STEP.F            0.5000:   STEP LENGTH
 NULL.          -999.2500:   NO VALUE
 COMP. FENIX & SCISSON INC:   COMPANY
 WELL.  NPR#3 #26-46 SX11:   WELL
 FLD .             TEAPOT:   FIELD
 LOC .      S11 T38N R78W:   LOCATION
 CNTY.            NATRONA:   COUNTY
 STAT.            WYOMING:   STATE
 CTRY. UNITED STATES OF AMERICA:   COUNTRY
 SRVC.      Dresser Atlas:   SERVICE COMPANY
 DATE.        13-AUG-1985:   LOGDATE
 API .       490251083600:   API NUMBER
~CURVE INFORMATION
#MNEM.UNIT       API CODE    CURVE DESCRIPTION
#----------   ------------   ------------------------------
 DEPT.F                  :   
 DPHI.DEC    45 890 12 00:   DENSITY POROSITY SANDSTONE
 NPHI.DEC    42 890 03 00:   NEUTRON POROSITY SANDSTONE
 RHOB.G/C3   45 350 01 00:   BULK DENSITY
 CORR.G/C3   45 356 01 00:   DENSITY CORRECTION
 CALD.IN     45 280 60 00:   CALIPER
 SPR .MV     07 010 01 00:   SPONTANEOUS POTENTIAL
 ILD .OHMM   07 120 46 00:   INDUCTION LOG DEEP
 ILM .OHMM   07 120 44 00:   INDUCTION LOG MEDIUM
 SFL .OHMM   07 220 01 00:   SHALLOW FOCUSED LOG RESISTIVITY
 GRR .GAPI   07 310 01 00:   GAMMA RAY FROM RES. LOG.
~PARAMETER INFORMATION
#MNEM.UNIT          VALUE    DESCRIPTION
#----------   ------------   ------------------------------
 PD  .                 GL:   PERMANENT DATUM
 EPD .F              5193:   ELEVATION PERMANENT DATUM
 LMF .                 KB:   LOG MEASURED FROM
 DAPD.F                 5:   FEET ABOVE PERMANENT DATUM
 DMF .                 KB:   DRILLING MEASURED FROM
 EKB .F              5198:   KELLING BUSHING
 EGL .F              5193:   GROUND LEVEL
 DATE.          8-13-1985:   RUN DATE
 RUN .                  8:   RUN NUMBER
 DD  .F               664:   DEPTH DRILLER
 BLI .F               635:   BOTTOM LOG INTERVAL
 TLI .F               340:   TOP LOG INTERVAL
 CBL .F               340:   CASING BOTTOM LOGGER
 BS  .IN             8.75:   BIT SIZE
 BSD .F               664:   BIT SIZE AT DEPTH
 DFT .          KPC WATER:   DRILLING FLUID TYPE
 LUN .           HL- 6274:   LOGGING UNIT NUMBER
 LUL .           GILLETTE:   LOGGING UNIT LOCATION
 ENGI.             RAUTIO:   RECORDING ENGINEER
 WITN.            SCHULTE:   WITNESSED BY
 CLNT.            A2DTECH:   CLIENT CODE
 ORIG.        2" 5" PRINT:   ORIGIN OF DATA
 UWI .       490251083600:   UNIQUE WELL ID
 DICO. A2D Technologies, Inc.:   DIGITIZING COMPANY
~OTHER INFORMATION
~A    DEPT    DPHI       NPHI       RHOB       CORR       CALD         SPR       ILD        ILM        SFL        GRR   
# ...
  241.5000  -999.2500  -999.2500  -999.2500  -999.2500  -999.2500   -29.2055     6.8316     6.6740     8.2683    72.3658
  242.0000  -999.2500  -999.2500  -999.2500  -999.2500  -999.2500   -30.5303     6.8155     6.6617     8.1922    72.0666
  242.5000  -999.2500  -999.2500  -999.2500  -999.2500  -999.2500   -31.2232     6.8008     6.6494     8.1167    74.0223
  243.0000  -999.2500  -999.2500  -999.2500  -999.2500  -999.2500   -32.9860     6.7862     6.6371     8.0418    76.2057
  243.5000  -999.2500  -999.2500  -999.2500  -999.2500  -999.2500   -34.1733     6.7716     6.6280     7.9677    79.5991
  244.0000  -999.2500  -999.2500  -999.2500  -999.2500  -999.2500   -33.3740     6.7570     6.6231     7.8956    79.7457
  244.5000  -999.2500  -999.2500  -999.2500  -999.2500  -999.2500   -32.1676     6.7425     6.6184     7.9861    79.6336
  245.0000  -999.2500  -999.2500  -999.2500  -999.2500  -999.2500   -31.2864     6.7280     6.6136     8.0955    80.8936
  245.5000  -999.2500  -999.2500  -999.2500  -999.2500  -999.2500   -31.7038     6.7135     6.6088     8.2065    83.2392
  246.0000  -999.2500  -999.2500  -999.2500  -999.2500  -999.2500   -34.2164     6.6992     6.6040     8.2683    86.1846
  246.5000  -999.2500  -999.2500  -999.2500  -999.2500  -999.2500   -34.9760     6.6884     6.5992     8.2683    87.2136
  247.0000  -999.2500  -999.2500  -999.2500  -999.2500  -999.2500   -32.5484     6.6771     6.5945     8.2102    87.2400
  247.5000  -999.2500  -999.2500  -999.2500  -999.2500  -999.2500   -29.9606     6.6659     6.5897     8.1229    84.4962
  248.0000  -999.2500  -999.2500  -999.2500  -999.2500  -999.2500   -28.2747     6.6547     6.5849     8.0431    81.5232
  248.5000  -999.2500  -999.2500  -999.2500  -999.2500  -999.2500   -28.3472     6.6435     6.5802     8.0431    78.5054
  249.0000  -999.2500  -999.2500  -999.2500  -999.2500  -999.2500   -31.8627     6.6323     6.5754     8.0431    77.4459
  249.5000  -999.2500  -999.2500  -999.2500  -999.2500  -999.2500   -35.3766     6.6211     6.5707     8.0431    77.6506
  250.0000  -999.2500  -999.2500  -999.2500  -999.2500  -999.2500   -36.3871     6.6100     6.5500     8.0431    77.9815
  250.5000  -999.2500  -999.2500  -999.2500  -999.2500  -999.2500   -35.2382     6.5989     6.5225     8.0431    79.0883
  251.0000  -999.2500  -999.2500  -999.2500  -999.2500  -999.2500   -33.5899     6.5878     6.4951     8.0431    80.3779
  251.5000  -999.2500  -999.2500  -999.2500  -999.2500  -999.2500   -31.7208     6.5768     6.4679     8.0432    80.8449
  252.0000  -999.2500  -999.2500  -999.2500  -999.2500  -999.2500   -30.7659     6.5693     6.4407     8.0432    78.4303
  252.5000  -999.2500  -999.2500  -999.2500  -999.2500  -999.2500   -32.3201     6.5692     6.4137     8.0394    75.1508
  253.0000  -999.2500  -999.2500  -999.2500  -999.2500  -999.2500   -33.5130     6.5692     6.3867     8.0096    75.1833
  253.5000  -999.2500  -999.2500  -999.2500  -999.2500  -999.2500   -33.9069     6.5692     6.3599     7.9800    75.4256
  254.0000  -999.2500  -999.2500  -999.2500  -999.2500  -999.2500   -33.4820     6.5692     6.3320     7.9505    75.2903
  254.5000  -999.2500  -999.2500  -999.2500  -999.2500  -999.2500   -29.9989     6.5692     6.3353     7.9211    74.4312
  255.0000  -999.2500  -999.2500  -999.2500  -999.2500  -999.2500   -28.3469     6.5692     6.3390     7.8965    74.5953
  255.5000  -999.2500  -999.2500  -999.2500  -999.2500  -999.2500   -30.0444     6.5692     6.3426     8.0028    76.8907
  256.0000  -999.2500  -999.2500  -999.2500  -999.2500  -999.2500   -31.7347     6.5692     6.3463     8.0424    78.4936
  256.5000  -999.2500  -999.2500  -999.2500  -999.2500  -999.2500   -32.4536     6.5692     6.3500     8.1169    78.9263
  257.0000  -999.2500  -999.2500  -999.2500  -999.2500  -999.2500   -32.2020     6.5692     6.3537     7.9695    80.0227
  257.5000  -999.2500  -999.2500  -999.2500  -999.2500  -999.2500   -30.2444     6.5692     6.3573     7.9985    83.6320
  258.0000  -999.2500  -999.2500  -999.2500  -999.2500  -999.2500   -28.7534     6.5692     6.3610     8.0431    86.7059
  258.5000  -999.2500  -999.2500  -999.2500  -999.2500  -999.2500   -29.6510     6.5692     6.3647     7.9359    86.7512
  259.0000  -999.2500  -999.2500  -999.2500  -999.2500  -999.2500   -29.8112     6.5691     6.3684     7.7525    86.8489
  259.5000  -999.2500  -999.2500  -999.2500  -999.2500  -999.2500   -30.9947     6.5613     6.3721     7.8527    86.9369
  260.0000  -999.2500  -999.2500  -999.2500  -999.2500  -999.2500   -32.4861     6.5426     6.3758     8.0196    86.0805
  260.5000  -999.2500  -999.2500  -999.2500  -999.2500  -999.2500   -29.9790     6.5236     6.3794     8.1175    83.7980
  261.0000  -999.2500  -999.2500  -999.2500  -999.2500  -999.2500   -28.0721     6.5090     6.3830     8.0535    81.5771
  261.5000  -999.2500  -999.2500  -999.2500  -999.2500  -999.2500   -27.8671     6.5890     6.3861     7.8277    79.5122
  262.0000  -999.2500  -999.2500  -999.2500  -999.2500  -999.2500   -27.6875     6.6547     6.3904     8.0341    77.4624
  262.5000  -999.2500  -999.2500  -999.2500  -999.2500  -999.2500   -30.7613     6.6986     6.4941     8.2079    77.3475
  263.0000  -999.2500  -999.2500  -999.2500  -999.2500  -999.2500   -33.8513     6.7149     6.5951     8.4233    81.0061
  263.5000  -999.2500  -999.2500  -999.2500  -999.2500  -999.2500   -33.0592     6.7312     6.6371     8.3391    83.4107
  264.0000  -999.2500  -999.2500  -999.2500  -999.2500  -999.2500   -31.1206     6.7477     6.6481     8.1633    82.6927
  264.5000  -999.2500  -999.2500  -999.2500  -999.2500  -999.2500   -28.6861     6.7641     6.6591     7.9695    83.2982
  265.0000  -999.2500  -999.2500  -999.2500  -999.2500  -999.2500   -26.2587     6.7806     6.6701     8.0740    84.2123
  265.5000  -999.2500  -999.2500  -999.2500  -999.2500  -999.2500   -26.7721     6.7971     6.6811     8.2312    83.6594
  266.0000  -999.2500  -999.2500  -999.2500  -999.2500  -999.2500   -27.7601     6.8155     6.6912     8.3447    83.0264
  266.5000  -999.2500  -999.2500  -999.2500  -999.2500  -999.2500   -26.8001     6.7612     6.6185     8.2853    82.3920
  267.0000  -999.2500  -999.2500  -999.2500  -999.2500  -999.2500   -25.7175     6.7009     6.5526     8.1864    81.8069
  267.5000  -999.2500  -999.2500  -999.2500  -999.2500  -999.2500   -24.5349     6.6412     6.4874     8.0711    81.2204
  268.0000  -999.2500  -999.2500  -999.2500  -999.2500  -999.2500   -23.3629     6.5819     6.4228     7.9675    81.7134
  268.5000  -999.2500  -999.2500  -999.2500  -999.2500  -999.2500   -25.4217     6.5232     6.3588     7.9499    82.4435
  269.0000  -999.2500  -999.2500  -999.2500  -999.2500  -999.2500   -28.9305     6.4651     6.2956     7.9324    83.1618
  269.5000  -999.2500  -999.2500  -999.2500  -999.2500  -999.2500   -30.1484     6.4211     6.2329     7.9149    82.3407
  270.0000  -999.2500  -999.2500  -999.2500  -999.2500  -999.2500   -30.9164     6.3824     6.2108     7.8965    81.3819
  270.5000  -999.2500  -999.2500  -999.2500  -999.2500  -999.2500   -31.2152     6.3440     6.2032     7.8438    80.4576
  271.0000  -999.2500  -999.2500  -999.2500  -999.2500  -999.2500   -29.3457     6.3059     6.1957     7.7874    81.3500
  271.5000  -999.2500  -999.2500  -999.2500  -999.2500  -999.2500   -27.8593     6.2738     6.1882     7.7535    82.3633
  272.0000  -999.2500  -999.2500  -999.2500  -999.2500  -999.2500   -28.1252     6.2891     6.1806     8.0413    82.4968
  272.5000  -999.2500  -999.2500  -999.2500  -999.2500  -999.2500   -28.7815     6.3024     6.1731     7.8159    82.5657
  273.0000  -999.2500  -999.2500  -999.2500  -999.2500  -999.2500   -30.8913     6.3156     6.1656     7.4283    83.6220
  273.5000  -999.2500  -999.2500  -999.2500  -999.2500  -999.2500   -29.5336     6.3289     6.1594     7.2712    84.9427
  274.0000  -999.2500  -999.2500  -999.2500  -999.2500  -999.2500   -27.4533     6.4223     6.2727     7.5834    84.2960
  274.5000  -999.2500  -999.2500  -999.2500  -999.2500  -999.2500   -25.6205     6.5395     6.3701     8.0059    81.8585
