~VERSION INFORMATION
 VERS.                2.0:   CWLS LOG ASCII STANDARD - VERSION 2.0
 WRAP.                 NO:   ONE LINE PER DEPTH STEP
~WELL INFORMATION
#MNEM.UNIT      DATA TYPE    INFORMATION
#----------   ------------   ------------------------------
 STRT.F           11.5000:   START DEPTH
 STOP.F          697.0000:   STOP DEPTH
 STEP.F            0.5000:   STEP LENGTH
 NULL.          -999.2500:   NO VALUE
 COMP. FENIX & SCISSON INC:   COMPANY
 WELL.    NPR3 SX-2 #12-2:   WELL
 FLD .             TEAPOT:   FIELD
 LOC .       S2 T38N R78W:   LOCATION
 CNTY.            NATRONA:   COUNTY
 STAT.            WYOMING:   STATE
 CTRY. UNITED STATES OF AMERICA:   COUNTRY
 SRVC.           BIRDWELL:   SERVICE COMPANY
 DATE.        13-JAN-1978:   LOGDATE
 API .       490251055000:   API NUMBER
~CURVE INFORMATION
#MNEM.UNIT       API CODE    CURVE DESCRIPTION
#----------   ------------   ------------------------------
 DEPT.F                  :   
 CALD.IN     45 280 60 00:   CALIPER FROM DENSITY LOG
 CORR.G/C3   45 356 01 00:   DENSITY CORRECTION
 RHOB.G/C3   45 350 01 00:   BULK DENSITY
 GRD .GAPI   45 310 01 00:   GAMMA RAY FROM DENSITY LOG
 DPHI.DEC    45 890 12 00:   DENSITY POROSITY SANDSTONE
 ILD .OHMM   05 120 46 00:   INDUCTION LOG DEEP
 SN  .OHMM   05 040 16 00:   SHORT NORMAL 16"
 SPR .MV     05 010 01 00:   SPONTANEOUS POTENTIAL FROM RES.
~PARAMETER INFORMATION
#MNEM.UNIT          VALUE    DESCRIPTION
#----------   ------------   ------------------------------
 PD  .                 GL:   PERMANENT DATUM
 EPD .F              5094:   ELEVATION PERMANENT DATUM
 LMF .                 KB:   LOG MEASURED FROM
 DAPD.F                 4:   FEET ABOVE PERMANENT DATUM
 DMF .                 KB:   DRILLING MEASURED FROM
 EKB .F              5098:   KELLING BUSHING
 EGL .F              5094:   GROUND LEVEL
 DATE.        13-JAN-1978:   RUN DATE
 RUN .                  1:   RUN NUMBER
 DD  .F               695:   DEPTH DRILLER
 DL  .F               697:   DEPTH LOGGER
 BLI .F               692:   BOTTOM LOG INTERVAL
 TLI .F                30:   TOP LOG INTERVAL
 CS  .IN            8.625:   CASING SIZE
 CBD .F                35:   CASING BOTTOM DRILLER
 CBL .F                35:   CASING BOTTOM LOGGER
 BS  .IN            7.875:   BIT SIZE
 BSD .F               695:   BIT SIZE AT DEPTH
 DFT .                KCL:   DRILLING FLUID TYPE
 DFD .                8.6:   DRILLING FLUID DENSITY
 DFV .                 32:   DRILLING FLUID VISCOSITY
 DFPH.                9.5:   DRILLING FLUID PH
 DFL .                 12:   DRILLING FLUID LOSS
 MSS .           FLOWLINE:   MUD SAMPLE SOURCE
 RMS .OHMM            0.3:   RESISTIVITY MUD SAMPLE
 MST .F                59:   MUD SAMPLE TEMPERATURE
 RMF .OHMM           0.24:   RESISTIVITY MUD FILTRATE SAMPLE
 MFST.F                70:   MUD FILTRATE SAMPLE TEMPERATURE
 RMC .OHMM           0.56:   RESISTIVITY MUD CAKE
 MCST.F                63:   MUD CAKE SAMPLE TEMPERATURE
 MFSS.               MEAS:   MUD FILTRATE SAMPLE SOURCE
 MCSS.               MEAS:   MUD CAKE SAMPLE SOURCE
 RMB .OHMM           0.26:   RESISTIVITY MUD AT BHT
 BHT .F                72:   BOTTOM HOLE TEMPERATURE
 TCS .HRS               2:   TIME CURCULATED STOPPED
 MRT .F                72:   MAXIMUM RECORDED TEMPERATURE
 LUN .               2958:   LOGGING UNIT NUMBER
 LUL .             CASPER:   LOGGING UNIT LOCATION
 ENGI.           MARTINEZ:   RECORDING ENGINEER
 WITN.       MR. MCGINLEY:   WITNESSED BY
 CLNT.            A2DTECH:   CLIENT CODE
 ORIG.           5" PRINT:   ORIGIN OF DATA
 UWI .       490251055000:   UNIQUE WELL ID
 DICO. A2D Technologies, Inc.:   DIGITIZING COMPANY
~OTHER INFORMATION
~A   DEPT     CALD       CORR       RHOB         GRD      DPHI        ILD         SN        SPR   
# ...
  335.5000     8.6177     0.0847     2.4895    98.4551     0.0991    10.5162    10.6615   -23.3066
  336.0000     8.6325     0.0832     2.4943    93.9521     0.0934    10.4376    10.5850   -23.3051
  336.5000     8.6322     0.0833     2.4985    93.2025     0.0928    10.4326    10.5822   -23.1523
  337.0000     8.6344     0.0833     2.4963    93.8049     0.0958    10.3559    10.5063   -23.3019
  337.5000     8.6466     0.0833     2.4895    95.3079     0.0994    10.3245    10.5034   -23.3004
  338.0000     8.6312     0.0819     2.4798    95.9100     0.1042    10.2040    10.4280   -23.2989
  338.5000     8.6460     0.0774     2.4700    95.1607     0.1093    10.1289    10.3532   -23.2974
  339.0000     8.6457     0.0729     2.4640    91.9691     0.1111     9.9850    10.2784   -23.2960
  339.5000     8.6454     0.0684     2.4625    92.5561     0.1081     9.8431    10.2756   -23.2945
  340.0000     8.6451     0.0715     2.4723    97.5679     0.0982     9.6355    10.2019   -23.2930
  340.5000     8.6448     0.0835     2.4921    99.5213     0.0949     9.4333    10.1288   -23.4426
  341.0000     8.6295     0.1001     2.4948    99.9732     0.0961     9.2352    10.0561   -23.4411
  341.5000     8.6141     0.1151     2.4880    99.6744     0.0952     9.0414     9.9840   -23.5907
  342.0000     8.6138     0.1226     2.4918    98.6248     0.0875     8.9130     9.9124   -23.8913
  342.5000     8.5985     0.1242     2.5030    94.5722     0.0896     8.7864     9.9793   -24.3426
  343.0000     8.5832     0.1225     2.4978    90.5197     0.0926     8.6617     9.9070   -24.6437
  343.5000     8.5828     0.1152     2.5030    90.0703     0.0866     8.5387     9.9043   -24.9443
  344.0000     8.5800     0.1063     2.5097    90.9731     0.0893     8.5345     9.9705   -25.2449
  344.5000     8.5672     0.0973     2.5127    92.6262     0.0932     8.5898     9.9677   -25.3945
  345.0000     8.5669     0.0943     2.5060    92.6476     0.0922     8.7043     9.9644   -25.5437
  345.5000     8.5666     0.0973     2.5000    90.8243     0.0872     8.8213     9.9617   -25.5422
  346.0000     8.5813     0.1004     2.5015    89.1531     0.0854     8.9399     9.9590   -25.6918
  346.5000     8.5810     0.1019     2.5092    88.1276     0.0971     9.1230     9.9563   -25.6903
  347.0000     8.5807     0.0974     2.5136    89.7811     0.1004     9.3099     9.9536   -25.5378
  347.5000     8.5804     0.0824     2.5007    92.1849     0.1070     9.3711     9.9509   -25.2339
  348.0000     8.5801     0.0629     2.4843    93.0873     0.1079     9.4961     9.9484   -24.9303
  348.5000     8.5798     0.0555     2.4753    92.6383     0.1010     9.5574     9.9454   -24.6267
  349.0000     8.5795     0.0572     2.4715    92.1894     0.1031     9.4216     9.9427   -24.3231
  349.5000     8.5642     0.0660     2.4775    90.8395     0.1079     9.3524    10.0092   -24.1705
  350.0000     8.5619     0.0721     2.4820    89.4896     0.1077     9.4225    10.0064   -24.0180
  350.5000     8.5591     0.0766     2.4895    88.4400     0.0999     9.4888    10.0036   -23.9869
  351.0000     8.5564     0.0781     2.4989    88.5917     0.1015     9.5552     9.9282   -23.9162
  351.5000     8.5536     0.0767     2.4760    89.7943     0.1080     9.6724     9.9125   -23.8456
  352.0000     8.5508     0.0752     2.4685    90.3964     0.1143     9.6711     9.8967   -23.7749
  352.5000     8.5481     0.0737     2.4701    90.0876     0.1137     9.5932     9.8810   -23.8899
  353.0000     8.5630     0.0708     2.4690    88.6997     0.1119     9.3396     9.8653   -24.0453
  353.5000     8.5628     0.0689     2.4580    87.5194     0.1137     9.0836     9.7911   -24.3676
  354.0000     8.5928     0.0670     2.4520    86.3730     0.1197     8.7133     9.6551   -24.9616
  354.5000     8.6076     0.0651     2.4430    83.8249     0.1251     8.1864     9.3901   -25.2681
  355.0000     8.6075     0.0643     2.4355    83.6781     0.1281     7.3789     9.0651   -25.4236
  355.5000     8.6074     0.0687     2.4273    85.6355     0.1302     6.8850     8.7385   -25.5791
  356.0000     8.5922     0.0747     2.4228    90.4447     0.1308     6.6501     8.2860   -25.7345
  356.5000     8.6071     0.0852     2.4198    92.8515     0.1296     6.5579     8.0029   -25.8900
  357.0000     8.6069     0.1062     2.4243    92.5556     0.1214     6.5570     7.7832   -26.0455
  357.5000     8.6068     0.1193     2.4837    91.3539     0.1058     6.6016     7.6751   -26.2009
  358.0000     8.6296     0.0881     2.4845    90.4623     0.0956     6.7389     7.7274   -26.3565
  358.5000     8.6516     0.0701     2.4830    91.3688     0.0938     7.0721     7.8886   -26.3619
  359.0000     8.6665     0.0640     2.5003    93.0248     0.0986     7.5774     8.1654   -26.2142
  359.5000     8.6814     0.0642     2.5033    93.4797     0.1059     8.0073     8.5138   -25.9176
  360.0000     8.6963     0.0730     2.4906    91.5321     0.0981     8.4616     8.8787   -25.4688
  360.5000     8.6961     0.0774     2.4838    89.1341     0.0923     8.8188     9.1815   -25.0200
  361.0000     8.6959     0.0789     2.4846    86.8863     0.0956     9.0649     9.4381   -24.7223
  361.5000     8.6807     0.0759     2.4982    85.5393     0.0980     9.3179     9.6349   -24.7267
  362.0000     8.6806     0.0728     2.4947    85.2432     0.1013     9.5119     9.8359   -24.7311
  362.5000     8.6804     0.0758     2.4831    87.5001     0.1040     9.6486     9.9032   -24.7356
  363.0000     8.6803     0.0968     2.4794    90.6597     0.1058     9.7760    10.0400   -24.7411
  363.5000     8.6802     0.1058     2.4907    91.4129     0.1061     9.9105    10.1783   -24.5933
  364.0000     8.6800     0.1088     2.4922    90.9679     0.1040     9.9782    10.2828   -24.4467
  364.5000     8.6798     0.1268     2.4982    90.3706     0.0902    10.0461    10.3241   -24.1490
  365.0000     8.6797     0.1462     2.5169    90.0747     0.0814    10.1144    10.4599   -23.8524
  365.5000     8.6795     0.1537     2.5290    91.2814     0.0760    10.2536    10.5312   -23.7046
  366.0000     8.6794     0.1505     2.5335    92.7873     0.0739    10.3233    10.6180   -23.4079
  366.5000     8.6642     0.1431     2.5320    91.8908     0.0748    10.3936    10.6752   -23.2613
  367.0000     8.6640     0.1326     2.5245    89.9432     0.0784    10.3921    10.6734   -23.2659
  367.5000     8.6639     0.1176     2.5094    87.3951     0.0829    10.4628    10.6720   -23.2713
  368.0000     8.6487     0.1085     2.5035    85.4475     0.0841    10.4614    10.6705   -23.2757
  368.5000     8.6392     0.1520     2.5157    86.8033     0.0805    10.5322    10.6691   -23.1284
  369.0000     8.6334     0.1580     2.5171    89.5885     0.0790    10.5308    10.6676   -23.1335
  369.5000     8.6483     0.1595     2.5223    92.5180     0.0784    10.5294    10.7403   -23.1379
  370.0000     8.6632     0.1715     2.5328    92.2230     0.0739    10.5280    10.6644   -22.9912
  370.5000     8.6630     0.1850     2.5448    91.7759     0.0664    10.5265    10.5896   -22.9956
  371.0000     8.6629     0.1864     2.5554    93.2829     0.0569    10.4526    10.5149   -22.8489
  371.5000     8.6627     0.1849     2.5689    94.6386     0.0541    10.3792    10.4409   -22.7023
  372.0000     8.6475     0.1742     2.5396    94.9423     0.0790    10.3063    10.3675   -22.5557
  372.5000     8.6474     0.1496     2.5382    94.0469     0.0838    10.2338    10.2235   -22.4091
  373.0000     8.6273     0.1247     2.5367    93.6008     0.0868    10.1619    10.1198   -22.2635
  373.5000     8.6122     0.1277     2.5284    93.4549     0.0931    10.0902    10.0106   -22.2679
  374.0000     8.6018     0.1352     2.5149    93.1592     0.0976     9.9503     9.9401   -22.1213
  374.5000     8.6017     0.1427     2.4969    92.8633     0.1003     9.8123     9.8018   -22.1257
  375.0000     8.6015     0.1516     2.4963    95.5206     0.1015     9.6763     9.7328   -22.1301
  375.5000     8.5863     0.1576     2.4910    96.1754     0.1033     9.5421     9.6643   -22.1345
