~VERSION INFORMATION
 VERS.                2.0:   CWLS LOG ASCII STANDARD - VERSION 2.0
 WRAP.                 NO:   ONE LINE PER DEPTH STEP
~WELL INFORMATION
#MNEM.UNIT      DATA TYPE    INFORMATION
#----------   ------------   ------------------------------
 STRT.F           46.0000:   START DEPTH
 STOP.F          670.0000:   STOP DEPTH
 STEP.F            0.5000:   STEP LENGTH
 NULL.          -999.2500:   NO VALUE
 COMP. FENIX & SCISSON INC:   COMPANY
 WELL. TEAPOT #27 62SX 11WI-11:   WELL
 FLD .             TEAPOT:   FIELD
 LOC .      S11 T38N R78W:   LOCATION
 CNTY.            NATRONA:   COUNTY
 STAT.            WYOMING:   STATE
 CTRY. UNITED STATES OF AMERICA:   COUNTRY
 SRVC.      Dresser Atlas:   SERVICE COMPANY
 DATE.        27-JUL-1980:   LOGDATE
 API .       490251084000:   API NUMBER
~CURVE INFORMATION
#MNEM.UNIT       API CODE    CURVE DESCRIPTION
#----------   ------------   ------------------------------
 DEPT.F                  :   
 GRD .GAPI   45 310 01 00:   GAMMA RAY FROM DENSITY LOG
 RHOB.G/C3   45 350 01 00:   BULK DENSITY
 CORR.G/C3   45 356 01 00:   DENSITY CORRECTION
 CALD.IN     45 280 60 00:   CALIPER
 DPOR.DEC    45 890 12 00:   DENSITY POROSITY SANDSTONE
 SPR .MV     07 010 01 00:   SPONTANEOUS POTENTIAL
 SFL .OHMM   07 220 01 00:   SHALLOW FOCUSED LOG RESISTIVITY
 ILD .OHMM   07 120 46 00:   INDUCTION LOG DEEP
 ILM .OHMM   07 120 44 00:   INDUCTION LOG MEDIUM
~PARAMETER INFORMATION
#MNEM.UNIT          VALUE    DESCRIPTION
#----------   ------------   ------------------------------
 PD  .                 GL:   PERMANENT DATUM
 EPD .F              5186:   ELEVATION PERMANENT DATUM
 LMF .                 KB:   LOG MEASURED FROM
 DAPD.F                 5:   FEET ABOVE PERMANENT DATUM
 DMF .                 KB:   DRILLING MEASURED FROM
 EKB .F              5191:   KELLING BUSHING
 EGL .F              5186:   GROUND LEVEL
 DATE.            7-27-80:   RUN DATE
 RUN .                  1:   RUN NUMBER
 DD  .F               660:   DEPTH DRILLER
 DL  .F               663:   DEPTH LOGGER
 BLI .F               661:   BOTTOM LOG INTERVAL
 TLI .F                46:   TOP LOG INTERVAL
 BS  .IN            7.875:   BIT SIZE
 BSD .F               660:   BIT SIZE AT DEPTH
 DFT .           CHEM GEL:   DRILLING FLUID TYPE
 DFD .                9.5:   DRILLING FLUID DENSITY
 DFV .                 50:   DRILLING FLUID VISCOSITY
 DFPH.                 11:   DRILLING FLUID PH
 DFL .                  6:   DRILLING FLUID LOSS
 MSS .           FLOWLINE:   MUD SAMPLE SOURCE
 RMS .OHMM            .08:   RESISTIVITY MUD SAMPLE
 MST .F                70:   MUD SAMPLE TEMPERATURE
 RMC .OHMM            .08:   RESISTIVITY MUD CAKE
 MCST.F                70:   MUD CAKE SAMPLE TEMPERATURE
 MFSS.               MEAS:   MUD FILTRATE SAMPLE SOURCE
 MCSS.               MEAS:   MUD CAKE SAMPLE SOURCE
 RMB .OHMM            .06:   RESISTIVITY MUD AT BHT
 BHT .F                90:   BOTTOM HOLE TEMPERATURE
 TCS .HRS               5:   TIME CURCULATED STOPPED
 MRT .F                90:   MAXIMUM RECORDED TEMPERATURE
 LUN .               6145:   LOGGING UNIT NUMBER
 LUL .              GLTTE:   LOGGING UNIT LOCATION
 ENGI.              HENRY:   RECORDING ENGINEER
 WITN.              AMEND:   WITNESSED BY
 CLNT.            A2DTECH:   CLIENT CODE
 ORIG.       2", 5" PRINT:   ORIGIN OF DATA
 UWI .       490251084000:   UNIQUE WELL ID
 DICO. A2D Technologies, Inc.:   DIGITIZING COMPANY
~OTHER INFORMATION
~A   DEPT      GRD       RHOB       CORR       CALD       DPOR        SPR          SFL        ILD      ILM   
# ...
  557.0000    82.8516     2.4901     0.0276     8.4398     0.1149   -45.6932    14.6274    10.5867    10.3066
  557.5000    82.1767     2.4775     0.0253     8.4350     0.1213   -45.6939    14.6274    10.5548    10.2664
  558.0000    81.6233     2.4660     0.0222     8.4303     0.1259   -45.6939    14.6710    10.5230    10.2265
  558.5000    82.0643     2.4617     0.0194     8.4244     0.1301   -45.6956    14.7962    10.4389    10.1911
  559.0000    82.9693     2.4608     0.0210     8.3828     0.1317   -45.6098    14.8990    10.2659    10.1571
  559.5000    84.7720     2.4678     0.0228     8.3656     0.1263   -45.3988    14.7541    10.0965    10.1234
  560.0000    87.4504     2.4808     0.0245     8.3652     0.1200   -44.9150    14.6329    10.0293    10.2629
  560.5000    88.3304     2.4858     0.0249     8.3652     0.1164   -44.9464    14.5127    10.0296    10.4956
  561.0000    86.9837     2.4892     0.0217     8.3653     0.1143   -44.9972    14.4461    10.1014    10.7338
  561.5000    85.5883     2.4908     0.0185     8.3653     0.1130   -45.0460    14.3900    10.1513    10.9768
  562.0000    84.5460     2.4870     0.0192     8.3653     0.1136   -45.0941    14.3606    10.2013    11.2291
  562.5000    85.3453     2.4904     0.0215     8.3652     0.1132   -45.0987    14.6573    10.2843    11.5296
  563.0000    85.3058     2.4756     0.0236     8.3652     0.1205   -45.0286    14.8617    10.4226    11.8671
  563.5000    84.3006     2.4537     0.0170     8.3655     0.1352   -44.7884    15.0690    10.5627    12.1687
  564.0000    85.9600     2.4455     0.0098     8.3993     0.1411   -44.5498    15.2791    10.7047    12.0386
  564.5000    88.1203     2.4408     0.0068     8.4387     0.1439   -44.3148    15.4576    10.8486    11.8640
  565.0000    89.0184     2.4348     0.0040     8.4293     0.1474   -44.3044    15.3184    10.9974    11.6920
  565.5000    88.2612     2.4275     0.0045     8.4253     0.1510   -44.3060    15.1995    10.8972    11.6216
  566.0000    87.3300     2.4257     0.0062     8.4251     0.1522   -44.3077    15.1757    10.7484    11.6216
  566.5000    87.4602     2.4393     0.0100     8.4251     0.1450   -44.2516    15.1025    10.5190    11.6216
  567.0000    89.2578     2.4535     0.0134     8.4251     0.1378   -44.1845    14.7801    10.2945    11.3540
  567.5000    86.5588     2.4576     0.0175     8.4251     0.1325   -44.1172    14.4647    10.0747    10.9819
  568.0000    85.6881     2.4515     0.0222     8.4251     0.1353   -44.0500    14.3244     9.8601    10.6118
  568.5000    87.7187     2.4594     0.0256     8.4251     0.1313   -43.9829    14.2473     9.6682    10.2543
  569.0000    88.7977     2.4731     0.0270     8.4251     0.1229   -43.9158    14.1707     9.5458    10.2170
  569.5000    89.7598     2.4806     0.0285     8.4252     0.1193   -43.8485    14.0945     9.4349    10.2690
  570.0000    91.7206     2.4961     0.0304     8.4252     0.1073   -43.7803    14.0187     9.4050    10.3111
  570.5000    93.8319     2.5117     0.0330     8.4255     0.1013   -43.7153    13.9697     9.4050    10.2168
  571.0000    95.8828     2.5149     0.0354     8.4089     0.1004   -43.8166    13.9697     9.4050    10.1163
  571.5000    95.3138     2.5080     0.0304     8.3876     0.1036   -43.9757    13.9697     9.4033    10.0173
  572.0000    93.6020     2.4990     0.0249     8.3661     0.1090   -44.3534    14.1864     9.6058     9.9388
  572.5000    91.6384     2.4899     0.0196     8.3458     0.1144   -44.9998    14.4092     9.8635     9.9388
  573.0000    89.6702     2.4798     0.0158     8.3451     0.1190   -45.8014    14.6354    10.1234    10.0212
  573.5000    88.1326     2.4649     0.0123     8.3450     0.1258   -46.6009    14.8652    10.7808    10.2674
  574.0000    87.4618     2.4483     0.0090     8.3472     0.1358   -47.3892    15.6096    11.4097    10.6476
  574.5000    87.3851     2.4310     0.0060     8.3884     0.1488   -48.1805    16.4844    12.6014    11.5299
  575.0000    87.4283     2.4057     0.0038     8.4251     0.1616   -48.9736    17.4083    13.8413    12.5552
  575.5000    85.1136     2.3814     0.0056     8.4278     0.1750   -49.7652    18.4465    15.1984    13.6867
  576.0000    81.9385     2.3644     0.0067     8.4300     0.1919   -50.5107    20.0137    16.6874    14.9525
  576.5000    78.9406     2.3283     0.0084     8.4323     0.2085   -50.7993    22.4468    18.4105    16.4862
  577.0000    76.4497     2.3245     0.0107     8.4346     0.2131   -51.1045    25.0207    19.8168    18.1787
  577.5000    73.9215     2.3344     0.0187     8.4369     0.2059   -51.4107    27.0096    20.9995    19.1218
  578.0000    72.2379     2.3308     0.0240     8.4392     0.2095   -51.7189    29.1653    21.7101    19.8504
  578.5000    71.8617     2.3239     0.0258     8.4415     0.2123   -51.8985    29.4349    22.0246    20.0000
  579.0000    72.7096     2.3426     0.0278     8.4437     0.2030   -52.0033    28.5966    22.3348    19.5401
  579.5000    71.5017     2.3538     0.0295     8.4411     0.1943   -51.9231    27.2907    22.0717    18.9258
  580.0000    70.4765     2.3462     0.0287     8.4319     0.1993   -51.7472    26.0445    21.6628    18.2419
  580.5000    72.6857     2.3436     0.0280     8.4258     0.2023   -51.5699    24.8559    20.7763    18.4683
  581.0000    74.9435     2.3545     0.0167     8.4296     0.1959   -51.4401    24.3293    19.6837    18.9242
  581.5000    77.1460     2.3558     0.0053     8.4331     0.1927   -51.4426    24.0364    18.6772    18.7457
  582.0000    77.9564     2.3464     0.0055     8.4366     0.1988   -51.4426    24.1064    17.9042    18.4789
  582.5000    77.2201     2.3384     0.0055     8.4401     0.2031   -51.4427    24.2039    17.9119    18.1011
  583.0000    76.4858     2.3352     0.0066     8.4437     0.2059   -51.4425    24.2629    17.7093    17.7424
  583.5000    76.2323     2.3343     0.0075     8.4511     0.2059   -51.4414    23.7132    17.5808    18.1222
  584.0000    77.7072     2.3419     0.0095     8.4683     0.2022   -51.4480    23.0882    17.0579    18.8107
  584.5000    78.6163     2.3525     0.0120     8.4844     0.1967   -51.6417    22.7689    16.2771    19.1077
  585.0000    78.0848     2.3704     0.0136     8.4920     0.1847   -51.8343    22.5299    15.4679    18.7632
  585.5000    77.8616     2.3805     0.0135     8.5001     0.1802   -51.8407    22.2933    15.0226    17.7694
  586.0000    79.1927     2.3683     0.0136     8.4961     0.1867   -51.8407    22.0593    14.8918    16.6439
  586.5000    80.3565     2.3649     0.0160     8.4757     0.1883   -51.8322    21.8277    15.4464    15.4576
  587.0000    80.9640     2.3725     0.0184     8.4651     0.1829   -51.6707    21.5985    15.9931    15.1960
  587.5000    80.0004     2.3800     0.0213     8.4651     0.1795   -51.5099    21.5277    16.5553    15.1757
  588.0000    80.1329     2.3800     0.0261     8.4548     0.1790   -51.3537    21.8456    17.1373    15.6005
  588.5000    79.5552     2.3674     0.0263     8.4289     0.1863   -51.3061    22.2037    17.6951    17.3673
  589.0000    79.5953     2.3620     0.0272     8.3974     0.1903   -51.5119    22.5676    18.2294    17.7452
  589.5000    80.5301     2.3615     0.0296     8.3668     0.1911   -51.7132    22.9375    18.5889    17.5093
  590.0000    79.8851     2.3673     0.0332     8.3495     0.1868   -51.9151    23.1750    18.6401    17.3058
  590.5000    78.9930     2.3679     0.0369     8.3296     0.1839   -52.1139    22.5401    18.6915    15.9054
  591.0000    78.9806     2.3579     0.0404     8.3033     0.1928   -52.1697    22.5399    18.7525    14.3274
  591.5000    79.5480     2.3488     0.0437     8.2754     0.1959   -51.9986    22.5443    18.3668    12.9060
  592.0000    79.2031     2.3586     0.0439     8.2656     0.1912   -51.8424    21.8048    17.9045    11.9837
  592.5000    79.7615     2.3708     0.0349     8.2653     0.1840   -51.8385    21.5020    17.0520    11.8374
  593.0000    81.5751     2.3766     0.0263     8.2647     0.1809   -51.8390    21.4017    16.0364    11.8296
