~VERSION INFORMATION
 VERS.                2.0:   CWLS LOG ASCII STANDARD - VERSION 2.0
 WRAP.                 NO:   ONE LINE PER DEPTH STEP
~WELL INFORMATION
#MNEM.UNIT      DATA TYPE    INFORMATION
#----------   ------------   ------------------------------
 STRT.F           80.0000:   START DEPTH
 STOP.F          820.0000:   STOP DEPTH
 STEP.F            0.5000:   STEP LENGTH
 NULL.          -999.2500:   NO VALUE
 COMP. U S NAVY/INTEX OIL CO:   COMPANY
 WELL.      GOVT #15-S-35:   WELL
 FLD .        EAST TEAPOT:   FIELD
 LOC .      S35 T39N R78W:   LOCATION
 CNTY.            NATRONA:   COUNTY
 STAT.            WYOMING:   STATE
 CTRY. UNITED STATES OF AMERICA:   COUNTRY
 SRVC.       Schlumberger:   SERVICE COMPANY
 DATE.        12-FEB-1961:   LOGDATE
 API .       490250654500:   API NUMBER
~CURVE INFORMATION
#MNEM.UNIT       API CODE    CURVE DESCRIPTION
#----------   ------------   ------------------------------
 DEPT.F                  :   
 SPR .MV     05 010 01 00:   SPONTANEOUS POTENTIAL FROM RES.
 ASN .OHMM   05 041 16 00:   AMPLIFIED SHORT NORMAL 16"
 ILD .OHMM   05 120 46 00:   INDUCTION LOG DEEP
 CILD.MMHO   05 110 46 00:   CONDUCTIVITY INDUCTION LOG DEEP
 GR  .GAPI   30 310 01 00:   GAMMA RAY
~PARAMETER INFORMATION
#MNEM.UNIT          VALUE    DESCRIPTION
#----------   ------------   ------------------------------
 PD  .                 GL:   PERMANENT DATUM
 EPD .F              5069:   ELEVATION PERMANENT DATUM
 LMF .                 KB:   LOG MEASURED FROM
 DAPD.F                 4:   FEET ABOVE PERMANENT DATUM
 DMF .                 KB:   DRILLING MEASURED FROM
 EKB .F              5073:   KELLING BUSHING
 EGL .F              5069:   GROUND LEVEL
 DATE.            2-12-61:   RUN DATE
 RUN .                  1:   RUN NUMBER
 DD  .F               820:   DEPTH DRILLER
 DL  .F               820:   DEPTH LOGGER
 BLI .F               819:   BOTTOM LOG INTERVAL
 TLI .F                90:   TOP LOG INTERVAL
 CBD .F                12:   CASING BOTTOM DRILLER
 BS  .IN            7.875:   BIT SIZE
 BSD .F               820:   BIT SIZE AT DEPTH
 DFT .   GEL OIL EMULSION:   DRILLING FLUID TYPE
 DFD .                9.5:   DRILLING FLUID DENSITY
 DFV .                 50:   DRILLING FLUID VISCOSITY
 DFPH.                  8:   DRILLING FLUID PH
 DFL .                  9:   DRILLING FLUID LOSS
 MSS .          FLOW LINE:   MUD SAMPLE SOURCE
 RMS .OHMM           1.04:   RESISTIVITY MUD SAMPLE
 MST .F                56:   MUD SAMPLE TEMPERATURE
 MFSS.                  C:   MUD FILTRATE SAMPLE SOURCE
 MCSS.                  C:   MUD CAKE SAMPLE SOURCE
 RMB .OHMM           2.78:   RESISTIVITY MUD AT BHT
 BHT .F                77:   BOTTOM HOLE TEMPERATURE
 TCS .HRS               1:   TIME CURCULATED STOPPED
 MRT .F                77:   MAXIMUM RECORDED TEMPERATURE
 LUN .               2523:   LOGGING UNIT NUMBER
 LUL .               CSPR:   LOGGING UNIT LOCATION
 ENGI.             KNOBEL:   RECORDING ENGINEER
 WITN.          JORGENSEN:   WITNESSED BY
 CLNT.            A2DTECH:   CLIENT CODE
 ORIG.       2", 5" PRINT:   ORIGIN OF DATA
 UWI .       490250654500:   UNIQUE WELL ID
 DICO. A2D Technologies, Inc.:   DIGITIZING COMPANY
~OTHER INFORMATION
~A   DEPT      SPR          ASN        ILD      CILD        GR   
# ...
  141.0000   -27.7135     7.3053     5.3826   178.8049  -999.2500
  141.5000   -27.5453     7.3561     5.4240   176.9039  -999.2500
  142.0000   -27.3773     7.4068     5.4654   175.0030  -999.2500
  142.5000   -27.2094     7.4595     5.5068   173.1020  -999.2500
  143.0000   -27.0390     7.5162     5.5495   171.2011  -999.2500
  143.5000   -27.0488     7.5744     5.5924   169.3002  -999.2500
  144.0000   -27.1641     7.5679     5.6353   167.3992  -999.2500
  144.5000   -27.2803     7.5590     5.6782   165.3426  -999.2500
  145.0000   -27.3970     7.6587     5.7212   165.3426  -999.2500
  145.5000   -27.5135     7.7706     5.7649   168.2669  -999.2500
  146.0000   -27.6299     7.7110     5.8063   171.4263  -999.2500
  146.5000   -27.7464     7.5589     5.7106   174.5858  -999.2500
  147.0000   -27.8628     7.4081     5.6040   177.7453  -999.2500
  147.5000   -27.9793     7.2572     5.4979   180.9047  -999.2500
  148.0000   -28.0956     7.1062     5.3919   184.0646  -999.2500
  148.5000   -28.2122     6.9546     5.2859   187.2240  -999.2500
  149.0000   -28.3338     6.8047     5.1798   190.3803  -999.2500
  149.5000   -28.2752     6.7438     5.0744   193.5348  -999.2500
  150.0000   -28.1627     6.7425     4.9689   195.3677  -999.2500
  150.5000   -28.0482     6.7814     4.9567   195.8642  -999.2500
  151.0000   -27.9339     6.8576     5.0362   194.0669  -999.2500
  151.5000   -27.8199     6.9336     5.1158   190.0730  -999.2500
  152.0000   -27.7058     7.0099     5.1960   186.0775  -999.2500
  152.5000   -27.5918     7.0861     5.2761   182.0755  -999.2500
  153.0000   -27.4777     7.1623     5.3561   178.0735  -999.2500
  153.5000   -27.3636     7.2386     5.4362   175.3883  -999.2500
  154.0000   -27.2496     7.3148     5.5163   173.7875  -999.2500
  154.5000   -27.1355     7.3911     5.5961   172.1867  -999.2500
  155.0000   -27.0213     7.4672     5.6764   170.5859  -999.2500
  155.5000   -26.9065     7.5382     5.6907   168.9851  -999.2500
  156.0000   -26.7936     7.5806     5.6590   169.1588  -999.2500
  156.5000   -26.9000     7.6175     5.6269   170.5880  -999.2500
  157.0000   -27.0396     7.6309     5.5946   172.0173  -999.2500
  157.5000   -27.1797     7.5816     5.5623   173.4466  -999.2500
  158.0000   -27.3196     7.5313     5.5300   174.8759  -999.2500
  158.5000   -27.4593     7.4813     5.4977   176.3051  -999.2500
  159.0000   -27.5990     7.4312     5.4654   177.7344  -999.2500
  159.5000   -27.7387     7.3811     5.4332   179.1651  -999.2500
  160.0000   -27.8787     7.3308     5.4009   180.5994  -999.2500
  160.5000   -28.0196     7.2813     5.3686   182.0360  -999.2500
  161.0000   -28.1589     7.2453     5.3364   183.2338  -999.2500
  161.5000   -28.1593     7.2946     5.3040   182.5942  -999.2500
  162.0000   -27.9894     7.3425     5.2717   181.6604  -999.2500
  162.5000   -27.8108     7.3900     5.2394   180.7266  -999.2500
  163.0000   -27.6336     7.4377     5.2120   179.7928  -999.2500
  163.5000   -27.4563     7.4853     5.2139   178.8590  -999.2500
  164.0000   -27.3899     7.5330     5.2589   177.9252  -999.2500
  164.5000   -27.4225     7.5805     5.4952   176.9914  -999.2500
  165.0000   -27.4553     7.6284     5.7291   174.9255  -999.2500
  165.5000   -27.4887     7.6757     5.9624   168.9225  -999.2500
  166.0000   -27.5221     7.7163     6.1960   162.9196  -999.2500
  166.5000   -27.5553     8.0312     6.4294   156.9166  -999.2500
  167.0000   -27.5886     8.4257     6.6632   150.9136  -999.2500
  167.5000   -27.6219     8.8231     6.8972   144.9106  -999.2500
  168.0000   -27.6552     9.2205     7.1285   138.9077  -999.2500
  168.5000   -27.6884     9.6151     7.2771   133.8692  -999.2500
  169.0000   -27.7216     9.9358     7.1639   131.3274  -999.2500
  169.5000   -27.7563    10.0498     7.0577   130.5200  -999.2500
  170.0000   -27.7064     9.7400     6.9520   133.8710  -999.2500
  170.5000   -27.6138     9.3430     6.8460   137.2227  -999.2500
  171.0000   -27.5207     8.9428     6.7400   140.5662  -999.2500
  171.5000   -27.4274     8.6488     6.6343   143.9052  -999.2500
  172.0000   -27.3343     8.6041     6.5276   147.2452  -999.2500
  172.5000   -27.2411     8.5997     6.4151   149.4664  -999.2500
  173.0000   -27.1480     8.7065     6.5830   149.4538  -999.2500
  173.5000   -27.0548     8.8089     6.7923   149.4538  -999.2500
  174.0000   -26.9617     8.9104     7.0045   146.3936  -999.2500
  174.5000   -26.8685     9.0127     7.2160   142.8085  -999.2500
  175.0000   -26.7754     9.2698     7.4272   139.2233  -999.2500
  175.5000   -26.6821     9.5586     7.6383   135.6382  -999.2500
  176.0000   -26.5892     9.8318     7.8497   132.0531  -999.2500
  176.5000   -26.4956    10.6049     8.0629   128.4680  -999.2500
  177.0000   -26.3983    10.6478     8.2833   124.8829  -999.2500
  177.5000   -26.4788    10.7160     8.3481   121.2978  -999.2500
  178.0000   -26.5973    10.7945     8.4067   117.7112  -999.2500
  178.5000   -26.7176    10.8721     8.4666   114.1311  -999.2500
  179.0000   -26.8376    10.8721     8.5278   110.5589  -999.2500
  179.5000   -26.9573    10.6114     8.5857   106.7741  -999.2500
  180.0000   -27.0771    10.2328     8.4590   109.1923  -999.2500
  180.5000   -27.1968    10.0170     8.3181   111.7515  -999.2500
  181.0000   -27.3166     9.7702     8.1779   114.3240  -999.2500
  181.5000   -27.4364     9.5050     8.0387   117.5670  -999.2500
  182.0000   -27.5561     9.2426     7.8914   121.5690  -999.2500
  182.5000   -27.6759     8.9911     7.5596   125.5710  -999.2500
  183.0000   -27.7957     8.7868     7.2158   129.5928  -999.2500
  183.5000   -27.9157     8.6190     6.8725   136.4194  -999.2500
  184.0000   -28.0373     8.4516     6.5294   143.2799  -999.2500
  184.5000   -28.1551     8.2096     6.1864   150.1405  -999.2500
  185.0000   -27.9906     7.8975     5.8434   159.5664  -999.2500
  185.5000   -27.8050     7.5850     5.5002   171.3500  -999.2500
  186.0000   -27.6202     7.2719     5.1570   183.1336  -999.2500
  186.5000   -27.4356     6.9594     4.8149   194.9173  -999.2500
  187.0000   -27.2523     6.6598     4.4710   206.0576  -999.2500
  187.5000   -27.0688     6.4305     4.3780   209.2229  -999.2500
  188.0000   -27.0584     6.2287     4.4761   212.2244  -999.2500
  188.5000   -27.2171     6.2261     4.5752   214.9950  -999.2500
  189.0000   -27.3759     6.2275     4.6756   214.0020  -999.2500
  189.5000   -27.5358     6.3989     4.7758   205.3227  -999.2500
  190.0000   -27.6957     6.6826     4.8759   197.3188  -999.2500
  190.5000   -27.8561     6.9696     4.9760   189.3148  -999.2500
  191.0000   -28.0176     7.1472     5.0760   181.3108  -999.2500
  191.5000   -28.1517     7.2184     5.1760   173.3069  -999.2500
  192.0000   -27.9301     7.2833     5.2773   165.3029  -999.2500
  192.5000   -27.7095     7.3154     5.2955   158.3366  -999.2500
  193.0000   -27.4914     7.3473     5.2694   157.9364  -999.2500
  193.5000   -27.2740     7.3797     5.2427   157.5363  -999.2500
  194.0000   -27.0525     7.4111     5.2159   159.5283  -999.2500
  194.5000   -27.0656     7.4197     5.1894   162.7799  -999.2500
  195.0000   -27.2028     7.2984     5.1633   166.0315  -999.2500
  195.5000   -27.3416     7.1779     5.1357   169.2831  -999.2500
  196.0000   -27.4808     7.0580     5.0531   175.7895  -999.2500
  196.5000   -27.6197     6.9409     4.7124   183.7935  -999.2500
  197.0000   -27.7586     6.6101     4.3731   191.7974  -999.2500
  197.5000   -27.8974     6.1957     4.0344   223.3863  -999.2500
  198.0000   -28.0363     5.7800     3.6960   264.7401  -999.2500
  198.5000   -28.1753     5.3637     3.3571   306.0940  -999.2500
  199.0000   -28.3146     4.9473     3.0114   334.7964  -999.2500
  199.5000   -28.4521     4.5340     2.8937   352.4284  -999.2500
  200.0000   -28.5425     4.2125     2.8386   349.9342  -999.2500
  200.5000   -28.4588     4.2339     2.9047   343.9921  -999.2500
  201.0000   -28.3795     4.3264     2.9977   327.7061  -999.2500
  201.5000   -28.3006     4.7094     3.3046   311.4201  -999.2500
