~VERSION INFORMATION
 VERS.                2.0:   CWLS LOG ASCII STANDARD - VERSION 2.0
 WRAP.                 NO:   ONE LINE PER DEPTH STEP
~WELL INFORMATION
#MNEM.UNIT      DATA TYPE    INFORMATION
#----------   ------------   ------------------------------
 STRT.F           40.0000:   START DEPTH
 STOP.F          512.0000:   STOP DEPTH
 STEP.F            0.5000:   STEP LENGTH
 NULL.          -999.2500:   NO VALUE
 COMP. LAWRENCE/ALLISON INC:   COMPANY
 WELL.   65-21 SX F1 #3-3:   WELL
 FLD .             TEAPOT:   FIELD
 LOC .       S3 T38N R78W:   LOCATION
 CNTY.            NATRONA:   COUNTY
 STAT.            WYOMING:   STATE
 CTRY. UNITED STATES OF AMERICA:   COUNTRY
 SRVC.       Schlumberger:   SERVICE COMPANY
 DATE.        14-JUL-1982:   LOGDATE
 API .       490251089600:   API NUMBER
~CURVE INFORMATION
#MNEM.UNIT       API CODE    CURVE DESCRIPTION
#----------   ------------   ------------------------------
 DEPT.F                  :   
 CALD.IN     45 280 60 00:   CALIPER FROM DENSITY LOG
 CORR.G/C3   45 356 01 00:   DENSITY CORRECTION
 DPHI.DEC    45 890 12 00:   DENSITY POROSITY SANDSTONE
 GRD .GAPI   45 310 01 00:   GAMMA RAY FROM DENSITY LOG
 RHOB.G/C3   45 350 01 00:   BULK DENSITY
~PARAMETER INFORMATION
#MNEM.UNIT          VALUE    DESCRIPTION
#----------   ------------   ------------------------------
 PD  .                 GL:   PERMANENT DATUM
 EPD .F              5155:   ELEVATION PERMANENT DATUM
 LMF .                 KB:   LOG MEASURED FROM
 DAPD.F                 9:   FEET ABOVE PERMANENT DATUM
 DMF .                 KB:   DRILLING MEASURED FROM
 EKB .F              5164:   KELLING BUSHING
 EDF .F            5162.5:   DRILLING FLOOR
 EGL .F              5155:   GROUND LEVEL
 DATE.        14-JUL-1982:   RUN DATE
 RUN .                  1:   RUN NUMBER
 DD  .F               500:   DEPTH DRILLER
 DL  .F               515:   DEPTH LOGGER
 BLI .F               512:   BOTTOM LOG INTERVAL
 TLI .F                50:   TOP LOG INTERVAL
 CS  .IN           13.375:   CASING SIZE
 CBD .F                50:   CASING BOTTOM DRILLER
 CBL .F                50:   CASING BOTTOM LOGGER
 BS  .IN            12.25:   BIT SIZE
 BSD .F               500:   BIT SIZE AT DEPTH
 DFT .                KCL:   DRILLING FLUID TYPE
 TCS .HRS            0600:   TIME CURCULATED STOPPED
 TLAB.HRS            1000:   TIME LOGGER AT BOTTOM
 LUN .               8035:   LOGGING UNIT NUMBER
 LUL .             CASPER:   LOGGING UNIT LOCATION
 ENGI.            PERARIS:   RECORDING ENGINEER
 WITN.             TAYLOR:   WITNESSED BY
 CLNT.            A2DTECH:   CLIENT CODE
 ORIG.         2.5" PRINT:   ORIGIN OF DATA
 UWI .       490251089600:   UNIQUE WELL ID
 DICO. A2D Technologies, Inc.:   DIGITIZING COMPANY
~OTHER INFORMATION
~A   DEPT     CALD       CORR       DPHI         GRD      RHOB   
# ...
  223.0000    12.6313     0.0058     0.1432    86.6242     2.4402
  223.5000    12.6321     0.0042     0.1462    84.8375     2.4358
  224.0000    12.6330     0.0089     0.1450    83.4987     2.4376
  224.5000    12.6337     0.0165     0.1438    84.3986     2.4392
  225.0000    12.6345     0.0242     0.1432    85.7463     2.4404
  225.5000    12.6352     0.0317     0.1454    86.1985     2.4345
  226.0000    12.6359     0.0361     0.1570    86.2030     2.4194
  226.5000    12.6367     0.0360     0.1843    86.7447     2.3792
  227.0000    12.6374     0.0257     0.1912    88.1224     2.3613
  227.5000    12.6381     0.0122     0.1848    89.4254     2.3696
  228.0000    12.6388     0.0071     0.1818    89.8926     2.3777
  228.5000    12.6396     0.0055     0.1815    89.1507     2.3773
  229.0000    12.6403     0.0015     0.1833    87.5725     2.3743
  229.5000    12.6411    -0.0036     0.1772    88.8762     2.3793
  230.0000    12.6418    -0.0016     0.1674    91.6120     2.3924
  230.5000    12.6425     0.0009     0.1638    94.0194     2.4023
  231.0000    12.6134     0.0009     0.1638    94.3075     2.4053
  231.5000    12.6142    -0.0014     0.1613    91.7447     2.4068
  232.0000    12.6149    -0.0045     0.1566    88.3164     2.4144
  232.5000    12.6157    -0.0068     0.1509    85.8134     2.4205
  233.0000    12.6164    -0.0092     0.1486    85.8478     2.4265
  233.5000    12.5872    -0.0082     0.1484    87.4194     2.4296
  234.0000    12.5881    -0.0011     0.1459    88.5143     2.4387
  234.5000    12.5888     0.0083     0.1365    89.4142     2.4508
  235.0000    12.5896     0.0159     0.1286    90.3142     2.4584
  235.5000    12.5903     0.0204     0.1270    90.7663     2.4645
  236.0000    12.5910     0.0182     0.1320    90.7707     2.4615
  236.5000    12.5918     0.0097     0.1435    90.3274     2.4447
  237.0000    12.5925     0.0063     0.1468    89.8840     2.4341
  237.5000    12.5933     0.0066     0.1426    89.4403     2.4402
  238.0000    12.5940     0.0081     0.1401    89.3851     2.4447
  238.5000    12.5948     0.0096     0.1395    90.7928     2.4462
  239.0000    12.5957     0.0111     0.1480    92.1404     2.4371
  239.5000    12.5964     0.0126     0.1578    93.0404     2.4249
  240.0000    12.5971     0.0172     0.1571    92.5970     2.4188
  240.5000    12.5978     0.0247     0.1541    89.9000     2.4250
  241.0000    12.5986     0.0323     0.1511    88.5760     2.4280
  241.5000    12.5993     0.0415     0.1492    89.5209     2.4310
  242.0000    12.6001     0.0475     0.1486    89.9284     2.4222
  242.5000    12.6008     0.0507     0.1705    89.8582     2.3869
  243.0000    12.6015     0.0535     0.1985    88.8627     2.3553
  243.5000    12.6023     0.0337     0.1979    86.9418     2.3489
  244.0000    12.6329     0.0198     0.1827    84.2150     2.3644
  244.5000    12.6336     0.0254     0.1681    83.2337     2.3955
  245.0000    12.6343     0.0347     0.1474    86.8209     2.4336
  245.5000    12.6351     0.0442     0.1249    89.2284     2.4649
  246.0000    12.6358     0.0566     0.1225    91.5763     2.4739
  246.5000    12.6366     0.0644     0.1225    95.3418     2.4765
  247.0000    12.6373     0.0695     0.1294    95.3463     2.4733
  247.5000    12.6081     0.0731     0.1385    94.2313     2.4398
  248.0000    12.6090     0.0464     0.1497    92.8776     2.4205
  248.5000    12.6097     0.0443     0.1541    92.9269     2.4213
  249.0000    12.6104     0.0623     0.1404    94.0218     2.4468
  249.5000    12.6500     0.0826     0.1265    94.4739     2.4738
  250.0000    12.7015     0.0988     0.1182    93.5828     2.4848
  250.5000    12.7321     0.0727     0.1248    91.3484     2.4650
  251.0000    12.7328     0.0477     0.1478    90.4573     2.4322
  251.5000    12.7336     0.0479     0.1367    90.0139     2.4311
  252.0000    12.7343     0.0516     0.1269    90.0183     2.4582
  252.5000    12.7351     0.0531     0.1243    90.4705     2.4703
  253.0000    12.7517     0.0227     0.1434    91.3704     2.4551
  253.5000    12.7664     0.0135     0.1529    91.8226     2.4293
  254.0000    12.7673     0.0165     0.1411    91.8270     2.4273
  254.5000    12.7680     0.0347     0.1344    90.0404     2.4445
  255.0000    12.7688     0.0469     0.1318    85.5672     2.4521
  255.5000    12.7994     0.0560     0.1314    84.6760     2.4581
  256.0000    12.8001     0.0620     0.1363    87.0089     2.4566
  256.5000    12.8008     0.0514     0.1392    89.7448     2.4505
  257.0000    12.8314     0.0665     0.1291    91.9731     2.4611
  257.5000    12.8620     0.0848     0.1149    93.8732     2.4778
  258.0000    12.9821     0.1425     0.1067    96.0716     2.4930
  258.5000    13.1918     0.1926     0.1040    98.2403     2.5006
  259.0000    13.3717     0.2002     0.1100    99.7224     2.4733
  259.5000    13.8202     0.1759     0.2024   100.9657     2.3790
  260.0000    13.9104     0.1095     0.2483   101.7313     2.2833
  260.5000    12.9808     0.0686     0.2374   100.1836     2.2850
  261.0000    12.8353     0.0310     0.1875    95.2029     2.3160
  261.5000    12.8082     0.0341     0.1681    93.0433     2.3520
  262.0000    12.8090     0.0512     0.1523    93.0030     2.3928
  262.5000    12.8097     0.0660     0.1474    94.1418     2.4160
  263.0000    12.7805     0.0750     0.1468    95.0418     2.4248
  263.5000    12.8321     0.0803     0.1693    95.4940     2.4291
  264.0000    13.0846     0.0767     0.2143    95.0508     2.3990
  264.5000    13.4276     0.0426     0.2368    95.0560     2.2997
  265.0000    13.4700     0.0103     0.2356    95.5082     2.2832
  265.5000    12.8112     0.0023     0.2179    95.5126     2.3107
  266.0000    12.7134     0.0258     0.1809    93.2782     2.3756
  266.5000    12.6963     0.0481     0.1359    91.9393     2.4330
  267.0000    12.8124     0.0592     0.1316    91.0482     2.4514
  267.5000    13.0410     0.0600     0.1322    91.0526     2.4549
  268.0000    13.1761     0.0332     0.1426    91.0570     2.4373
  268.5000    13.1430     0.0289     0.1426    90.1657     2.4425
  269.0000    12.7300     0.0343     0.1395    90.1703     2.4480
  269.5000    12.6113     0.0538     0.1383    91.5180     2.4503
  270.0000    12.7613     0.0812     0.1396    91.5224     2.4488
  270.5000    12.9412     0.1176     0.1491    89.2582     2.4425
  271.0000    13.1508     0.1465     0.1727    87.5013     2.4168
  271.5000    13.3605     0.1647     0.2092    87.9985     2.3762
  272.0000    13.4508     0.1525     0.2363    89.3015     2.3013
  272.5000    13.2724     0.0993     0.2374    89.7537     2.2877
  273.0000    13.2433     0.0658     0.2337    89.7582     2.2998
  273.5000    13.2739     0.0460     0.2180    89.1060     2.3256
  274.0000    13.1851     0.0399     0.1618    87.9755     2.3667
  274.5000    13.0067     0.0414     0.1388    89.0104     2.4122
  275.0000    12.8284     0.0460     0.1353    89.9254     2.4441
  275.5000    12.7395     0.0475     0.1374    90.2276     2.4502
  276.0000    12.7104     0.0459     0.1400    86.9193     2.4533
  276.5000    12.6813     0.0398     0.1429    85.5060     2.4456
  277.0000    12.6821     0.0352     0.1438    88.3911     2.4350
  277.5000    12.6779     0.0510     0.1438    90.6940     2.4487
  278.0000    12.6537     0.0792     0.1385    92.5194     2.4760
  278.5000    12.6545     0.1043     0.1208    93.1358     2.4897
  279.0000    12.6552     0.1096     0.1077    91.6039     2.4912
  279.5000    12.6560     0.0737     0.1130    90.7127     2.4745
  280.0000    12.6567     0.0266     0.1403    89.8216     2.4395
  280.5000    12.6575     0.0226     0.1411    89.8260     2.4503
  281.0000    12.6582     0.0233     0.1349    89.3827     2.4609
  281.5000    12.6590     0.0283     0.1297    88.9393     2.4670
  282.0000    12.6597     0.0349     0.1276    88.4960     2.4699
  282.5000    12.6604     0.0462     0.1264    89.3959     2.4716
  283.0000    12.6771     0.0538     0.1255    90.7436     2.4729
  283.5000    12.6918     0.0547     0.1292    91.1957     2.4708
