~VERSION INFORMATION
 VERS.                2.0:   CWLS LOG ASCII STANDARD - VERSION 2.0
 WRAP.                 NO:   ONE LINE PER DEPTH STEP
~WELL INFORMATION
#MNEM.UNIT      DATA TYPE    INFORMATION
#----------   ------------   ------------------------------
 STRT.F           38.0000:   START DEPTH
 STOP.F          637.0000:   STOP DEPTH
 STEP.F            0.5000:   STEP LENGTH
 NULL.          -999.2500:   NO VALUE
 COMP. FENIX & SCISSON INC:   COMPANY
 WELL.    NPR ##3 57-S-34:   WELL
 FLD .             TEAPOT:   FIELD
 LOC .      S34 T39N R78W:   LOCATION
 CNTY.            NATRONA:   COUNTY
 STAT.            WYOMING:   STATE
 CTRY. UNITED STATES OF AMERICA:   COUNTRY
 SRVC.              Welex:   SERVICE COMPANY
 DATE.        12-MAR-1977:   LOGDATE
 API .       490251030600:   API NUMBER
~CURVE INFORMATION
#MNEM.UNIT       API CODE    CURVE DESCRIPTION
#----------   ------------   ------------------------------
 DEPT.F                  :   
 SPR .MV     07 010 01 00:   SPONTANEOUS POTENTIAL
 ILM .OHMM   07 120 44 00:   INDUCTION LOG MEDIUM
 ILD .OHMM   07 120 46 00:   INDUCTION LOG DEEP
 SGRD.OHMM   07 221 05 00:   SHALLOW SHORT GUARD RESISTIVITY
 CALD.IN     45 280 60 00:   CALIPER FROM DENSITY LOG
 GRD .GAPI   45 310 01 00:   GAMMA RAY FROM DENSITY LOG
 CORR.G/C3   45 356 01 00:   DENSITY CORRECTION
 DPHI.DEC    45 890 12 00:   DENSITY POROSITY SANDSTONE
 RHOB.G/C3   45 350 01 00:   BULK DENSITY
~PARAMETER INFORMATION
#MNEM.UNIT          VALUE    DESCRIPTION
#----------   ------------   ------------------------------
 PD  .                 GL:   PERMANENT DATUM
 EPD .F              5107:   ELEVATION PERMANENT DATUM
 LMF .                 GL:   LOG MEASURED FROM
 DMF .                 GL:   DRILLING MEASURED FROM
 EGL .F              5107:   GROUND LEVEL
 DATE.          3-12-1977:   RUN DATE
 RUN .                  1:   RUN NUMBER
 DD  .F               650:   DEPTH DRILLER
 DL  .F               637:   DEPTH LOGGER
 BLI .F               636:   BOTTOM LOG INTERVAL
 TLI .F                46:   TOP LOG INTERVAL
 CS  .IN            8.625:   CASING SIZE
 CBD .F                45:   CASING BOTTOM DRILLER
 CBL .F                46:   CASING BOTTOM LOGGER
 BS  .IN            7.875:   BIT SIZE
 BSD .F               650:   BIT SIZE AT DEPTH
 DFT .            KCL MUD:   DRILLING FLUID TYPE
 DFD .                8.9:   DRILLING FLUID DENSITY
 DFV .                 35:   DRILLING FLUID VISCOSITY
 MSS .            MUD PIT:   MUD SAMPLE SOURCE
 RMS .OHMM            .53:   RESISTIVITY MUD SAMPLE
 MST .F                68:   MUD SAMPLE TEMPERATURE
 RMF .OHMM            .41:   RESISTIVITY MUD FILTRATE SAMPLE
 MFST.F                69:   MUD FILTRATE SAMPLE TEMPERATURE
 RMC .OHMM            .62:   RESISTIVITY MUD CAKE
 MCST.F                65:   MUD CAKE SAMPLE TEMPERATURE
 MFSS.           MEASURED:   MUD FILTRATE SAMPLE SOURCE
 MCSS.           MEASURED:   MUD CAKE SAMPLE SOURCE
 RMB .OHMM            .60:   RESISTIVITY MUD AT BHT
 BHT .F                60:   BOTTOM HOLE TEMPERATURE
 TCS .HRS               1:   TIME CURCULATED STOPPED
 MRT .F                60:   MAXIMUM RECORDED TEMPERATURE
 LUN .               0716:   LOGGING UNIT NUMBER
 LUL .             VERNAL:   LOGGING UNIT LOCATION
 ENGI.        E. CALLAHAN:   RECORDING ENGINEER
 WITN.         STUEBUNGER:   WITNESSED BY
 CLNT.            A2DTECH:   CLIENT CODE
 ORIG.           5" PRINT:   ORIGIN OF DATA
 UWI .       490251030600:   UNIQUE WELL ID
 DICO. A2D Technologies, Inc.:   DIGITIZING COMPANY
~OTHER INFORMATION
~A   DEPT      SPR        ILM        ILD       SGRD       CALD        GRD       CORR       DPHI       RHOB   
# ...
  476.0000   -21.3948    18.5891    14.3888    23.1887     7.8031    82.0722     0.1123     0.1370     2.4160
  476.5000   -21.5529    20.0517    14.3850    33.2116     7.7720    81.4701     0.1185     0.1237     2.4447
  477.0000   -22.1594    21.0398    14.3812    34.3685     7.7563    80.2384     0.0906     0.1243     2.4495
  477.5000   -22.9153    21.6251    14.3774    40.8406     7.7716    76.6847     0.0628     0.1268     2.4416
  478.0000   -24.2692    20.4555    14.2735    22.8381     7.8334    76.9287     0.0334     0.1281     2.4354
  478.5000   -25.4913    18.5289    13.9766    18.5535     7.9261    79.9954     0.0272     0.1392     2.4083
  479.0000   -25.9327    16.3880    13.7808    18.0414     8.0034    81.8390     0.0381     0.1482     2.3898
  479.5000   -24.8950    15.9371    13.4941    18.1621     8.0187    84.1600     0.0520     0.1560     2.3836
  480.0000   -24.1562    15.2858    13.1222    18.0295     8.0185    86.4706     0.0582     0.1619     2.3759
  480.5000   -22.9689    14.6612    12.8394    17.2777     8.0184    86.0078     0.0598     0.1653     2.3681
  481.0000   -21.9212    14.3566    12.5811    16.9290     8.0028    85.8493     0.0582     0.1672     2.3681
  481.5000   -20.2976    14.7551    12.4910    16.9234     7.9871    86.6301     0.0583     0.1650     2.3743
  482.0000   -18.0641    15.0591    12.4016    16.8012     7.9715    87.9009     0.0629     0.1613     2.3774
  482.5000   -14.7842    14.5439    12.3128    16.6799     7.9713    85.2400     0.0707     0.1591     2.3798
  483.0000   -13.4474    13.6634    12.1403    16.3321     7.9712    84.9319     0.0645     0.1554     2.3914
  483.5000   -15.3992    13.5657    12.1363    15.8813     7.9710    85.2431     0.0459     0.1573     2.3782
  484.0000   -17.4110    14.0389    12.1331    15.9862     7.9709    86.7926     0.0490     0.1638     2.3589
  484.5000   -19.3049    13.6517    12.1299    15.8695     7.9862    87.2586     0.0522     0.1679     2.3659
  485.0000   -20.6588    13.2760    12.1267    15.6463     7.9860    87.2859     0.0522     0.1641     2.3713
  485.5000   -21.4126    13.0002    12.0398    15.2145     7.9859    85.2493     0.0584     0.1619     2.3829
  486.0000   -19.7791    13.1776    12.0366    14.8971     7.9857    84.1672     0.0723     0.1554     2.3906
  486.5000   -18.5770    13.9228    11.9497    14.9956     7.9856    85.5620     0.0692     0.1582     2.3821
  487.0000   -18.0025    14.3164    11.7823    15.3036     7.9854    87.2663     0.0662     0.1607     2.3798
  487.5000   -18.1627    14.5045    11.6980    15.7275     7.9698    89.7447     0.0693     0.1592     2.3814
  488.0000   -18.0218    14.3007    11.6142    16.1633     7.9696    89.4366     0.0708     0.1573     2.3868
  488.5000   -17.8787    14.1007    11.6111    16.6111     7.9695    89.1286     0.0724     0.1564     2.3915
  489.0000   -18.0389    13.9999    11.6171    16.7208     7.9229    88.8205     0.0724     0.1533     2.3930
  489.5000   -19.0119    13.8998    11.7659    16.3707     7.7370    88.3577     0.0755     0.1508     2.3953
  490.0000   -20.7488    14.0895    11.7628    15.8092     7.5975    88.0493     0.0802     0.1462     2.4023
  490.5000   -21.6542    14.0848    11.6786    15.3728     7.5973    87.4320     0.0725     0.1440     2.4054
  491.0000   -21.9596    13.7922    11.5950    14.9485     7.6436    87.2784     0.0663     0.1437     2.4031
  491.5000   -20.4756    13.6946    11.4326    15.2568     7.7673    88.0543     0.0632     0.1431     2.4062
  492.0000   -21.4210    13.8806    11.4288    15.4641     7.9220    89.1395     0.0632     0.1419     2.4209
  492.5000   -24.2297    13.5906    11.3470    15.5662     8.0147    89.6050     0.0648     0.1359     2.4240
  493.0000   -23.6425    13.3089    11.2658    15.2404     8.0610    86.6658     0.0679     0.1370     2.4194
  493.5000   -23.3499    13.2138    11.3410    15.0261     8.0763    85.8930     0.0710     0.1224     2.4302
  494.0000   -23.0617    13.1193    11.4168    14.9176     8.0761    87.1333     0.0757     0.1162     2.4535
  494.5000   -22.6219    13.2068    11.7340    14.9125     8.0760    86.0513     0.0803     0.1109     2.4705
  495.0000   -21.8852    13.5733    12.0593    15.3245     8.0603    83.8856     0.0819     0.0951     2.4773
  495.5000   -20.8474    14.5559    12.3945    15.9684     8.0447    81.5652     0.0773     0.0837     2.4944
  496.0000   -18.7633    16.0120    12.9165    18.3306     8.0291    80.1736     0.0757     0.0793     2.5092
  496.5000   -15.7824    17.3916    13.3677    32.9829     8.0134    75.2216     0.0711     0.0694     2.5240
  497.0000   -14.2960    18.8900    13.8347    48.9008     8.0133    74.9135     0.0649     0.0663     2.5394
  497.5000   -15.5007    20.3763    14.2422    58.1095     7.9977    74.4507     0.0603     0.0716     2.5355
  498.0000   -15.2102    19.8156    14.6144    46.5556     7.9975    73.8331     0.0572     0.0794     2.5222
  498.5000   -17.3114    18.0743    14.2107    27.3273     7.9973    72.7510     0.0572     0.0893     2.5099
  499.0000   -16.5748    16.7777    13.3491    22.3545     7.9972    77.0869     0.0588     0.0998     2.4960
  499.5000   -17.1813    15.4396    12.3674    17.1833     7.9816    81.8873     0.0635     0.1119     2.4821
  500.0000   -18.1155    13.4347    11.7795    14.0564     7.9505    86.8424     0.0716     0.1138     2.4644
  500.5000   -18.4237    12.7994    11.2225    13.3915     7.8576    89.6303     0.0759     0.1156     2.4575
  501.0000   -18.4325    13.1587    10.8409    13.4835     7.7492    90.4058     0.0775     0.1191     2.4505
  501.5000   -20.8365    12.4500    10.5449    13.3895     7.6563    90.5621     0.0854     0.1203     2.4459
  502.0000   -22.6418    11.9437    10.2571    13.3886     7.6409    89.1705     0.0915     0.1218     2.4428
  502.5000   -22.8003    11.8613    10.0463    13.4807     7.7647    86.6949     0.0944     0.1234     2.4413
  503.0000   -23.1085    11.9437     9.9082    13.4796     7.8576    88.2448     0.0993     0.1240     2.4405
  503.5000   -23.1173    12.0266     9.9082    13.4785     7.8421    89.6395     0.1037     0.1240     2.4413
  504.0000   -22.6770    11.9437     9.9082    13.4776     7.8421    88.8670     0.1022     0.1215     2.4476
  504.5000   -22.2367    11.8613     9.9082    13.4767     7.8266    88.4038     0.0975     0.1218     2.4453
  505.0000   -21.6484    11.7795     9.9082    13.4758     7.8266    90.1085     0.0960     0.1324     2.4344
  505.5000   -21.5057    11.7795     9.8399    13.4749     7.8266    90.4196     0.0960     0.1314     2.4320
  506.0000   -21.3648    11.6983     9.8399    13.3811     7.8731    90.5760     0.0960     0.1222     2.4438
  506.5000   -21.2257    11.6983     9.7720    13.1965     7.9505    93.8283     0.0991     0.1203     2.4471
  507.0000   -20.7854    11.6983     9.7720    13.1046     7.9969    93.3654     0.1022     0.1240     2.4423
  507.5000   -20.3433    11.8613     9.7047    12.9238     7.9969    91.5094     0.0960     0.1240     2.4408
  508.0000   -19.9030    11.8613     9.6377    12.7452     7.9814    90.1177     0.0960     0.1190     2.4470
  508.5000   -19.3148    11.6176     9.6377    12.5694     7.8731    95.5372     0.1022     0.1147     2.4617
  509.0000   -18.8745    11.3789     9.5053    12.3959     7.7647    96.4675     0.1037     0.1119     2.4625
  509.5000   -17.9851    11.3789     9.5053    12.3096     7.7492    97.0882     0.0944     0.1233     2.4432
  510.0000   -15.7501    11.4579     9.5053    12.3944     7.7647    98.3282     0.0805     0.1294     2.4285
  510.5000   -13.9625    11.5375     9.5053    12.5659     7.7802    99.7229     0.0774     0.1314     2.4246
  511.0000   -14.5701    11.4579     9.5053    12.7401     7.8266    99.2600     0.0789     0.1271     2.4270
  511.5000   -17.1239    11.3005     9.5053    12.7392     7.9040    99.5712     0.0789     0.1234     2.4324
  512.0000   -19.9770    11.3005     9.5053    12.7383     7.9048   100.0371     0.0820     0.1160     2.4557
