~VERSION INFORMATION
 VERS.                2.0:   CWLS LOG ASCII STANDARD - VERSION 2.0
 WRAP.                 NO:   ONE LINE PER DEPTH STEP
~WELL INFORMATION
#MNEM.UNIT      DATA TYPE    INFORMATION
#----------   ------------   ------------------------------
 STRT.F           70.0000:   START DEPTH
 STOP.F          865.0000:   STOP DEPTH
 STEP.F            0.5000:   STEP LENGTH
 NULL.          -999.2500:   NO VALUE
 COMP. U S NAVY/INTEX OIL CO:   COMPANY
 WELL.   54S 11 NPR #3-11:   WELL
 FLD .             TEAPOT:   FIELD
 LOC .      S11 T38N R78W:   LOCATION
 CNTY.            NATRONA:   COUNTY
 STAT.            WYOMING:   STATE
 CTRY. UNITED STATES OF AMERICA:   COUNTRY
 SRVC.         Lane Wells:   SERVICE COMPANY
 DATE.        11-MAR-1960:   LOGDATE
 API .       490250634900:   API NUMBER
~CURVE INFORMATION
#MNEM.UNIT       API CODE    CURVE DESCRIPTION
#----------   ------------   ------------------------------
 DEPT.F                  :   
 SPR .MV     05 010 01 00:   SPONTANEOUS POTENTIAL FROM RES.
 ASN .OHMM   05 041 16 00:   AMPLIFIED SHORT NORMAL 16"
 ILD .OHMM   05 120 46 00:   INDUCTION LOG DEEP
 CILD.MMHO   05 110 46 00:   CONDUCTIVITY INDUCTION LOG DEEP
~PARAMETER INFORMATION
#MNEM.UNIT          VALUE    DESCRIPTION
#----------   ------------   ------------------------------
 PD  .                 GL:   PERMANENT DATUM
 EPD .F              5198:   ELEVATION PERMANENT DATUM
 LMF .                 KB:   LOG MEASURED FROM
 DAPD.F                 5:   FEET ABOVE PERMANENT DATUM
 DMF .                 KB:   DRILLING MEASURED FROM
 EKB .F              5203:   KELLING BUSHING
 EGL .F              5198:   GROUND LEVEL
 DATE.            3-11-60:   RUN DATE
 RUN .                  1:   RUN NUMBER
 DD  .F               870:   DEPTH DRILLER
 DL  .F               867:   DEPTH LOGGER
 BLI .F               865:   BOTTOM LOG INTERVAL
 TLI .F                70:   TOP LOG INTERVAL
 CS  .IN            8.625:   CASING SIZE
 CBD .F                12:   CASING BOTTOM DRILLER
 BS  .IN            7.875:   BIT SIZE
 BSD .F               870:   BIT SIZE AT DEPTH
 DFT .   GEL/OIL EMULSION:   DRILLING FLUID TYPE
 DFD .                9.2:   DRILLING FLUID DENSITY
 DFV .                 36:   DRILLING FLUID VISCOSITY
 DFPH.                7.5:   DRILLING FLUID PH
 DFL .                4.4:   DRILLING FLUID LOSS
 MSS .                PIT:   MUD SAMPLE SOURCE
 RMS .OHMM            6.8:   RESISTIVITY MUD SAMPLE
 MST .F                54:   MUD SAMPLE TEMPERATURE
 RMF .OHMM            4.2:   RESISTIVITY MUD FILTRATE SAMPLE
 MFST.F                69:   MUD FILTRATE SAMPLE TEMPERATURE
 RMC .OHMM            5.1:   RESISTIVITY MUD CAKE
 MCST.F                69:   MUD CAKE SAMPLE TEMPERATURE
 MFSS.              PRESS:   MUD FILTRATE SAMPLE SOURCE
 MCSS.              PRESS:   MUD CAKE SAMPLE SOURCE
 RMB .OHMM            5.2:   RESISTIVITY MUD AT BHT
 BHT .F                70:   BOTTOM HOLE TEMPERATURE
 TCS .HRS              .5:   TIME CURCULATED STOPPED
 MRT .F                70:   MAXIMUM RECORDED TEMPERATURE
 LUN .             L-4474:   LOGGING UNIT NUMBER
 LUL .             CASPER:   LOGGING UNIT LOCATION
 ENGI.      GRIGGS/NELSON:   RECORDING ENGINEER
 WITN.   JORGENSEN/HUDSON:   WITNESSED BY
 CLNT.            A2DTECH:   CLIENT CODE
 ORIG.       2", 5" PRINT:   ORIGIN OF DATA
 UWI .       490250634900:   UNIQUE WELL ID
 DICO. A2D Technologies, Inc.:   DIGITIZING COMPANY
~OTHER INFORMATION
~A   DEPT       SPR         ASN        ILD      CILD  
# ...
  435.0000   -10.3608     7.8290     5.9375   193.2674
  435.5000   -10.0458     7.5342     5.9375   193.4314
  436.0000    -9.7303     7.2431     5.9375   193.6778
  436.5000    -9.4145     6.9542     5.9374   193.9240
  437.0000    -9.1005     6.6652     5.9373   194.1702
  437.5000    -8.8666     6.3639     5.9355   194.4164
  438.0000    -8.9987     6.3285     6.0369   194.6626
  438.5000    -9.1236     6.3745     6.1793   194.9088
  439.0000    -9.2478     6.4228     6.2093   194.4466
  439.5000    -9.3718     6.4704     6.2098   191.9846
  440.0000    -9.4958     6.5179     6.2095   189.5226
  440.5000    -9.6198     6.5652     6.2094   187.8594
  441.0000    -9.7438     6.6111     6.2094   187.8383
  441.5000    -9.8679     6.6982     6.2094   187.8449
  442.0000    -9.9919     6.7905     6.2094   187.8456
  442.5000   -10.1159     6.8830     6.2100   187.0118
  443.0000   -10.2399     6.9754     6.2472   184.9016
  443.5000   -10.3639     7.0683     6.3403   182.7913
  444.0000   -10.4880     7.1608     6.4325   180.6811
  444.5000   -10.6123     7.1802     6.5250   178.5708
  445.0000   -10.7377     7.1277     6.5722   176.4606
  445.5000   -10.8503     7.0717     6.5721   174.3503
  446.0000   -10.7240     7.0192     6.5721   173.3556
  446.5000   -10.5897     7.0899     6.5720   173.3556
  447.0000   -10.4565     7.2200     6.5718   173.3553
  447.5000   -10.3236     7.3503     6.5716   173.3574
  448.0000   -10.1901     7.4806     6.5862   173.3564
  448.5000   -10.0573     7.6108     6.7091   173.1443
  449.0000    -9.9578     7.7410     6.8327   171.5616
  449.5000   -10.0706     7.8713     6.9407   169.9789
  450.0000   -10.1807     8.0017     6.9590   168.3962
  450.5000   -10.2902     8.1317     6.9792   166.8135
  451.0000   -10.3997     8.2399     6.9997   165.2308
  451.5000   -10.5091     8.2664     7.0198   163.6481
  452.0000   -10.6186     8.3079     7.0753   162.0655
  452.5000   -10.7283     8.4018     7.1412   160.4828
  453.0000   -10.8392     8.4930     7.2073   158.9001
  453.5000   -10.8574     8.5841     7.2733   157.3174
  454.0000   -10.8714     8.6751     7.3394   155.7347
  454.5000   -10.8873     8.7664     7.4058   154.1520
  455.0000   -10.9035     8.8586     7.4722   152.5693
  455.5000   -10.9197     8.9515     7.4460   152.3602
  456.0000   -10.9359     8.8838     7.4089   154.2066
  456.5000   -10.9520     8.8018     7.3717   156.0531
  457.0000   -10.9682     8.7201     7.3347   157.8996
  457.5000   -10.9844     8.6385     7.2977   158.9052
  458.0000   -11.0006     8.5601     7.2608   158.9846
  458.5000   -11.0167     8.5487     7.2237   159.0612
  459.0000   -11.0329     8.5387     7.2094   159.1388
  459.5000   -11.0522     8.5019     7.2138   159.2173
  460.0000   -11.0741     8.4644     7.2186   159.2959
  460.5000   -11.0960     8.4274     7.2233   159.3745
  461.0000   -11.1179     8.3986     7.2281   159.4531
  461.5000   -11.1398     8.4362     7.2328   159.5316
  462.0000   -11.1617     8.4733     7.2375   159.6102
  462.5000   -11.1836     8.5114     7.2423   159.6888
  463.0000   -11.2055     8.4896     7.2470   159.7674
  463.5000   -11.2273     8.4442     7.2518   159.8459
  464.0000   -11.2492     8.3977     7.2565   159.9245
  464.5000   -11.2711     8.3485     7.2612   160.0031
  465.0000   -11.2930     8.4175     7.2660   160.0816
  465.5000   -11.3149     8.5176     7.2707   160.1602
  466.0000   -11.3368     8.6159     7.2755   160.2388
  466.5000   -11.3587     8.6327     7.2802   160.3174
  467.0000   -11.3806     8.4660     7.2850   160.3959
  467.5000   -11.4025     8.3828     7.2898   160.4752
  468.0000   -11.4086     8.6042     7.2941   160.5578
  468.5000   -11.4178     8.7743     7.2745   160.6317
  469.0000   -11.4268     8.6081     7.2172   160.7102
  469.5000   -11.4358     8.4012     7.1604   161.9319
  470.0000   -11.4449     8.1960     7.1035   163.2748
  470.5000   -11.4540     7.9904     7.0468   164.6177
  471.0000   -11.4631     7.8710     6.9903   165.9606
  471.5000   -11.4721     7.8139     6.9317   167.3034
  472.0000   -11.4812     7.7586     6.8162   169.0176
  472.5000   -11.4903     7.7045     6.6999   171.0488
  473.0000   -11.4994     7.6433     6.5843   173.0799
  473.5000   -11.5084     7.4447     6.4728   175.1110
  474.0000   -11.5175     7.2507     6.4254   177.1421
  474.5000   -11.5266     7.0580     6.3752   179.1732
  475.0000   -11.5357     6.8654     6.3248   181.2043
  475.5000   -11.5447     6.6725     6.2740   183.2354
  476.0000   -11.5538     6.4801     6.2245   185.2666
  476.5000   -11.5629     6.3194     6.1201   187.2977
  477.0000   -11.5722     6.3057     6.1508   187.8456
  477.5000   -11.5809     6.3681     6.1774   187.8456
  478.0000   -11.5711     6.5423     6.2038   187.8456
  478.5000   -11.4985     6.7473     6.2302   187.3886
  479.0000   -11.4287     6.9529     6.2566   185.8498
  479.5000   -11.3589     7.1560     6.2830   184.3111
  480.0000   -11.2892     7.2939     6.3094   182.7724
  480.5000   -11.2193     7.2963     6.3359   181.2337
  481.0000   -11.1495     7.3013     6.3626   179.6949
  481.5000   -11.0797     7.3055     6.3892   178.7893
  482.0000   -11.0409     7.2936     6.3684   178.7893
  482.5000   -11.1175     7.2585     6.3435   178.7893
  483.0000   -11.2004     7.2236     6.3188   178.7893
  483.5000   -11.2832     7.1887     6.2941   178.7893
  484.0000   -11.3659     7.1539     6.2694   176.9781
  484.5000   -11.4486     7.1190     6.2449   175.1668
  485.0000   -11.5313     7.0840     6.2198   175.1668
  485.5000   -11.6139     7.0493     6.2405   175.1668
  486.0000   -11.6966     7.0136     6.2944   175.1668
  486.5000   -11.7793     7.0475     6.3488   175.1668
  487.0000   -11.8620     7.1236     6.4032   175.1668
  487.5000   -11.9447     7.2006     6.4576   175.1668
  488.0000   -12.0274     7.2776     6.5119   175.1668
  488.5000   -12.1112     7.3546     6.5664   175.1668
  489.0000   -12.1348     7.4347     6.6206   175.1668
  489.5000   -12.1352     7.4532     6.6628   175.1668
  490.0000   -15.3226     7.1569     6.7291   180.1075
  490.5000   -15.3633     7.1034     6.7291   181.0466
  491.0000   -15.4448     7.0677     6.7278   182.8746
  491.5000   -15.4994     7.0381     6.7208   184.3369
  492.0000   -15.3679     6.9897     6.7119   185.0910
  492.5000   -15.2179     6.9796     6.7031   184.0364
  493.0000   -15.0694     6.9480     6.6943   182.9820
  493.5000   -14.9975     6.9375     6.6854   181.9213
  494.0000   -15.1246     6.9314     6.6766   180.8824
  494.5000   -15.2483     6.9253     6.6678   180.9912
  495.0000   -15.3721     6.9191     6.6590   184.3992
  495.5000   -15.4956     6.9128     6.6501   187.7665
  496.0000   -15.6193     6.9007     6.6413   191.1337
  496.5000   -15.6971     6.8521     6.6325   194.4444
  497.0000   -15.7290     6.8032     6.6237   194.7693
  497.5000   -15.7611     6.7545     6.6148   195.3405
  498.0000   -15.7932     6.7059     6.6060   195.9192
  498.5000   -15.8262     6.6564     6.5972   195.9301
  499.0000   -15.8558     6.6586     6.5884   195.2335
  499.5000   -15.6590     6.6865     6.5795   194.5278
  500.0000   -15.4329     6.7082     6.5707   193.8238
  500.5000   -15.3351     6.6519     6.5619   193.1141
  501.0000   -15.3680     6.5968     6.5530   192.7295
  501.5000   -15.4026     6.5466     6.5384   192.9608
  502.0000   -15.4374     6.5281     6.5218   193.1922
  502.5000   -15.4720     6.5092     6.5052   193.4236
  503.0000   -15.5067     6.5132     6.4885   193.6550
  503.5000   -15.5413     6.5501     6.4719   193.8864
  504.0000   -15.5759     6.5512     6.4553   194.1178
  504.5000   -15.6106     6.5499     6.4386   194.3492
  505.0000   -15.6454     6.5284     6.4220   194.5806
  505.5000   -15.6799     6.5072     6.4054   194.8119
  506.0000   -15.6928     6.4629     6.3887   195.0433
  506.5000   -15.7048     6.4022     6.3721   195.2747
  507.0000   -15.7168     6.3729     6.3555   195.5061
  507.5000   -15.7289     6.3428     6.3389   195.7390
