~VERSION INFORMATION
 VERS.                2.0:   CWLS LOG ASCII STANDARD - VERSION 2.0
 WRAP.                 NO:   ONE LINE PER DEPTH STEP
~WELL INFORMATION
#MNEM.UNIT      DATA TYPE    INFORMATION
#----------   ------------   ------------------------------
 STRT.F           25.0000:   START DEPTH
 STOP.F          867.0000:   STOP DEPTH
 STEP.F            0.5000:   STEP LENGTH
 NULL.          -999.2500:   NO VALUE
 COMP. LAWRENCE/ALLISON INC:   COMPANY
 WELL.    38-11 SX #35-35:   WELL
 FLD .             TEAPOT:   FIELD
 LOC .      S35 T39N R78W:   LOCATION
 CNTY.            NATRONA:   COUNTY
 STAT.            WYOMING:   STATE
 CTRY. UNITED STATES OF AMERICA:   COUNTRY
 SRVC.      Dresser Atlas:   SERVICE COMPANY
 DATE.        07-AUG-1985:   LOGDATE
 API .       490251104100:   API NUMBER
~CURVE INFORMATION
#MNEM.UNIT       API CODE    CURVE DESCRIPTION
#----------   ------------   ------------------------------
 DEPT.F                  :   
 SPR .MV     07 010 01 00:   SPONTANEOUS POTENTIAL
 RILD.OHMM   07 120 46 00:   INDUCTION LOG DEEP RESISTIVITY
 RILM.OHMM   07 120 44 00:   INDUCTION LOG MEDIUM RESISTIVITY
 RFOC.OHMM   07 220 04 00:   RESISTIVITY FOCUSED LOG
 PORD.DEC    45 890 12 00:   POROSITY DENSITY SANDSTONE
 CNC .DEC    42 890 03 00:   NEUTRON POROSITY SANDSTONE
 GRD .GAPI   45 310 01 00:   GAMMA RAY FROM DENSITY LOG
 CALD.IN     45 280 60 00:   CALIPER FROM DENSITY LOG
 CORR.G/C3   45 356 01 00:   DENSITY CORRECTION
 DEN .G/C3   45 350 01 00:   COMPENSATED BULK DENSTIY
~PARAMETER INFORMATION
#MNEM.UNIT          VALUE    DESCRIPTION
#----------   ------------   ------------------------------
 PD  .                 GL:   PERMANENT DATUM
 EPD .F              5110:   ELEVATION PERMANENT DATUM
 LMF .                 GL:   LOG MEASURED FROM
 DMF .                 GL:   DRILLING MEASURED FROM
 EGL .F              5110:   GROUND LEVEL
 DATE.             8-7-85:   RUN DATE
 RUN .                  1:   RUN NUMBER
 DD  .F               900:   DEPTH DRILLER
 DL  .F               869:   DEPTH LOGGER
 BLI .F               867:   BOTTOM LOG INTERVAL
 TLI .F                40:   TOP LOG INTERVAL
 CS  .IN            8.625:   CASING SIZE
 CBD .F                40:   CASING BOTTOM DRILLER
 CBL .F                40:   CASING BOTTOM LOGGER
 BS  .IN            7.875:   BIT SIZE
 BSD .F               900:   BIT SIZE AT DEPTH
 DFT .             4% KCL:   DRILLING FLUID TYPE
 MSS .           FLOWLINE:   MUD SAMPLE SOURCE
 RMS .OHMM           .222:   RESISTIVITY MUD SAMPLE
 MST .F                71:   MUD SAMPLE TEMPERATURE
 TCS .HRS               2:   TIME CURCULATED STOPPED
 MRT .F               100:   MAXIMUM RECORDED TEMPERATURE
 LUN .               6264:   LOGGING UNIT NUMBER
 LUL .               GLTE:   LOGGING UNIT LOCATION
 ENGI.           FAHLSING:   RECORDING ENGINEER
 WITN.              FIVAS:   WITNESSED BY
 CLNT.            A2DTECH:   CLIENT CODE
 ORIG.       2", 5" PRINT:   ORIGIN OF DATA
 UWI .       490251104100:   UNIQUE WELL ID
 DICO. A2D Technologies, Inc.:   DIGITIZING COMPANY
~OTHER INFORMATION
~A   DEPT      SPR       RILD       RILM       RFOC       PORD          CNC      GRD       CALD       CORR        DEN   
# ...
   92.0000   -78.7348     5.7175     5.7636     5.8116     0.1752     0.3588    89.6829     8.6163     0.0290     2.3893
   92.5000   -79.6717     5.7175     5.7631     5.8116     0.1722     0.3467    91.5258     8.5858     0.0470     2.3953
   93.0000   -80.8142     5.7175     5.8026     5.8116     0.1674     0.3287    92.7349     8.5407     0.0635     2.4013
   93.5000   -82.1632     5.7571     5.8424     5.8116     0.1638     0.3270    91.5538     8.4977     0.0711     2.4073
   94.0000   -83.0610     5.7175     5.8824     5.8116     0.1620     0.3311    92.8955     8.4833     0.0756     2.4096
   94.5000   -83.5077     5.7571     5.8368     5.8116     0.1608     0.3391    97.4618     8.4541     0.0592     2.4080
   95.0000   -83.8040     5.7970     5.7610     5.8116     0.1599     0.3489   101.0845     8.4548     0.0353     2.4114
   95.5000   -83.9511     5.8371     5.6817     5.7716     0.1572     0.3539   102.4931     8.4403     0.0459     2.4222
   96.0000   -84.0970     5.8371     5.6422     5.7319     0.1527     0.3638    98.3932     8.4412     0.0624     2.4269
   96.5000   -84.2430     5.7970     5.5263     5.6533     0.1503     0.3572    91.8255     8.4420     0.0819     2.4284
   97.0000   -84.2374     5.6392     5.4879     5.5374     0.1488     0.3479    89.0168     8.4274     0.0940     2.4389
   97.5000   -84.3834     5.5237     5.4124     5.4239     0.1415     0.3384    90.2456     8.3981     0.1120     2.4464
   98.0000   -84.3790     5.4105     5.3378     5.3127     0.1321     0.3315    92.6792     8.3685     0.1360     2.4606
   98.5000   -84.5249     5.3364     5.3375     5.2716     0.1228     0.3252    94.8116     8.3543     0.1271     2.4756
   99.0000   -84.5203     5.2997     5.3004     5.2038     0.1150     0.3264    95.4380     8.3551     0.1256     2.4869
   99.5000   -84.3646     5.2997     5.3001     5.3866     0.1087     0.3299    93.9559     8.3558     0.1302     2.4951
  100.0000   -84.3400     5.3385     5.4480     5.4993     0.1068     0.3195    90.0956     8.3413     0.1542     2.5030
  100.5000   -84.0798     5.3644     5.9573     5.4986     0.1057     0.3069    86.7727     8.3417     0.2108     2.5086
  101.0000   -83.8196     5.3903     6.4253     5.4600     0.1066     0.2910    81.6760     8.3268     0.2650     2.4974
  101.5000   -83.2871     5.4062     6.6490     5.4593     0.0883     0.2931    75.0733     8.2193     0.2890     2.5278
  102.0000   -82.4123     5.4422     6.3776     6.4421     0.0619     0.2976    72.9886     8.4483     0.1932     2.5745
  102.5000   -81.8123     5.4784     6.1173     8.0894     0.0847     0.3011    78.4340     8.4335     0.1093     2.5312
  103.0000   -82.1145     5.5148     5.8677     8.4891     0.1026     0.3050    88.4035     8.4187     0.1171     2.4930
  103.5000   -82.4168     5.3629     5.5511     6.2209     0.1245     0.3218    92.0934     8.4341     0.1260     2.4609
  104.0000   -82.5686     5.1440     5.1796     5.4041     0.1385     0.3173    93.2643     8.4495     0.1290     2.4415
  104.5000   -82.5701     5.4720     5.3971     5.3062     0.1427     0.3116    86.6976     8.4499     0.1066     2.4377
  105.0000   -82.7220     5.4756     5.6275     5.8842     0.1433     0.3104    82.1732     8.4804     0.0767     2.4378
  105.5000   -82.7234     5.3941     5.4315     6.2175     0.1442     0.3188    84.0042     8.4958     0.0602     2.4378
  106.0000   -82.7249     5.4300     5.4300     6.1314     0.1466     0.3247    87.0400     8.5263     0.0677     2.4348
  106.5000   -82.5757     5.5804     5.6244     5.4894     0.1504     0.3292    90.3770     8.5719     0.0827     2.4289
  107.0000   -82.5775     5.4993     5.6029     5.7208     0.1559     0.3410    93.1116     8.5873     0.0858     2.4199
  107.5000   -82.4286     5.3882     5.4255     5.8803     0.1623     0.3681    95.2438     8.5876     0.0723     2.4102
  108.0000   -82.4301     5.6605     5.6921     5.7987     0.1695     0.3795    96.7736     8.6182     0.0244     2.3945
  108.5000   -82.2812     5.5739     5.5356     5.5626     0.1770     0.3624    94.3877     8.6336     0.0034     2.3796
  109.0000   -82.1323     5.3835     5.3097     5.3732     0.1740     0.3382    92.8995     8.6187     0.0202     2.3848
  109.5000   -81.9834     5.3454     5.4193     5.2988     0.1707     0.3154    94.4353     8.5888     0.0305     2.3923
  110.0000   -81.8345     5.5694     5.6080     5.4089     0.1689     0.2914    95.6638     8.6042     0.0365     2.3939
  110.5000   -81.6856     5.7633     5.8434     5.7153     0.1710     0.2986    90.8683     8.6347     0.0440     2.3940
  111.0000   -81.6875     5.8822     5.9640     5.8745     0.1632     0.3037    89.3072     8.6350     0.0575     2.4015
  111.5000   -81.6890     5.9623     6.0456     5.8737     0.1587     0.3357    93.3255     8.6353     0.0696     2.4098
  112.0000   -81.5397     6.0024     6.0435     5.8729     0.1566     0.3654    96.0845     8.6356     0.0771     2.4164
  112.5000   -81.2404     6.0003     6.0419     5.9538     0.1617     0.3635    96.3850     8.6208     0.0801     2.4037
  113.0000   -80.9415     6.0406     6.0825     5.9552     0.1599     0.3570    92.0237     8.6212     0.0816     2.4120
  113.5000   -80.6423     6.0386     6.1226     5.9934     0.1530     0.3548    91.6133     8.6215     0.0682     2.4232
  114.0000   -80.1926     6.0369     6.2059     5.9926     0.1467     0.3462    93.1490     8.6369     0.0457     2.4322
  114.5000   -79.7430     5.9938     6.2471     6.0333     0.1485     0.3369    93.1728     8.6523     0.0578     2.4292
  115.0000   -79.2934     5.9921     6.2901     6.0323     0.1502     0.3351    92.2929     8.6526     0.0937     2.4225
  115.5000   -78.9937     5.9905     6.3305     6.0314     0.1499     0.3527    92.0095     8.6529     0.1255     2.4285
  116.0000   -78.9956     5.9889     6.3726     6.0306     0.1457     0.3575    92.3345     8.6229     0.1514     2.4353
  116.5000   -79.5985     5.9873     6.4150     6.0298     0.1421     0.3494    90.5570     8.6081     0.1702     2.4413
  117.0000   -80.2015     5.9444     6.4576     6.0290     0.1385     0.3512    89.6712     8.5934     0.1777     2.4495
  117.5000   -80.8045     5.9424     6.4110     6.0281     0.1355     0.3694    92.4117     8.5937     0.1822     2.4555
  118.0000   -81.2631     5.9408     6.2780     6.0273     0.1352     0.3617    94.8451     8.5940     0.1603     2.4563
  118.5000   -81.8601     5.9392     6.1903     6.0685     0.1343     0.3434    96.0737     8.5943     0.1134     2.4578
  119.0000   -82.1624     5.8968     6.1038     6.1097     0.1328     0.3389    94.8926     8.5946     0.0925     2.4571
  119.5000   -82.4650     5.8952     6.0185     6.0666     0.1338     0.3544    88.5911     8.5797     0.1224     2.4511
  120.0000   -82.6168     5.8128     5.8531     5.9826     0.1444     0.3682    88.4942     8.5801     0.1434     2.4384
  120.5000   -82.7687     5.7713     5.8113     5.8591     0.1546     0.3403    92.2531     8.5804     0.1464     2.4160
  121.0000   -82.9205     5.7300     5.8097     5.7780     0.1534     0.3177    91.3310     8.5807     0.1243     2.4221
  121.5000   -83.0724     5.7285     5.8081     5.6980     0.1519     0.3152    87.9911     8.5810     0.1001     2.4228
  122.0000   -83.0739     5.7269     5.8065     5.6967     0.1600     0.3277    84.4458     8.5964     0.1061     2.4094
  122.5000   -82.9246     5.6860     5.7254     5.6990     0.1659     0.3209    84.8239     8.6269     0.1091     2.3989
  123.0000   -82.7758     5.6065     5.6066     5.8197     0.1629     0.3193    84.2453     8.6423     0.0927     2.4087
  123.5000   -82.6272     5.4524     5.4902     5.8949     0.1605     0.3229    81.8594     8.7030     0.0987     2.4102
  124.0000   -82.6287     5.2299     5.3743     5.8939     0.1617     0.3340    79.7688     8.7185     0.1017     2.4080
  124.5000   -82.6302     5.0512     5.1886     5.7723     0.1593     0.3463    85.2202     8.7490     0.1033     2.4177
  125.0000   -82.4812     4.8786     4.9806     5.6143     0.1548     0.3540    88.2560     8.7644     0.0734     2.4147
