~VERSION INFORMATION
 VERS.                2.0:   CWLS LOG ASCII STANDARD - VERSION 2.0
 WRAP.                 NO:   ONE LINE PER DEPTH STEP
~WELL INFORMATION
#MNEM.UNIT      DATA TYPE    INFORMATION
#----------   ------------   ------------------------------
 STRT.F           80.0000:   START DEPTH
 STOP.F          718.5000:   STOP DEPTH
 STEP.F            0.5000:   STEP LENGTH
 NULL.          -999.2500:   NO VALUE
 COMP. U S NAVY-INTEX OIL:   COMPANY
 WELL. RES 3 TEAPOT DOM #21-S-2:   WELL
 FLD .        TEAPOT DOME:   FIELD
 LOC .       S2 T38N R78W:   LOCATION
 CNTY.            NATRONA:   COUNTY
 STAT.            WYOMING:   STATE
 CTRY. UNITED STATES OF AMERICA:   COUNTRY
 SRVC. Schlumberger Well Surveying Corp:   SERVICE COMPANY
 DATE.        18-JUL-1962:   LOGDATE
 API .       490250648100:   API NUMBER
~CURVE INFORMATION
#MNEM.UNIT       API CODE    CURVE DESCRIPTION
#----------   ------------   ------------------------------
 DEPT.F                  :   
 CALM.IN     15 280 01 00:   CALIPER FROM MICRO LOG
 SPR .MV     05 010 01 00:   SPONTANEOUS POTENTIAL FROM RES.
 ASN .OHMM   05 041 16 00:   AMPLIFIED SHORT NORMAL 16"
 ILD .OHMM   05 120 46 00:   INDUCTION LOG DEEP
 CILD.MMHO   05 110 46 00:   CONDUCTIVITY INDUCTION LOG DEEP
~PARAMETER INFORMATION
#MNEM.UNIT          VALUE    DESCRIPTION
#----------   ------------   ------------------------------
 LMF .                 KB:   LOG MEASURED FROM
 DMF .                 KB:   DRILLING MEASURED FROM
 EKB .F              5116:   KELLING BUSHING
 EGL .F              5111:   GROUND LEVEL
 DATE.          7-18-1962:   RUN DATE
 RUN .                  1:   RUN NUMBER
 DD  .F               719:   DEPTH DRILLER
 DL  .F               719:   DEPTH LOGGER
 BLI .F               718:   BOTTOM LOG INTERVAL
 TLI .F                90:   TOP LOG INTERVAL
 BS  .IN             6.75:   BIT SIZE
 BSD .F               719:   BIT SIZE AT DEPTH
 DFT .           OIL EMUL:   DRILLING FLUID TYPE
 DFD .                 10:   DRILLING FLUID DENSITY
 DFV .                 45:   DRILLING FLUID VISCOSITY
 DFL .                2.8:   DRILLING FLUID LOSS
 RMS .OHMM           3.87:   RESISTIVITY MUD SAMPLE
 MST .F                94:   MUD SAMPLE TEMPERATURE
 RMF .OHMM           2.93:   RESISTIVITY MUD FILTRATE SAMPLE
 MFST.F                94:   MUD FILTRATE SAMPLE TEMPERATURE
 RMC .OHMM           3.95:   RESISTIVITY MUD CAKE
 MCST.F                94:   MUD CAKE SAMPLE TEMPERATURE
 TCS .HRS              .5:   TIME CURCULATED STOPPED
 LUN .               2503:   LOGGING UNIT NUMBER
 LUL .              CSPR.:   LOGGING UNIT LOCATION
 ENGI.             DANNER:   RECORDING ENGINEER
 WITN.          JORGENSEN:   WITNESSED BY
 CLNT.            A2DTECH:   CLIENT CODE
 ORIG.      2" , 5" PRINT:   ORIGIN OF DATA
 UWI .       490250648100:   UNIQUE WELL ID
 DICO. A2D Technologies, Inc.:   DIGITIZING COMPANY
~OTHER INFORMATION
~A   DEPT     CALM        SPR          ASN        ILD      CILD  
# ...
  446.0000  -999.2500   -57.5986    12.6728    11.2279    82.9146
  446.5000  -999.2500   -56.7297    12.6270    11.1138    84.0069
  447.0000  -999.2500   -55.8753    12.5422    10.9720    85.0615
  447.5000  -999.2500   -55.6251    12.3812    10.8291    86.1161
  448.0000  -999.2500   -55.4826    12.2217    10.6861    87.1707
  448.5000  -999.2500   -55.3417    12.0618    10.5433    88.2253
  449.0000  -999.2500   -55.1997    11.9019    10.4003    89.2800
  449.5000  -999.2500   -55.0575    11.7419    10.2559    90.3358
  450.0000  -999.2500   -54.9153    11.5807    10.1084    91.3945
  450.5000  -999.2500   -54.7732    11.4156    10.1542    92.4380
  451.0000  -999.2500   -54.6309    11.4177    10.2164    92.5327
  451.5000  -999.2500   -54.4878    11.4320    10.2779    91.6453
  452.0000  -999.2500   -54.3413    11.4456    10.3391    90.7660
  452.5000  -999.2500   -54.2790    11.4589    10.4003    89.8886
  453.0000  -999.2500   -54.2207    11.4722    10.4606    88.9447
  453.5000  -999.2500   -54.1602    11.4857    10.4944    89.4629
  454.0000  -999.2500   -54.2872    11.4980    10.4653    89.9498
  454.5000  -999.2500   -54.5754    11.4571    10.4375    89.9498
  455.0000  -999.2500   -54.8644    11.2986    10.4104    91.1184
  455.5000  -999.2500   -55.1541    11.1421    10.3060    92.7041
  456.0000  -999.2500   -55.4452    10.9855    10.1770    94.2897
  456.5000  -999.2500   -55.7345    10.8273    10.0475    95.8754
  457.0000  -999.2500   -55.7499    10.6730     9.9180    97.4610
  457.5000  -999.2500   -55.7403    10.3639     9.7887    99.0467
  458.0000  -999.2500   -55.4440    10.3454     9.6593   100.6323
  458.5000  -999.2500   -55.1265    10.3100     9.5297   101.6447
  459.0000  -999.2500   -54.8097    10.2377     9.3991   102.4902
  459.5000  -999.2500   -54.4932    10.1353     9.2836   103.3303
  460.0000  -999.2500   -54.1776    10.0244     9.1674   104.1709
  460.5000  -999.2500   -53.8585     9.9132     9.0509   105.0117
  461.0000  -999.2500   -53.7761     9.8009     8.9343   105.8526
  461.5000  -999.2500   -53.8484     9.7336     8.8161   106.6935
  462.0000  -999.2500   -53.9234     9.6859     8.7679   107.5343
  462.5000  -999.2500   -53.9983     9.6554     8.7348   108.3752
  463.0000  -999.2500   -54.0736     9.6258     8.7021   109.2179
  463.5000  -999.2500   -54.1731     9.5274     8.6692   110.0495
  464.0000  -999.2500   -54.3843     9.4193     8.6363   110.3918
  464.5000  -999.2500   -54.5930     9.3874     8.6034   110.7256
  465.0000  -999.2500   -54.8013     9.3590     8.5704   111.0553
  465.5000  -999.2500   -55.0101     9.3302     8.5377   110.6877
  466.0000  -999.2500   -55.2184     9.3014     8.5038   110.3280
  466.5000  -999.2500   -55.4236     9.2728     8.5328   109.9666
  467.0000  -999.2500   -55.4175     9.2608     8.5951   109.6058
  467.5000  -999.2500   -55.1164     9.2733     8.6583   109.2462
  468.0000  -999.2500   -54.8189     9.2231     8.7223   109.3885
  468.5000  -999.2500   -54.5393     9.1965     8.7902   110.1647
  469.0000  -999.2500   -54.4820     9.1951     8.6072   110.9604
  469.5000  -999.2500   -54.4325     9.1414     8.3867   113.4340
  470.0000  -999.2500   -54.3828     9.0182     8.1653   117.1513
  470.5000  -999.2500   -54.3296     8.8547     7.9444   120.8380
  471.0000  -999.2500   -54.1981     8.6366     7.7237   124.5249
  471.5000  -999.2500   -54.0681     8.4196     7.5022   128.2118
  472.0000  -999.2500   -53.9388     8.2021     7.3269   130.7055
  472.5000  -999.2500   -53.8096     7.9853     7.2007   132.7236
  473.0000  -999.2500   -53.6804     7.8158     7.0746   134.7417
  473.5000  -999.2500   -53.5512     7.7775     6.9477   136.7598
  474.0000  -999.2500   -53.4222     7.7701     6.8911   138.1820
  474.5000  -999.2500   -53.2930     7.8636     7.0283   135.8772
  475.0000  -999.2500   -53.1626     7.9533     7.1622   133.7296
  475.5000  -999.2500   -52.8672     8.0458     7.2934   131.5918
  476.0000  -999.2500   -52.4988     8.0965     7.3948   129.4573
  476.5000  -999.2500   -52.3219     8.1465     7.4142   127.1357
  477.0000  -999.2500   -52.3185     8.1962     7.4355   126.6595
  477.5000  -999.2500   -52.3182     8.2271     7.4564   126.1376
  478.0000  -999.2500   -52.3186     8.2111     7.4774   125.6157
  478.5000  -999.2500   -52.3190     8.1960     7.5156   125.0937
  479.0000  -999.2500   -52.3190     8.1811     7.5693   124.5718
  479.5000  -999.2500   -52.2920     8.1814     7.6230   124.0499
  480.0000     6.7344   -52.0894     8.2254     7.6767   123.5280
  480.5000     6.7344   -51.8857     8.3258     7.7304   123.0061
  481.0000     6.7344   -51.6833     8.4267     7.7840   122.4841
  481.5000     6.7344   -51.5151     8.5282     7.8377   121.9619
  482.0000     6.7339   -51.5742     8.5721     7.8916   121.4355
  482.5000     6.7328   -51.6297     8.5729     7.9452   121.1660
  483.0000     6.7318   -51.6845     8.5730     7.9885   121.3266
  483.5000     6.7307   -51.7392     8.5729     7.9694   121.4894
  484.0000     6.7296   -51.7939     8.5729     7.9513   121.6521
  484.5000     6.7286   -51.8482     8.5732     7.9335   121.8149
  485.0000     6.7275   -51.9003     8.5715     7.9156   121.9776
  485.5000     6.7264   -52.0932     8.5165     7.8977   122.1404
  486.0000     6.7254   -52.3205     8.4587     7.8799   122.3031
  486.5000     6.7243   -52.5485     8.4137     7.8620   122.4659
  487.0000     6.7232   -52.7763     8.4319     7.8442   122.6286
  487.5000     6.7222   -53.0040     8.4489     7.8263   122.7914
  488.0000     6.7211   -53.2319     8.4657     7.8084   122.9541
  488.5000     6.7200   -53.4605     8.4826     7.7906   123.1169
  489.0000     6.7190   -53.6948     8.4994     7.7727   123.2796
  489.5000     6.7179   -53.5920     8.5081     7.7549   123.4424
  490.0000     6.7168   -53.5088     8.4820     7.7370   123.6051
  490.5000     6.7158   -53.4730     8.4571     7.7191   123.7679
  491.0000     6.7147   -53.4388     8.4245     7.7013   123.9306
  491.5000     6.7137   -53.4048     8.3908     7.6834   124.0934
  492.0000     6.7126   -53.3707     8.3550     7.6656   124.5407
  492.5000     6.7115   -53.3366     8.3162     7.6477   125.0452
  493.0000     6.7105   -53.3025     8.2774     7.6299   125.5498
  493.5000     6.7094   -53.2683     8.2386     7.6119   126.0543
  494.0000     6.7083   -53.2342     8.1998     7.5944   126.5588
  494.5000     6.7073   -53.2001     8.1610     7.5562   127.0633
  495.0000     6.7062   -53.1660     8.1221     7.5086   127.8559
  495.5000     6.7051   -53.1319     8.0834     7.4605   128.6968
  496.0000     6.7041   -53.0978     8.0413     7.4118   129.5377
  496.5000     6.7030   -53.0637     7.9987     7.3445   130.6975
  497.0000     6.7019   -53.0295     7.9583     7.2516   132.7156
  497.5000     6.7009   -52.9954     7.8383     7.1200   135.3769
  498.0000     6.6998   -52.9624     7.7111     6.8404   139.7014
  498.5000     6.6987   -52.9353     7.5848     6.5699   145.9758
  499.0000     6.6977   -52.6547     7.4549     6.2998   152.5049
  499.5000     6.6966   -52.3512     7.1905     6.0292   159.0340
  500.0000     6.6955   -52.0455     6.9333     5.7461   163.8819
  500.5000     6.6945   -51.7293     6.6707     5.7217   167.3367
  501.0000     6.6966   -51.4517     6.5309     5.7804   167.7515
  501.5000     6.7048   -51.0533     6.5012     5.8417   168.2303
  502.0000     6.7129   -50.5306     6.5001     5.9023   166.7985
  502.5000     6.7210   -50.5480     6.6117     5.9630   163.5818
  503.0000     6.7291   -50.6041     6.8163     6.0978   158.0099
  503.5000     6.7358   -50.6579     7.0280     6.2607   152.4583
  504.0000     6.6714   -50.7393     7.1724     6.4240   146.9085
  504.5000     6.5887   -51.0146     7.3260     6.5873   142.2781
  505.0000     6.5657   -51.2972     7.4546     6.7507   139.4771
  505.5000     6.6631   -51.3120     7.5124     6.9153   137.8795
  506.0000     6.7587   -51.2491     7.5245     7.0777   137.3701
  506.5000     6.8566   -51.1808     7.5372     7.0365   136.8410
