~VERSION INFORMATION
 VERS.                2.0:   CWLS LOG ASCII STANDARD - VERSION 2.0
 WRAP.                 NO:   ONE LINE PER DEPTH STEP
~WELL INFORMATION
#MNEM.UNIT      DATA TYPE    INFORMATION
#----------   ------------   ------------------------------
 STRT.F          376.0000:   START DEPTH
 STOP.F         2400.0000:   STOP DEPTH
 STEP.F            0.5000:   STEP LENGTH
 NULL.          -999.2500:   NO VALUE
 COMP. LAWRENCE/ALLISON INC:   COMPANY
 WELL.        55 X #15-15:   WELL
 FLD .            WILDCAT:   FIELD
 LOC .      S15 T38N R78W:   LOCATION
 CNTY.            NATRONA:   COUNTY
 STAT.            WYOMING:   STATE
 CTRY. UNITED STATES OF AMERICA:   COUNTRY
 SRVC.            Unknown:   SERVICE COMPANY
 DATE.        12-APR-1988:   LOGDATE
 API .       490251119800:   API NUMBER
~CURVE INFORMATION
#MNEM.UNIT       API CODE    CURVE DESCRIPTION
#----------   ------------   ------------------------------
 DEPT.F                  :   
 GR  .GAPI   30 310 01 00:   GAMMA RAY
 TGAS.UNITS  91 830 01 00:   TOTAL GAS UNIT
 ROP .FT/HR  91 810 01 00:   RATE OF DRILLING PENETRATION
~PARAMETER INFORMATION
#MNEM.UNIT          VALUE    DESCRIPTION
#----------   ------------   ------------------------------
 PD  .                 GL:   PERMANENT DATUM
 EPD .F              5293:   ELEVATION PERMANENT DATUM
 LMF .                 GL:   LOG MEASURED FROM
 DMF .                 KB:   DRILLING MEASURED FROM
 EKB .F              5304:   KELLING BUSHING
 EGL .F              5293:   GROUND LEVEL
 DATE.        12-APR-1988:   RUN DATE
 RUN .                  1:   RUN NUMBER
 DD  .F              2400:   DEPTH DRILLER
 DL  .F               851:   DEPTH LOGGER
 BLI .F               846:   BOTTOM LOG INTERVAL
 TLI .F               372:   TOP LOG INTERVAL
 CS  .IN                7:   CASING SIZE
 CBL .F               890:   CASING BOTTOM LOGGER
 BSD .F              2400:   BIT SIZE AT DEPTH
 DFT .              WATER:   DRILLING FLUID TYPE
 TCS .HRS               1:   TIME CURCULATED STOPPED
 ENGI.          BANGERTER:   RECORDING ENGINEER
 WITN.             NORHAN:   WITNESSED BY
 CLNT.            A2DTECH:   CLIENT CODE
 ORIG.           5" PRINT:   ORIGIN OF DATA
 UWI .       490251119800:   UNIQUE WELL ID
 DICO. A2D Technologies, Inc.:   DIGITIZING COMPANY
~OTHER INFORMATION
~A   DEPT        GR      TGAS        ROP   
# ...
 2105.0000  -999.2500     0.1143     0.4346
 2105.5000  -999.2500     0.1251     0.4347
 2106.0000  -999.2500     0.1364     0.4254
 2106.5000  -999.2500     0.1478     0.4256
 2107.0000  -999.2500     0.1592     0.4351
 2107.5000  -999.2500     0.1705     0.4353
 2108.0000  -999.2500     0.1819     0.4354
 2108.5000  -999.2500     0.1952     0.4356
 2109.0000  -999.2500     0.2064     0.4357
 2109.5000  -999.2500     0.2160     0.4358
 2110.0000  -999.2500     0.2274     0.4360
 2110.5000  -999.2500     0.2398     0.4267
 2111.0000  -999.2500     0.2510     0.4268
 2111.5000  -999.2500     0.2615     0.4270
 2112.0000  -999.2500     0.2733     0.4271
 2112.5000  -999.2500     0.2854     0.4273
 2113.0000  -999.2500     0.2956     0.4368
 2113.5000  -999.2500     0.3069     0.4464
 2114.0000  -999.2500     0.3183     0.4560
 2114.5000  -999.2500     0.3319     0.4561
 2115.0000  -999.2500     0.3430     0.4562
 2115.5000  -999.2500     0.3542     0.4470
 2116.0000  -999.2500     0.3653     0.4471
 2116.5000  -999.2500     0.3765     0.4378
 2117.0000  -999.2500     0.3876     0.4380
 2117.5000  -999.2500     0.3988     0.4381
 2118.0000  -999.2500     0.4099     0.4476
 2118.5000  -999.2500     0.4211     0.4478
 2119.0000  -999.2500     0.4322     0.4385
 2119.5000  -999.2500     0.4434     0.4292
 2120.0000  -999.2500     0.8337     0.4281
 2120.5000  -999.2500     0.8451     0.4107
 2121.0000  -999.2500     0.8586     0.3920
 2121.5000  -999.2500     0.8678     0.3827
 2122.0000  -999.2500     1.2599     0.3829
 2122.5000  -999.2500     1.2710     0.3830
 2123.0000  -999.2500     1.2808     0.3832
 2123.5000  -999.2500     1.2933     0.3833
 2124.0000  -999.2500     1.3045     0.3834
 2124.5000  -999.2500     1.3156     0.3836
 2125.0000  -999.2500     1.3268     0.3837
 2125.5000  -999.2500     1.3379     0.3839
 2126.0000  -999.2500     1.3491     0.3840
 2126.5000  -999.2500     0.9813     0.3841
 2127.0000  -999.2500     0.9928     0.3843
 2127.5000  -999.2500     0.6247     0.3844
 2128.0000  -999.2500     0.6386     0.3846
 2128.5000  -999.2500     0.2680     0.3847
 2129.0000  -999.2500     0.2820     0.3848
 2129.5000  -999.2500     0.0000     0.3850
 2130.0000  -999.2500     0.0000     0.3945
 2130.5000  -999.2500     0.0000     0.3947
 2131.0000  -999.2500     0.0000     0.3948
 2131.5000  -999.2500     0.3377     0.3950
 2132.0000  -999.2500     0.3489     0.3951
 2132.5000  -999.2500     0.7390     0.3921
 2133.0000  -999.2500     0.7503     0.3859
 2133.5000  -999.2500     0.7617     0.3861
 2134.0000  -999.2500     0.7752     0.3863
 2134.5000  -999.2500     0.7864     0.3864
 2135.0000  -999.2500     0.7976     0.3865
 2135.5000  -999.2500     0.8087     0.3867
 2136.0000  -999.2500     0.8199     0.3868
 2136.5000  -999.2500     0.8310     0.3870
 2137.0000  -999.2500     0.8422     0.3871
 2137.5000  -999.2500     0.8526     0.3873
 2138.0000  -999.2500     0.8645     0.3874
 2138.5000  -999.2500     0.8756     0.3875
 2139.0000  -999.2500     0.8868     0.3877
 2139.5000  -999.2500     0.8981     0.3878
 2140.0000  -999.2500     0.9095     0.3880
 2140.5000  -999.2500     0.9230     0.3881
 2141.0000  -999.2500     0.9342     0.3882
 2141.5000  -999.2500     0.9454     0.3884
 2142.0000  -999.2500     0.5776     0.3885
 2142.5000  -999.2500     0.5874     0.3887
 2143.0000  -999.2500     0.5999     0.3794
 2143.5000  -999.2500     0.6110     0.3795
 2144.0000  -999.2500     0.2404     0.3797
 2144.5000  -999.2500     0.2544     0.3798
 2145.0000  -999.2500     0.2655     0.3894
 2145.5000  -999.2500     0.2767     0.3895
 2146.0000  -999.2500     0.2880     0.3897
 2146.5000  -999.2500     0.2994     0.3898
 2147.0000  -999.2500     0.3107     0.3899
 2147.5000  -999.2500     0.3241     0.3901
 2148.0000  -999.2500     0.3353     0.3902
 2148.5000  -999.2500     0.3464     0.3904
 2149.0000  -999.2500     0.3576     0.3905
 2149.5000  -999.2500     0.3687     0.3906
 2150.0000  -999.2500     0.3799     0.3814
 2150.5000  -999.2500     0.3910     0.3815
 2151.0000  -999.2500     0.4022     0.3816
 2151.5000  -999.2500     0.4133     0.3818
 2152.0000  -999.2500     0.8034     0.3819
 2152.5000  -999.2500     0.8147     0.3821
 2153.0000  -999.2500     0.8261     0.3822
 2153.5000  -999.2500     1.2186     0.3729
 2154.0000  -999.2500     1.2298     0.3731
 2154.5000  -999.2500     1.6199     0.3732
 2155.0000  -999.2500     2.0100     0.3734
 2155.5000  -999.2500     2.0212     0.3735
 2156.0000  -999.2500     2.4113     0.3736
 2156.5000  -999.2500     2.4215     0.3738
 2157.0000  -999.2500     2.4336     0.3739
 2157.5000  -999.2500     2.4447     0.3741
 2158.0000  -999.2500     2.4559     0.3742
 2158.5000  -999.2500     2.0880     0.3743
 2159.0000  -999.2500     1.7203     0.3745
 2159.5000  -999.2500     1.3525     0.3746
 2160.0000  -999.2500     1.3664     0.3748
 2160.5000  -999.2500     1.3776     0.3749
 2161.0000  -999.2500     1.3888     0.3751
 2161.5000  -999.2500     1.3999     0.3752
 2162.0000  -999.2500     1.4111     0.3753
 2162.5000  -999.2500     1.4222     0.3755
 2163.0000  -999.2500     1.0535     0.3756
 2163.5000  -999.2500     1.0656     0.3758
 2164.0000  -999.2500     1.0767     0.3759
 2164.5000  -999.2500     1.0879     0.3760
 2165.0000  -999.2500     1.0990     0.3762
 2165.5000  -999.2500     1.1103     0.3763
 2166.0000  -999.2500     1.1217     0.3765
 2166.5000  -999.2500     0.7563     0.3766
 2167.0000  -999.2500     0.7675     0.3767
 2167.5000  -999.2500     0.7787     0.3769
 2168.0000  -999.2500     0.7898     0.3770
 2168.5000  -999.2500     0.8010     0.3772
 2169.0000  -999.2500     0.8121     0.3773
 2169.5000  -999.2500     0.8233     0.3775
 2170.0000  -999.2500     0.8344     0.3776
 2170.5000  -999.2500     0.8456     0.3778
 2171.0000  -999.2500     0.8567     0.3873
 2171.5000  -999.2500     0.8679     0.3874
 2172.0000  -999.2500     0.8792     0.3876
 2172.5000  -999.2500     0.8905     0.3877
 2173.0000  -999.2500     0.9041     0.3879
 2173.5000  -999.2500     0.9153     0.3880
 2174.0000  -999.2500     0.9265     0.3881
 2174.5000  -999.2500     0.9376     0.3883
 2175.0000  -999.2500     0.9474     0.3884
 2175.5000  -999.2500     0.9599     0.3886
 2176.0000  -999.2500     0.9711     0.3887
 2176.5000  -999.2500     0.9815     0.3888
 2177.0000  -999.2500     0.9934     0.3890
 2177.5000  -999.2500     1.0045     0.3891
 2178.0000  -999.2500     1.0157     0.3893
 2178.5000  -999.2500     1.0269     0.3894
 2179.0000  -999.2500     0.6591     0.3895
 2179.5000  -999.2500     0.6730     0.3897
 2180.0000  -999.2500     0.3024     0.3898
 2180.5000  -999.2500     0.3145     0.3900
 2181.0000  -999.2500     0.0000     0.3881
 2181.5000  -999.2500     0.0000     0.3808
 2182.0000  -999.2500     0.0000     0.3866
 2182.5000  -999.2500     0.0000     0.3905
 2183.0000  -999.2500     0.0000     0.3907
 2183.5000  -999.2500     0.0000     0.3908
 2184.0000  -999.2500     0.0000     0.3910
 2184.5000  -999.2500     0.0000     0.3919
 2185.0000  -999.2500     0.0000     0.4007
 2185.5000  -999.2500     0.0000     0.4102
 2186.0000  -999.2500     0.0000     0.4198
 2186.5000  -999.2500     0.0000     0.4199
 2187.0000  -999.2500     0.0000     0.4201
 2187.5000  -999.2500     0.0000     0.4202
 2188.0000  -999.2500     0.0000     0.4204
 2188.5000  -999.2500     0.0000     0.4205
 2189.0000  -999.2500     0.0000     0.4112
 2189.5000  -999.2500     0.0000     0.3925
 2190.0000  -999.2500     0.0000     0.3738
 2190.5000  -999.2500     0.0000     0.3551
 2191.0000  -999.2500     0.0000     0.3459
 2191.5000  -999.2500     0.0000     0.3460
 2192.0000  -999.2500     0.0000     0.3461
 2192.5000  -999.2500     0.0000     0.3369
 2193.0000  -999.2500     0.0000     0.3370
 2193.5000  -999.2500     0.0000     0.3372
 2194.0000  -999.2500     0.0000     0.3373
 2194.5000  -999.2500     0.0000     0.3375
 2195.0000  -999.2500     0.0000     0.3376
 2195.5000  -999.2500     0.0000     0.3377
