~VERSION INFORMATION
 VERS.                2.0:   CWLS LOG ASCII STANDARD - VERSION 2.0
 WRAP.                 NO:   ONE LINE PER DEPTH STEP
~WELL INFORMATION
#MNEM.UNIT      DATA TYPE    INFORMATION
#----------   ------------   ------------------------------
 STRT.F           90.0000:   START DEPTH
 STOP.F          928.0000:   STOP DEPTH
 STEP.F            0.5000:   STEP LENGTH
 NULL.          -999.2500:   NO VALUE
 COMP.  UNITED STATE NAVY:   COMPANY
 WELL.      NPR 3 #58-S-2:   WELL
 FLD .             TEAPOT:   FIELD
 LOC .       S2 T38N R78W:   LOCATION
 CNTY.            NATRONA:   COUNTY
 STAT.            WYOMING:   STATE
 CTRY. UNITED STATES OF AMERICA:   COUNTRY
 SRVC.       Schlumberger:   SERVICE COMPANY
 DATE.        26-JUN-1962:   LOGDATE
 API .       490250639500:   API NUMBER
~CURVE INFORMATION
#MNEM.UNIT       API CODE    CURVE DESCRIPTION
#----------   ------------   ------------------------------
 DEPT.F                  :   
 ASN .OHMM   05 041 16 00:   AMPLIFIED SHORT NORMAL 16"
 ILD .OHMM   05 120 46 00:   INDUCTION LOG DEEP
 CILD.MMHO   05 110 46 00:   CONDUCTIVITY INDUCTION LOG DEEP
 SPR .MV     05 010 01 00:   SPONTANEOUS POTENTIAL FROM RES.
 GR  .GAPI   30 310 01 00:   GAMMA RAY
~PARAMETER INFORMATION
#MNEM.UNIT          VALUE    DESCRIPTION
#----------   ------------   ------------------------------
 PD  .                 KB:   PERMANENT DATUM
 EKB .F              5189:   KELLING BUSHING
 EGL .F              5184:   GROUND LEVEL
 DATE.        26-JUN-1962:   RUN DATE
 RUN .                  1:   RUN NUMBER
 DD  .F               925:   DEPTH DRILLER
 DL  .F               929:   DEPTH LOGGER
 BLI .F               928:   BOTTOM LOG INTERVAL
 TLI .F                90:   TOP LOG INTERVAL
 BS  .IN             6.75:   BIT SIZE
 BSD .F               925:   BIT SIZE AT DEPTH
 DFT .       OIL EMULSION:   DRILLING FLUID TYPE
 DFD .                 10:   DRILLING FLUID DENSITY
 DFV .                 50:   DRILLING FLUID VISCOSITY
 DFL .                3.7:   DRILLING FLUID LOSS
 RMS .OHMM            4.7:   RESISTIVITY MUD SAMPLE
 MST .F                83:   MUD SAMPLE TEMPERATURE
 RMF .OHMM            3.8:   RESISTIVITY MUD FILTRATE SAMPLE
 MFST.F                83:   MUD FILTRATE SAMPLE TEMPERATURE
 RMC .OHMM            4.4:   RESISTIVITY MUD CAKE
 MCST.F                83:   MUD CAKE SAMPLE TEMPERATURE
 TCS .HRS               1:   TIME CURCULATED STOPPED
 LUN .               2503:   LOGGING UNIT NUMBER
 LUL .               CSPR:   LOGGING UNIT LOCATION
 ENGI.             DANNER:   RECORDING ENGINEER
 WITN.          JORGENSEN:   WITNESSED BY
 CLNT.            A2DTECH:   CLIENT CODE
 ORIG.      2" & 5" PRINT:   ORIGIN OF DATA
 UWI .       490250639500:   UNIQUE WELL ID
 DICO. A2D Technologies, Inc.:   DIGITIZING COMPANY
~OTHER INFORMATION
~A   DEPT        ASN        ILD      CILD       SPR         GR   
# ...
  456.0000     6.9436     7.0555   160.7191   -49.6654  -999.2500
  456.5000     7.0660     7.1312   158.4485   -49.6624  -999.2500
  457.0000     7.1989     7.2819   153.1702   -49.6594  -999.2500
  457.5000     7.2264     7.5075   147.8920   -49.8064  -999.2500
  458.0000     7.1814     7.8081   142.6138   -49.8027  -999.2500
  458.5000     7.3163     7.9588   139.5913   -49.6505  -999.2500
  459.0000     7.6312     7.9595   138.8243   -49.6475  -999.2500
  459.5000     7.9310     7.9603   138.0612   -49.6445  -999.2500
  460.0000     8.0360     7.8861   139.5499   -49.6415  -999.2500
  460.5000     7.5262     7.8118   141.7867   -49.6385  -999.2500
  461.0000     7.3613     7.8126   142.5273   -49.6355  -999.2500
  461.5000     7.6462     7.8133   144.7679   -50.0803  -999.2500
  462.0000     7.6012     7.7391   147.7566   -50.8243  -999.2500
  462.5000     7.3463     7.5900   152.2528   -50.9706  -999.2500
  463.0000     7.1064     7.3658   157.5009   -50.9669  -999.2500
  463.5000     6.9265     7.0667   160.4971   -50.8144  -999.2500
  464.0000     6.8366     6.9925   163.4859   -50.3636  -999.2500
  464.5000     6.8966     6.9183   162.7189   -50.0621  -999.2500
  465.0000     6.9565     6.9940   160.4482   -49.7606  -999.2500
  465.5000     6.9115     7.0697   157.4257   -49.7576  -999.2500
  466.0000     6.8666     7.1454   154.4031   -49.7546  -999.2500
  466.5000     6.8966     7.2211   151.3805   -49.6024  -999.2500
  467.0000     7.0165     7.3718   149.8617   -49.7494  -999.2500
  467.5000     7.1514     7.6724   146.0873   -49.7457  -999.2500
  468.0000     7.3313     7.8981   141.5610   -49.7427  -999.2500
  468.5000     7.6012     8.0487   137.7865   -50.0382  -999.2500
  469.0000     7.7961     8.1244   134.7639   -50.1852  -999.2500
  469.5000     7.9610     8.2751   132.4932   -50.4800  -999.2500
  470.0000     8.0360     8.3508   133.2338   -50.6270  -999.2500
  470.5000     8.0810     8.2766   134.1178   -50.6239  -999.2500
  471.0000     8.0510     8.2774   136.3560   -50.4716  -999.2500
  471.5000     7.9160     8.1282   139.4891   -50.3194  -999.2500
  472.0000     7.6912     7.8291   143.2275   -50.1672  -999.2500
  472.5000     7.4363     7.6799   147.5813   -49.9877  -999.2500
  473.0000     7.2564     7.4558   152.8269   -49.8627  -999.2500
  473.5000     7.1064     7.1567   155.9498   -49.7105  -999.2500
  474.0000     6.9265     7.0075   160.3109   -49.7075  -999.2500
  474.5000     6.8366     6.9333   162.5491   -49.7045  -999.2500
  475.0000     6.7916     6.9340   164.7872   -49.7015  -999.2500
  475.5000     6.8066     6.9348   165.3991   -49.6985  -999.2500
  476.0000     6.8366     7.0105   163.8797   -49.6955  -999.2500
  476.5000     6.8666     7.1612   162.2431   -49.6926  -999.2500
  477.0000     6.9265     7.3118   159.1076   -49.6896  -999.2500
  477.5000     7.0915     7.4625   154.6992   -49.8359  -999.2500
  478.0000     7.2414     7.5382   151.6794   -49.8328  -999.2500
  478.5000     7.3763     7.6139   149.4110   -49.9792  -999.2500
  479.0000     7.3613     7.6147   147.8949   -49.9970  -999.2500
  479.5000     7.3313     7.6904   145.6266   -50.1225  -999.2500
  480.0000     7.4663     7.6912   142.6065   -50.2688  -999.2500
  480.5000     7.5262     7.7669   141.1880   -50.2657  -999.2500
  481.0000     7.4963     7.7676   140.4210   -50.2627  -999.2500
  481.5000     7.4963     7.8433   139.6541   -50.2597  -999.2500
  482.0000     7.6162     7.8441   139.5488   -50.2567  -999.2500
  482.5000     7.7361     7.8448   138.8722   -50.2363  -999.2500
  483.0000     7.7361     7.8456   138.8572   -50.2508  -999.2500
  483.5000     7.7061     7.9963   138.8421   -50.2477  -999.2500
  484.0000     7.7361     7.9970   139.5793   -50.2448  -999.2500
  484.5000     7.7661     7.9978   141.0681   -50.2418  -999.2500
  485.0000     7.7511     7.9985   142.5568   -50.0895  -999.2500
  485.5000     7.7211     7.9243   144.7973   -50.0865  -999.2500
  486.0000     7.6012     7.7751   147.0379   -50.0836  -999.2500
  486.5000     7.4813     7.7009   147.7748   -49.9313  -999.2500
  487.0000     7.3613     7.5517   149.2635   -49.9283  -999.2500
  487.5000     7.2114     7.4775   150.0003   -49.7761  -999.2500
  488.0000     7.1514     7.3283   150.7970   -49.7612  -999.2500
  488.5000     7.1664     7.3291   152.2258   -49.6209  -999.2500
  489.0000     7.2264     7.4048   152.9627   -49.6179  -999.2500
  489.5000     7.3013     7.4805   153.6995   -49.6149  -999.2500
  490.0000     7.3023     7.4813   153.6842   -49.6119  -999.2500
  490.5000     7.2414     7.4820   152.9173   -49.6090  -999.2500
  491.0000     7.1964     7.4828   152.9023   -49.6060  -999.2500
  491.5000     7.1664     7.4835   152.1353   -49.6030  -999.2500
  492.0000     7.1514     7.4843   151.3281   -49.6000  -999.2500
  492.5000     7.2114     7.4850   150.5637   -49.5971  -999.2500
  493.0000     7.3013     7.4858   149.7992   -49.5941  -999.2500
  493.5000     7.3765     7.4865   149.0676   -49.5911  -999.2500
  494.0000     7.4367     7.5622   148.3008   -49.5881  -999.2500
  494.5000     7.4513     7.6379   147.5339   -49.5851  -999.2500
  495.0000     7.4363     7.6387   146.0151   -49.5821  -999.2500
  495.5000     7.4363     7.7144   145.2481   -49.5791  -999.2500
  496.0000     7.5123     7.7151   144.4812   -49.7254  -999.2500
  496.5000     7.5112     7.7159   144.4661   -49.8751  -999.2500
  497.0000     7.4963     7.7166   144.4512   -50.1672  -999.2500
  497.5000     7.4813     7.7174   145.1880   -50.1642  -999.2500
  498.0000     7.5280     7.7931   145.1730   -50.1612  -999.2500
  498.5000     7.5432     7.7939   144.4061   -50.1582  -999.2500
  499.0000     7.5734     7.7946   144.3910   -50.0060  -999.2500
  499.5000     7.6185     7.7954   143.6241   -49.8537  -999.2500
  500.0000     7.6957     7.7961   142.8571   -50.0000  -999.2500
  500.5000     7.8116     7.8937   139.8445   -50.2880  -999.2500
  501.0000     7.8570     8.0242   136.8119   -50.4282  -999.2500
  501.5000     7.9174     8.1007   134.5412   -50.5685  -999.2500
  502.0000     7.9779     8.2521   132.2705   -50.7110  -999.2500
  502.5000     8.1432     8.4036   130.7516   -50.5505  -999.2500
  503.0000     8.3386     8.5550   129.9847   -50.5433  -999.2500
  503.5000     8.4590     8.6315   129.2177   -50.5343  -999.2500
  504.0000     8.4594     8.6330   129.9549   -50.5254  -999.2500
  504.5000     8.4599     8.5591   129.9394   -50.6660  -999.2500
  505.0000     8.4452     8.4857   129.9243   -50.5075  -999.2500
  505.5000     8.4157     8.4122   129.9092   -50.3492  -999.2500
  506.0000     8.4011     8.4891   129.8941   -50.3403  -999.2500
  506.5000     8.3866     8.4906   129.8791   -50.3313  -999.2500
  507.0000     8.5371     8.5667   129.1121   -50.4717  -999.2500
  507.5000     8.7024     8.7182   126.8414   -50.4627  -999.2500
  508.0000     8.8378     8.8076   124.5706   -50.4536  -999.2500
  508.5000     8.9582     8.9460   123.0518   -50.4446  -999.2500
  509.0000     9.0936     9.0975   121.5329   -50.5851  -999.2500
  509.5000     9.2890     9.1847   119.2622   -51.0236  -999.2500
  510.0000     9.4693     9.3254   116.9915   -51.3134  -999.2500
  510.5000     9.5447     9.4767   115.4726   -51.4534  -999.2500
  511.0000     9.6201     9.6366   113.9538   -51.4444  -999.2500
  511.5000     9.6955     9.7796   111.6831   -51.5851  -999.2500
  512.0000     9.8248     9.9310   109.4123   -51.5756  -999.2500
  512.5000     9.9233    10.0075   107.1416   -51.4174  -999.2500
  513.0000    10.0218    10.0894   104.8709   -51.5598  -999.2500
  513.5000    10.2071    10.3103   102.6002   -51.8471  -999.2500
  514.0000    10.2075    10.3868   101.8332   -52.1366  -999.2500
  514.5000    10.2830    10.3883   101.8181   -52.1276  -999.2500
  515.0000    10.3584    10.3898   102.5549   -52.1186  -999.2500
  515.5000    10.3588    10.3913   102.5398   -52.4081  -999.2500
  516.0000    10.2093    10.3169   103.2804   -52.5483  -999.2500
  516.5000     9.9849    10.1694   103.2615   -52.5393  -999.2500
