~VERSION INFORMATION
 VERS.                2.0:   CWLS LOG ASCII STANDARD - VERSION 2.0
 WRAP.                 NO:   ONE LINE PER DEPTH STEP
~WELL INFORMATION
#MNEM.UNIT      DATA TYPE    INFORMATION
#----------   ------------   ------------------------------
 STRT.F           26.0000:   START DEPTH
 STOP.F          533.5000:   STOP DEPTH
 STEP.F            0.5000:   STEP LENGTH
 NULL.          -999.2500:   NO VALUE
 COMP. BROWN JOHN E&C INC:   COMPANY
 WELL.  NPR 3 #76-531-X-3:   WELL
 FLD .             TEAPOT:   FIELD
 LOC .       S3 T38N R78W:   LOCATION
 CNTY.            NATRONA:   COUNTY
 STAT.            WYOMING:   STATE
 CTRY. UNITED STATES OF AMERICA:   COUNTRY
 SRVC.       Schlumberger:   SERVICE COMPANY
 DATE.        20-SEP-1990:   LOGDATE
 API .       490251130500:   API NUMBER
~CURVE INFORMATION
#MNEM.UNIT       API CODE    CURVE DESCRIPTION
#----------   ------------   ------------------------------
 DEPT.F                  :   
 ILM .OHMM   07 120 44 00:   INDUCTION LOG MEDIUM
 ILD .OHMM   07 120 46 00:   INDUCTION LOG DEEP
 CALD.IN     45 280 60 00:   CALIPER FROM DENSITY LOG
 GRD .GAPI   45 310 01 00:   GAMMA RAY FROM DENSITY LOG
 DPHI.DEC    45 890 12 00:   DENSITY POROSITY SANDSTONE
 RHOB.G/C3   45 350 01 00:   BULK DENSITY
 DRHO.G/C3   45 356 01 00:   DENSITY CORRECTION
~PARAMETER INFORMATION
#MNEM.UNIT          VALUE    DESCRIPTION
#----------   ------------   ------------------------------
 PD  .                 GL:   PERMANENT DATUM
 EPD .F              5148:   ELEVATION PERMANENT DATUM
 LMF .                 KB:   LOG MEASURED FROM
 DAPD.F                10:   FEET ABOVE PERMANENT DATUM
 DMF .                 KB:   DRILLING MEASURED FROM
 EKB .F              5158:   KELLING BUSHING
 EDF .F              5157:   DRILLING FLOOR
 EGL .F              5148:   GROUND LEVEL
 DATE.            9-20-90:   RUN DATE
 RUN .                  1:   RUN NUMBER
 DD  .F               535:   DEPTH DRILLER
 DL  .F               536:   DEPTH LOGGER
 BLI .F               530:   BOTTOM LOG INTERVAL
 TLI .F                49:   TOP LOG INTERVAL
 CBD .F                40:   CASING BOTTOM DRILLER
 CBL .F                49:   CASING BOTTOM LOGGER
 BS  .IN            7.875:   BIT SIZE
 BSD .F               535:   BIT SIZE AT DEPTH
 DFT .                AIR:   DRILLING FLUID TYPE
 TCS .HRS            0315:   TIME CURCULATED STOPPED
 TLAB.HRS            0409:   TIME LOGGER AT BOTTOM
 LUN .               6882:   LOGGING UNIT NUMBER
 LUL .               CODY:   LOGGING UNIT LOCATION
 ENGI.          M. FISHER:   RECORDING ENGINEER
 WITN.          G. STRONG:   WITNESSED BY
 CLNT.            A2DTECH:   CLIENT CODE
 ORIG.   2" 2.5" 5" PRINT:   ORIGIN OF DATA
 UWI .       490251130500:   UNIQUE WELL ID
 DICO. A2D Technologies, Inc.:   DIGITIZING COMPANY
~OTHER INFORMATION
~A   DEPT      ILM        ILD       CALD         GRD      DPHI       RHOB       DRHO   
# ...
  481.0000    10.3866    10.6247     7.7825   114.9299     0.0981     2.5292     0.0033
  481.5000    10.2044    10.4061     7.7742   116.4653     0.1009     2.5212     0.0025
  482.0000    10.0254    10.1912     7.7659   118.9855     0.1037     2.5073     0.0013
  482.5000     9.8478     9.9812     7.7575   121.7376     0.1062     2.4985     0.0000
  483.0000     9.1334     9.3230     7.7432   122.3883     0.1060     2.4985    -0.0012
  483.5000     8.4646     8.6026     7.7233   122.1394     0.1056     2.5009    -0.0025
  484.0000     7.8447     7.9379     7.7035   122.1810     0.1054     2.5007    -0.0012
  484.5000     7.1574     7.3246     7.6839   126.4363     0.1078     2.4902     0.0000
  485.0000     6.4210     6.7586     7.6871   130.8069     0.1129     2.4715     0.0013
  485.5000     5.9703     6.4396     7.7152   135.4297     0.1186     2.4550     0.0025
  486.0000     5.7223     6.5139     7.7319   134.1757     0.1186     2.4694     0.0038
  486.5000     5.8825     6.5096     7.7267   124.8791     0.1062     2.4961     0.0051
  487.0000     6.2808     6.5048     7.7217   119.8787     0.0984     2.5229     0.0048
  487.5000     6.5843     6.8243     7.7168   116.4009     0.0948     2.5397     0.0037
  488.0000     6.8785     7.3614     7.7134   116.0282     0.0937     2.5460     0.0025
  488.5000     7.5148     7.9473     7.7133   116.0336     0.0946     2.5427     0.0014
  489.0000     8.3012     8.4423     7.7239   114.9099     0.0955     2.5394     0.0008
  489.5000     9.1677     9.1112     7.7412   113.0860     0.0958     2.5378     0.0028
  490.0000     9.6503     9.8478     7.7586   112.3780     0.0942     2.5439     0.0047
  490.5000     9.8171    10.0277     7.7723   114.2089     0.0923     2.5507     0.0067
  491.0000     9.9941    10.2147     7.7589   116.7583     0.0921     2.5494     0.0075
  491.5000    10.1740    10.4051     7.7457   117.2373     0.0940     2.5423     0.0066
  492.0000    10.3574    10.5991     7.7327   117.2364     0.0959     2.5351     0.0051
  492.5000    10.5440    10.7240     7.7197   117.2422     0.0978     2.5278     0.0036
  493.0000    10.7340    10.9697     7.7135   118.2777     0.0991     2.5279     0.0020
  493.5000    10.9346    11.2211     7.7134   119.3019     0.0969     2.5348     0.0005
  494.0000    11.1782    11.4783     7.7134   119.5646     0.0947     2.5443     0.0008
  494.5000    11.4271    11.7413     7.7134   120.3249     0.0926     2.5508     0.0024
  495.0000    11.6816    11.9865     7.7134   121.4956     0.0941     2.5428     0.0041
  495.5000    11.9418    12.1577     7.7134   118.5650     0.0959     2.5339     0.0043
  496.0000    12.2078    12.3308     7.7134   115.7131     0.0968     2.5337     0.0038
  496.5000    12.4127    12.5067     7.7134   114.0936     0.0962     2.5355     0.0033
  497.0000    12.5699    12.6750     7.7134   116.6038     0.0966     2.5355     0.0028
  497.5000    12.7291    12.8255     7.7134   118.9814     0.0970     2.5335     0.0023
  498.0000    12.8904    12.9777     7.7134   120.0344     0.0974     2.5335     0.0018
  498.5000    13.0537    13.1318     7.7134   118.2832     0.0972     2.5335     0.0018
  499.0000    13.2190    13.2876     7.7134   115.1751     0.0970     2.5334     0.0028
  499.5000    13.3598    13.4454     7.7134   112.7785     0.0957     2.5377     0.0037
  500.0000    13.4287    13.5169     7.7137   113.0520     0.0935     2.5516     0.0047
  500.5000    13.4978    13.5764     7.7200   113.5375     0.0918     2.5553     0.0054
  501.0000    13.5674    13.6768     7.7262   114.0269     0.0950     2.5420     0.0042
  501.5000    13.6372    13.7893     7.7324   113.9654     0.0982     2.5273     0.0030
  502.0000    13.7075    13.8634     7.7335   111.4372     0.1002     2.5182     0.0030
  502.5000    13.7781    13.9255     7.7336   108.7962     0.1020     2.5143     0.0042
  503.0000    13.8417    13.9697     7.7334   107.9056     0.1027     2.5125     0.0054
  503.5000    13.7615    13.8855     7.7216   107.3176     0.1032     2.5107     0.0066
  504.0000    13.6745    13.8207     7.6797   106.7596     0.1022     2.5117     0.0078
  504.5000    13.5880    13.7561     7.6388   106.4782     0.1006     2.5184     0.0090
  505.0000    13.5021    13.6919     7.6140   106.1830     0.0992     2.5239     0.0091
  505.5000    13.4168    13.6279     7.6172   105.8929     0.0984     2.5260     0.0085
  506.0000    13.3421    13.5643     7.6200   105.5350     0.0968     2.5377     0.0079
  506.5000    13.2859    13.5009     7.6229   106.6520     0.0934     2.5498     0.0070
  507.0000    13.2106    13.4507     7.6258   110.6445     0.0932     2.5508     0.0054
  507.5000    13.1360    13.4178     7.6287   114.4247     0.0961     2.5363     0.0037
  508.0000    13.0613    13.3854     7.6315   116.3706     0.0990     2.5248     0.0021
  508.5000    12.9895    13.3506     7.6340   116.4456     0.0990     2.5247     0.0013
  509.0000    12.8075    13.1927     7.6380   116.4322     0.0990     2.5254     0.0010
  509.5000    12.6162    12.9783     7.6420   116.4482     0.0990     2.5261     0.0007
  510.0000    12.4267    12.7674     7.6460   117.2737     0.0987     2.5277     0.0007
  510.5000    12.2401    12.5592     7.6500   118.9975     0.0969     2.5339     0.0012
  511.0000    12.0564    12.3462     7.6534   120.4808     0.0951     2.5407     0.0025
  511.5000    11.8754    12.1391     7.6533   120.4447     0.0933     2.5475     0.0051
  512.0000    11.6973    11.9351     7.6533   120.4415     0.0935     2.5465     0.0077
  512.5000    11.5217    11.7345     7.6533   120.4444     0.0952     2.5403     0.0079
  513.0000    11.3468    11.5373     7.6533   120.4749     0.0970     2.5317     0.0072
  513.5000    11.0990    11.3717     7.6533   119.2835     0.0970     2.5332     0.0068
  514.0000    11.0019    11.2141     7.6533   117.9367     0.0939     2.5449     0.0085
  514.5000    10.8353    11.0577     7.6533   118.3869     0.0907     2.5564     0.0103
  515.0000    10.6713    10.9035     7.6533   120.4515     0.0890     2.5639     0.0099
  515.5000    10.5098    10.7514     7.6533   122.0136     0.0914     2.5550     0.0090
  516.0000    10.3506    10.6015     7.6533   120.1731     0.0946     2.5429     0.0061
  516.5000    10.2154    10.4869     7.6533   118.7922     0.0982     2.5297     0.0016
  517.0000    10.2156    10.4361     7.6533   120.0492     0.0998     2.5214     0.0015
  517.5000    10.1513    10.3868     7.6533   121.7321     0.0995     2.5246     0.0015
  518.0000    10.0976    10.3376     7.6533   122.2051     0.0952     2.5415     0.0024
  518.5000    10.0441    10.2886     7.6533   120.3581     0.0892     2.5643     0.0033
  519.0000     9.9909    10.2397     7.6533   120.2158     0.0833     2.5877     0.0041
  519.5000     9.9379    10.1749     7.6533   123.7654     0.0800     2.5974     0.0050
  520.0000     9.8852    10.0962     7.6540   127.5549     0.0797     2.5964     0.0055
  520.5000     9.8064    10.0181     7.6554  -999.2500     0.0813     2.5907     0.0041
  521.0000     9.6628     9.9388     7.6569  -999.2500     0.0835     2.5794     0.0018
  521.5000     9.5214     9.7541     7.6583  -999.2500     0.0873     2.5656    -0.0005
  522.0000     9.3820     9.5683     7.6597  -999.2500     0.0918     2.5516    -0.0030
  522.5000     9.2447     9.3860     7.6612  -999.2500     0.0966     2.5374    -0.0029
  523.0000     9.1094     9.2072     7.6626  -999.2500     0.0969     2.5323    -0.0019
  523.5000     8.9760     9.1339     7.6640  -999.2500     0.0971     2.5316    -0.0009
  524.0000     8.8446     9.1114     7.6655  -999.2500     0.0974     2.5308    -0.0002
  524.5000     8.7839     9.0891     7.6669  -999.2500     0.0984     2.5280    -0.0020
  525.0000     8.7034     9.0651     7.6683  -999.2500     0.0997     2.5229    -0.0037
  525.5000     8.6235     9.0869     7.6698  -999.2500     0.1009     2.5177    -0.0054
  526.0000     8.5444     9.1104     7.6712  -999.2500     0.1022     2.5125    -0.0072
