~VERSION INFORMATION
 VERS.                2.0:   CWLS LOG ASCII STANDARD - VERSION 2.0
 WRAP.                 NO:   ONE LINE PER DEPTH STEP
~WELL INFORMATION
#MNEM.UNIT      DATA TYPE    INFORMATION
#----------   ------------   ------------------------------
 STRT.F           36.5000:   START DEPTH
 STOP.F          476.0000:   STOP DEPTH
 STEP.F            0.5000:   STEP LENGTH
 NULL.          -999.2500:   NO VALUE
 COMP. LAWRENCE/ALLISON INC:   COMPANY
 WELL.    54-36 SXFO #3-3:   WELL
 FLD .            WILDCAT:   FIELD
 LOC .       S3 T38N R78W:   LOCATION
 CNTY.            NATRONA:   COUNTY
 STAT.            WYOMING:   STATE
 CTRY. UNITED STATES OF AMERICA:   COUNTRY
 SRVC.      Dresser Atlas:   SERVICE COMPANY
 DATE.        09-DEC-1983:   LOGDATE
 API .       490251095500:   API NUMBER
~CURVE INFORMATION
#MNEM.UNIT       API CODE    CURVE DESCRIPTION
#----------   ------------   ------------------------------
 DEPT.F                  :   
 GRD .GAPI   45 310 01 00:   GAMMA RAY FROM DENSITY LOG
 PORD.DEC    45 890 12 00:   POROSITY DENSITY SANDSTONE
 DEN .G/C3   45 350 01 00:   COMPENSATED BULK DENSTIY
 CORR.G/C3   45 356 01 00:   DENSITY CORRECTION
 CALD.IN     45 280 60 00:   CALIPER
 RFOC.OHMM   07 220 04 00:   RESISTIVITY FOCUSED LOG
 RILD.OHMM   07 120 46 00:   INDUCTION LOG DEEP RESISTIVITY
 RILM.OHMM   07 120 44 00:   INDUCTION LOG MEDIUM RESISTIVITY
~PARAMETER INFORMATION
#MNEM.UNIT          VALUE    DESCRIPTION
#----------   ------------   ------------------------------
 PD  .                 GL:   PERMANENT DATUM
 EPD .F              5166:   ELEVATION PERMANENT DATUM
 LMF .                 KB:   LOG MEASURED FROM
 DAPD.F                10:   FEET ABOVE PERMANENT DATUM
 DMF .                 KB:   DRILLING MEASURED FROM
 EKB .F              5176:   KELLING BUSHING
 EGL .F              5166:   GROUND LEVEL
 DATE.            12-9-83:   RUN DATE
 RUN .                  1:   RUN NUMBER
 DD  .F               478:   DEPTH DRILLER
 DL  .F               475:   DEPTH LOGGER
 BLI .F               473:   BOTTOM LOG INTERVAL
 TLI .F                44:   TOP LOG INTERVAL
 CBD .F                40:   CASING BOTTOM DRILLER
 CBL .F                44:   CASING BOTTOM LOGGER
 BS  .IN             8.75:   BIT SIZE
 BSD .F               478:   BIT SIZE AT DEPTH
 DFT .           AIR FOAM:   DRILLING FLUID TYPE
 MRT .F               100:   MAXIMUM RECORDED TEMPERATURE
 LUN .               6307:   LOGGING UNIT NUMBER
 LUL .               GLTE:   LOGGING UNIT LOCATION
 ENGI.            DEYOUNG:   RECORDING ENGINEER
 WITN.             GROOMS:   WITNESSED BY
 CLNT.            A2DTECH:   CLIENT CODE
 ORIG.       2", 5" PRINT:   ORIGIN OF DATA
 UWI .       490251095500:   UNIQUE WELL ID
 DICO. A2D Technologies, Inc.:   DIGITIZING COMPANY
~OTHER INFORMATION
~A   DEPT       GRD      PORD        DEN       CORR       CALD       RFOC       RILD       RILM   
# ...
  158.0000   101.1937     0.1465     2.4386     0.0152    11.4014  -999.2500     8.2594     8.6898
  158.5000    99.6504     0.1488     2.4368    -0.0009    11.4162  -999.2500     8.2991     8.6658
  159.0000   101.0127     0.1495     2.4321    -0.0095    11.4311  -999.2500     8.2301     8.6401
  159.5000   101.2717     0.1446     2.4360     0.0180    11.4597  -999.2500     8.1731     8.6151
  160.0000   100.9177     0.1384     2.4464     0.0406    11.5177  -999.2500     8.1165     8.5902
  160.5000   101.7538     0.1333     2.4571     0.0467    11.5750  -999.2500     8.0603     8.5654
  161.0000   104.6349     0.1368     2.4526     0.0419    11.6283  -999.2500     8.0045     8.5406
  161.5000   107.4305     0.1436     2.4316     0.0281    11.8135  -999.2500     7.9491     8.5159
  162.0000   108.3958     0.1620     2.3970     0.0146    12.0166  -999.2500     7.8940     8.4913
  162.5000   108.3956     0.1805     2.3628     0.0169    12.2199  -999.2500     7.8529     8.4668
  163.0000   107.1388     0.1983     2.3435     0.0128    12.4219  -999.2500     7.8668     8.4435
  163.5000   105.8480     0.1959     2.3670     0.0045    12.5718  -999.2500     7.8801     8.4218
  164.0000   107.2650     0.1796     2.3907    -0.0040    12.6149  -999.2500     7.8934     8.4002
  164.5000   110.1080     0.1733     2.3901     0.0000    12.5682  -999.2500     7.9067     8.3791
  165.0000   109.9749     0.1731     2.3881     0.0150    12.5235  -999.2500     7.9200     8.3451
  165.5000   108.7673     0.1699     2.3950     0.0239    12.4791  -999.2500     7.9333     8.3100
  166.0000   107.3134     0.1646     2.4024     0.0231    12.4419  -999.2500     7.9467     8.2751
  166.5000   105.8605     0.1598     2.4098     0.0221    12.4428  -999.2500     7.9601     8.2230
  167.0000   104.4045     0.1580     2.4148     0.0394    12.4429  -999.2500     7.9736     8.2709
  167.5000   102.9583     0.1563     2.4189     0.0632    12.4429  -999.2500     7.9869     8.3759
  168.0000   102.9222     0.1543     2.4231     0.0539    12.4428  -999.2500     7.9989     8.3528
  168.5000   103.0652     0.1506     2.4285     0.0425    12.4422  -999.2500     7.9670     8.3193
  169.0000   103.2020     0.1470     2.4339     0.0343    12.4711  -999.2500     7.9326     8.2862
  169.5000   103.2026     0.1449     2.4394     0.0354    12.5075  -999.2500     7.8982     8.2533
  170.0000   103.1517     0.1425     2.4451     0.0350    12.5468  -999.2500     7.8640     8.2206
  170.5000   105.0436     0.1412     2.4430     0.0258    12.6521  -999.2500     7.8299     8.1881
  171.0000   107.1754     0.1449     2.4386     0.0216    12.7564  -999.2500     7.7960     8.1556
  171.5000   109.3296     0.1541     2.4276     0.0256    12.8601  -999.2500     7.7278     8.0832
  172.0000   109.3651     0.1631     2.4052     0.0294    12.9634  -999.2500     7.6329     7.9986
  172.5000   107.9239     0.1722     2.3857     0.0268    13.0229  -999.2500     7.5392     7.9148
  173.0000   107.7404     0.1736     2.3898     0.0087    12.9789  -999.2500     7.4467     7.8319
  173.5000   108.2081     0.1721     2.3935     0.0093    12.8928  -999.2500     7.3557     7.7664
  174.0000   108.3058     0.1730     2.3891     0.0172    12.7956  -999.2500     7.2651     7.6869
  174.5000   105.7000     0.1779     2.3799     0.0347    12.7541  -999.2500     7.0638     7.4789
  175.0000   103.0352     0.1827     2.3707     0.0491    12.7104  -999.2500     6.8086     7.0854
  175.5000   103.5090     0.1855     2.3695     0.0381    12.6665  -999.2500     6.3284     6.7126
  176.0000   104.6226     0.1822     2.3756     0.0267    12.6229  -999.2500     6.0651     6.3594
  176.5000   104.7246     0.1786     2.3816     0.0226    12.5829  -999.2500     6.0683     6.2955
  177.0000   102.6258     0.1783     2.3803     0.0261    12.5044  -999.2500     6.0678     6.2955
  177.5000   102.4580     0.1821     2.3748     0.0746    12.4169  -999.2500     6.0678     6.2962
  178.0000   105.1719     0.1853     2.3689     0.0769    12.3296  -999.2500     6.2263     6.2938
  178.5000   105.9792     0.1834     2.3719     0.0567    12.2588  -999.2500     6.3840     6.5799
  179.0000   105.3671     0.1748     2.3900     0.0347    12.2497  -999.2500     6.5461     6.7869
  179.5000   105.1668     0.1637     2.4093     0.0263    12.2393  -999.2500     6.7121     6.9998
  180.0000   104.1155     0.1533     2.4230     0.0246    12.2292  -999.2500     6.8824     7.1619
  180.5000    99.9861     0.1518     2.4294     0.0178    12.2254  -999.2500     7.0571     7.2581
  181.0000    95.9431     0.1505     2.4306     0.0111    12.2341  -999.2500     7.2364     7.3509
  181.5000    94.3205     0.1508     2.4311     0.0102    12.2426  -999.2500     7.2955     7.4445
  182.0000    96.8941     0.1523     2.4281     0.0115    12.2512  -999.2500     7.2242     7.5689
  182.5000   100.0990     0.1538     2.4243     0.0093    12.2597  -999.2500     7.1765     7.5329
  183.0000   103.3016     0.1553     2.4204     0.0072    12.2683  -999.2500     7.1292     7.4807
  183.5000   106.5407     0.1570     2.4169     0.0120    12.2768  -999.2500     7.0822     7.4289
  184.0000   107.2411     0.1525     2.4216     0.0332    12.2853  -999.2500     7.0355     7.3774
  184.5000   101.9640     0.1476     2.4332     0.0634    12.2939  -999.2500     6.9891     7.3264
  185.0000   100.1334     0.1409     2.4439     0.0804    12.3024  -999.2500     6.9114     7.2756
  185.5000   103.0633     0.1447     2.4430     0.0807    12.3110  -999.2500     6.8054     7.2252
  186.0000   105.9753     0.1508     2.4326     0.0716    12.3195  -999.2500     6.7012     7.1752
  186.5000   106.7829     0.1568     2.4185     0.0627    12.3281  -999.2500     6.5995     6.8950
  187.0000   102.0868     0.1629     2.4044     0.0538    12.3366  -999.2500     6.3875     6.5471
  187.5000    99.5869     0.1650     2.4067     0.0448    12.3452  -999.2500     5.9815     6.2167
  188.0000   100.6739     0.1611     2.4116     0.0359    12.3537  -999.2500     5.6011     5.9030
  188.5000   101.7609     0.1566     2.4165     0.0269    12.3622  -999.2500     5.2453     5.6048
  189.0000   101.4888     0.1574     2.4178     0.0179    12.3708  -999.2500     4.7756     5.3209
  189.5000   100.5144     0.1589     2.4152     0.0098    12.3790  -999.2500     4.7871     5.0478
  190.0000    99.7187     0.1651     2.4090     0.0265    12.4110  -999.2500     4.8073     5.0660
  190.5000   102.6605     0.1794     2.3838     0.0430    12.4593  -999.2500     4.8662     5.0856
  191.0000   105.6406     0.1936     2.3588     0.0581    12.5606  -999.2500     4.9891     5.2133
  191.5000   104.5697     0.2076     2.3335     0.0601    12.7251  -999.2500     5.1151     5.4232
  192.0000   102.9284     0.2079     2.3259     0.0624    12.8891  -999.2500     5.3292     5.6415
  192.5000   101.7376     0.1969     2.3549     0.0401    13.0536  -999.2500     5.5747     5.8686
  193.0000   105.7773     0.1817     2.3814     0.0083    13.2183  -999.2500     5.8316     6.1048
  193.5000   109.2947     0.1665     2.4026     0.0255    13.3821  -999.2500     6.1002     6.3506
  194.0000   111.2137     0.1621     2.4068     0.0502    13.4424  -999.2500     6.3814     6.6062
  194.5000   108.6460     0.1606     2.4108     0.0413    13.4856  -999.2500     6.6756     6.8721
  195.0000   103.5637     0.1638     2.4080     0.0213    13.5042  -999.2500     6.9831     7.1487
  195.5000   101.3519     0.1669     2.4011    -0.0051    13.4803  -999.2500     7.1593     7.4365
  196.0000   104.9600     0.1700     2.3941    -0.0013    13.4542  -999.2500     7.2586     7.7359
  196.5000   106.3457     0.1732     2.3871     0.0096    13.4283  -999.2500     7.3593     7.8294
  197.0000   106.1512     0.1763     2.3827     0.0248    13.4046  -999.2500     7.4613     7.8866
  197.5000   109.6612     0.1794     2.3795     0.0408    13.3971  -999.2500     7.5648     7.9443
  198.0000   115.6379     0.1796     2.3766     0.0388    13.3903  -999.2500     7.6697     8.0023
