~VERSION INFORMATION
 VERS.                2.0:   CWLS LOG ASCII STANDARD - VERSION 2.0
 WRAP.                 NO:   ONE LINE PER DEPTH STEP
~WELL INFORMATION
#MNEM.UNIT      DATA TYPE    INFORMATION
#----------   ------------   ------------------------------
 STRT.F          714.0000:   START DEPTH
 STOP.F         1640.0000:   STOP DEPTH
 STEP.F            0.5000:   STEP LENGTH
 NULL.          -999.2500:   NO VALUE
 COMP. BROWN JOHN E&C INC:   COMPANY
 WELL. NPR 3 STX-15 #83-15:   WELL
 FLD .             TEAPOT:   FIELD
 LOC .      S15 T38N R78W:   LOCATION
 CNTY.            NATRONA:   COUNTY
 STAT.            WYOMING:   STATE
 CTRY. UNITED STATES OF AMERICA:   COUNTRY
 SRVC.            Unknown:   SERVICE COMPANY
 DATE.        30-AUG-1991:   LOGDATE
 API .       490251111300:   API NUMBER
~CURVE INFORMATION
#MNEM.UNIT       API CODE    CURVE DESCRIPTION
#----------   ------------   ------------------------------
 DEPT.F                  :   
 TGAS.UNITS  91 830 01 00:   TOTAL GAS FROM HOTWIRE
 C1  .VF     91 831 01 00:   METHANE
 C2  .VF     91 832 01 00:   ETHANE
 C3  .VF     91 833 01 00:   PROPANE
 C4  .VF     91 834 01 00:   BUTANE
 ROP .MIN/FT 91 810 01 00:   RAT OF DRILLING PENETRATION
~PARAMETER INFORMATION
#MNEM.UNIT          VALUE    DESCRIPTION
#----------   ------------   ------------------------------
 EKB .F              5265:   KELLING BUSHING
 EGL .F              5255:   GROUND LEVEL
 DATE.            5-30-91:   RUN DATE
 DD  .F              1626:   DEPTH DRILLER
 TCS .HRS            1200:   TIME CURCULATED STOPPED
 TLAB.HRS            1815:   TIME LOGGER AT BOTTOM
 ENGI.               HUSK:   RECORDING ENGINEER
 WITN.              TOWER:   WITNESSED BY
 CLNT.            A2DTECH:   CLIENT CODE
 ORIG.           5" PRINT:   ORIGIN OF DATA
 UWI .       490251111300:   UNIQUE WELL ID
 DICO. A2D Technologies, Inc.:   DIGITIZING COMPANY
~OTHER INFORMATION
~A   DEPT     TGAS         C1         C2         C3         C4          ROP 
# ...
  974.0000   699.9211   416.5273  -999.2500     7.3765     1.8750     0.7918
  974.5000   699.7021   416.4487  -999.2500     7.3815     1.8750     0.7916
  975.0000   699.4831   416.3700  -999.2500     7.3865     1.8750     0.7914
  975.5000   699.2642   416.2913  -999.2500     7.3915     1.8750     0.7912
  976.0000   699.0453   416.2126  -999.2500     7.3965     1.8749     0.7910
  976.5000   698.8265   416.1339  -999.2500     7.4015     1.8751     0.7908
  977.0000   698.6076   416.0551  -999.2500     7.4065     1.8885     0.7905
  977.5000   698.3887   415.9764  -999.2500     7.4115     1.9036     0.7904
  978.0000   698.1699   415.8977  -999.2500     7.4165     1.9187     0.7901
  978.5000   697.9510   415.8190  -999.2500     7.4215     1.9337     0.7899
  979.0000   697.7321   415.7403  -999.2500     7.4265     1.9488     0.7897
  979.5000   697.5132   415.6616  -999.2500     7.4315     1.9639     0.7895
  980.0000   697.2944   415.5829  -999.2500     7.4365     1.9789     0.7893
  980.5000   697.0755   415.5042  -999.2500     7.4452     1.9940     0.7891
  981.0000   696.8566   415.4254  -999.2500     7.4577     2.0090     0.7889
  981.5000   696.6378   415.3467  -999.2500     7.4700     2.0241     0.7887
  982.0000   696.4189   415.2680  -999.2500     7.4824     2.0392     0.7885
  982.5000   696.2000   415.1893  -999.2500     7.4948     2.0542     0.7883
  983.0000   695.9811   415.1106  -999.2500     7.5072     2.0693     0.7881
  983.5000   695.7623   415.0319  -999.2500     7.5195     2.0844     0.7879
  984.0000   695.5434   414.9532  -999.2500     7.5319     2.0994     0.7877
  984.5000   695.3245   414.8744  -999.2500     7.5443     2.1144     0.7875
  985.0000   695.1057   414.7957  -999.2500     7.5567     2.1219     0.7873
  985.5000   694.8868   414.7170  -999.2500     7.5691     2.1100     0.7871
  986.0000   694.6679   414.6383  -999.2500     7.5814     2.0984     0.7869
  986.5000   694.4490   414.5596  -999.2500     7.5938     2.0868     0.7867
  987.0000   694.2302   414.4809  -999.2500     7.6062     2.0752     0.7865
  987.5000   694.0113   414.4022  -999.2500     7.6186     2.0637     0.7863
  988.0000   693.7924   414.3234  -999.2500     7.6310     2.0521     0.7861
  988.5000   693.5735   414.2445  -999.2500     7.6433     2.0405     0.7859
  989.0000   693.3547   414.1660  -999.2500     7.6557     2.0289     0.7857
  989.5000   693.1358   414.1009  -999.2500     7.6681     2.0174     0.7855
  990.0000   692.9169   414.1024  -999.2500     7.6805     2.0058     0.7853
  990.5000   692.6981   414.1025  -999.2500     7.6929     1.9942     0.7851
  991.0000   692.4792   414.1026  -999.2500     7.7052     1.9826     0.7849
  991.5000   692.2603   414.1026  -999.2500     7.7176     1.9711     0.7847
  992.0000   692.0414   414.1026  -999.2500     7.7300     1.9595     0.7845
  992.5000   691.8226   414.1026  -999.2500     7.7424     1.9479     0.7843
  993.0000   691.6037   414.1026  -999.2500     7.7547     1.9363     0.7844
  993.5000   691.3848   414.1026  -999.2500     7.7671     1.9248     0.7838
  994.0000   691.1660   414.1026  -999.2500     7.7795     1.9132     0.7579
  994.5000   690.9471   414.1026  -999.2500     7.7919     1.9016     0.6253
  995.0000   690.7282   414.1026  -999.2500     7.8043     1.8901     0.4956
  995.5000   690.5093   414.1026  -999.2500     7.8166     1.8785     0.3667
  996.0000   690.2905   414.1026  -999.2500     7.8290     1.8671     0.2674
  996.5000   690.0716   414.1026  -999.2500     7.8414     1.8557     0.2694
  997.0000   689.8527   414.1026  -999.2500     7.8538     1.8444     0.2696
  997.5000   689.6339   414.1026  -999.2500     7.8662     1.8331     0.2696
  998.0000   689.4150   414.1026  -999.2500     7.8785     1.8218     0.2696
  998.5000   689.1961   414.1026  -999.2500     7.8909     1.8104     0.2696
  999.0000   688.9772   414.1026  -999.2500     7.9033     1.7991     0.2696
  999.5000   688.7584   414.1026  -999.2500     7.9157     1.7878     0.2696
 1000.0000   688.5395   414.1026  -999.2500     7.9268     1.7764     0.2696
 1000.5000   688.3206   414.1026  -999.2500     7.9269     1.7651     0.2696
 1001.0000   688.1017   414.1026  -999.2500     7.9268     1.7538     0.2696
 1001.5000   687.8829   414.1026  -999.2500     7.9268     1.7424     0.2696
 1002.0000   687.6640   414.1026  -999.2500     7.9268     1.7311     0.2696
 1002.5000   687.4451   414.1026  -999.2500     7.9268     1.7198     0.2696
 1003.0000   687.2263   414.1026  -999.2500     7.9268     1.7085     0.2696
 1003.5000   687.0074   414.1026  -999.2500     7.9268     1.6971     0.2696
 1004.0000   686.7885   414.1026  -999.2500     7.9268     1.6858     0.2696
 1004.5000   686.5696   414.1026  -999.2500     7.9268     1.6745     0.2696
 1005.0000   686.3508   414.1026  -999.2500     7.9268     1.6631     0.2696
 1005.5000   686.1319   414.1026  -999.2500     7.9268     1.6518     0.2696
 1006.0000   685.9129   414.1026  -999.2500     7.9268     1.6405     0.2696
 1006.5000   685.6942   414.1026  -999.2500     7.9268     1.6291     0.2696
 1007.0000   685.4752   414.1026  -999.2500     7.9268     1.6191     0.2696
 1007.5000   685.3657   414.1026  -999.2500     7.9268     1.6098     0.2696
 1008.0000   685.3659   414.1026  -999.2500     7.9268     1.6006     0.2696
 1008.5000   685.3657   414.1026  -999.2500     7.9268     1.5913     0.2696
 1009.0000   685.3658   414.1026  -999.2500     7.9268     1.5820     0.2696
 1009.5000   685.3658   414.1026  -999.2500     7.9268     1.5727     0.2696
 1010.0000   685.3658   414.1026  -999.2500     7.9268     1.5634     0.2696
 1010.5000   685.3658   414.1026  -999.2500     7.9268     1.5541     0.2696
 1011.0000   685.3658   414.1026  -999.2500     7.9268     1.5449     0.2695
 1011.5000   685.3658   414.1026  -999.2500     7.9268     1.5356     0.2693
 1012.0000   685.3658   414.1026  -999.2500     7.9268     1.5263     0.2699
 1012.5000   685.3658   414.1026  -999.2500     7.9268     1.5170     0.3009
 1013.0000   685.3658   414.1026  -999.2500     7.9268     1.5077     0.4782
 1013.5000   685.3658   414.1026  -999.2500     7.9268     1.4985     0.7203
 1014.0000   685.3658   414.1026  -999.2500     7.9268     1.4892     0.9660
 1014.5000   685.3658   414.1026  -999.2500     7.9268     1.4799     0.9918
 1015.0000   685.3658   414.1026  -999.2500     7.9268     1.4706     0.9334
 1015.5000   685.3658   414.1026  -999.2500     7.9247     1.4613     0.8734
 1016.0000   685.3658   414.1026  -999.2500     7.9206     1.4520     0.8135
 1016.5000   685.3658   414.1026  -999.2500     7.9164     1.4428     0.7836
 1017.0000   685.3658   414.1026  -999.2500     7.9122     1.4335     0.8464
 1017.5000   685.3658   414.1026  -999.2500     7.9081     1.4242     0.9735
 1018.0000   685.3658   414.1026  -999.2500     7.9039     1.4149     1.0090
 1018.5000   685.3658   414.1026  -999.2500     7.8997     1.4056     1.0096
 1019.0000   685.3658   414.1026  -999.2500     7.8956     1.3964     1.0095
 1019.5000   685.3658   414.1026  -999.2500     7.8914     1.3871     1.0094
 1020.0000   685.3658   414.1026  -999.2500     7.8872     1.3777     1.0094
 1020.5000   685.3658   414.1026  -999.2500     7.8831     1.3750     1.0094
 1021.0000   685.3658   414.1026  -999.2500     7.8789     1.3750     1.0094
 1021.5000   685.3658   414.1026  -999.2500     7.8747     1.3750     1.0094
 1022.0000   685.3658   414.1026  -999.2500     7.8706     1.3750     1.0094
 1022.5000   685.3658   414.1026  -999.2500     7.8664     1.3750     1.0094
 1023.0000   685.3659   414.1026  -999.2500     7.8622     1.3750     1.0094
 1023.5000   685.3660   414.1026  -999.2500     7.8580     1.3750     1.0094
 1024.0000   685.3656   414.1026  -999.2500     7.8539     1.3750     1.0094
 1024.5000   685.3439   414.1026  -999.2500     7.8497     1.3750     1.0094
 1025.0000   685.2663   414.1026  -999.2500     7.8455     1.3750     1.0094
 1025.5000   685.1897   414.1026  -999.2500     7.8414     1.3750     1.0094
