~VERSION INFORMATION
 VERS.                2.0:   CWLS LOG ASCII STANDARD - VERSION 2.0
 WRAP.                 NO:   ONE LINE PER DEPTH STEP
~WELL INFORMATION
#MNEM.UNIT      DATA TYPE    INFORMATION
#----------   ------------   ------------------------------
 STRT.F           18.0000:   START DEPTH
 STOP.F         2312.0000:   STOP DEPTH
 STEP.F            0.5000:   STEP LENGTH
 NULL.          -999.2500:   NO VALUE
 COMP. FENIX & SCISSON INC:   COMPANY
 WELL.  NPR 3 #51 SHX -15:   WELL
 FLD .             TEAPOT:   FIELD
 LOC .      S15 T38N R78W:   LOCATION
 CNTY.            NATRONA:   COUNTY
 STAT.            WYOMING:   STATE
 CTRY. UNITED STATES OF AMERICA:   COUNTRY
 SRVC.            Unknown:   SERVICE COMPANY
 DATE.        14-MAR-1978:   LOGDATE
 API .       490251060000:   API NUMBER
~CURVE INFORMATION
#MNEM.UNIT       API CODE    CURVE DESCRIPTION
#----------   ------------   ------------------------------
 DEPT.F                  :   
 ILD .OHMM   05 120 46 00:   INDUCTION LOG DEEP
 CILD.MMHO   05 110 46 00:   CONDUCTIVITY INDUCTION LOG DEEP
 CALD.IN     45 280 60 00:   CALIPER FROM DENSITY LOG
 GRD .GAPI   45 310 01 00:   GAMMA RAY FROM DENSITY LOG
 CORR.G/C3   45 356 01 00:   DENSITY CORRECTION
 RHOB.G/C3   45 350 01 00:   BULK DENSITY
 DPHI.DEC    45 890 12 00:   DENSITY POROSITY SANDSTONE
~PARAMETER INFORMATION
#MNEM.UNIT          VALUE    DESCRIPTION
#----------   ------------   ------------------------------
 PD  .                 GL:   PERMANENT DATUM
 EPD .F              5223:   ELEVATION PERMANENT DATUM
 LMF .                 KB:   LOG MEASURED FROM
 DAPD.F                10:   FEET ABOVE PERMANENT DATUM
 DMF .                 KB:   DRILLING MEASURED FROM
 EKB .F              5233:   KELLING BUSHING
 EGL .F              5223:   GROUND LEVEL
 DATE.            3-14-78:   RUN DATE
 RUN .                  1:   RUN NUMBER
 DD  .F              2323:   DEPTH DRILLER
 DL  .F              2314:   DEPTH LOGGER
 BLI .F              2312:   BOTTOM LOG INTERVAL
 TLI .F                20:   TOP LOG INTERVAL
 CS  .IN                9:   CASING SIZE
 CBD .F               680:   CASING BOTTOM DRILLER
 CBL .F               682:   CASING BOTTOM LOGGER
 BS  .IN            7.875:   BIT SIZE
 BSD .F              2323:   BIT SIZE AT DEPTH
 DFT .           AIR MIST:   DRILLING FLUID TYPE
 TCS .HRS               2:   TIME CURCULATED STOPPED
 LUN .               2958:   LOGGING UNIT NUMBER
 LUL .               CASP:   LOGGING UNIT LOCATION
 ENGI.             MILLER:   RECORDING ENGINEER
 WITN.           MCGINLEY:   WITNESSED BY
 CLNT.            A2DTECH:   CLIENT CODE
 ORIG.       2", 5" PRINT:   ORIGIN OF DATA
 UWI .       490251060000:   UNIQUE WELL ID
 DICO. A2D Technologies, Inc.:   DIGITIZING COMPANY
~OTHER INFORMATION
~A   DEPT      ILD       CILD       CALD         GRD      CORR       RHOB       DPHI   
# ...
 1019.0000  -999.2500  -999.2500    10.2570    79.0040     0.0182     2.4210     0.1466
 1019.5000  -999.2500  -999.2500    10.2562    74.9809     0.0345     2.4053     0.1549
 1020.0000  -999.2500  -999.2500    10.2553    73.6627     0.0742     2.4014     0.1549
 1020.5000  -999.2500  -999.2500    10.2544    72.2292     0.1164     2.3924     0.1537
 1021.0000  -999.2500  -999.2500    10.2535    70.7561     0.1253     2.5151     0.0948
 1021.5000  -999.2500  -999.2500    10.2526    71.2812     0.0138     2.4650     0.1096
 1022.0000  -999.2500  -999.2500    10.2517    71.7802    -0.0094     2.5222     0.1128
 1022.5000  -999.2500  -999.2500    10.2508    70.6524    -0.0061     2.5103     0.1003
 1023.0000  -999.2500  -999.2500    10.2499    76.2577    -0.0022     2.5028     0.0935
 1023.5000  -999.2500  -999.2500    10.2490    87.6604     0.0017     2.5129     0.0898
 1024.0000  -999.2500  -999.2500    10.2481    79.0133     0.0056     2.5148     0.0864
 1024.5000  -999.2500  -999.2500    10.2473    71.1746     0.0050     2.5144     0.0832
 1025.0000  -999.2500  -999.2500    10.2464    74.6538     0.0031     2.5255     0.0832
 1025.5000  -999.2500  -999.2500    10.2455    76.1410     0.0011     2.5169     0.0902
 1026.0000  -999.2500  -999.2500    10.2446    76.1334    -0.0010     2.5056     0.0950
 1026.5000  -999.2500  -999.2500    10.2437    76.4792    -0.0003     2.4943     0.0997
 1027.0000  -999.2500  -999.2500    10.2428    77.1477     0.0014     2.4903     0.1008
 1027.5000  -999.2500  -999.2500    10.2415    84.8986     0.0031     2.4952     0.1004
 1028.0000  -999.2500  -999.2500    10.2552    88.9594     0.0048     2.4989     0.0986
 1028.5000  -999.2500  -999.2500    10.2725    86.9075     0.0068     2.4928     0.0951
 1029.0000  -999.2500  -999.2500    10.2899    87.4812     0.0176     2.5006     0.0854
 1029.5000  -999.2500  -999.2500    10.3015    87.9752     0.0256     2.5190     0.0797
 1030.0000  -999.2500  -999.2500    10.3013    88.3952     0.0188     2.5360     0.0804
 1030.5000  -999.2500  -999.2500    10.3012    84.8800     0.0185     2.5182     0.0772
 1031.0000  -999.2500  -999.2500    10.3012    79.3452     0.0169     2.5319     0.0807
 1031.5000  -999.2500  -999.2500    10.3104    79.5428     0.0062     2.5202     0.0906
 1032.0000  -999.2500  -999.2500    10.3825    87.4381    -0.0044     2.5040     0.0948
 1032.5000  -999.2500  -999.2500    10.4572    91.2644    -0.0092     2.4970     0.0986
 1033.0000  -999.2500  -999.2500    10.4609    91.0759    -0.0084     2.4926     0.1003
 1033.5000  -999.2500  -999.2500    10.4604    89.7187    -0.0077     2.4885     0.1012
 1034.0000  -999.2500  -999.2500    10.4603    87.3275    -0.0029     2.4911     0.1000
 1034.5000  -999.2500  -999.2500    10.4603    81.4918     0.0037     2.5036     0.0956
 1035.0000  -999.2500  -999.2500    10.4603    78.3356     0.0104     2.4985     0.0873
 1035.5000  -999.2500  -999.2500    10.4603    78.9628     0.0161     2.4978     0.0828
 1036.0000  -999.2500  -999.2500    10.4603    81.1719     0.0063     2.5210     0.0924
 1036.5000  -999.2500  -999.2500    10.4603    78.7259    -0.0038     2.4897     0.0988
 1037.0000  -999.2500  -999.2500    10.4603    75.7008    -0.0075     2.4841     0.1041
 1037.5000  -999.2500  -999.2500    10.4603    76.3522    -0.0075     2.4818     0.1049
 1038.0000  -999.2500  -999.2500    10.4603    82.6268    -0.0061     2.4822     0.1032
 1038.5000  -999.2500  -999.2500    10.4603    91.5174     0.0019     2.4892     0.1005
 1039.0000  -999.2500  -999.2500    10.4603    89.2106     0.0086     2.4952     0.0988
 1039.5000  -999.2500  -999.2500    10.4602    86.7179     0.0076     2.4936     0.1032
 1040.0000  -999.2500  -999.2500    10.4601    88.6090     0.0066     2.4897     0.1104
 1040.5000  -999.2500  -999.2500    10.4610    91.0921     0.0083     2.4795     0.1175
 1041.0000  -999.2500  -999.2500    10.4849    93.5915     0.0114     2.4639     0.1247
 1041.5000  -999.2500  -999.2500    10.5098    96.1042     0.0188     2.4482     0.1342
 1042.0000  -999.2500  -999.2500    10.4851    98.5189     0.0354     2.4326     0.1489
 1042.5000  -999.2500  -999.2500    10.4294    98.8877     0.0612     2.4166     0.1636
 1043.0000  -999.2500  -999.2500    10.3725    90.6696     0.1076     2.3812     0.1773
 1043.5000  -999.2500  -999.2500    10.3590    82.3807     0.1818     2.3519     0.1590
 1044.0000  -999.2500  -999.2500    10.3560    80.1458     0.2351     2.3665     0.1164
 1044.5000  -999.2500  -999.2500    10.3535    82.8731     0.1271     2.4108     0.1461
 1045.0000  -999.2500  -999.2500    10.3508    85.7830     0.0364     2.4567     0.1317
 1045.5000  -999.2500  -999.2500    10.3483    87.0339    -0.0059     2.4853     0.1096
 1046.0000  -999.2500  -999.2500    10.3460    78.9339    -0.0096     2.4861     0.1096
 1046.5000  -999.2500  -999.2500    10.3417    72.9499    -0.0113     2.4811     0.1114
 1047.0000  -999.2500  -999.2500    10.2974    73.2350    -0.0103     2.4752     0.1132
 1047.5000  -999.2500  -999.2500    10.1476    73.0459    -0.0094     2.4785     0.1111
 1048.0000  -999.2500  -999.2500    10.1410    72.0186    -0.0085     2.4810     0.1092
 1048.5000  -999.2500  -999.2500    10.1422    71.3736    -0.0075     2.4786     0.1117
 1049.0000  -999.2500  -999.2500    10.1424    72.9300    -0.0035     2.4755     0.1102
 1049.5000  -999.2500  -999.2500    10.1424    74.6546     0.0009     2.4738     0.1057
 1050.0000  -999.2500  -999.2500    10.1424    76.0957     0.0053     2.4806     0.0995
 1050.5000  -999.2500  -999.2500    10.1424    77.7358     0.0065     2.4889     0.1017
 1051.0000  -999.2500  -999.2500    10.1423    83.4938     0.0065     2.4877     0.1023
 1051.5000  -999.2500  -999.2500    10.1374    86.4209     0.0053     2.4930     0.0932
 1052.0000  -999.2500  -999.2500    10.1172    86.2323     0.0005     2.4987     0.0928
 1052.5000  -999.2500  -999.2500    10.0974    82.5699    -0.0042     2.4900     0.1006
 1053.0000  -999.2500  -999.2500    10.0779    75.5270    -0.0056     2.4900     0.1020
 1053.5000  -999.2500  -999.2500    10.0625    70.1530    -0.0059     2.4907     0.1009
 1054.0000  -999.2500  -999.2500    10.0629    72.3532    -0.0060     2.4829     0.1000
 1054.5000  -999.2500  -999.2500    10.0629    73.9943    -0.0062     2.4850     0.0987
 1055.0000  -999.2500  -999.2500    10.0629    71.0447    -0.0064     2.4874     0.0972
 1055.5000  -999.2500  -999.2500    10.0629    67.4280    -0.0066     2.4865     0.0957
 1056.0000  -999.2500  -999.2500    10.0629    62.7759    -0.0068     2.4952     0.0942
 1056.5000  -999.2500  -999.2500    10.0629    62.5930    -0.0070     2.5005     0.0952
 1057.0000  -999.2500  -999.2500    10.0629    63.2493    -0.0072     2.4982     0.0976
 1057.5000  -999.2500  -999.2500    10.0629    66.7943    -0.0075     2.4960     0.0966
 1058.0000  -999.2500  -999.2500    10.0629    72.2463    -0.0058     2.4938     0.0944
 1058.5000  -999.2500  -999.2500    10.0629    77.5152    -0.0033     2.4983     0.0923
 1059.0000  -999.2500  -999.2500    10.0630    72.3997    -0.0009     2.5042     0.0910
 1059.5000  -999.2500  -999.2500    10.0675    66.6575     0.0018     2.4974     0.0896
 1060.0000  -999.2500  -999.2500    10.0757    68.2214     0.0025     2.5027     0.0882
 1060.5000  -999.2500  -999.2500    10.0839    78.5858     0.0025     2.5086     0.0940
 1061.0000  -999.2500  -999.2500    10.0921    80.9039     0.0025     2.5041     0.0972
 1061.5000  -999.2500  -999.2500    10.1004    79.0485     0.0068     2.4994     0.0964
 1062.0000  -999.2500  -999.2500    10.1066    80.8502     0.0118     2.4949     0.0957
 1062.5000  -999.2500  -999.2500    10.1122    84.3177     0.0119     2.4993     0.0949
 1063.0000  -999.2500  -999.2500    10.1178    84.5858     0.0111     2.5041     0.0947
 1063.5000  -999.2500  -999.2500    10.1234    70.0444     0.0110     2.5016     0.0945
 1064.0000  -999.2500  -999.2500    10.1289    67.8810     0.0134     2.4994     0.0952
