~VERSION INFORMATION
 VERS.                2.0:   CWLS LOG ASCII STANDARD - VERSION 2.0
 WRAP.                 NO:   ONE LINE PER DEPTH STEP
~WELL INFORMATION
#MNEM.UNIT      DATA TYPE    INFORMATION
#----------   ------------   ------------------------------
 STRT.F           80.0000:   START DEPTH
 STOP.F          782.0000:   STOP DEPTH
 STEP.F            0.5000:   STEP LENGTH
 NULL.          -999.2500:   NO VALUE
 COMP.            US NAVY:   COMPANY
 WELL. NPR 3 TEAPOT DOM #87-S-34:   WELL
 FLD .             TEAPOT:   FIELD
 LOC .      S34 T39N R78W:   LOCATION
 CNTY.            NATRONA:   COUNTY
 STAT.            WYOMING:   STATE
 CTRY. UNITED STATES OF AMERICA:   COUNTRY
 SRVC.       Schlumberger:   SERVICE COMPANY
 DATE.        07-AUG-1961:   LOGDATE
 API .       490250651100:   API NUMBER
~CURVE INFORMATION
#MNEM.UNIT       API CODE    CURVE DESCRIPTION
#----------   ------------   ------------------------------
 DEPT.F                  :   
 GR  .GAPI   30 310 01 00:   GAMMA RAY
 SPR .MV     05 010 01 00:   SPONTANEOUS POTENTIAL FROM RES.
 ASN .OHMM   05 041 16 00:   AMPLIFIED SHORT NORMAL 16"
 ILD .OHMM   05 120 46 00:   INDUCTION LOG DEEP
 CILD.MMHO   05 110 46 00:   CONDUCTIVITY INDUCTION LOG DEEP
~PARAMETER INFORMATION
#MNEM.UNIT          VALUE    DESCRIPTION
#----------   ------------   ------------------------------
 PD  .                 KB:   PERMANENT DATUM
 EPD .F                  :   ELEVATION PERMANENT DATUM
 LMF .                 KB:   LOG MEASURED FROM
 DAPD.F                  :   FEET ABOVE PERMANENT DATUM
 DMF .                 KB:   DRILLING MEASURED FROM
 EKB .F              5102:   KELLING BUSHING
 EDF .F                  :   DRILLING FLOOR
 EGL .F              5097:   GROUND LEVEL
 DATE.        07-AUG-1961:   RUN DATE
 RUN .                  1:   RUN NUMBER
 DD  .F               770:   DEPTH DRILLER
 DL  .F               783:   DEPTH LOGGER
 BLI .F               782:   BOTTOM LOG INTERVAL
 TLI .F               100:   TOP LOG INTERVAL
 CS  .IN                 :   CASING SIZE
 CBD .F                  :   CASING BOTTOM DRILLER
 CBL .F                  :   CASING BOTTOM LOGGER
 BS  .IN             6.75:   BIT SIZE
 BSD .F               770:   BIT SIZE AT DEPTH
 DFT .       OIL EMULSION:   DRILLING FLUID TYPE
 DFD .               10.4:   DRILLING FLUID DENSITY
 DFV .                 45:   DRILLING FLUID VISCOSITY
 DFPH.                   :   DRILLING FLUID PH
 DFL .                   :   DRILLING FLUID LOSS
 MSS .                   :   MUD SAMPLE SOURCE
 RMS .OHMM           0.95:   RESISTIVITY MUD SAMPLE
 MST .F                72:   MUD SAMPLE TEMPERATURE
 RMF .OHMM               :   RESISTIVITY MUD FILTRATE SAMPLE
 MFST.F                  :   MUD FILTRATE SAMPLE TEMPERATURE
 RMC .OHMM               :   RESISTIVITY MUD CAKE
 MCST.F                  :   MUD CAKE SAMPLE TEMPERATURE
 MFSS.                   :   MUD FILTRATE SAMPLE SOURCE
 MCSS.                   :   MUD CAKE SAMPLE SOURCE
 RMB .OHMM               :   RESISTIVITY MUD AT BHT
 BHT .F                  :   BOTTOM HOLE TEMPERATURE
 TCS .HRS               1:   TIME CURCULATED STOPPED
 TLAB.HRS                :   TIME LOGGER AT BOTTOM
 MRT .F                  :   MAXIMUM RECORDED TEMPERATURE
 LUN .               2544:   LOGGING UNIT NUMBER
 LUL .                   :   LOGGING UNIT LOCATION
 ENGI.             QUINBY:   RECORDING ENGINEER
 WITN.          JORGENSON:   WITNESSED BY
 CLNT.            A2DTECH:   CLIENT CODE
 ORIG.       2", 5" PRINT:   ORIGIN OF DATA
 UWI .       490250651100:   UNIQUE WELL ID
 DICO. A2D Technologies, Inc.:   DIGITIZING COMPANY
 OS  .                   :   OTHER SERVICES
 PWI .                   :   PRIMARY WELL IDENTIFIER
 R1  .                   :   REMARKS 1
 R2  .                   :   REMARKS 2
~OTHER INFORMATION
~A   DEPT       GR        SPR         ASN         ILD      CILD  
   80.0000  -999.2500  -999.2500    21.3193     5.3615   153.4526
   80.5000  -999.2500   -25.1614    25.5359     6.0387   149.7346
   81.0000  -999.2500   -26.4208    28.4492     6.3539   147.2171
   81.5000  -999.2500   -28.1855    32.8643     6.6498   144.4211
   82.0000  -999.2500   -31.1967    42.0262     6.8659   142.9129
   82.5000  -999.2500   -33.2403    50.0000     6.9409   141.1659
   83.0000  -999.2500   -34.3928    50.0000     6.7814   139.8941
   83.5000  -999.2500   -34.9439    50.0000     6.4883   139.1341
   84.0000  -999.2500   -34.8761    47.2963     6.2791   138.3784
   84.5000  -999.2500   -34.7744    42.0818     6.0358   138.3702
   85.0000  -999.2500   -34.6372    30.3608     6.7130   139.1390
   85.5000  -999.2500   -34.4199    26.5878     7.1358   140.1400
   86.0000  -999.2500   -34.3182    20.8425     6.6266   142.8522
   86.5000  -999.2500   -34.0285    14.5993     6.2601   145.1450
   87.0000  -999.2500   -33.9637     9.3964     6.2598   147.6475
   87.5000  -999.2500   -33.8621     7.6468     6.1778   151.8388
   88.0000  -999.2500   -33.7218     8.3397     5.8072   154.9749
   88.5000  -999.2500   -33.7205     7.5353     5.4690   159.9874
   89.0000  -999.2500   -33.7190     6.8860     4.9699   165.3298
   89.5000  -999.2500   -34.1705     5.9234     4.6012   174.0441
   90.0000  -999.2500   -34.5921     5.9095     4.3675   186.8374
   90.5000  -999.2500   -34.9325     5.8929     4.1415   211.8539
   91.0000  -999.2500   -35.2233     7.1576     3.7718   225.1856
   91.5000  -999.2500   -35.2220     8.2228     3.5664   238.4839
   92.0000  -999.2500   -35.2206    10.4945     3.3173   247.8675
   92.5000  -999.2500   -35.0677    28.0907     3.1682   252.6404
   93.0000  -999.2500   -34.8581    40.5890     3.1679   257.2574
   93.5000  -999.2500   -34.6052  -999.2500     3.2429   258.3559
   94.0000  -999.2500   -34.3079  -999.2500     3.3177   260.7610
   94.5000  -999.2500   -34.1556  -999.2500     3.3439   256.6687
   95.0000  -999.2500   -33.9980  -999.2500     3.4676   244.8196
   95.5000  -999.2500   -33.8502  -999.2500     3.5425   228.7024
   96.0000  -999.2500   -33.9033  -999.2500     3.6174   210.3059
   96.5000  -999.2500   -34.1531  -999.2500     3.6924   197.3025
   97.0000  -999.2500   -34.2991  -999.2500     3.7672   194.7849
   97.5000  -999.2500   -34.5015  -999.2500     3.8422   192.2296
   98.0000  -999.2500   -34.7493  -999.2500     3.9177   195.6655
   98.5000  -999.2500   -34.7474  -999.2500     3.9921   203.6133
   99.0000  -999.2500   -34.8973  -999.2500     3.9917   219.2342
   99.5000  -999.2500   -35.0468  -999.2500     3.9913   224.2167
  100.0000  -999.2500   -35.0453  -999.2500     3.9408   226.7282
  100.5000  -999.2500   -35.0438  -999.2500     3.8903   223.7011
  101.0000  -999.2500   -35.0423  -999.2500     3.7643   217.7012
  101.5000  -999.2500   -35.0408  -999.2500     3.5890   216.7168
  102.0000  -999.2500   -34.8882  -999.2500     3.2625   220.9014
  102.5000  -999.2500   -34.7356  -999.2500     2.7843   253.7148
  103.0000  -999.2500   -34.5831  -999.2500     2.2590   278.4106
  103.5000  -999.2500   -34.3837  -999.2500     1.9068   320.6632
  104.0000  -999.2500   -34.1269  -999.2500     1.6536   373.8125
  104.5000  -999.2500   -34.0292  -999.2500     1.5289   403.5546
  105.0000  -999.2500   -33.9275  -999.2500     1.4784   443.6585
  105.5000  -999.2500   -33.8202  -999.2500     1.4266   465.7122
  106.0000  -999.2500   -33.9698    49.4807     1.4262   470.2902
  106.5000  -999.2500   -34.1196    34.7418     1.4258   464.4778
  107.0000  -999.2500   -34.2688    25.1300     1.4254   447.6898
  107.5000  -999.2500   -34.3605    20.7044     1.4251   403.7901
  108.0000  -999.2500   -34.4172    12.6619     1.7430   356.2194
  108.5000  -999.2500   -34.4154     3.7462     2.4032   308.6432
  109.0000  -999.2500   -34.5650     1.9737     2.9711   270.6913
  109.5000  -999.2500   -34.5635     1.5469     3.3515   249.1055
  110.0000  -999.2500   -34.5619     1.2992     3.4563   241.3416
  110.5000  -999.2500   -34.5605     1.1581     3.4560   228.6263
  111.0000  -999.2500   -34.7102     1.0492     3.4555   214.5486
  111.5000  -999.2500   -34.7084     1.0831     3.4552   225.4155
  112.0000  -999.2500   -34.5559     1.1179     3.3795   234.4145
  112.5000  -999.2500   -34.5544     1.1540     3.3572   237.0495
  113.0000  -999.2500   -34.4017     1.1782     3.3035   239.2393
  113.5000  -999.2500   -34.3132     1.1837     3.2563   240.2403
  114.0000  -999.2500   -34.2115     1.1834     3.1521   243.0322
  114.5000  -999.2500   -34.0951     1.1739     3.0764   245.2454
  115.0000  -999.2500   -33.8570     1.1679     2.9543   250.9763
  115.5000  -999.2500   -33.7553     1.1526     2.8073   258.0247
  116.0000  -999.2500   -33.6374     1.1432     2.6235   268.4698
  116.5000  -999.2500   -33.5519     1.1221     2.4265   288.7562
  117.0000  -999.2500   -33.4834     1.0917     2.2046   339.0833
  117.5000  -999.2500   -33.4818     1.0824     2.0199   370.0418
  118.0000  -999.2500   -33.4804     1.0611     1.8986   404.2928
  118.5000  -999.2500   -33.4788     1.0609     1.7729   421.6435
  119.0000  -999.2500   -33.4772     1.0456     1.7176   427.7124
  119.5000  -999.2500   -33.6269     1.0304     1.6420   426.7571
  120.0000  -999.2500   -33.8066     1.1054     1.7369   418.6180
  120.5000  -999.2500   -33.9260     1.1534     2.0177   408.4489
  121.0000  -999.2500   -34.0755     1.1113     2.6185   376.5778
  121.5000  -999.2500   -34.2253     0.9541     3.1303   331.5085
  122.0000  -999.2500   -34.2234     1.4885     3.5979   289.0092
  122.5000  -999.2500   -34.2220     1.6465     3.8372   258.7086
  123.0000  -999.2500   -34.1933     1.4806     3.9737   230.8854
  123.5000  -999.2500   -34.0678     1.3457     4.0486   219.7518
  124.0000  -999.2500   -33.9154     1.2392     4.0924   209.1290
  124.5000  -999.2500   -33.7372     1.8714     4.1232   203.8359
  125.0000  -999.2500   -33.6101     1.4847     4.1227   201.4513
  125.5000  -999.2500   -33.4577     1.2461     4.0786   200.8184
  126.0000  -999.2500   -33.4562     1.2081     3.9528   200.8105
  126.5000  -999.2500   -33.4545     1.1928     3.8957   204.1020
  127.0000  -999.2500   -33.4532     1.2623     3.7766   211.1427
  127.5000  -999.2500   -33.6029     2.1562     3.5027   235.3226
  128.0000  -999.2500   -33.7521     2.9847     2.3885   270.7271
  128.5000  -999.2500   -33.9738     2.1814     2.1515   299.2138
  129.0000  -999.2500   -34.0515     1.1164     2.0687   322.3872
  129.5000  -999.2500   -34.0497     2.0734     1.9356   335.1618
  130.0000  -999.2500   -34.1994     2.9694     1.8926   344.2940
  130.5000  -999.2500   -34.1979     3.4199     1.8596   347.8903
  131.0000  -999.2500   -34.3472     3.5638     1.8592   351.3161
  131.5000  -999.2500   -34.3459     3.3761     1.9434   353.8828
  132.0000  -999.2500   -34.3444     3.1181     2.2109   338.8588
  132.5000  -999.2500   -34.3427     3.8804     2.5357   314.4650
  133.0000  -999.2500   -34.1903     3.9911     2.7279   284.3396
  133.5000  -999.2500   -34.1722     2.5903     2.9116   257.7376
  134.0000  -999.2500   -33.8850     3.8351     2.9864   239.7283
  134.5000  -999.2500   -33.8177     4.0959     3.0614   233.1982
  135.0000  -999.2500   -33.5801     1.4601     3.1363   232.1821
  135.5000  -999.2500   -33.4273     2.2557     3.1359   230.6968
  136.0000  -999.2500   -33.4260     3.1378     3.0944   229.1892
  136.5000  -999.2500   -33.5891     3.0558     3.0439   229.1817
  137.0000  -999.2500   -33.8759     2.7930     2.9089   230.6743
  137.5000  -999.2500   -34.0887     2.5388     2.7171   231.2314
  138.0000  -999.2500   -34.1873     2.3925     2.4252   233.7340
  138.5000  -999.2500   -34.3247     2.5533     2.0794   238.1594
  139.0000  -999.2500   -34.3847     2.1262     1.8477   245.5852
  139.5000  -999.2500   -34.4729     1.8195     1.6870   264.5949
  140.0000  -999.2500   -34.4711     1.7359     1.5512   290.6895
  140.5000  -999.2500   -34.3187     1.6805     1.5508   302.1239
