~VERSION INFORMATION
 VERS.                2.0:   CWLS LOG ASCII STANDARD - VERSION 2.0
 WRAP.                 NO:   ONE LINE PER DEPTH STEP
~WELL INFORMATION
#MNEM.UNIT      DATA TYPE    INFORMATION
#----------   ------------   ------------------------------
 STRT.F         2640.0000:   START DEPTH
 STOP.F         2958.0000:   STOP DEPTH
 STEP.F            0.5000:   STEP LENGTH
 NULL.          -999.2500:   NO VALUE
 COMP. DEPARTMENT OF ENERGY:   COMPANY
 WELL.     WELL #201-A-34:   WELL
 FLD .                 WC:   FIELD
 LOC .      S34 T39N R78W:   LOCATION
 CNTY.            NATRONA:   COUNTY
 STAT.            WYOMING:   STATE
 CTRY. UNITED STATES OF AMERICA:   COUNTRY
 SRVC.            Unknown:   SERVICE COMPANY
 DATE.        23-AUG-1967:   LOGDATE
 API .       490251146200:   API NUMBER
~CURVE INFORMATION
#MNEM.UNIT       API CODE    CURVE DESCRIPTION
#----------   ------------   ------------------------------
 DEPT.F                  :   
 GRN .GAPI   35 310 01 00:   GAMMA RAY
 NEUT.NAPI   35 330 01 00:   NEUTRON
~PARAMETER INFORMATION
#MNEM.UNIT          VALUE    DESCRIPTION
#----------   ------------   ------------------------------
 PD  .                 GL:   PERMANENT DATUM
 LMF .                 GL:   LOG MEASURED FROM
 DATE.            8-23-67:   RUN DATE
 RUN .                  1:   RUN NUMBER
 DD  .F              2975:   DEPTH DRILLER
 DL  .F              2959:   DEPTH LOGGER
 BLI .F              2958:   BOTTOM LOG INTERVAL
 TLI .F              2650:   TOP LOG INTERVAL
 BSD .F              2975:   BIT SIZE AT DEPTH
 DFT .              WATER:   DRILLING FLUID TYPE
 TCS .HRS               2:   TIME CURCULATED STOPPED
 ENGI. FITZSIMMONS/BROADWAT:   RECORDING ENGINEER
 WITN.             HUDSON:   WITNESSED BY
 CLNT.            A2DTECH:   CLIENT CODE
 ORIG.           5" PRINT:   ORIGIN OF DATA
 UWI .       490251146200:   UNIQUE WELL ID
 DICO. A2D Technologies, Inc.:   DIGITIZING COMPANY
~OTHER INFORMATION
~A  DEPT        GRN      NEUT   
 2640.0000    45.7571  -999.2500
 2640.5000    45.7571  -999.2500
 2641.0000    45.7571  -999.2500
 2641.5000    45.7571  -999.2500
 2642.0000    45.7571  -999.2500
 2642.5000    45.7571  -999.2500
 2643.0000    45.7571  -999.2500
 2643.5000    45.7567  -999.2500
 2644.0000    45.7537  -999.2500
 2644.5000    45.7648  -999.2500
 2645.0000    46.8573  -999.2500
 2645.5000    47.3247  -999.2500
 2646.0000    49.7450  -999.2500
 2646.5000    47.7739  -999.2500
 2647.0000    46.6828  -999.2500
 2647.5000    46.0162  -999.2500
 2648.0000    44.8813  -999.2500
 2648.5000    47.2644  -999.2500
 2649.0000    50.6003  -999.2500
 2649.5000    48.2056  -999.2500
 2650.0000    50.2295   413.2551
 2650.5000    50.8763   427.9234
 2651.0000    47.0215   423.8911
 2651.5000    46.2759   429.4422
 2652.0000    42.4101   427.3897
 2652.5000    44.9531   420.9887
 2653.0000    47.7040   415.4236
 2653.5000    44.0398   421.1517
 2654.0000    45.6211   440.7372
 2654.5000    41.1867   471.9717
 2655.0000    44.6185   492.4855
 2655.5000    45.8474   472.2722
 2656.0000    46.8671   430.5073
 2656.5000    45.8820   411.6595
 2657.0000    45.1638   405.8530
 2657.5000    45.5465   413.4306
 2658.0000    45.8853   437.9426
 2658.5000    45.4408   424.0376
 2659.0000    46.2569   454.1481
 2659.5000    49.9761   419.6690
 2660.0000    51.8301   453.0226
 2660.5000    48.8076   419.8049
 2661.0000    46.4119   458.0336
 2661.5000    45.2031   444.8636
 2662.0000    44.5584   435.0945
 2662.5000    42.7599   465.4255
 2663.0000    42.8325   437.5614
 2663.5000    42.7588   459.6037
 2664.0000    44.2995   434.1736
 2664.5000    43.7327   431.4469
 2665.0000    48.5625   447.5228
 2665.5000    47.5255   444.0537
 2666.0000    48.4676   457.8312
 2666.5000    49.5689   439.7395
 2667.0000    47.8675   437.1031
 2667.5000    45.1005   452.1490
 2668.0000    45.2555   410.8652
 2668.5000    47.1145   425.0158
 2669.0000    47.9278   419.5744
 2669.5000    51.8515   414.7034
 2670.0000    48.1861   414.8546
 2670.5000    44.0484   407.0893
 2671.0000    45.4406   412.6548
 2671.5000    42.6843   438.2321
 2672.0000    42.3701   418.5528
 2672.5000    43.4627   430.2166
 2673.0000    43.6018   445.8976
 2673.5000    43.0309   432.9612
 2674.0000    42.5633   416.7812
 2674.5000    39.1926   390.1796
 2675.0000    39.6504   421.8541
 2675.5000    40.1585   419.7659
 2676.0000    39.5066   432.4970
 2676.5000    36.5047   473.3687
 2677.0000    35.6378   503.1178
 2677.5000    36.6316   510.5853
 2678.0000    35.8270   524.3544
 2678.5000    34.2159   481.4153
 2679.0000    34.5057   437.0392
 2679.5000    32.1489   451.5091
 2680.0000    34.0800   417.5433
 2680.5000    30.3124   430.3282
 2681.0000    34.3093   412.5263
 2681.5000    36.9224   408.8108
 2682.0000    37.3254   379.8612
 2682.5000    37.4551   393.9156
 2683.0000    35.1615   418.5618
 2683.5000    33.0624   435.2702
 2684.0000    30.6829   411.9370
 2684.5000    31.6474   399.0435
 2685.0000    33.6446   420.5559
 2685.5000    39.1099   452.7140
 2686.0000    42.9391   449.2250
 2686.5000    42.7650   466.1718
 2687.0000    41.3323   469.9215
 2687.5000    41.5116   456.4024
 2688.0000    42.2919   469.0334
 2688.5000    42.6149   456.7497
 2689.0000    42.1359   400.8722
 2689.5000    41.6594   393.3468
 2690.0000    41.2140   383.7989
 2690.5000    42.0737   375.0221
 2691.0000    44.2630   409.7954
 2691.5000    45.6806   417.1451
 2692.0000    46.1009   437.4643
 2692.5000    45.5889   417.3971
 2693.0000    49.3156   422.7357
 2693.5000    44.4977   401.8558
 2694.0000    44.2239   423.5392
 2694.5000    46.3649   410.5156
 2695.0000    46.2023   396.8441
 2695.5000    47.6830   387.8199
 2696.0000    44.8338   414.2102
 2696.5000    48.0003   408.5694
 2697.0000    48.3435   411.6821
 2697.5000    50.0994   399.7716
 2698.0000    49.0012   392.6987
 2698.5000    49.5882   414.1038
 2699.0000    48.6856   432.9402
 2699.5000    48.8042   413.5542
 2700.0000    41.6959   429.7478
 2700.5000    38.2501   405.7434
 2701.0000    37.4934   432.2879
 2701.5000    40.7221   425.0088
 2702.0000    41.5203   414.5999
 2702.5000    42.4650   411.1067
 2703.0000    42.8385   457.4141
 2703.5000    42.1051   481.6849
 2704.0000    41.3463   486.0948
 2704.5000    40.5810   468.1940
 2705.0000    44.3023   472.7389
 2705.5000    48.5266   436.3963
 2706.0000    52.3927   426.1980
 2706.5000    49.6127   424.0041
 2707.0000    51.5423   387.6953
 2707.5000    47.4274   372.6982
 2708.0000    46.5629   373.1050
 2708.5000    45.1989   388.0557
 2709.0000    49.7312   371.7151
 2709.5000    50.0982   347.6525
 2710.0000    49.2281   347.8652
 2710.5000    48.5656   374.6637
 2711.0000    47.1131   364.5443
 2711.5000    46.6739   378.6339
 2712.0000    48.6371   359.8326
 2712.5000    51.1597   328.3715
 2713.0000    49.7512   296.5333
 2713.5000    48.7348   318.6543
 2714.0000    46.6829   342.0342
 2714.5000    46.5703   351.0609
 2715.0000    44.1085   390.4901
 2715.5000    45.9950   413.6917
 2716.0000    48.6536   416.8230
 2716.5000    47.8940   381.4580
 2717.0000    48.5901   336.5260
 2717.5000    53.3119   327.4449
 2718.0000    50.4744   362.4165
 2718.5000    49.0251   367.2318
 2719.0000    48.3263   344.9726
 2719.5000    48.3455   363.2756
 2720.0000    46.4162   384.6581
 2720.5000    50.4478   363.0736
 2721.0000    53.3284   378.8571
 2721.5000    50.9104   358.9365
 2722.0000    55.1168   373.6399
 2722.5000    50.7790   362.2702
 2723.0000    49.0225   377.8486
 2723.5000    49.3389   363.7708
 2724.0000    53.5925   370.7035
 2724.5000    53.6481   345.0063
 2725.0000    53.7490   382.5485
 2725.5000    52.2630   366.6845
 2726.0000    52.6208   350.3930
 2726.5000    51.8129   343.8110
 2727.0000    50.8428   352.4328
 2727.5000    52.4643   365.4148
 2728.0000    58.0246   352.4029
 2728.5000    56.3670   329.1240
 2729.0000    54.8139   312.2711
 2729.5000    50.1166   319.6655
 2730.0000    49.1104   335.4617
 2730.5000    46.7400   367.6672
 2731.0000    49.3956   371.3234
 2731.5000    48.9820   364.5447
 2732.0000    52.0186   335.6509
 2732.5000    47.2638   332.0714
 2733.0000    48.6855   337.7683
 2733.5000    44.9907   359.2894
 2734.0000    40.9412   369.4130
 2734.5000    36.2862   435.5292
 2735.0000    35.5561   506.4781
 2735.5000    40.2772   523.5683
 2736.0000    42.6813   485.5796
 2736.5000    45.2017   493.2769
 2737.0000    46.7446   477.7502
 2737.5000    48.2242   446.6403
 2738.0000    51.8019   452.7589
 2738.5000    54.1598   433.6876
 2739.0000    56.4031   398.6277
 2739.5000    57.2965   340.5277
 2740.0000    58.1850   348.3621
 2740.5000    61.2446   316.8209
 2741.0000    64.7605   302.0995
 2741.5000    65.3136   310.4865
 2742.0000    60.5446   316.6445
 2742.5000    58.6647   342.6596
 2743.0000    54.8252   372.5606
 2743.5000    54.7029   400.6687
 2744.0000    57.7615   398.5321
 2744.5000    60.1633   394.4225
 2745.0000    58.6132   398.8935
 2745.5000    56.2303   440.4856
 2746.0000    53.5472   482.3812
 2746.5000    51.9782   517.1959
 2747.0000    48.7941   542.6325
 2747.5000    48.5803   509.4124
 2748.0000    48.6994   512.8894
 2748.5000    47.9867   493.4742
 2749.0000    49.6336   442.1398
 2749.5000    49.5102   452.0099
 2750.0000    47.6375   453.7286
 2750.5000    46.4493   429.6967
 2751.0000    46.7694   463.9640
 2751.5000    48.5540   487.9002
 2752.0000    45.5910   469.6076
 2752.5000    45.5816   470.0384
 2753.0000    49.6208   452.9121
 2753.5000    48.0898   373.2965
 2754.0000    50.1881   386.0195
 2754.5000    52.4906   384.6264
 2755.0000    53.8537   416.5433
 2755.5000    51.4329   422.0354
 2756.0000    49.4796   430.7442
 2756.5000    53.6501   392.6458
 2757.0000    56.0130   400.3867
 2757.5000    53.7678   377.1233
 2758.0000    50.8880   400.4282
 2758.5000    49.4976   382.8756
 2759.0000    50.2635   387.7878
 2759.5000    51.4804   368.6896
 2760.0000    53.5859   358.1182
 2760.5000    54.0208   374.3438
 2761.0000    52.2588   379.9633
