~VERSION INFORMATION
 VERS.                2.0:   CWLS LOG ASCII STANDARD - VERSION 2.0
 WRAP.                 NO:   ONE LINE PER DEPTH STEP
~WELL INFORMATION
#MNEM.UNIT      DATA TYPE    INFORMATION
#----------   ------------   ------------------------------
 STRT.F           26.0000:   START DEPTH
 STOP.F          655.0000:   STOP DEPTH
 STEP.F            0.5000:   STEP LENGTH
 NULL.          -999.2500:   NO VALUE
 COMP. FENIX & SCISSON, INCORPORATED:   COMPANY
 WELL. RES 3 TEAPOT DOM #22S-11:   WELL
 FLD .             TEAPOT:   FIELD
 LOC .      S11 T38N R78W:   LOCATION
 CNTY.            NATRONA:   COUNTY
 STAT.            WYOMING:   STATE
 CTRY. UNITED STATES OF AMERICA:   COUNTRY
 SRVC.            Unknown:   SERVICE COMPANY
 DATE.        03-FEB-1978:   LOGDATE
 API .       490251057200:   API NUMBER
~CURVE INFORMATION
#MNEM.UNIT       API CODE    CURVE DESCRIPTION
#----------   ------------   ------------------------------
 DEPT.F                  :   
 ILD .OHMM   05 120 46 00:   INDUCTION LOG DEEP
 SN  .OHMM   05 040 16 00:   SHORT NORMAL 16"
 SPR .MV     05 010 01 00:   SPONTANEOUS POTENTIAL.
 CALD.IN     45 280 60 00:   CALIPER FROM DENSITY LOG
 CORR.G/C3   45 356 01 00:   DENSITY CORRECTION
 DPHI.DEC    45 890 12 00:   DENSITY POROSITY SANDSTONE
 GRD .GAPI   45 310 01 00:   GAMMA RAY FROM DENSITY LOG
 RHOB.G/C3   45 350 01 00:   BULK DENSITY
~PARAMETER INFORMATION
#MNEM.UNIT          VALUE    DESCRIPTION
#----------   ------------   ------------------------------
 PD  .                 GL:   PERMANENT DATUM
 EPD .F              5168:   ELEVATION PERMANENT DATUM
 LMF .                 KB:   LOG MEASURED FROM
 DMF .                 KB:   DRILLING MEASURED FROM
 EKB .F              5171:   KELLING BUSHING
 EGL .F              5168:   GROUND LEVEL
 DATE.        03-FEB-1978:   RUN DATE
 RUN .                  1:   RUN NUMBER
 DD  .F               650:   DEPTH DRILLER
 DL  .F               655:   DEPTH LOGGER
 BLI .F               655:   BOTTOM LOG INTERVAL
 TLI .F                40:   TOP LOG INTERVAL
 CS  .IN            8.625:   CASING SIZE
 CBD .F                39:   CASING BOTTOM DRILLER
 CBL .F                40:   CASING BOTTOM LOGGER
 BS  .IN            7.875:   BIT SIZE
 BSD .F               650:   BIT SIZE AT DEPTH
 DFT .                KCL:   DRILLING FLUID TYPE
 DFD .                8.6:   DRILLING FLUID DENSITY
 DFV .                 31:   DRILLING FLUID VISCOSITY
 DFPH.                9.5:   DRILLING FLUID PH
 DFL .               12.8:   DRILLING FLUID LOSS
 MSS .           FLOWLINE:   MUD SAMPLE SOURCE
 RMS .OHMM           0.38:   RESISTIVITY MUD SAMPLE
 MST .F                62:   MUD SAMPLE TEMPERATURE
 RMF .OHMM            4.4:   RESISTIVITY MUD FILTRATE SAMPLE
 MFST.F                62:   MUD FILTRATE SAMPLE TEMPERATURE
 RMC .OHMM            0.8:   RESISTIVITY MUD CAKE
 MCST.F                62:   MUD CAKE SAMPLE TEMPERATURE
 MFSS.               MEAS:   MUD FILTRATE SAMPLE SOURCE
 RMB .OHMM           0.35:   RESISTIVITY MUD AT BHT
 BHT .F                68:   BOTTOM HOLE TEMPERATURE
 TCS .HRS               1:   TIME CURCULATED STOPPED
 MRT .F                68:   MAXIMUM RECORDED TEMPERATURE
 LUN .               2958:   LOGGING UNIT NUMBER
 LUL .             CASPER:   LOGGING UNIT LOCATION
 ENGI.           REYNOLDS:   RECORDING ENGINEER
 WITN.         HARRINGTON:   WITNESSED BY
 CLNT.            A2DTECH:   CLIENT CODE
 ORIG.           5" PRINT:   ORIGIN OF DATA
 UWI .       490251057200:   UNIQUE WELL ID
 DICO. A2D Technologies, Inc.:   DIGITIZING COMPANY
~OTHER INFORMATION
~A   DEPT      ILD         SN        SPR       CALD       CORR       DPHI         GRD      RHOB   
# ...
   66.5000    15.9046    12.8318   -44.8134     7.9204     0.0224     0.1962    92.2986     2.3186
   67.0000    15.8981    13.0083   -44.8237     7.9644     0.0342     0.1963    93.7961     2.3155
   67.5000    16.0040    13.1874   -44.8331     7.9937     0.0520     0.1949    91.9702     2.3155
   68.0000    16.1077    13.4780   -44.8442     8.0227     0.0728     0.1888    88.7848     2.3171
   68.5000    16.2076    13.7414   -44.8545     8.0368     0.0935     0.1873    86.3548     2.3265
   69.0000    16.4332    13.9313   -44.8649     8.0051     0.1144     0.1864    83.9043     2.3332
   69.5000    16.5778    14.2213   -44.7259     7.9587     0.1276     0.1798    84.5125     2.3332
   70.0000    16.9985    14.4163   -44.5818     7.9122     0.1334     0.1753    87.2184     2.3391
   70.5000    17.2310    14.6154   -44.5933     7.8959     0.1333     0.1723    90.0786     2.3510
   71.0000    17.5849    14.7141   -44.9093     7.8646     0.1332     0.1632    87.6452     2.3540
   71.5000    17.9479    14.8128   -45.2231     7.8483     0.1196     0.1555    84.4598     2.3704
   72.0000    18.4460    14.8098   -45.8404     7.8473     0.0717     0.1296    83.5508     2.4348
   72.5000    18.9580    14.8067   -46.1541     7.8613     0.0445     0.1315    85.7930     2.4482
   73.0000    19.4842    14.8030   -46.4679     7.8902     0.0386     0.1351    86.3841     2.4369
   73.5000    19.6121    14.8000   -46.9334     7.9045     0.0504     0.1414    84.5550     2.4301
   74.0000    19.4682    14.6948   -47.1057     7.9485     0.0667     0.1576    85.2971     2.4188
   74.5000    19.1901    14.6918   -47.5635     7.9474     0.0650     0.1698    91.0241     2.3990
   75.0000    18.3993    14.4865   -47.7255     7.9614     0.0590     0.1826    87.2346     2.3706
   75.5000    17.3977    14.2840   -48.1911     7.9752     0.0633     0.1853    86.1640     2.3503
   76.0000    16.7971    14.0844   -48.3531     7.9741     0.0766     0.1970    85.8487     2.3329
   76.5000    16.2171    13.8876   -49.2738     7.9882     0.0929     0.1967    87.3862     2.3208
   77.0000    15.7664    13.5900   -49.5876     8.0023     0.1062     0.1986    89.2934     2.3140
   77.5000    15.2220    13.1320   -50.0531     8.0163     0.1165     0.1983    88.5250     2.3117
   78.0000    14.6965    12.7701   -50.5392     8.0303     0.1208     0.1898    85.4907     2.3184
   78.5000    14.1889    12.5917   -51.7437     8.0138     0.1162     0.1756    88.0455     2.3393
   79.0000    13.8894    12.3937    -0.0900     7.9898     0.1146     0.1710    90.1472     2.3497
   79.5000    13.7877    12.1576    -0.4770     7.9209     0.1144     0.1686    91.0408     2.3557
   80.0000    13.6867    12.0711    -1.5495     7.8441     0.1083     0.1638    89.9698     2.3646
   80.5000    13.5864    11.9024    -2.0150     7.7825     0.0948     0.1611    87.4990     2.3713
   81.0000    13.3008    11.7361    -2.6323     7.7186     0.0782     0.1647    86.0127     2.3749
   81.5000    12.7527    11.7293    -3.0978     7.6439     0.0580     0.1644    85.3953     2.3734
   82.0000    12.2272    11.3976    -3.8668     7.5974     0.0347     0.1662    86.7417     2.3718
   82.5000    11.6422    10.9425    -4.6358     7.5812     0.0241     0.1686    94.7346     2.3687
   83.0000    10.7754    10.4944    -5.8806     7.5650     0.0210     0.1662    96.8362     2.3626
   83.5000    10.0334     9.9259    -7.2386     7.5639     0.0193     0.1626   101.0527     2.3602
   84.0000     9.3096     9.3883    -8.7663     7.5628     0.0177     0.1572    97.1120     2.3756
   84.5000     8.6814     8.6368   -10.2941     7.5616     0.0176     0.1533   101.9294     2.3887
   85.0000     8.0395     7.9455   -12.4288     7.5757     0.0205     0.1533   105.8437     2.3909
   85.5000     7.6019     7.3095   -13.9565     7.5897     0.0233     0.1531   109.9091     2.3893
   86.0000     7.2886     6.9614   -15.1807     7.6186     0.0231     0.1483   109.1407     2.3907
   86.5000     7.0860     6.8170   -16.1118     7.6478     0.0200     0.1420   106.1064     2.4026
   87.0000     6.9854     6.7684   -16.8731     7.6769     0.0199     0.1405   102.6189     2.4116
   87.5000     6.9343     6.7668   -17.3369     7.6910     0.0213     0.1495   101.2462     2.4152
   88.0000     6.8834     6.7656   -18.2782     7.7050     0.0226     0.1456   101.2729     2.3979
   88.5000     6.8800     6.7640   -19.3327     7.7213     0.0210     0.1432   102.7272     2.4008
   89.0000     6.8296     6.7626   -20.1017     7.7331     0.0164     0.1507   105.8895     2.4052
   89.5000     6.8272     6.7614   -20.5672     7.7471     0.0103     0.1531   104.2115     2.4022
   90.0000     6.7768     6.7600   -20.8810     7.7911     0.0072     0.1567   101.7814     2.3946
   90.5000     6.7894     6.7585   -21.0430     7.8205     0.0160     0.1607   104.4873     2.3870
   91.0000     6.8192     6.8042   -21.2050     7.8646     0.0188     0.1556   104.1720     2.3808
   91.5000     6.8158     6.8028   -21.5291     7.9089     0.0187     0.1544   103.2523     2.3786
   92.0000     6.8130     6.8014   -21.9869     7.9398     0.0156     0.1502   103.6892     2.3845
   92.5000     6.8577     6.7997   -22.4524     7.9820     0.0154     0.1457   103.9815     2.3935
   93.0000     6.8548     6.7984   -22.9179     8.0112     0.0183     0.1457   104.1194     2.4016
   93.5000     6.8040     6.7971   -23.5352     8.0255     0.0211     0.1463   104.1029     2.4053
   94.0000     6.7853     6.7771   -24.3042     8.0392     0.0270     0.1445   102.5792     2.4022
   94.5000     6.7514     6.7472   -24.6179     8.0381     0.0388     0.1421   100.4512     2.4014
   95.0000     6.6884     6.7459   -24.6282     8.0219     0.0526     0.1448   101.3444     2.4103
   95.5000     6.6529     6.7444   -24.4868     8.0043     0.0669     0.1451   103.2241     2.4073
   96.0000     6.6041     6.7431   -24.8031     7.9741     0.0817     0.1436   106.1486     2.4057
   96.5000     6.5557     6.7415   -25.4204     7.9578     0.1009     0.1416   105.2291     2.4086
   97.0000     6.5531     6.7403   -26.0376     7.9265     0.1217     0.1503   104.9139     2.4108
   97.5000     6.5503     6.7389   -26.6549     7.9254     0.1395     0.1479   105.9581     2.4032
   98.0000     6.5478     6.7374   -27.4239     7.9243     0.1545     0.1413   107.6066     2.3979
   98.5000     6.5905     6.7830   -28.0411     7.9384     0.1631     0.1359   106.9892     2.4113
   99.0000     6.6561     6.7815   -28.6687     7.9524     0.1629     0.1302   106.8248     2.4292
   99.5000     6.7240     6.7801   -29.2782     7.9207     0.1568     0.1263   105.2980     2.4382
  100.0000     6.8054     6.7788   -29.8179     7.9045     0.1463     0.1236   103.1700     2.4524
  100.5000     6.9079     6.7774   -30.6636     7.9037     0.1372     0.1202   101.3441     2.4591
  101.0000     6.9044     6.9335   -31.1292     7.8877     0.1296     0.1165    98.4609     2.4620
  101.5000     6.9350     6.9797   -31.9084     7.8716     0.1236     0.1153    94.5202     2.4635
  102.0000     6.9947     7.0247   -32.5180     7.8405     0.1070     0.1147    97.0739     2.4619
  102.5000     7.0102     7.0715   -33.1353     7.7942     0.0890     0.1177   102.4987     2.4574
  103.0000     7.0955     7.1675   -33.4490     7.7328     0.0830     0.1246   104.4493     2.4483
  103.5000     7.1830     7.2641   -33.7628     7.6820     0.0829     0.1252   104.5192     2.4407
  104.0000     7.2503     7.4138   -34.0766     7.5947     0.0827     0.1262   101.0997     2.4370
  104.5000     7.3795     7.4681   -34.3903     7.5484     0.0767     0.1259   103.1661     2.4399
  105.0000     7.5318     7.5637   -34.5523     7.5324     0.0661     0.1238   108.0186     2.4474
  105.5000     7.6333     7.6133   -34.7350     7.5164     0.0570     0.1211   107.0991     2.4549
  106.0000     7.6842     7.6632   -35.0307     7.5309     0.0465     0.1215   107.9922     2.4586
  106.5000     7.6804     7.6594   -35.0410     7.5298     0.0374     0.1290   107.8280     2.4450
