~VERSION INFORMATION
 VERS.                2.0:   CWLS LOG ASCII STANDARD - VERSION 2.0
 WRAP.                 NO:   ONE LINE PER DEPTH STEP
~WELL INFORMATION
#MNEM.UNIT      DATA TYPE    INFORMATION
#----------   ------------   ------------------------------
 STRT.F           36.0000:   START DEPTH
 STOP.F         2324.5000:   STOP DEPTH
 STEP.F            0.5000:   STEP LENGTH
 NULL.          -999.2500:   NO VALUE
 COMP. FENIX & SCISSON INC:   COMPANY
 WELL.           SX #57-3:   WELL
 FLD .             TEAPOT:   FIELD
 LOC .       S3 T38N R78W:   LOCATION
 CNTY.            NATRONA:   COUNTY
 STAT.            WYOMING:   STATE
 CTRY. UNITED STATES OF AMERICA:   COUNTRY
 SRVC.           BIRDWELL:   SERVICE COMPANY
 DATE.        15-JUN-1978:   LOGDATE
 API .       490251028800:   API NUMBER
~CURVE INFORMATION
#MNEM.UNIT       API CODE    CURVE DESCRIPTION
#----------   ------------   ------------------------------
 DEPT.F                  :   
 CALD.IN     45 280 60 00:   CALIPER FROM DENSITY LOG
 GRD .GAPI   45 310 01 00:   GAMMA RAY FROM DENSITY LOG
 CORR.G/C3   45 356 01 00:   DENSITY CORRECTION
 RHOB.G/C3   45 350 01 00:   BULK DENSITY
 DPHI.DEC    45 890 12 00:   DENSITY POROSITY SANDSTONE
 SPR .MV     07 010 01 00:   SPONTANEOUS POTENTIAL
 ILD .OHMM   07 120 46 00:   INDUCTION LOG DEEP
 ILM .OHMM   07 120 44 00:   INDUCTION LOG MEDIUM
 SGRD.OHMM   07 220 05 00:   SHALLOW GUARD RESISTIVITY
~PARAMETER INFORMATION
#MNEM.UNIT          VALUE    DESCRIPTION
#----------   ------------   ------------------------------
 PD  .                 GL:   PERMANENT DATUM
 EPD .F              5184:   ELEVATION PERMANENT DATUM
 LMF .                 KB:   LOG MEASURED FROM
 DAPD.F                10:   FEET ABOVE PERMANENT DATUM
 DMF .                 KB:   DRILLING MEASURED FROM
 EKB .F              5184:   KELLING BUSHING
 EGL .F              5184:   GROUND LEVEL
 DATE.            6-15-78:   RUN DATE
 RUN .                  1:   RUN NUMBER
 DD  .F              2340:   DEPTH DRILLER
 DL  .F              2324:   DEPTH LOGGER
 BLI .F              2324:   BOTTOM LOG INTERVAL
 TLI .F                50:   TOP LOG INTERVAL
 CS  .IN            9.625:   CASING SIZE
 CBD .F               600:   CASING BOTTOM DRILLER
 CBL .F               601:   CASING BOTTOM LOGGER
 BS  .IN             8.75:   BIT SIZE
 BSD .F              2340:   BIT SIZE AT DEPTH
 DFT .           AIR MIST:   DRILLING FLUID TYPE
 BHT .F                68:   BOTTOM HOLE TEMPERATURE
 MRT .F                68:   MAXIMUM RECORDED TEMPERATURE
 LUN .               2958:   LOGGING UNIT NUMBER
 LUL .               CASP:   LOGGING UNIT LOCATION
 ENGI.           REYNOLDS:   RECORDING ENGINEER
 WITN.           MCGINLEY:   WITNESSED BY
 CLNT.            A2DTECH:   CLIENT CODE
 ORIG.   2" 2.5" 5" PRINT:   ORIGIN OF DATA
 UWI .       490251028800:   UNIQUE WELL ID
 DICO. A2D Technologies, Inc.:   DIGITIZING COMPANY
~OTHER INFORMATION
~A   DEPT       CALD      GRD        CORR      RHOB         DPHI      SPR        ILD        ILM       SGRD   
# ...
 1459.5000     8.7074   138.5475     0.0430     2.5391     0.0163  -999.2500  -999.2500  -999.2500  -999.2500
 1460.0000     8.7231   138.5607     0.0372     2.5304     0.0198  -999.2500  -999.2500  -999.2500  -999.2500
 1460.5000     8.7340   138.0398     0.0362     2.5214     0.0221  -999.2500  -999.2500  -999.2500  -999.2500
 1461.0000     8.7435   138.0575     0.0372     2.5194     0.0221  -999.2500  -999.2500  -999.2500  -999.2500
 1461.5000     8.7294   141.5186     0.0383     2.5180     0.0190  -999.2500  -999.2500  -999.2500  -999.2500
 1462.0000     8.7152   144.3560     0.0392     2.5176     0.0123  -999.2500  -999.2500  -999.2500  -999.2500
 1462.5000     8.6994   147.7209     0.0425     2.5287     0.0050  -999.2500  -999.2500  -999.2500  -999.2500
 1463.0000     8.6818   144.2354     0.0470     2.5384    -0.0016  -999.2500  -999.2500  -999.2500  -999.2500
 1463.5000     8.6632   141.1160     0.0514     2.5497    -0.0002  -999.2500  -999.2500  -999.2500  -999.2500
 1464.0000     8.6444   142.0191     0.0551     2.5503     0.0016  -999.2500  -999.2500  -999.2500  -999.2500
 1464.5000     8.6259   139.0900     0.0560     2.5506     0.0010  -999.2500  -999.2500  -999.2500  -999.2500
 1465.0000     8.6074   134.6086     0.0575     2.5502    -0.0010  -999.2500  -999.2500  -999.2500  -999.2500
 1465.5000     8.5883   132.1761     0.0586     2.5521    -0.0030  -999.2500  -999.2500  -999.2500  -999.2500
 1466.0000     8.5707   130.7531     0.0599     2.5543    -0.0049  -999.2500  -999.2500  -999.2500  -999.2500
 1466.5000     8.5507   132.1376     0.0611     2.5565    -0.0056  -999.2500  -999.2500  -999.2500  -999.2500
 1467.0000     8.5617   134.7786     0.0623     2.5587    -0.0046  -999.2500  -999.2500  -999.2500  -999.2500
 1467.5000     8.5744   137.8316     0.0640     2.5602    -0.0027  -999.2500  -999.2500  -999.2500  -999.2500
 1468.0000     8.5863   140.7234     0.0666     2.5581    -0.0007  -999.2500  -999.2500  -999.2500  -999.2500
 1468.5000     8.5639   143.4526     0.0693     2.5558     0.0008  -999.2500  -999.2500  -999.2500  -999.2500
 1469.0000     8.5424   144.9179     0.0719     2.5531    -0.0006  -999.2500  -999.2500  -999.2500  -999.2500
 1469.5000     8.5186   145.0880     0.0749     2.5528    -0.0023  -999.2500  -999.2500  -999.2500  -999.2500
 1470.0000     8.4983   139.4467     0.0745     2.5539    -0.0039  -999.2500  -999.2500  -999.2500  -999.2500
 1470.5000     8.4703   130.3947     0.0729     2.5548    -0.0047  -999.2500  -999.2500  -999.2500  -999.2500
 1471.0000     8.4937   132.2045     0.0714     2.5556    -0.0039  -999.2500  -999.2500  -999.2500  -999.2500
 1471.5000     8.5595   136.1818     0.0699     2.5563    -0.0019  -999.2500  -999.2500  -999.2500  -999.2500
 1472.0000     8.5754   136.3895     0.0684     2.5544     0.0000  -999.2500  -999.2500  -999.2500  -999.2500
 1472.5000     8.5312   134.6012     0.0672     2.5521     0.0024  -999.2500  -999.2500  -999.2500  -999.2500
 1473.0000     8.4940   131.0542     0.0682     2.5498     0.0037  -999.2500  -999.2500  -999.2500  -999.2500
 1473.5000     8.4522   141.9839     0.0694     2.5475     0.0055  -999.2500  -999.2500  -999.2500  -999.2500
 1474.0000     8.4346   140.5131     0.0707     2.5453     0.0049  -999.2500  -999.2500  -999.2500  -999.2500
 1474.5000     8.4560   141.3790     0.0712     2.5427     0.0040  -999.2500  -999.2500  -999.2500  -999.2500
 1475.0000     8.4736   143.4196     0.0711     2.5433     0.0032  -999.2500  -999.2500  -999.2500  -999.2500
 1475.5000     8.5554   145.6821     0.0704     2.5443     0.0023  -999.2500  -999.2500  -999.2500  -999.2500
 1476.0000     8.6378   142.3963     0.0697     2.5461     0.0015  -999.2500  -999.2500  -999.2500  -999.2500
 1476.5000     8.7028   139.1160     0.0689     2.5486     0.0008  -999.2500  -999.2500  -999.2500  -999.2500
 1477.0000     8.6816   138.6438     0.0681     2.5505     0.0071  -999.2500  -999.2500  -999.2500  -999.2500
 1477.5000     8.6632   138.1078     0.0674     2.5513     0.0125  -999.2500  -999.2500  -999.2500  -999.2500
 1478.0000     8.6440   136.8297     0.0680     2.5396     0.0158  -999.2500  -999.2500  -999.2500  -999.2500
 1478.5000     8.6328   135.6822     0.0692     2.5294     0.0158  -999.2500  -999.2500  -999.2500  -999.2500
 1479.0000     8.7200   134.9335     0.0702     2.5277     0.0114  -999.2500  -999.2500  -999.2500  -999.2500
 1479.5000     8.7284   134.9193     0.0710     2.5321     0.0060  -999.2500  -999.2500  -999.2500  -999.2500
 1480.0000     8.6941   129.6849     0.0688     2.5391     0.0057  -999.2500  -999.2500  -999.2500  -999.2500
 1480.5000     8.6720   123.7549     0.0672     2.5440     0.0082  -999.2500  -999.2500  -999.2500  -999.2500
 1481.0000     8.7314   127.8064     0.0664     2.5415     0.0107  -999.2500  -999.2500  -999.2500  -999.2500
 1481.5000     8.7815   133.4901     0.0658     2.5392     0.0119  -999.2500  -999.2500  -999.2500  -999.2500
 1482.0000     8.8417   136.2429     0.0651     2.5367     0.0102  -999.2500  -999.2500  -999.2500  -999.2500
 1482.5000     8.8417   137.1266     0.0644     2.5348     0.0087  -999.2500  -999.2500  -999.2500  -999.2500
 1483.0000     8.7868   137.6500     0.0638     2.5372     0.0072  -999.2500  -999.2500  -999.2500  -999.2500
 1483.5000     8.7933   140.1235     0.0634     2.5393     0.0057  -999.2500  -999.2500  -999.2500  -999.2500
 1484.0000     8.8012   139.7901     0.0648     2.5416     0.0047  -999.2500  -999.2500  -999.2500  -999.2500
 1484.5000     8.8102   138.6388     0.0660     2.5440     0.0079  -999.2500  -999.2500  -999.2500  -999.2500
 1485.0000     8.8206   141.0848     0.0673     2.5433     0.0098  -999.2500  -999.2500  -999.2500  -999.2500
 1485.5000     8.8132   141.0434     0.0688     2.5389     0.0081  -999.2500  -999.2500  -999.2500  -999.2500
 1486.0000     8.7890   140.2044     0.0699     2.5364     0.0063  -999.2500  -999.2500  -999.2500  -999.2500
 1486.5000     8.7667   141.8296     0.0704     2.5391     0.0063  -999.2500  -999.2500  -999.2500  -999.2500
 1487.0000     8.7445   145.9465     0.0644     2.5406     0.0063  -999.2500  -999.2500  -999.2500  -999.2500
 1487.5000     8.7215   146.5328     0.0614     2.5405     0.0063  -999.2500  -999.2500  -999.2500  -999.2500
 1488.0000     8.7049   146.0783     0.0576     2.5405     0.0067  -999.2500  -999.2500  -999.2500  -999.2500
 1488.5000     8.7141   144.3370     0.0541     2.5406     0.0070  -999.2500  -999.2500  -999.2500  -999.2500
 1489.0000     8.7299   142.6179     0.0507     2.5413     0.0073  -999.2500  -999.2500  -999.2500  -999.2500
 1489.5000     8.7421   141.3990     0.0475     2.5420     0.0076  -999.2500  -999.2500  -999.2500  -999.2500
 1490.0000     8.7090   140.6133     0.0480     2.5424     0.0079  -999.2500  -999.2500  -999.2500  -999.2500
 1490.5000     8.6782   139.7611     0.0500     2.5414     0.0079  -999.2500  -999.2500  -999.2500  -999.2500
 1491.0000     8.6431   138.6802     0.0505     2.5402     0.0070  -999.2500  -999.2500  -999.2500  -999.2500
 1491.5000     8.6235   138.6304     0.0474     2.5388     0.0057  -999.2500  -999.2500  -999.2500  -999.2500
 1492.0000     8.6193   138.5410     0.0458     2.5400     0.0044  -999.2500  -999.2500  -999.2500  -999.2500
 1492.5000     8.6133   138.4295     0.0442     2.5426     0.0032  -999.2500  -999.2500  -999.2500  -999.2500
 1493.0000     8.6073   138.1946     0.0426     2.5452     0.0033  -999.2500  -999.2500  -999.2500  -999.2500
 1493.5000     8.6018   138.4904     0.0410     2.5474     0.0037  -999.2500  -999.2500  -999.2500  -999.2500
 1494.0000     8.5965   139.5126     0.0395     2.5501     0.0150  -999.2500  -999.2500  -999.2500  -999.2500
 1494.5000     8.5889   138.6063     0.0379     2.5454     0.0150  -999.2500  -999.2500  -999.2500  -999.2500
 1495.0000     8.5998   135.5004     0.0363     2.5394     0.0142  -999.2500  -999.2500  -999.2500  -999.2500
 1495.5000     8.6205   132.4482     0.0347     2.5338     0.0130  -999.2500  -999.2500  -999.2500  -999.2500
