~VERSION INFORMATION
 VERS.                2.0:   CWLS LOG ASCII STANDARD - VERSION 2.0
 WRAP.                 NO:   ONE LINE PER DEPTH STEP
~WELL INFORMATION
#MNEM.UNIT      DATA TYPE    INFORMATION
#----------   ------------   ------------------------------
 STRT.F          103.0000:   START DEPTH
 STOP.F          898.0000:   STOP DEPTH
 STEP.F            0.5000:   STEP LENGTH
 NULL.          -999.2500:   NO VALUE
 COMP. LAWRENCE/ALLISON INC:   COMPANY
 WELL. NPR 3 32-66 SX #2-2:   WELL
 FLD .             TEAPOT:   FIELD
 LOC .       S2 T38N R78W:   LOCATION
 CNTY.            NATRONA:   COUNTY
 STAT.            WYOMING:   STATE
 CTRY. UNITED STATES OF AMERICA:   COUNTRY
 SRVC.      Dresser Atlas:   SERVICE COMPANY
 DATE.        30-JAN-1986:   LOGDATE
 API .       490251106900:   API NUMBER
~CURVE INFORMATION
#MNEM.UNIT       API CODE    CURVE DESCRIPTION
#----------   ------------   ------------------------------
 DEPT.F                  :   
 RILD.OHMM   07 120 46 00:   INDUCTION LOG DEEP RESISTIVITY
 RILM.OHMM   07 120 44 00:   INDUCTION LOG MEDIUM RESISTIVITY
 CALD.IN     45 280 60 00:   CALIPER FROM DENSITY
 GRD .GAPI   45 310 01 00:   GAMMA RAY FROM DENSITY LOG
 CORR.G/C3   45 356 01 00:   DENSITY CORRECTION
 PORD.DEC    45 890 10 00:   POROSITY DENSITY LIMESTONE
 DEN .G/C3   45 350 01 00:   COMPENSATED BULK DENSITY
~PARAMETER INFORMATION
#MNEM.UNIT          VALUE    DESCRIPTION
#----------   ------------   ------------------------------
 PD  .                 GL:   PERMANENT DATUM
 EPD .F              5136:   ELEVATION PERMANENT DATUM
 LMF .                 GL:   LOG MEASURED FROM
 DMF .                 GL:   DRILLING MEASURED FROM
 EGL .F              5136:   GROUND LEVEL
 DATE.        30-JAN-1986:   RUN DATE
 RUN .                  1:   RUN NUMBER
 DD  .F               885:   DEPTH DRILLER
 DL  .F               902:   DEPTH LOGGER
 BLI .F               894:   BOTTOM LOG INTERVAL
 CS  .IN            8.625:   CASING SIZE
 CBD .F               130:   CASING BOTTOM DRILLER
 CBL .F               126:   CASING BOTTOM LOGGER
 BS  .IN             6.25:   BIT SIZE
 BSD .F               885:   BIT SIZE AT DEPTH
 DFT .                AIR:   DRILLING FLUID TYPE
 LUN .            HL-6264:   LOGGING UNIT NUMBER
 LUL .           GILLETTE:   LOGGING UNIT LOCATION
 ENGI.     P. M. FAHLSING:   RECORDING ENGINEER
 WITN.        LINDA FIVAS:   WITNESSED BY
 CLNT.            A2DTECH:   CLIENT CODE
 ORIG.           5" PRINT:   ORIGIN OF DATA
 UWI .       490251106900:   UNIQUE WELL ID
 DICO. A2D Technologies, Inc.:   DIGITIZING COMPANY
 R1  . POROSITY WITH LIMESTONE:   REMARKS 1
~OTHER INFORMATION
~A   DEPT     RILD       RILM       CALD        GRD       CORR       PORD        DEN   
# ...
  239.5000     8.5627     8.4654     7.1077   165.5315     0.0846     0.1426     2.4363
  240.0000     8.5699     8.5331     7.1086   167.0268     0.0831     0.1441     2.4416
  240.5000     8.5161     8.4830     7.0941   164.2683     0.0891     0.1399     2.4462
  241.0000     8.4662     8.3751     7.1101   160.0480     0.0997     0.1384     2.4477
  241.5000     8.4031     8.2686     7.1108   154.1525     0.1073     0.1381     2.4462
  242.0000     8.2389     8.1071     7.1116   150.5608     0.1026     0.1411     2.4356
  242.5000     7.9604     7.6782     7.1123   148.7679     0.1011     0.1534     2.4220
  243.0000     7.1964     7.2218     7.1130   148.4794     0.0968     0.1558     2.4167
  243.5000     5.7966     6.5614     7.1138   151.1970     0.0923     0.1580     2.4159
  244.0000     4.9866     5.2993     7.1145   160.2179     0.0832     0.1598     2.4099
  244.5000     4.0024     4.2800     7.1153   174.0436     0.0696     0.1626     2.4031
  245.0000     3.2997     3.4328     7.1461   186.0675     0.0591     0.1701     2.3925
  245.5000     2.8720     2.9102     7.1469   208.0022     0.0682     0.1806     2.3706
  246.0000     2.5761     2.3832     7.1777   221.8250     0.0742     0.2385     2.3025
  246.5000     2.4393     2.2572     7.2086   213.1311     0.0773     0.2738     2.2314
  247.0000     2.3415     2.2125     7.2395   197.5264     0.0924     0.3015     2.1800
  247.5000     2.3766     2.2776     7.2402   175.9166     0.1165     0.3229     2.1208
  248.0000     2.5847     2.5296     7.2410   165.4180     0.1316     0.3378     2.1104
  248.5000     2.8701     2.8684     7.2417   165.4299     0.1364     0.3333     2.1235
  249.0000     3.3685     3.3672     7.2274   165.1414     0.1302     0.2907     2.1596
  249.5000     4.2663     4.0078     7.2131   162.7509     0.1166     0.2448     2.2723
  250.0000     5.0976     5.0126     7.1644   156.4565     0.0864     0.2146     2.3526
  250.5000     6.1877     6.1700     7.1389   153.1628     0.0684     0.1700     2.3919
  251.0000     7.5502     7.9252     7.1392   150.4691     0.0654     0.1682     2.3965
  251.5000     9.0586     9.0461     7.1395   148.9765     0.0745     0.1685     2.3988
  252.0000    10.2091    10.2196     7.1398   148.3826     0.0866     0.1657     2.4026
  252.5000    10.7872    10.7798     7.1401   147.7928     0.0957     0.1615     2.4089
  253.0000    11.0175    10.8659     7.1404   147.8021     0.0942     0.1564     2.4181
  253.5000    10.8012    10.5786     7.1407   149.0122     0.0807     0.1518     2.4254
  254.0000    10.0204     9.4803     7.1410   152.9251     0.0732     0.1506     2.4254
  254.5000     8.6134     8.2629     7.1262   160.4415     0.0778     0.1530     2.4203
  255.0000     7.5594     7.2518     7.1114   167.9580     0.0745     0.1581     2.4012
  255.5000     6.7269     5.5030     7.1118   175.5146     0.0703     0.1666     2.3808
  256.0000     6.1543     5.2846     7.1121   182.9310     0.0727     0.1795     2.3559
  256.5000     5.8287     5.2523     7.1124   195.1621     0.1051     0.2037     2.3378
  257.0000     5.7531     5.5204     7.1428   196.2219     0.1172     0.2260     2.2864
  257.5000     5.9224     5.9636     7.1431   191.2262     0.1203     0.2525     2.2486
  258.0000     6.3099     6.4872     7.1434   165.3111     0.0902     0.2507     2.2728
  258.5000     6.7695     6.9116     7.1588   157.5122     0.0661     0.2368     2.3205
  259.0000     7.4665     7.5184     7.1741   154.5182     0.0586     0.2066     2.3508
  259.5000     8.2353     8.2353     7.1744   153.3237     0.0571     0.1933     2.3569
  260.0000     8.8965     9.0833     7.1596   153.9354     0.0481     0.1912     2.3607
  260.5000     9.8807     9.6776     7.1750   159.3498     0.0617     0.1906     2.3630
  261.0000    10.3824    10.1689     7.1753   161.7611     0.0708     0.1894     2.3653
  261.5000    10.6852    10.5383     7.1756   162.6709     0.0603     0.1873     2.3608
  262.0000    10.9210    10.8456     7.1759   161.7790     0.0422     0.1933     2.3479
  262.5000    11.1725    11.0954     7.1762   157.5837     0.0377     0.2060     2.3351
  263.0000    11.4152    11.4057     7.2066   155.4883     0.0574     0.2078     2.3321
  263.5000    11.6631    11.6631     7.2069   155.1969     0.0786     0.2052     2.3397
  264.0000    11.9143    11.9143     7.2072   155.2081     0.0998     0.1961     2.3594
  264.5000    12.0931    12.0931     7.2075   154.6164     0.1149     0.1871     2.3685
  265.0000    12.1899    12.1899     7.2078   152.8236     0.1331     0.1842     2.3685
  265.5000    12.2027    12.2875     7.2081   149.2289     0.1301     0.1855     2.3640
  266.0000    12.2155    12.3004     7.2084   144.4330     0.1179     0.1914     2.3572
  266.5000    12.2284    12.3989     7.2087   141.4390     0.1090     0.1962     2.3520
  267.0000    12.4120    12.4120     7.2090   142.0485     0.0966     0.1959     2.3505
  267.5000    12.5114    12.5114     7.2093   143.8592     0.0877     0.1950     2.3505
  268.0000    12.5245    12.5245     7.2097   144.5486     0.0881     0.1932     2.3536
  268.5000    12.5377    12.5377     7.1949   139.0723     0.0956     0.1865     2.3627
  269.0000    12.6381    12.5509     7.1802   138.7808     0.1032     0.1811     2.3726
  269.5000    12.6514    12.6514     7.1805   139.3905     0.0957     0.1778     2.3794
  270.0000    12.6647    12.7527     7.1808   142.1021     0.0731     0.1784     2.3787
  270.5000    12.7661    12.8548     7.1660   142.7117     0.0762     0.1823     2.3757
  271.0000    12.8683    12.9578     7.1663   141.4795     0.0913     0.1829     2.3749
  271.5000    12.9714    13.0615     7.1666   139.6966     0.1035     0.1805     2.3780
  272.0000    13.0753    13.0753     7.1820   138.7948     0.1156     0.1774     2.3826
  272.5000    13.3638    13.0890     7.1823   138.5432     0.1036     0.1768     2.3828
  273.0000    13.3750    13.2827     7.1826   143.3591     0.0915     0.1780     2.3773
  273.5000    13.3889    13.3889     7.1829   149.6744     0.0855     0.1804     2.3736
  274.0000    13.4028    13.4028     7.1832   151.7832     0.0961     0.1831     2.3721
  274.5000    13.4167    13.5100     7.1835   148.7914     0.1143     0.1840     2.3721
  275.0000    13.5240    13.7126     7.1988   147.2988     0.1174     0.1834     2.3722
  275.5000    13.7270    13.9185     7.1991   145.8062     0.1144     0.1813     2.3753
  276.0000    14.0299    14.2256     7.1843   144.9142     0.1069     0.1719     2.3982
  276.5000    14.4392    14.6405     7.1847   143.4217     0.0979     0.1617     2.4186
  277.0000    15.0676    15.2777     7.1850   141.3285     0.0858     0.1505     2.4316
  277.5000    16.0534    16.0534     7.1702   137.4335     0.0797     0.1417     2.4454
  278.0000    17.5842    17.4628     7.1705   133.5386     0.0862     0.1327     2.4589
  278.5000    19.1280    20.6420     7.1557   127.2412     0.0828     0.1242     2.4703
  279.0000    21.3917    24.2315     7.1560   121.2441     0.0620     0.1146     2.4812
  279.5000    23.7583    28.6430     7.1262   114.3462     0.0438     0.1058     2.4955
  280.0000    26.0237    33.3918     7.1114   112.2508     0.0725     0.1013     2.5018
  280.5000    28.7032    36.5758     7.0967   113.1628     0.1118     0.1085     2.5003
  281.0000    30.1606    38.1676     7.0980   114.6733     0.1496     0.1263     2.4731
  281.5000    30.6134    37.6823     7.1123   114.6822     0.1466     0.1435     2.4195
  282.0000    30.4341    30.4341     7.1277   115.8923     0.1180     0.1531     2.4286
  282.5000    26.1608    25.8010     7.1280   119.8052     0.0999     0.1464     2.4346
  283.0000    23.4416    22.4876     7.1585   128.5228     0.1030     0.1437     2.4362
  283.5000    21.4386    20.8529     7.1588   135.1384     0.1242     0.1479     2.4355
  284.0000    18.7353    18.3901     7.1591   139.9521     0.1318     0.1606     2.4166
  284.5000    17.5494    17.6713     7.1744   141.1622     0.0986     0.1713     2.3833
