~VERSION INFORMATION
 VERS.                2.0:   CWLS LOG ASCII STANDARD - VERSION 2.0
 WRAP.                 NO:   ONE LINE PER DEPTH STEP
~WELL INFORMATION
#MNEM.UNIT      DATA TYPE    INFORMATION
#----------   ------------   ------------------------------
 STRT.F            2.0000:   START DEPTH
 STOP.F          500.0000:   STOP DEPTH
 STEP.F            0.5000:   STEP LENGTH
 NULL.          -999.2500:   NO VALUE
 COMP. BROWN JOHN E&C INC:   COMPANY
 WELL. NAVAL PETROLEUM RESERVE 3 SHX- #65-1-3:   WELL
 FLD .             TEAPOT:   FIELD
 LOC .       S3 T38N R78W:   LOCATION
 CNTY.            NATRONA:   COUNTY
 STAT.            WYOMING:   STATE
 CTRY. UNITED STATES OF AMERICA:   COUNTRY
 SRVC.     Atlas Wireline:   SERVICE COMPANY
 DATE.        13-DEC-1991:   LOGDATE
 API .       490252247400:   API NUMBER
~CURVE INFORMATION
#MNEM.UNIT       API CODE    CURVE DESCRIPTION
#----------   ------------   ------------------------------
 DEPT.F                  :   
 RILD.OHMM   07 120 46 00:   RESISTIVITY INDUCTION LOG DEEP
 RILM.OHMM   07 120 44 00:   RESISTIVITY INDUCTION LOG MEDIUM
 GRR .GAPI   07 310 01 00:   GAMMA RAY FROM RESISTIVITY
~PARAMETER INFORMATION
#MNEM.UNIT          VALUE    DESCRIPTION
#----------   ------------   ------------------------------
 PD  .                 GL:   PERMANENT DATUM
 EPD .F              5148:   ELEVATION PERMANENT DATUM
 LMF .                 KB:   LOG MEASURED FROM
 DAPD.F                10:   FEET ABOVE PERMANENT DATUM
 DMF .                 KB:   DRILLING MEASURED FROM
 EKB .F              5150:   KELLING BUSHING
 EDF .F              5149:   DRILLING FLOOR
 EGL .F              5148:   GROUND LEVEL
 DATE.        13-DEC-1991:   RUN DATE
 RUN .                  1:   RUN NUMBER
 DD  .F               510:   DEPTH DRILLER
 DL  .F               510:   DEPTH LOGGER
 BLI .F               508:   BOTTOM LOG INTERVAL
 CS  .IN            9.625:   CASING SIZE
 CBD .F                51:   CASING BOTTOM DRILLER
 CBL .F                50:   CASING BOTTOM LOGGER
 BS  .IN             8.75:   BIT SIZE
 BSD .F               510:   BIT SIZE AT DEPTH
 DFT .                AIR:   DRILLING FLUID TYPE
 MRT .F                95:   MAXIMUM RECORDED TEMPERATURE
 LUN .            HL-6274:   LOGGING UNIT NUMBER
 LUL .             CASPER:   LOGGING UNIT LOCATION
 ENGI.             RAUTIO:   RECORDING ENGINEER
 WITN.        GARY STRONG:   WITNESSED BY
 CLNT.            A2DTECH:   CLIENT CODE
 ORIG.           5" PRINT:   ORIGIN OF DATA
 UWI .       490252247400:   UNIQUE WELL ID
 DICO. A2D Technologies, Inc.:   DIGITIZING COMPANY
~OTHER INFORMATION
~A    DEPT    RILD       RILM         GRR  
# ...
  366.0000    12.6474    13.4725   106.8109
  366.5000    13.8163    14.2384   106.5071
  367.0000    14.8076    15.1525   101.6995
  367.5000    16.0917    16.3906    92.0620
  368.0000    18.4845    18.7788    84.2758
  368.5000    20.7962    21.1246    80.6694
  369.0000    23.7238    23.4360    80.0660
  369.5000    25.7811    25.8194    79.7628
  370.0000    27.0614    26.5419    78.8584
  370.5000    27.2484    26.9073    77.6544
  371.0000    27.2462    26.9008    78.2522
  371.5000    26.8530    26.3404    82.4529
  372.0000    26.1318    25.7930    84.5522
  372.5000    25.5921    25.2570    85.7506
  373.0000    24.8903    24.7320    86.0661
  373.5000    24.3757    24.2169    87.8464
  374.0000    23.8723    24.0449    85.7415
  374.5000    23.5419    23.7090    82.7357
  375.0000    23.5404    23.3767    82.1322
  375.5000    24.3690    23.3722    83.9305
  376.0000    25.0529    24.0249    87.2310
  376.5000    25.5784    24.8678    89.6306
  377.0000    25.7543    25.5611    92.6301
  377.5000    25.7522    26.2751    92.3270
  378.0000    25.7505    26.6382    87.8197
  378.5000    25.2187    26.4372    83.5195
  379.0000    24.3572    25.1882    81.2068
  379.5000    23.6892    23.9898    81.8046
  380.0000    22.8803    23.0076    84.5045
  380.5000    22.0970    22.0445    88.4048
  381.0000    21.3441    21.3082    90.8044
  381.5000    20.9032    20.7212    91.7032
  382.0000    20.6140    20.2906    92.0000
  382.5000    20.3146    20.0062    92.8974
  383.0000    20.0470    19.8640    95.5973
  383.5000    20.0457    19.8602    98.8978
  384.0000    20.0444    19.7190    97.9934
  384.5000    19.9043    19.7142    95.5882
  385.0000    19.9030    19.7104    93.7836
  385.5000    20.0402    19.8447    93.4735
  386.0000    20.0389    20.1170    96.4799
  386.5000    20.3175    20.2530    96.7781
  387.0000    20.5999    20.3900    96.4743
  387.5000    21.0313    20.6698    95.5456
  388.0000    21.1920    20.9544    94.3659
  388.5000    21.4707    21.2429    93.4622
  389.0000    21.6187    21.3866    93.4334
  389.5000    21.1718    20.7964    94.3575
  390.0000    20.5909    20.0827    95.5552
  390.5000    20.1656    19.6653    96.7536
  391.0000    19.7491    19.1235    97.6517
  391.5000    19.3384    18.7161    94.3449
  392.0000    18.8104    18.3360    91.6393
  392.5000    18.4219    18.0799    90.4353
  393.0000    17.9167    17.7042    94.4884
  393.5000    17.7777    17.6999   100.0386
  394.0000    17.7906    17.6964   103.9397
  394.5000    17.7891    17.6930   106.3393
  395.0000    17.6650    17.5673   106.3358
  395.5000    17.5415    17.4416   105.7324
  396.0000    17.4191    17.3177   103.9278
  396.5000    17.2976    17.0758   101.8038
  397.0000    17.0551    16.8318    99.4170
  397.5000    16.7056    16.6013    98.8135
  398.0000    16.3606    16.2563    98.5104
  398.5000    16.0226    16.1408    98.5069
  399.0000    15.7878    15.7914    98.5041
  399.5000    15.4743    15.4761    98.5013
  400.0000    15.2954    15.2607    99.0991
  400.5000    14.8385    15.1511    98.1877
  401.0000    14.4279    14.9394    97.2784
  401.5000    14.2254    14.7308    96.3692
  402.0000    14.0259    14.5244    96.9593
  402.5000    13.8282    14.3215   100.2542
  403.0000    13.6342    14.1215   102.6482
  403.5000    13.5364    14.0160   101.9790
  404.0000    13.4394    13.7291    99.0258
  404.5000    13.2500    13.7265    96.6150
  405.0000    13.1550    13.5348    95.7057
  405.5000    13.0607    13.3451    95.3949
  406.0000    12.9663    13.2503    95.3866
  406.5000    12.8733    13.1561    95.3782
  407.0000    12.8700    13.0530    96.5689
  407.5000    12.7777    12.9693    98.0620
  408.0000    12.7736    12.8771   100.4560
  408.5000    12.8601    12.8746   102.6096
  409.0000    12.8559    12.8720   104.0429
  409.5000    12.8517    12.8690    97.4258
  410.0000    12.8484    12.9561    97.1171
  410.5000    12.8451    12.9529    99.2087
  411.0000    12.9312    12.9504    98.9001
  411.5000    12.9270    12.9481    98.2911
  412.0000    12.9237    12.8559    99.1815
  412.5000    12.9203    12.8532   101.2752
  413.0000    12.8269    12.8505   103.6693
  413.5000    12.7349    12.8479   106.4535
  414.0000    12.6437    12.7559   109.9567
  414.5000    12.3793    12.6653   112.6510
  415.0000    12.3761    12.5753   115.0450
  415.5000    12.2025    12.4779   111.7313
  416.0000    12.1142    12.3110   109.9211
  416.5000    12.0274    12.2236   109.0118
  417.0000    12.0243    12.1367   109.3016
  417.5000    12.0211    12.0499   109.5956
  418.0000    11.9342    12.0476   110.1879
  418.5000    12.0150    12.0453   110.5075
  419.0000    12.0111    12.1261   112.2690
  419.5000    12.0072    12.1238   115.5639
  420.0000    11.9211    12.1214   119.1592
  420.5000    11.9181    12.1191   120.3520
  421.0000    11.9149    12.1162   117.0382
  421.5000    11.9111    12.1138   112.5253
  422.0000    11.9081    12.1115   107.1094
  422.5000    11.8227    12.1085   107.1011
  423.0000    11.8189    12.1062   109.1948
  423.5000    11.7342    12.0202   110.3876
  424.0000    11.7312    11.8523   109.4762
  424.5000    11.7274    11.6862   107.6660
  425.0000    11.7243    11.6839   106.7568
  425.5000    11.6403    11.6010   108.2478
  426.0000    11.6372    11.5981   110.6418
  426.5000    11.5531    11.5157   112.4352
  427.0000    11.4703    11.5135   114.5269
  427.5000    11.3094    11.4316   116.6206
  428.0000    11.3057    11.3499   119.0146
  428.5000    11.3026    11.2693   120.8080
  429.0000    11.1440    11.1893   118.9957
  429.5000    10.9877    11.0325   117.7862
  430.0000    10.7585    10.8784   117.1772
  430.5000    10.6070    10.7264   118.0697
  431.0000    10.3859    10.5030   118.3616
  431.5000    10.2385    10.2847   117.1499
  432.0000     9.9568    10.0710   116.2386
  432.5000     9.6819     9.9258   116.2302
  433.0000     9.3495     9.6563   115.6212
  433.5000     8.9035     9.2609   114.3814
  434.0000     8.5384     8.8818   113.5002
  434.5000     8.0755     8.4003   115.2937
  435.0000     7.4083     7.6746   117.3874
  435.5000     6.6463     6.9631   118.8805
  436.0000     6.1140     6.2482   119.7730
  436.5000     5.9248     5.4600   121.2641
  437.0000     5.8614     5.1286   132.9653
  437.5000     5.8598     5.4202   141.6656
  438.0000     5.8991     5.8891   150.0656
  438.5000     6.1053     6.1382   149.9970
  439.0000     6.3631     6.4423   142.5393
  439.5000     6.8183     7.0975   128.7171
  440.0000     7.3672     7.7119   123.3033
  440.5000     8.1044     8.2642   121.1907
  441.0000     8.5646     8.8013   120.2814
  441.5000     8.9262     9.2943   119.9728
  442.0000     9.3025     9.5539   120.8632
  442.5000     9.6283     9.6855   124.4584
  443.0000     9.8281     9.8867   126.5521
  443.5000    10.0322     9.9540   127.1443
  444.0000    10.2398    10.2316   126.2330
  444.5000    10.4524    10.4523   125.0234
  445.0000    10.6718    10.8106   123.5135
  445.5000    10.9660    11.1125   121.4009
  446.0000    11.1936    11.3440   122.5938
  446.5000    11.3471    11.5797   125.2881
  447.0000    11.5026    11.8208   127.3797
  447.5000    11.7414    12.0671   127.0710
  448.0000    11.9844    12.2332   124.6602
  448.5000    12.1486    12.4016   121.8589
  449.0000    12.3143    12.4849   119.5363
  449.5000    12.3976    12.5694   119.2297
  450.0000    12.4799    12.7418   120.1201
  450.5000    12.6516    12.8280   119.8090
  451.0000    12.8256    13.0046   118.8995
  451.5000    12.9123    13.0925   118.8909
  452.0000    12.9996    13.1810   118.8822
  452.5000    12.9964    13.2701   119.4742
  453.0000    12.9040    13.2668   122.1922
  453.5000    12.9014    13.2641   124.8623
  454.0000    12.8988    13.2615   120.0467
  454.5000    12.8957    13.2589   117.6357
  455.0000    12.8931    13.2556   119.7291
  455.5000    12.8014    13.2529   119.1199
  456.0000    12.7989    13.1587   116.3604
  456.5000    12.7963    13.1561   113.9954
