~VERSION INFORMATION
 VERS.                2.0:   CWLS LOG ASCII STANDARD - VERSION 2.0
 WRAP.                 NO:   ONE LINE PER DEPTH STEP
~WELL INFORMATION
#MNEM.UNIT      DATA TYPE    INFORMATION
#----------   ------------   ------------------------------
 STRT.F           65.0000:   START DEPTH
 STOP.F          860.0000:   STOP DEPTH
 STEP.F            0.5000:   STEP LENGTH
 NULL.          -999.2500:   NO VALUE
 COMP.          U.S. NAVY:   COMPANY
 WELL. NPR 3 TEAPOT DOM #71-S-34:   WELL
 FLD .             TEAPOT:   FIELD
 LOC .      S34 T39N R78W:   LOCATION
 CNTY.            NATRONA:   COUNTY
 STAT.            WYOMING:   STATE
 CTRY. UNITED STATES OF AMERICA:   COUNTRY
 SRVC. Schlumberger Well Surveying Corp:   SERVICE COMPANY
 DATE.        22-FEB-1961:   LOGDATE
 API .       490250657300:   API NUMBER
~CURVE INFORMATION
#MNEM.UNIT       API CODE    CURVE DESCRIPTION
#----------   ------------   ------------------------------
 DEPT.F                  :   
 GR  .GAPI   30 310 01 00:   GAMMA RAY
 ASN .OHMM   05 041 16 00:   AMPLIFIED SHORT NORMAL 16"
 CILD.MMHO   05 110 46 00:   CONDUCTIVITY INDUCTION LOG DEEP
 ILD .OHMM   05 120 46 00:   INDUCTION LOG DEEP
 SPR .MV     05 010 01 00:   SPONTANEOUS POTENTIAL FROM RES.
~PARAMETER INFORMATION
#MNEM.UNIT          VALUE    DESCRIPTION
#----------   ------------   ------------------------------
 LMF .                 KB:   LOG MEASURED FROM
 DMF .                 KB:   DRILLING MEASURED FROM
 EKB .F              5067:   KELLING BUSHING
 EGL .F              5063:   GROUND LEVEL
 DATE.        22-FEB-1961:   RUN DATE
 RUN .                  1:   RUN NUMBER
 DD  .F               861:   DEPTH DRILLER
 DL  .F               861:   DEPTH LOGGER
 BLI .F               860:   BOTTOM LOG INTERVAL
 TLI .F                80:   TOP LOG INTERVAL
 CBD .F                12:   CASING BOTTOM DRILLER
 BS  .IN            7.875:   BIT SIZE
 BSD .F               861:   BIT SIZE AT DEPTH
 DFT .       GEL-OIL EMUL:   DRILLING FLUID TYPE
 DFD .                9.6:   DRILLING FLUID DENSITY
 DFV .                 38:   DRILLING FLUID VISCOSITY
 DFPH.                  9:   DRILLING FLUID PH
 DFL .               15.4:   DRILLING FLUID LOSS
 MSS .           FLOWLINE:   MUD SAMPLE SOURCE
 RMS .OHMM           0.86:   RESISTIVITY MUD SAMPLE
 MST .F                68:   MUD SAMPLE TEMPERATURE
 RMF .OHMM           0.52:   RESISTIVITY MUD FILTRATE SAMPLE
 MFST.F                68:   MUD FILTRATE SAMPLE TEMPERATURE
 RMC .OHMM           1.98:   RESISTIVITY MUD CAKE
 MCST.F                68:   MUD CAKE SAMPLE TEMPERATURE
 MFSS.               MEAS:   MUD FILTRATE SAMPLE SOURCE
 MCSS.               MEAS:   MUD CAKE SAMPLE SOURCE
 RMB .OHMM           0.77:   RESISTIVITY MUD AT BHT
 BHT .F                78:   BOTTOM HOLE TEMPERATURE
 TCS .HRS               1:   TIME CURCULATED STOPPED
 MRT .F                78:   MAXIMUM RECORDED TEMPERATURE
 LUN .               2523:   LOGGING UNIT NUMBER
 LUL .               CSPR:   LOGGING UNIT LOCATION
 ENGI.             KNOBEL:   RECORDING ENGINEER
 WITN.          JORGENSEN:   WITNESSED BY
 CLNT.            A2DTECH:   CLIENT CODE
 ORIG.      2" , 5" PRINT:   ORIGIN OF DATA
 UWI .       490250657300:   UNIQUE WELL ID
 DICO. A2D Technologies, Inc.:   DIGITIZING COMPANY
~OTHER INFORMATION
~A   DEPT       GR          ASN       CILD        ILD      SPR   
# ...
  675.0000    60.1508     9.3029   136.2185     7.3914   -20.6439
  675.5000    57.8980     9.4306   134.6282     7.5391   -20.5886
  676.0000    63.1640     9.5583   133.0379     7.6991   -20.4451
  676.5000    63.7683     9.6547   131.4476     7.8592   -20.4397
  677.0000    61.6666     9.7197   130.6447     7.8623   -20.4351
  677.5000    63.9250     9.7847   129.8425     7.8650   -20.4310
  678.0000    67.3865     9.8497   130.6137     7.9466   -20.4258
  678.5000    63.1795     9.8834   130.5984     7.9498   -20.4212
  679.0000    61.2274     9.9798   131.3701     7.9532   -20.4169
  679.5000    60.3280    10.0291   130.5669     7.9560   -20.5698
  680.0000    59.7293    10.0784   130.7743     7.9592   -20.6348
  680.5000    65.5975    10.0808   131.3228     7.8840   -20.7163
  681.0000    66.9530    10.0517   131.3042     7.8871   -20.7115
  681.5000    73.4227     9.9596   131.2887     7.7332   -20.7845
  682.0000    69.9068     9.8828   131.2756     7.7363   -20.9415
  682.5000    66.2108     9.8352   131.2577     7.8964   -21.0111
  683.0000    64.1083     9.7475   130.4548     8.0623   -21.0063
  683.5000    65.0134     9.7661   128.8645     8.2166   -21.0007
  684.0000    63.6628     9.8359   128.0616     7.9403   -20.9961
  684.5000    69.2303     9.9093   129.6248     6.5752   -20.9922
  685.0000    68.9323     9.9827   132.7550     6.0288   -20.9868
  685.5000    65.6276    10.0561   137.4639     5.4040   -20.9822
  686.0000    63.2244    10.1296   147.6846     5.0146   -20.9781
  686.5000    61.8738    10.1453   172.0786     4.9384   -20.9734
  687.0000    59.8817     9.7351   187.8423     5.0208   -20.9683
  687.5000    57.8193     8.7500   196.5879     5.0239   -20.9637
  688.0000    68.4995     7.2740   198.9184     5.0270   -20.9592
  688.5000    68.0512     7.1089   195.6347     5.1086   -20.9544
  689.0000    66.2095     7.2467   189.3200     5.1901   -20.9498
  689.5000    65.0500     7.7567   181.4305     5.5072   -20.9845
  690.0000    66.8574     9.4362   168.8166     6.0598   -21.0972
  690.5000    69.1258    10.3054   149.9034     6.9263   -21.0925
  691.0000    67.7660    11.1649   130.2029     7.6358   -21.0868
  691.5000    66.7162    11.3240   115.2268     8.4296   -20.9255
  692.0000    65.2152    11.4831   102.6128     9.2412   -20.9216
  692.5000    63.4135    11.7205   101.0225    10.0785   -20.9169
  693.0000    63.8682    11.8796   104.1566     9.8468   -20.9116
  693.5000    67.9312    11.9602   103.3537     9.8499   -20.9070
  694.0000    69.7378    12.1463   101.7634     9.8530   -20.9028
  694.5000    62.3729    12.3567    97.8109    10.0915   -20.8977
  695.0000    64.4817    12.6725    93.0185    10.5656   -20.8931
  695.5000    60.8755    13.3802    87.3914    11.3536   -20.8884
  696.0000    52.3069    14.1662    81.6373    12.3771   -20.8838
  696.5000    50.3148    14.8738    74.1230    13.3221   -20.7224
  697.0000    47.9523    16.2921    67.8083    14.2671   -20.5611
  697.5000    44.0453    18.1179    59.9187    15.5261   -20.4768
  698.0000    40.1384    19.4545    53.6040    17.5700   -20.2382
  698.5000    36.2321    20.3316    48.8641    20.2419   -20.0768
  699.0000    33.2274    21.8610    44.1242    21.7364   -20.0712
  699.5000    30.6739    22.8821    41.7465    22.5244   -20.0666
  700.0000    32.9070    23.7465    40.9436    23.0769   -20.0619
  700.5000    33.9927    24.4240    40.9168    23.7169   -19.7414
  701.0000    31.7082    24.9364    40.8826    24.3568   -19.3949
  701.5000    30.8491    25.4488    39.2755    24.9968   -18.7838
  702.0000    32.6626    26.2637    36.8081    25.7588   -18.1492
  702.5000    33.1190    26.9713    34.4821    26.3899   -17.8280
  703.0000    30.7220    28.0708    34.4514    27.0209   -17.3501
  703.5000    28.5729    28.6217    34.4207    27.6520   -17.3424
  704.0000    30.7381    29.2510    34.3900    28.2045   -17.1780
  704.5000    37.0610    29.4094    35.1544    28.6570   -17.1703
  705.0000    38.5701    28.6286    36.6909    28.1870   -17.0063
  705.5000    36.9248    26.9068    37.7796    27.4813   -16.9984
  706.0000    37.5338    25.8839    39.3648    26.6971   -17.1473
  706.5000    37.0896    25.4125    40.5565    25.6775   -17.1395
  707.0000    37.8486    25.0334    41.4172    24.8933   -17.3762
  707.5000    35.7523    24.9567    42.0493    24.1877   -17.4530
  708.0000    37.1128    24.7239    42.0109    23.7175   -17.7435
  708.5000    39.6782    24.5701    41.9803    23.4826   -17.7339
  709.0000    39.0838    24.5724    41.9496    23.4835   -17.8849
  709.5000    36.9857    24.5747    41.9213    23.5628   -17.9169
  710.0000    34.5868    24.6553    41.8898    23.6421   -18.0251
  710.5000    31.7318    24.7360    41.8583    23.6429   -18.3301
  711.0000    29.0390    24.6599    41.8268    23.7221   -18.3825
  711.5000    32.2040    24.4666    41.7953    23.6444   -18.7853
  712.0000    32.8109    24.3088    41.7578    23.4881   -19.2475
  712.5000    31.7654    23.9420    42.8696    23.3321   -19.2398
  713.0000    35.8768    23.4158    43.2790    23.1759   -18.7492
  713.5000    38.6988    22.7128    44.8154    23.0197   -18.1019
  714.0000    34.9483    22.1665    46.3595    22.7065   -17.6474
  714.5000    32.2469    21.6202    47.9037    22.2363   -17.4830
  715.0000    35.8649    21.1523    49.6763    21.7661   -17.6340
  715.5000    33.7668    20.6844    50.9921    21.1342   -17.8198
  716.0000    41.7457    20.3732    53.3544    20.3298   -18.1316
  716.5000    44.4573    20.1513    55.6550    19.1783   -18.3927
  717.0000    45.2186    19.8292    57.1991    18.2372   -18.6985
  717.5000    47.6318    19.5938    58.7356    17.5315   -18.8793
  718.0000    45.6682    19.2758    59.4923    17.2966   -18.9969
  718.5000    46.2945    18.9746    60.2567    17.2189   -19.0658
  719.0000    45.0986    18.8979    59.4309    17.1413   -19.1379
  719.5000    44.0513    18.8219    58.4514    17.2206   -19.1301
  720.0000    46.1655    18.8245    57.7953    17.2213   -19.1223
  720.5000    44.4767    18.8271    56.9764    17.3791   -19.1130
  721.0000    43.1723    18.8292    56.9449    17.4966   -19.1066
  721.5000    47.5422    18.8317    56.9077    17.6001   -19.1332
  722.0000    46.6470    18.8340    56.0236    17.8189   -19.2476
  722.5000    45.9023    18.9146    55.2756    18.0747   -19.2390
  723.0000    48.7684    19.0737    55.2408    18.3251   -19.2320
  723.5000    50.7304    19.2328    55.2101    18.4987   -19.2241
  724.0000    51.3373    19.3918    54.6325    18.6405   -19.2160
  724.5000    47.4365    19.5514    54.3614    18.7199   -19.2085
  725.0000    45.6391    19.7104    53.5433    18.7989   -19.2006
  725.5000    46.3999    19.7127    53.5118    18.7212   -19.1928
  726.0000    48.3619    19.6361    52.6869    18.7222   -19.0941
  726.5000    45.9631    19.7173    52.6614    18.7229   -19.0189
  727.0000    47.1732    19.7196    52.6299    18.6452   -19.0125
  727.5000    48.5338    19.8003    51.8074    18.5597   -19.0035
  728.0000    44.9337    19.9593    51.7768    18.4898   -19.3113
  728.5000    46.5950    20.0400    52.8293    18.3788   -19.3017
  729.0000    49.3089    20.1207    53.2913    18.2418   -19.2940
  729.5000    51.4213    19.6351    54.0472    18.0998   -19.2868
  730.0000    52.6315    18.7936    55.2231    17.9436   -19.2790
  730.5000    44.8208    18.0905    56.6544    17.8171   -19.2709
  731.0000    40.3167    17.9355    58.0001    17.6541   -19.2633
  731.5000    38.2186    18.0951    59.4284    17.3964   -19.2549
  732.0000    41.5340    18.3325    60.9725    17.1418   -19.2476
  732.5000    42.1429    18.5700    61.7292    16.9270   -19.2383
  733.0000    41.2494    18.4155    61.6985    16.7666   -19.2320
  733.5000    40.5046    18.2605    62.4553    16.5699   -19.2241
  734.0000    38.8576    18.1066    62.4246    16.3016   -19.2152
  734.5000    37.3610    17.9138    63.1811    16.2236   -19.2085
  735.0000    37.4086    17.7926    63.3858    16.1459   -19.1999
  735.5000    34.9711    17.6314    63.9074    15.9897   -19.1915
