~VERSION INFORMATION
 VERS.                2.0:   CWLS LOG ASCII STANDARD - VERSION 2.0
 WRAP.                 NO:   ONE LINE PER DEPTH STEP
~WELL INFORMATION
#MNEM.UNIT      DATA TYPE    INFORMATION
#----------   ------------   ------------------------------
 STRT.F           29.0000:   START DEPTH
 STOP.F          462.0000:   STOP DEPTH
 STEP.F            0.5000:   STEP LENGTH
 NULL.          -999.2500:   NO VALUE
 COMP.    FENIX & SCISSON:   COMPANY
 WELL.      NPR #71-SX-10:   WELL
 FLD .             TEAPOT:   FIELD
 LOC .      S10 T38N R78W:   LOCATION
 CNTY.            NATRONA:   COUNTY
 STAT.            WYOMING:   STATE
 CTRY. UNITED STATES OF AMERICA:   COUNTRY
 SRVC.              Welex:   SERVICE COMPANY
 DATE.        01-APR-1977:   LOGDATE
 API .       490251032300:   API NUMBER
~CURVE INFORMATION
#MNEM.UNIT       API CODE    CURVE DESCRIPTION
#----------   ------------   ------------------------------
 DEPT.F                  :   
 SPR .MV     07 010 01 00:   SPONTANEOUS POTENTIAL
 ILD .OHMM   07 120 46 00:   INDUCTION LOG DEEP
 ILM .OHMM   07 120 44 00:   INDUCTION LOG MEDIUM
 SGRD.OHMM   07 221 05 00:   SHALLOW SHORT GUARD RESISTIVITY
 CALD.IN     45 280 60 00:   CALIPER FROM DENSITY LOG
 GRD .GAPI   45 310 01 00:   GAMMA RAY FROM DENSITY LOG
 CORR.G/C3   45 356 01 00:   DENSITY CORRECTION
 RHOB.G/C3   45 350 01 00:   BULK DENSITY
 DPHI.DEC    45 890 12 00:   DENSITY POROSITY SANDSTONE
~PARAMETER INFORMATION
#MNEM.UNIT          VALUE    DESCRIPTION
#----------   ------------   ------------------------------
 PD  .                 GL:   PERMANENT DATUM
 EPD .F              5157:   ELEVATION PERMANENT DATUM
 LMF .                 GL:   LOG MEASURED FROM
 DMF .                 GL:   DRILLING MEASURED FROM
 EGL .F              5157:   GROUND LEVEL
 DATE.        01-APR-1977:   RUN DATE
 RUN .                  1:   RUN NUMBER
 DD  .F               475:   DEPTH DRILLER
 DL  .F               466:   DEPTH LOGGER
 BLI .F               463:   BOTTOM LOG INTERVAL
 TLI .F                30:   TOP LOG INTERVAL
 CS  .IN            8.625:   CASING SIZE
 BS  .IN            7.875:   BIT SIZE
 BSD .F               475:   BIT SIZE AT DEPTH
 DFT .                KCL:   DRILLING FLUID TYPE
 DFD .                8.5:   DRILLING FLUID DENSITY
 TCS .HRS               3:   TIME CURCULATED STOPPED
 MRT .F                67:   MAXIMUM RECORDED TEMPERATURE
 ENGI.            C. DOAK:   RECORDING ENGINEER
 WITN.   R. B. HARRINGTON:   WITNESSED BY
 CLNT.            A2DTECH:   CLIENT CODE
 ORIG.           5" PRINT:   ORIGIN OF DATA
 UWI .       490251032300:   UNIQUE WELL ID
 DICO. A2D Technologies, Inc.:   DIGITIZING COMPANY
~OTHER INFORMATION
~A   DEPT      SPR        ILD        ILM       SGRD         CALD      GRD       CORR       RHOB       DPHI   
# ...
  321.0000   -23.7953    21.4144    28.4355    32.5594     8.3027    78.9613     0.0164     2.3745     0.1611
  321.5000   -24.0753    21.4262    27.8705    29.7727     8.3042    82.4122     0.0181     2.3791     0.1611
  322.0000   -24.2060    20.9976    27.4988    27.7961     8.2908    84.9675     0.0182     2.3815     0.1613
  322.5000   -24.3422    20.5747    27.1396    26.3125     8.2775    86.7765     0.0153     2.3777     0.1625
  323.0000   -24.6173    20.0268    25.3391    26.6942     8.2790    86.0482     0.0124     2.3778     0.1628
  323.5000   -24.6037    19.6262    24.4909    28.0356     8.2805    81.5886     0.0110     2.3756     0.1643
  324.0000   -24.7359    19.2336    23.6711    28.6399     8.2820    83.2484     0.0081     2.3719     0.1661
  324.5000   -25.0163    18.8489    23.1944    28.6557     8.2834    85.6544     0.0067     2.3698     0.1682
  325.0000   -25.1484    18.5975    23.5339    27.6958     8.2700    87.1649     0.0053     2.3675     0.1666
  325.5000   -25.1321    17.9775    23.2233    26.7680     8.2716    87.3587     0.0054     2.3722     0.1624
  326.0000   -25.2681    17.3757    22.7555    25.8712     8.2581    87.0507     0.0056     2.3790     0.1597
  326.5000   -25.3963    16.9083    22.7713    25.5260     8.2597    87.3681     0.0057     2.3806     0.1602
  327.0000   -25.5284    16.9200    22.7839    25.5436     8.2612    88.4309     0.0043     2.3799     0.1617
  327.5000   -25.3635    17.0469    23.2747    25.5577     8.2627    87.7026     0.0059     2.3762     0.1644
  328.0000   -25.3472    17.0564    22.3404    25.5718     8.2642    84.8848     0.0060     2.3718     0.1668
  328.5000   -25.3309    16.9458    21.5926    25.2340     8.2657    82.8087     0.0062     2.3687     0.1650
  329.0000   -25.4633    16.9575    21.7546    24.2203     8.2672    83.2790     0.0047     2.3734     0.1628
  329.5000   -25.4466    16.9669    22.5329    23.8971     8.2686    84.1925     0.0034     2.3788     0.1622
  330.0000   -25.5792    16.6274    23.1781    25.1013     8.2701    85.2507     0.0005     2.3791     0.1718
  330.5000   -25.5623    16.4080    22.8722    26.5458     8.2716    83.7762    -0.0025     2.3639     0.1730
  331.0000   -25.5466    16.3016    22.5703    27.3065     8.2731    84.3957    -0.0053     2.3587     0.1715
  331.5000   -25.6787    16.4261    22.2693    26.9458     8.2746    85.0107    -0.0082     2.3686     0.1687
  332.0000   -25.6617    16.5493    22.1280    25.6849     8.2761    87.4167    -0.0111     2.3806     0.1600
  332.5000   -25.6421    16.4420    21.9905    24.8244     8.2331    89.5243    -0.0110     2.3897     0.1549
  333.0000   -25.6259    16.2250    21.8510    25.0107     8.1307    91.1840    -0.0079     2.3958     0.1534
  333.5000   -25.7620    16.0131    20.8293    25.7274     8.0580    91.0528    -0.0093     2.3914     0.1672
  334.0000   -26.0425    15.8017    20.2690    25.2124     8.0443    90.3245    -0.0107     2.3802     0.1641
  334.5000   -26.6157    15.8104    20.7085    24.0326     8.0461    89.7455    -0.0121     2.3893     0.1560
  335.0000   -27.1929    15.8192    20.8638    23.0672     8.0476    89.3112    -0.0135     2.3991     0.1428
  335.5000   -27.7701    15.8279    21.1663    22.9202     8.0491    88.5874    -0.0149     2.4099     0.1341
  336.0000   -28.0505    15.9466    21.7724    22.9333     8.0654    86.5158    -0.0132     2.4548     0.1202
  336.5000   -28.3351    16.6319    22.8656    22.6303     8.0817    83.1010    -0.0113     2.4864     0.0965
  337.0000   -28.9082    17.2269    25.5568    22.6428     8.1210    78.3428    -0.0069     2.5232     0.0858
  337.5000   -29.0444    17.9671    28.5648    28.0804     8.1803    69.2564    -0.0020     2.5458     0.0609
  338.0000   -29.3208    18.4816    29.7922    38.6357     8.2304    65.2400     0.0041     2.5543     0.0594
  338.5000   -29.3045    18.7495    28.5964    68.2095     8.2462    69.7401     0.0088     2.5467     0.0660
  339.0000   -29.1399    18.6305    26.3322    63.2415     8.2621    73.7879     0.0117     2.5257     0.0866
  339.5000   -29.1236    18.6408    23.7492    44.1419     8.2780    79.0298     0.0103     2.4954     0.1019
  340.0000   -29.1074    18.2679    22.2281    33.2493     8.3087    84.4209     0.0042     2.4569     0.1175
  340.5000   -28.9427    17.7790    20.9911    21.1998     8.3098    88.0210     0.0000     2.4359     0.1256
  341.0000   -28.7781    17.1839    19.8716    20.0684     8.3108    89.8300     0.0001     2.4210     0.1303
  341.5000   -28.4651    16.2675    19.0740    19.2646     8.2822    91.0420    -0.0013     2.4278     0.1306
  342.0000   -28.6012    15.3999    19.0845    19.5599     8.2387    90.4630     0.0003     2.4315     0.1387
  342.5000   -28.7334    14.4781    19.3612    19.8345     8.2098    88.0929     0.0020     2.3980     0.1519
  343.0000   -28.7130    14.0906    19.9156    20.2621     8.1960    85.4243     0.0036     2.3965     0.1545
  343.5000   -28.6968    13.9046    20.2043    20.4142     8.1974    86.0393     0.0037     2.3891     0.1554
  344.0000   -28.6805    13.8164    20.4971    20.5675     8.1833    87.7851     0.0038     2.3877     0.1550
  344.5000   -28.8167    13.8240    20.6509    20.5788     8.1846    88.6081     0.0009     2.3930     0.1538
  345.0000   -28.7963    13.7344    20.8058    20.7334     8.1857    87.5323    -0.0006     2.3976     0.1517
  345.5000   -28.7801    13.7439    21.1074    20.8890     8.1716    86.2119    -0.0034     2.4022     0.1483
  346.0000   -28.7638    13.6566    20.8288    20.9029     8.1578    85.0800    -0.0063     2.4075     0.1439
  346.5000   -29.0443    13.5681    19.8549    20.4844     8.1562    85.1159    -0.0077     2.4136     0.1387
  347.0000   -29.1804    13.2985    19.1903    19.9330     8.1451    87.8626    -0.0075     2.4242     0.1315
  347.5000   -29.1601    13.1230    18.4200    19.3991     8.1461    92.2488    -0.0059     2.4370     0.1336
  348.0000   -29.2963    12.8604    17.9270    18.8821     8.1307    95.3655    -0.0043     2.4128     0.1462
  348.5000   -29.4284    12.6907    17.5684    19.2892     8.1185    98.1535    -0.0041     2.4039     0.1500
  349.0000   -29.5605    12.5215    17.7002    19.4339     8.1344    98.9193    -0.0071     2.3988     0.1524
  349.5000   -29.6912    12.7047    17.8329    19.7158     8.1355    98.7897    -0.0100     2.3975     0.1509
  350.0000   -29.6724    12.7983    17.3557    19.8611     8.1365    95.9734    -0.0129     2.4051     0.1464
  350.5000   -30.1028    12.7170    17.3653    19.4636     8.1538    95.0926    -0.0151     2.4157     0.1376
  351.0000   -30.2402    12.5509    17.4955    19.4787     8.1550    94.8136    -0.0171     2.4248     0.1334
  351.5000   -30.3739    12.2998    17.6242    18.9582     8.1409    94.3903    -0.0140     2.4301     0.1298
  352.0000   -30.5045    12.1374    17.3916    18.1979     8.1424    93.2716    -0.0091     2.4384     0.1345
  352.5000   -30.6380    12.0587    17.2811    17.8347     8.1284    93.4800    -0.0045     2.4047     0.1441
  353.0000   -30.7725    12.1508    17.0549    17.8458     8.1299    96.8628     0.0001     2.4010     0.1429
  353.5000   -30.7567    12.1575    16.8298    18.6144     8.1311    97.7473     0.0032     2.4124     0.1378
  354.0000   -30.7418    12.2487    16.7230    19.0169     8.1323    94.8715     0.0064     2.4177     0.1323
  354.5000   -30.7270    12.3406    16.8487    18.2542     8.1183    90.1347    -0.0010     2.4238     0.1284
  355.0000   -30.7122    12.4331    16.9751    18.6489     8.1198    86.7612    -0.0039     2.4366     0.1263
  355.5000   -30.6955    12.6134    17.3407    20.1471     8.1060    85.1388    -0.0023     2.4464     0.1260
  356.0000   -30.6821    12.7962    17.3502    21.0050     8.1072    86.3526    -0.0021     2.4398     0.1292
  356.5000   -30.6662    13.0718    16.8859    20.8444     8.0935    87.8647    -0.0020     2.4203     0.1377
  357.0000   -30.6528    13.1699    16.6629    19.5881     8.0947    90.2723    -0.0034     2.4069     0.1460
