~VERSION INFORMATION
 VERS.                2.0:   CWLS LOG ASCII STANDARD - VERSION 2.0
 WRAP.                 NO:   ONE LINE PER DEPTH STEP
~WELL INFORMATION
#MNEM.UNIT      DATA TYPE    INFORMATION
#----------   ------------   ------------------------------
 STRT.F            0.0000:   START DEPTH
 STOP.F         2694.5000:   STOP DEPTH
 STEP.F            0.5000:   STEP LENGTH
 NULL.          -999.2500:   NO VALUE
 COMP. FENIX & SCISSON INC:   COMPANY
 WELL.       102 A #20-20:   WELL
 FLD .        TEAPOT DOME:   FIELD
 LOC .      S20 T39N R78W:   LOCATION
 CNTY.            NATRONA:   COUNTY
 STAT.            WYOMING:   STATE
 CTRY. UNITED STATES OF AMERICA:   COUNTRY
 SRVC.            Unknown:   SERVICE COMPANY
 DATE.        17-AUG-1965:   LOGDATE
 API .       490251022200:   API NUMBER
~CURVE INFORMATION
#MNEM.UNIT       API CODE    CURVE DESCRIPTION
#----------   ------------   ------------------------------
 DEPT.F                  :   
 CALI.IN     30 280 01 00:   CALIPER FROM GAMMA RAY LOG
 GR  .GAPI   30 310 01 00:   GAMMA RAY
~PARAMETER INFORMATION
#MNEM.UNIT          VALUE    DESCRIPTION
#----------   ------------   ------------------------------
 PD  .                 GL:   PERMANENT DATUM
 LMF .                 GL:   LOG MEASURED FROM
 DMF .                 GL:   DRILLING MEASURED FROM
 DATE.            8-17-65:   RUN DATE
 RUN .                  1:   RUN NUMBER
 DD  .F            2696.5:   DEPTH DRILLER
 DL  .F              2697:   DEPTH LOGGER
 BLI .F              2695:   BOTTOM LOG INTERVAL
 TLI .F              2000:   TOP LOG INTERVAL
 CS  .IN                7:   CASING SIZE
 CBD .F              2678:   CASING BOTTOM DRILLER
 DFT .                OIL:   DRILLING FLUID TYPE
 TCS .HRS               1:   TIME CURCULATED STOPPED
 ENGI.            JACKSON:   RECORDING ENGINEER
 WITN.          JORGENSEN:   WITNESSED BY
 CLNT.            A2DTECH:   CLIENT CODE
 ORIG.           5" PRINT:   ORIGIN OF DATA
 UWI .       490251022200:   UNIQUE WELL ID
 DICO. A2D Technologies, Inc.:   DIGITIZING COMPANY
~OTHER INFORMATION
~A    DEPT      CALI       GR   
# ...
 2551.5000     6.4631   129.8864
 2552.0000     6.4376   132.3090
 2552.5000     6.4493   136.7222
 2553.0000     6.4607   142.2565
 2553.5000     6.4756   148.8775
 2554.0000     6.4643   152.4759
 2554.5000     6.4450   161.7346
 2555.0000     6.4473   170.2072
 2555.5000     6.4494   172.5875
 2556.0000     6.4515   175.0179
 2556.5000     6.4542   171.8927
 2557.0000     6.4693   164.6647
 2557.5000     6.4639   165.4245
 2558.0000     6.4547   163.2021
 2558.5000     6.4597   161.5958
 2559.0000     6.4644   163.5181
 2559.5000     6.4690   159.6220
 2560.0000     6.4727   160.7034
 2560.5000     6.4657   161.6146
 2561.0000     6.4632   163.6457
 2561.5000     6.4525   163.9892
 2562.0000     6.4453   159.3322
 2562.5000     6.4528   155.5846
 2563.0000     6.4513   160.4582
 2563.5000     6.4484   162.8315
 2564.0000     6.4455   157.9525
 2564.5000     6.4438   160.7798
 2565.0000     6.4463   167.1693
 2565.5000     6.4492   176.7126
 2566.0000     6.4523   175.2467
 2566.5000     6.4681   169.7391
 2567.0000     6.4738   173.3297
 2567.5000     6.4545   170.3774
 2568.0000     6.4436   167.3150
 2568.5000     6.4550   170.7383
 2569.0000     6.4686   173.7044
 2569.5000     6.4631   168.2396
 2570.0000     6.4469   170.3179
 2570.5000     6.4377   173.8220
 2571.0000     6.4302   171.2810
 2571.5000     6.4226   162.2886
 2572.0000     6.4151   151.8092
 2572.5000     6.4335   144.9218
 2573.0000     6.4338   140.2225
 2573.5000     6.4351   137.6998
 2574.0000     6.5007   131.4457
 2574.5000     6.4511   129.5654
 2575.0000     6.4134   129.7454
 2575.5000     6.4099   132.8952
 2576.0000     6.4062   129.6093
 2576.5000     6.4160   122.9077
 2577.0000     6.4329   114.7064
 2577.5000     6.4149   114.5532
 2578.0000     6.3796   121.3960
 2578.5000     6.4171   119.9884
 2579.0000     6.4212   116.6389
 2579.5000     6.4175   114.8755
 2580.0000     6.4146   116.8858
 2580.5000     6.4254   114.1794
 2581.0000     6.4367   115.2179
 2581.5000     6.4414   120.9405
 2582.0000     6.4342   124.1850
 2582.5000     6.4272   126.4562
 2583.0000     6.4202   125.4358
 2583.5000     6.4142   121.2182
 2584.0000     6.4145   119.1597
 2584.5000     6.4224   120.8088
 2585.0000     6.4345   127.7954
 2585.5000     6.4341   125.8195
 2586.0000     6.4340   126.4350
 2586.5000     6.4339   120.6965
 2587.0000     6.4261   118.1701
 2587.5000     6.4141   115.7751
 2588.0000     6.4151   111.0691
 2588.5000     6.4423   109.9638
 2589.0000     6.4333   115.2767
 2589.5000     6.3961   110.0897
 2590.0000     6.4075   111.7716
 2590.5000     6.4142   112.0434
 2591.0000     6.4143   111.0204
 2591.5000     6.4128   111.5555
 2592.0000     6.4071   109.8422
 2592.5000     6.4062   112.8139
 2593.0000     6.4091   115.0713
 2593.5000     6.4126   116.1935
 2594.0000     6.4239   119.1462
 2594.5000     6.4695   122.3392
 2595.0000     6.4089   124.1190
 2595.5000     6.3813   129.0888
 2596.0000     6.3767   132.9724
 2596.5000     6.3836   123.3413
 2597.0000     6.3817   120.3453
 2597.5000     6.3797   117.3423
 2598.0000     6.3776   114.3422
 2598.5000     6.3755   113.1864
 2599.0000     6.3750   109.9306
 2599.5000     6.3751   106.3098
 2600.0000     6.3816   103.1515
 2600.5000     6.3945   106.3168
 2601.0000     6.4073   102.3521
 2601.5000     6.3949   102.5682
 2602.0000     6.3944   106.7794
 2602.5000     6.3947   108.8409
 2603.0000     6.3944   106.9867
 2603.5000     6.3890   107.7231
 2604.0000     6.3934   106.9336
 2604.5000     6.4142   104.8016
 2605.0000     6.4143   101.1327
 2605.5000     6.4144   101.4003
 2606.0000     6.4143   112.8641
 2606.5000     6.4143   122.9770
 2607.0000     6.3973   121.5352
 2607.5000     6.3727   119.9707
 2608.0000     6.3671   121.2410
 2608.5000     6.3740   120.7183
 2609.0000     6.3841   122.8747
 2609.5000     6.3788   124.7272
 2610.0000     6.3754   123.1704
 2610.5000     6.3780   120.3367
 2611.0000     6.3804   116.5895
 2611.5000     6.3829   117.8572
 2612.0000     6.3946   119.2518
 2612.5000     6.4123   111.7108
 2613.0000     6.4097   114.8772
 2613.5000     6.4069   114.7906
 2614.0000     6.4078   109.7128
 2614.5000     6.4384   104.4672
 2615.0000     6.5089   102.3998
 2615.5000     6.4551   100.3259
 2616.0000     6.4071   102.5455
 2616.5000     6.3925   103.7214
 2617.0000     6.3784   103.8855
 2617.5000     6.3590   105.3074
 2618.0000     6.3458   108.1902
 2618.5000     6.3764   110.2900
 2619.0000     6.3778   107.8377
 2619.5000     6.3802   104.4735
 2620.0000     6.3827   103.5456
 2620.5000     6.3833   106.3591
 2621.0000     6.3725   110.2750
 2621.5000     6.3659   112.0042
 2622.0000     6.3732   110.6612
 2622.5000     6.3750   106.0635
 2623.0000     6.3750   105.1552
 2623.5000     6.3750   106.4541
 2624.0000     6.3750   110.5641
 2624.5000     6.3750   113.8393
 2625.0000     6.3750   116.9792
 2625.5000     6.3750   118.3280
 2626.0000     6.3750   122.1754
 2626.5000     6.3781   121.6019
 2627.0000     6.3817   121.8265
 2627.5000     6.3845   122.0399
 2628.0000     6.3761   125.2942
 2628.5000     6.3676   130.5992
 2629.0000     6.3662   132.5549
 2629.5000     6.3706   136.3940
 2630.0000     6.3768   131.3923
 2630.5000     6.3845   133.8855
 2631.0000     6.3811   127.8496
 2631.5000     6.3753   119.5262
 2632.0000     6.3696   109.5646
 2632.5000     6.3650   106.5797
 2633.0000     6.3652   102.9936
 2633.5000     6.3651   106.1911
 2634.0000     6.3638   111.5920
 2634.5000     6.4060   115.5574
 2635.0000     6.4142   115.3547
 2635.5000     6.4772   115.9200
 2636.0000     6.4086   117.6650
 2636.5000     6.3987   120.6494
 2637.0000     6.3911   117.3133
 2637.5000     6.3753   118.1803
 2638.0000     6.3758   120.1118
 2638.5000     6.4078   126.3748
 2639.0000     6.4136   130.7467
 2639.5000     6.3931   135.2663
 2640.0000     6.3817   146.5563
 2640.5000     6.4256   160.0928
 2641.0000     6.4203   158.2033
 2641.5000     6.4030   159.8872
 2642.0000     6.3857   161.9531
 2642.5000     6.3982   151.5568
 2643.0000     6.4184   135.8204
 2643.5000     6.4000   124.4069
 2644.0000     6.3872   127.4442
 2644.5000     6.4035   128.4883
 2645.0000     6.4205   128.9316
 2645.5000     6.4177   133.4003
 2646.0000     6.3844   132.5785
 2646.5000     6.3916   140.8287
 2647.0000     6.4065   144.1710
 2647.5000     6.3918   145.3974
 2648.0000     6.3871   151.3728
 2648.5000     6.4166   159.2195
 2649.0000     6.4515   166.2991
 2649.5000     6.4344   167.1998
 2650.0000     6.4171   166.3095
 2650.5000     6.4115   165.4973
 2651.0000     6.4400   162.9374
 2651.5000     6.4454   164.6282
 2652.0000     6.4357   157.1949
 2652.5000     6.4445   152.7517
 2653.0000     6.4589   159.5221
 2653.5000     6.4363   164.0210
 2654.0000     6.4236   164.6138
 2654.5000     6.4808   164.6890
 2655.0000     6.4645   162.7837
 2655.5000     6.4266   156.3958
 2656.0000     6.3844   165.4856
 2656.5000     6.4264   155.2277
 2657.0000     6.5437   159.1058
 2657.5000     6.4495   167.9817
 2658.0000     6.4451   170.0457
 2658.5000     6.4544   180.3638
 2659.0000     6.4629   177.3836
 2659.5000     6.4433   181.0438
 2660.0000     6.4197   178.2263
 2660.5000     6.4083   175.1395
 2661.0000     6.4137   172.2081
 2661.5000     6.3886   173.1488
 2662.0000     6.3636   170.6566
 2662.5000     6.3612   171.7308
 2663.0000     6.3819   165.0713
 2663.5000     6.3907   172.4724
 2664.0000     6.3774   169.8104
 2664.5000     6.3857   167.6940
 2665.0000     6.3913   160.1450
 2665.5000     6.3813   148.0067
 2666.0000     6.3659   150.2802
 2666.5000     6.3818   153.1183
 2667.0000     6.4215   155.4710
 2667.5000     6.3683   151.1769
 2668.0000     6.3705   152.1754
 2668.5000     6.3570   154.3665
 2669.0000     6.3946   152.2762
 2669.5000     6.3841   156.4467
 2670.0000     6.3432   158.8362
 2670.5000     6.3670   159.9900
 2671.0000     6.3810   155.6034
 2671.5000     6.3671   153.3694
 2672.0000     6.3646   151.0040
 2672.5000     6.4125   136.8972
