~VERSION INFORMATION
 VERS.                2.0:   CWLS LOG ASCII STANDARD - VERSION 2.0
 WRAP.                 NO:   ONE LINE PER DEPTH STEP
~WELL INFORMATION
#MNEM.UNIT      DATA TYPE    INFORMATION
#----------   ------------   ------------------------------
 STRT.F            0.0000:   START DEPTH
 STOP.F          530.0000:   STOP DEPTH
 STEP.F            0.5000:   STEP LENGTH
 NULL.          -999.2500:   NO VALUE
 COMP.   LAWRENCE-ALLISON:   COMPANY
 WELL. NPR 3 #51-56SX10 OB3:   WELL
 FLD .             TEAPOT:   FIELD
 LOC .      S10 T38N R78W:   LOCATION
 CNTY.            NATRONA:   COUNTY
 STAT.            WYOMING:   STATE
 CTRY. UNITED STATES OF AMERICA:   COUNTRY
 SRVC.           Gearhart:   SERVICE COMPANY
 DATE.        28-JUN-1987:   LOGDATE
 API .       490251100800:   API NUMBER
~CURVE INFORMATION
#MNEM.UNIT       API CODE    CURVE DESCRIPTION
#----------   ------------   ------------------------------
 DEPT.F                  :   
 CALD.IN     45 280 60 00:   CALIPER ROM DENSITY LOG
 CNC .DEC    45 890 03 00:   NEUTRON POROSITY SANDSTONE
 CORR.G/C3   45 356 01 00:   DENSITY CORRECTION
 DEN .G/C3   45 350 01 00:   COMPENSATED BULK DENSTIY
 PORD.DEC    45 890 12 00:   POROSITY DENSITY SANDSTONE
 GRR .GAPI   07 310 01 00:   GAMMA RAY
 ILD .OHMM   07 120 46 00:   INDUCTION LOG DEEP
 ILM .OHMM   07 120 44 00:   INDUCTION LOG MEDIUM
 LL  .OHMM   07 220 00 00:   LATEROLOG RESISTIVITY
 SPR .MV     07 010 01 00:   SPONTANEOUS POTENTIAL
 DT  .US/F   60 520 00 00:   INTERVAL TRANSIT TIME
~PARAMETER INFORMATION
#MNEM.UNIT          VALUE    DESCRIPTION
#----------   ------------   ------------------------------
 PD  .                 GL:   PERMANENT DATUM
 EPD .F              5198:   ELEVATION PERMANENT DATUM
 LMF .                 KB:   LOG MEASURED FROM
 DAPD.F                 8:   FEET ABOVE PERMANENT DATUM
 DMF .                 KB:   DRILLING MEASURED FROM
 EKB .F              5206:   KELLING BUSHING
 EDF .F              5204:   DRILLING FLOOR
 EGL .F              5198:   GROUND LEVEL
 DATE.        28-JUN-1987:   RUN DATE
 RUN .                  1:   RUN NUMBER
 DD  .F               535:   DEPTH DRILLER
 DL  .F               536:   DEPTH LOGGER
 BLI .F               533:   BOTTOM LOG INTERVAL
 BS  .IN             7.87:   BIT SIZE
 BSD .F               535:   BIT SIZE AT DEPTH
 DFT .                MUD:   DRILLING FLUID TYPE
 RMS .OHMM           0.84:   RESISTIVITY MUD SAMPLE
 MST .F                57:   MUD SAMPLE TEMPERATURE
 RMF .OHMM           0.63:   RESISTIVITY MUD FILTRATE SAMPLE
 MFST.F                57:   MUD FILTRATE SAMPLE TEMPERATURE
 RMC .OHMM           1.05:   RESISTIVITY MUD CAKE
 MCST.F                57:   MUD CAKE SAMPLE TEMPERATURE
 MFSS.               CALC:   MUD FILTRATE SAMPLE SOURCE
 MCSS.               CALC:   MUD CAKE SAMPLE SOURCE
 RMB .OHMM           0.59:   RESISTIVITY MUD AT BHT
 BHT .F                80:   BOTTOM HOLE TEMPERATURE
 TCS .HRS            1200:   TIME CURCULATED STOPPED
 TLAB.HRS            1322:   TIME LOGGER AT BOTTOM
 LUN .               7650:   LOGGING UNIT NUMBER
 LUL .           GILLETTE:   LOGGING UNIT LOCATION
 ENGI. JOHNSTON/HUCKFELDT:   RECORDING ENGINEER
 WITN.             STRONG:   WITNESSED BY
 CLNT.            A2DTECH:   CLIENT CODE
 ORIG.      2.5" 5" PRINT:   ORIGIN OF DATA
 UWI .       490251100800:   UNIQUE WELL ID
 DICO. A2D Technologies, Inc.:   DIGITIZING COMPANY
~OTHER INFORMATION
~A    DEPT    CALD        CNC       CORR        DEN       PORD         GRR         ILD        ILM       LL        SPR         DT   
# ...
  335.5000     6.4643     0.2603     0.0162     2.3335     0.2065    72.2857    17.9280    17.3547    14.6276   -34.9219   101.4282
  336.0000     6.4651     0.2579     0.0117     2.3335     0.2065    72.8892    17.6860    17.1193    14.3100   -34.9189   101.5853
  336.5000     6.4808     0.2573     0.0269     2.3321     0.2095    74.6939    17.6896    17.1216    14.1160   -34.9159   101.5156
  337.0000     6.4983     0.2669     0.0345     2.3261     0.2115    75.8980    17.4505    17.1240    14.1184   -34.9124   100.7657
  337.5000     6.5119     0.2741     0.0211     2.3246     0.2121    75.9009    17.4543    17.1263    14.1202   -34.9095    99.6378
  338.0000     6.5127     0.2753     0.0061     2.3246     0.2115    75.2633    17.2188    16.8939    14.1221   -34.9066    99.3399
  338.5000     6.4984     0.2710    -0.0058     2.3428     0.2036    74.6256    17.2223    16.6054    14.1240   -34.9037    99.4229
  339.0000     6.4993     0.2704    -0.0027     2.3564     0.1927    73.9880    17.2258    16.2137    14.1259   -35.2011    99.8067
  339.5000     6.4702     0.2791     0.0095     2.3632     0.1891    73.5101    16.9932    15.9070    13.9343   -34.8979   100.0393
  340.0000     6.4560     0.2830     0.0081     2.3595     0.1901    74.7147    16.7639    15.6766    13.7453   -34.8949   100.1209
  340.5000     6.4570     0.2829     0.0036     2.3542     0.1945    76.1591    16.4781    15.3504    13.5466   -34.8919   100.1270
  341.0000     6.4577     0.2769     0.0038     2.3497     0.1966    77.1231    16.3145    15.1427    13.1442   -34.8889    99.9829
  341.5000     6.4584     0.2739     0.0023     2.3490     0.1968    76.2052    16.0079    15.1447    12.6591   -34.9705    99.6865
  342.0000     6.4592     0.2685     0.0009     2.3491     0.1968    74.7267    15.7778    15.1467    12.6610   -35.1837    99.8436
  342.5000     6.4599     0.2663     0.0056     2.3491     0.1953    74.7302    15.6636    15.3591    12.6627   -35.3078   100.1518
  343.0000     6.4606     0.2657     0.0223     2.3529     0.1928    75.3337    15.4523    15.3611    12.6645   -35.7778   100.1577
  343.5000     6.4614     0.2666     0.0329     2.3552     0.1940    78.9402    15.4561    15.3632    12.6662   -35.9454   100.1637
  344.0000     6.4474     0.2672     0.0345     2.3492     0.1976    80.7449    15.4592    15.3652    12.8438   -36.0721    99.9428
  344.5000     6.4481     0.2665     0.0331     2.3485     0.1979    80.1472    15.4623    15.3673    12.8459   -36.0687    99.5708
  345.0000     6.4338     0.2695     0.0227     2.3493     0.1973    77.1471    15.4654    15.3695    13.0260   -36.0658    99.4255
  345.5000     6.4197     0.2770     0.0062     2.3508     0.1966    75.9489    15.4685    15.3716    13.0278   -36.0629    99.5828
  346.0000     6.4206     0.2809     0.0048     2.3463     0.1993    75.9520    15.4716    15.3737    13.0295   -35.7597    99.6655
  346.5000     6.4213     0.2761     0.0170     2.3381     0.2035    76.6756    15.4747    15.3011    12.6768   -35.4565    99.8982
  347.0000     6.4221     0.2703     0.0186     2.3374     0.2047    77.4795    15.4779    15.0794    12.3336   -35.4535    99.9041
  347.5000     6.4228     0.2709     0.0172     2.3442     0.2007    78.9640    15.2689    14.3601    11.8355   -35.4505    99.6077
  348.0000     6.4235     0.2736     0.0173     2.3578     0.1913    79.5676    15.2221    13.5659    11.0485   -35.3834    98.8577
  348.5000     6.4243     0.2742     0.0174     2.3631     0.1883    79.5706    15.0034    13.2197    11.0705   -35.0586    98.4101
  349.0000     6.4250     0.2726     0.0250     2.3647     0.1880    79.2532    14.6590    13.0404    11.3606   -34.8408    98.2634
  349.5000     6.4406     0.2666     0.0462     2.3647     0.1880    76.5742    14.5752    13.0421    11.5199   -35.1381    97.9684
  350.0000     6.4562     0.2664     0.0599     2.3647     0.1876    73.5741    14.3657    12.8651    11.6815   -35.4354    96.6845
  350.5000     6.4571     0.2677     0.0495     2.3768     0.1840    72.3758    14.2696    12.6907    11.6831   -35.7327    95.1323
  351.0000     6.4580     0.2791     0.0300     2.3859     0.1755    75.3817    14.0777    12.6925    11.4510   -36.3298    94.3559
  351.5000     6.4588     0.2803     0.0089     2.4018     0.1662    77.7870    13.8873    12.7009    11.0592   -36.6276    94.2837
  352.0000     6.4449     0.2749     0.0166     2.4048     0.1634    79.5917    13.8905    12.8722    11.0610   -36.6243    95.3475
  352.5000     6.4309     0.2580     0.0061     2.4018     0.1661    80.7958    13.8933    12.8740    11.2161   -36.6214    97.2417
  353.0000     6.4320     0.2549     0.0001     2.3981     0.1700    82.0000    14.0890    12.8757    11.3733   -36.6185    97.8509
  353.5000     6.4328     0.2552     0.0123     2.3921     0.1739    82.0030    14.0918    12.9332    11.3749   -36.3143    97.7798
  354.0000     6.4337     0.2564     0.0260     2.3898     0.1741    81.8859    14.2903    13.0581    11.5343   -35.4114    97.4063
  354.5000     6.4346     0.2473     0.0411     2.3944     0.1693    80.4875    14.3101    13.0599    11.6960   -35.3649    97.0329
  355.0000     6.4354     0.2445     0.0397     2.4027     0.1650    77.8077    14.6959    13.0617    11.6976   -35.1051    96.9607
  355.5000     6.4363     0.2475     0.0350     2.4020     0.1652    74.5676    14.6990    13.0635    11.8726   -35.1021    96.6640
  356.0000     6.4372     0.2517     0.0248     2.3960     0.1701    74.8108    14.7020    13.0656    12.2175   -35.0991    96.4417
  356.5000     6.4380     0.2481     0.0249     2.3960     0.1704    75.1342    14.7051    13.0674    12.4003   -35.0961    96.2939
  357.0000     6.4389     0.2414     0.0310     2.3983     0.1664    74.8174    14.7081    13.1070    12.7135   -35.0931    96.0728
  357.5000     6.4398     0.2429     0.0417     2.4081     0.1618    71.8173    14.7112    13.0707    12.6572   -35.0901    95.2458
  358.0000     6.4407     0.2471     0.0357     2.4142     0.1600    71.2192    14.7142    13.0726    12.3707   -35.3874    95.0234
  358.5000     6.4417     0.2507     0.0072     2.4120     0.1600    72.4237    14.5163    13.0743    12.3728   -35.3840    95.0281
  359.0000     6.4426     0.2512     0.0103     2.4082     0.1605    77.2314    14.3204    13.0761    12.1159   -35.3811    95.0326
  359.5000     6.4284     0.2506     0.0209     2.4022     0.1629    79.0361    13.9337    12.8526    11.3938   -35.3782    95.0371
  360.0000     6.4144     0.2466     0.0256     2.4007     0.1682    78.4384    13.3718    12.2776    11.0852   -35.3753    94.4369
  360.5000     6.4155     0.2333     0.0136     2.3932     0.1716    78.4414    13.1911    11.1993    11.0869   -35.3724    93.6049
  361.0000     6.4164     0.2306     0.0076     2.3955     0.1713    78.5245    13.1939    11.0880    11.0884   -35.3233    93.1560
  361.5000     6.4172     0.2318     0.0047     2.3963     0.1700    79.8890    13.1966    11.0898    11.0899   -33.0861    92.7725
  362.0000     6.4023     0.2347     0.0048     2.3979     0.1685    81.6136    13.1993    11.0913    11.0913   -31.7601    92.2530
  362.5000     6.3893     0.2404     0.0049     2.3986     0.1681    82.0571    13.2020    11.0928    11.0928   -36.0485    91.7889
  363.0000     6.3904     0.2407     0.0067     2.3987     0.1669    82.0601    13.2048    11.0946    11.0842   -36.2588    91.2904
  363.5000     6.3912     0.2401     0.0096     2.4012     0.1618    82.0631    13.4383    11.4064    10.7549   -36.2553    90.9926
  364.0000     6.3921     0.2414     0.0187     2.4141     0.1593    81.4655    14.0213    11.7268    10.6476   -36.2522    90.5435
  364.5000     6.3929     0.2508     0.0354     2.4239     0.1530    79.0667    14.7884    12.9168    10.9875   -36.0756    90.0945
  365.0000     6.3938     0.2532     0.0490     2.4274     0.1511    77.2678    16.2313    15.4546    13.0059   -35.6451    89.8723
  365.5000     6.3796     0.2532     0.0356     2.4282     0.1505    68.2617    17.9242    17.7417    17.1961   -34.1407    89.9523
