~VERSION INFORMATION
 VERS.                2.0:   CWLS LOG ASCII STANDARD - VERSION 2.0
 WRAP.                 NO:   ONE LINE PER DEPTH STEP
~WELL INFORMATION
#MNEM.UNIT      DATA TYPE    INFORMATION
#----------   ------------   ------------------------------
 STRT.F           15.0000:   START DEPTH
 STOP.F          692.0000:   STOP DEPTH
 STEP.F            0.5000:   STEP LENGTH
 NULL.          -999.2500:   NO VALUE
 COMP.    FENIX & SCISSON:   COMPANY
 WELL. S 15 NPR #3 #73-15:   WELL
 FLD .             TEAPOT:   FIELD
 LOC .      S15 T38N R78W:   LOCATION
 CNTY.            NATRONA:   COUNTY
 STAT.            WYOMING:   STATE
 CTRY. UNITED STATES OF AMERICA:   COUNTRY
 SRVC.              Welex:   SERVICE COMPANY
 DATE.        23-FEB-1977:   LOGDATE
 API .       490251057900:   API NUMBER
~CURVE INFORMATION
#MNEM.UNIT       API CODE    CURVE DESCRIPTION
#----------   ------------   ------------------------------
 DEPT.F                  :   
 SPR .MV     07 010 01 00:   SPONTANEOUS POTENTIAL
 SGRD.OHMM   07 220 05 00:   SHALLOW GUARD RESISTIVITY
 ILD .OHMM   07 120 46 00:   INDUCTION LOG DEEP
 ILM .OHMM   07 120 44 00:   INDUCTION LOG MEDIUM
 CALD.IN     45 280 60 00:   CALIPER
 GRD .GAPI   45 310 01 00:   GAMMA RAY FROM DENSITY LOG
 CORR.G/C3   45 356 01 00:   DENSITY CORRECTION
 DPHI.DEC    45 890 10 00:   DENSITY POROSITY SANDSTONE
 RHOB.G/C3   45 350 01 00:   BULK DENSITY
~PARAMETER INFORMATION
#MNEM.UNIT          VALUE    DESCRIPTION
#----------   ------------   ------------------------------
 PD  .                 GL:   PERMANENT DATUM
 EPD .F              5251:   ELEVATION PERMANENT DATUM
 LMF .                 GL:   LOG MEASURED FROM
 DMF .                 GL:   DRILLING MEASURED FROM
 EGL .F              5251:   GROUND LEVEL
 DATE.            2-23-77:   RUN DATE
 RUN .                  1:   RUN NUMBER
 DD  .F               686:   DEPTH DRILLER
 DL  .F               695:   DEPTH LOGGER
 BLI .F               693:   BOTTOM LOG INTERVAL
 TLI .F                42:   TOP LOG INTERVAL
 CS  .IN            8.625:   CASING SIZE
 CBD .F                42:   CASING BOTTOM DRILLER
 CBL .F                42:   CASING BOTTOM LOGGER
 BS  .IN            7.875:   BIT SIZE
 BSD .F               686:   BIT SIZE AT DEPTH
 DFT .           CHEM GEL:   DRILLING FLUID TYPE
 DFD .                8.8:   DRILLING FLUID DENSITY
 DFV .                 33:   DRILLING FLUID VISCOSITY
 DFPH.                  7:   DRILLING FLUID PH
 DFL .               11.2:   DRILLING FLUID LOSS
 MSS .          FLOW LINE:   MUD SAMPLE SOURCE
 RMS .OHMM            .32:   RESISTIVITY MUD SAMPLE
 MST .F                68:   MUD SAMPLE TEMPERATURE
 RMF .OHMM            .28:   RESISTIVITY MUD FILTRATE SAMPLE
 MFST.F                68:   MUD FILTRATE SAMPLE TEMPERATURE
 RMC .OHMM            .61:   RESISTIVITY MUD CAKE
 MCST.F                68:   MUD CAKE SAMPLE TEMPERATURE
 MFSS.           MEASURED:   MUD FILTRATE SAMPLE SOURCE
 MCSS.           MEASURED:   MUD CAKE SAMPLE SOURCE
 RMB .OHMM           .410:   RESISTIVITY MUD AT BHT
 BHT .F                53:   BOTTOM HOLE TEMPERATURE
 TCS .HRS               2:   TIME CURCULATED STOPPED
 MRT .F                53:   MAXIMUM RECORDED TEMPERATURE
 LUN .               8611:   LOGGING UNIT NUMBER
 LUL .           GILLETTE:   LOGGING UNIT LOCATION
 ENGI.            C. DOAK:   RECORDING ENGINEER
 WITN.         STUEBINGER:   WITNESSED BY
 CLNT.            A2DTECH:   CLIENT CODE
 ORIG. 1", 2.5", 5" PRINT:   ORIGIN OF DATA
 UWI .       490251057900:   UNIQUE WELL ID
 DICO. A2D Technologies, Inc.:   DIGITIZING COMPANY
~OTHER INFORMATION
~A   DEPT      SPR       SGRD        ILD        ILM       CALD         GRD      CORR       DPHI       RHOB   
# ...
  343.5000   -51.8983     9.8865     7.0561     9.2879     8.2605   127.7332     0.0690     0.0970     2.4879
  344.0000   -52.0953     9.9080     7.1401     9.3187     8.2623   128.9492     0.0718     0.0960     2.4824
  344.5000   -52.1912     9.9493     7.2451     9.3504     8.2640   124.9914     0.0764     0.0936     2.4875
  345.0000   -51.9103    10.0085     7.2412     9.3833     8.2658   123.2098     0.0810     0.0912     2.4927
  345.5000   -51.5414    10.1019     7.2333     9.3640     8.2676   127.3336     0.0855     0.0888     2.4983
  346.0000   -51.1722    10.0494     7.2253     9.3439     8.2694   126.4582     0.0900     0.0865     2.5037
  346.5000   -50.7719     9.9140     7.2174     9.3239     8.2711   122.5992     0.0945     0.0830     2.5099
  347.0000   -50.6817     9.7363     7.2094     9.3039     8.2729   124.5031     0.0991     0.0785     2.5119
  347.5000   -50.9661     9.7597     7.2014     9.2839     8.2747   123.1108     0.0996     0.0824     2.5085
  348.0000   -51.2164     9.7956     7.1936     9.2641     8.2764   119.8363     0.0960     0.0881     2.5054
  348.5000   -51.4653     9.8313     7.1856     9.2433     8.2782   118.7580     0.0927     0.0897     2.5019
  349.0000   -51.7257     9.8671     7.1777     9.2135     8.2800   122.3264     0.0893     0.0864     2.4999
  349.5000   -51.9803     9.9030     7.1699     9.2329     8.2817   123.3468     0.0857     0.0829     2.5051
  350.0000   -52.1796     9.9179     7.1620     9.2966     8.2835   119.9247     0.0851     0.0794     2.5120
  350.5000   -52.2116    10.2716     7.1542     9.3603     8.2853   120.9290     0.0866     0.0759     2.5189
  351.0000   -52.2545    10.5772     7.1464     9.4225     8.2871   124.5237     0.0880     0.0738     2.5229
  351.5000   -52.2915    10.8768     7.1386     9.4839     8.2888   123.2652     0.0893     0.0755     2.5183
  352.0000   -52.3296    10.5387     7.1308     9.5560     8.2908   121.9235     0.0906     0.0795     2.5141
  352.5000   -52.3685    10.2288     7.1229     9.5267     8.2926   123.8182     0.0922     0.0835     2.5096
  353.0000   -52.4068     9.9288     7.1143     9.4932     8.2946   126.1084     0.0908     0.0885     2.5053
  353.5000   -52.4448     9.5805     7.0973     9.4598     8.2966   128.1862     0.0879     0.0940     2.4958
  354.0000   -52.4837     9.6263     7.0783     9.4261     8.2987   127.6258     0.0851     0.1000     2.4863
  354.5000   -52.5227     9.7238     7.0593     9.3921     8.3007   125.8139     0.0821     0.1008     2.4769
  355.0000   -52.5581     9.8221     7.0404     9.3582     8.3027   122.7509     0.0811     0.1024     2.4746
  355.5000   -52.6258     9.9214     7.0216     9.3246     8.3047   120.5871     0.0839     0.0953     2.4887
  356.0000   -52.7231    10.0217     7.0028     9.2911     8.3068   122.2320     0.0863     0.0876     2.5048
  356.5000   -52.8171    10.0806     6.9838     9.2583     8.3088   125.8146     0.0889     0.0841     2.5055
  357.0000   -52.9107     9.9760     6.9652     9.2257     8.3108   126.4069     0.0914     0.0887     2.5014
  357.5000   -53.0053     9.8724     6.9461     9.1863     8.3128   123.9066     0.0923     0.0928     2.4981
  358.0000   -53.0994     9.7376     6.9267     9.1427     8.3148   121.0209     0.0896     0.0952     2.5000
  358.5000   -53.1935     9.7535     6.9099     9.0995     8.3169   117.8419     0.0873     0.0864     2.5019
  359.0000   -53.2881     9.7805     6.8919     9.0571     8.3189   116.6125     0.0848     0.0913     2.4992
  359.5000   -53.3820     9.8083     6.8727     9.0142     8.3210   116.7723     0.0824     0.0885     2.4990
  360.0000   -53.4759     9.8354     6.8565     8.9721     8.3230   121.1385     0.0801     0.0841     2.5030
  360.5000   -53.5720     9.8625     6.6045     8.9301     8.3249   128.1589     0.0776     0.0840     2.5057
  361.0000   -53.6623     9.8897     6.3870     8.8884     8.3273   127.0793     0.0753     0.0863     2.5026
  361.5000   -53.7635     9.9179     6.2194     8.7223     8.3289   122.9836     0.0728     0.0889     2.5001
  362.0000   -53.7691     9.5316     6.1304     8.5202     8.3297   120.0320     0.0741     0.0889     2.4973
  362.5000   -53.7717     9.1485     6.0426     8.3228     8.3153   117.6814     0.0757     0.0901     2.4946
  363.0000   -53.7696     8.7158     5.9560     8.1299     8.3034   115.0257     0.0774     0.0918     2.4918
  363.5000   -53.7702     8.7158     5.8707     7.9416     8.2904   117.3984     0.0791     0.0936     2.4886
  364.0000   -53.7702     8.7158     5.8071     7.8258     8.2775   121.7740     0.0808     0.0960     2.4848
  364.5000   -53.7699     8.8324     5.8071     7.9235     8.2655   121.4683     0.0824     0.0988     2.4809
  365.0000   -53.7699     8.9715     5.8509     8.0225     8.2519   120.7177     0.0841     0.1017     2.4770
  365.5000   -53.7698     9.1128     5.9172     8.1226     8.2526   122.1720     0.0824     0.1020     2.4761
  366.0000   -53.7698     9.2564     5.9841     8.2241     8.2538   123.9133     0.0794     0.1010     2.4779
  366.5000   -53.7698     9.3837     6.0518     8.3268     8.2558   125.8566     0.0765     0.1000     2.4797
  367.0000   -53.7696     9.3977     6.1203     8.4307     8.2574   126.0866     0.0737     0.1032     2.4730
  367.5000   -53.7698     9.4165     6.1895     8.5360     8.2590   124.2010     0.0707     0.1064     2.4729
  368.0000   -53.7696     9.4359     6.2596     8.6426     8.2607   121.1548     0.0690     0.1019     2.4820
  368.5000   -53.7691     9.4551     6.3304     8.7505     8.2624   119.7680     0.0709     0.0975     2.4864
  369.0000   -53.7789     9.4740     6.4021     8.8598     8.2641   120.7590     0.0726     0.0959     2.4860
  369.5000   -53.8149     9.4924     6.4871     8.9704     8.2657   120.7927     0.0745     0.0960     2.4863
  370.0000   -53.8503     9.5103     6.4573     9.0824     8.2674   119.7372     0.0763     0.0936     2.4904
  370.5000   -53.8863     9.5283     6.3888     9.2121     8.2690   119.3944     0.0782     0.0913     2.4941
  371.0000   -53.9223     9.5467     6.3211     9.1382     8.2707   120.5586     0.0800     0.0888     2.4982
  371.5000   -53.9581     9.6863     6.2541     9.0436     8.2724   121.7746     0.0818     0.0901     2.5002
  372.0000   -53.9941     9.5113     6.1878     8.9333     8.2740   122.8396     0.0839     0.0925     2.4941
  372.5000   -54.0301     9.3395     6.1223     8.8110     8.2757   120.6937     0.0821     0.0958     2.4855
  373.0000   -54.0658     9.1708     6.0574     8.6903     8.2773   118.6428     0.0768     0.0998     2.4771
  373.5000   -54.1020     9.0051     5.9932     8.5713     8.2790   117.3272     0.0713     0.1038     2.4701
  374.0000   -54.1379     8.8424     5.9296     8.4539     8.2807   118.7211     0.0698     0.1064     2.4717
  374.5000   -54.1663     8.6826     5.7280     8.3382     8.2823   120.0360     0.0744     0.1024     2.4760
  375.0000   -54.1665     8.5564     5.4943     8.2463     8.2840   121.0521     0.0786     0.0984     2.4804
  375.5000   -54.1670     8.3968     5.2699     7.7964     8.2856   121.8700     0.0826     0.0984     2.4822
  376.0000   -54.1668     8.2023     5.0547     7.4393     8.2874   122.6431     0.0870     0.0998     2.4808
  376.5000   -54.1667     8.0123     4.8485     7.0986     8.2889   123.3831     0.0887     0.1015     2.4792
  377.0000   -54.1668     7.8021     4.6508     6.7734     8.2907   123.1471     0.0874     0.1024     2.4780
  377.5000   -54.1667     5.8242     4.4004     6.4632     8.2881   122.0824     0.0848     0.1045     2.4759
  378.0000   -54.1667     4.0145     4.4035     6.3685     8.2849   120.9985     0.0824     0.1064     2.4750
  378.5000   -54.1667     5.5276     4.4000     6.3685     8.2816   120.2041     0.0798     0.1123     2.4604
  379.0000   -54.1667     8.0955     4.5462     6.7112     8.2784   121.9499     0.0773     0.1178     2.4456
  379.5000   -54.1667     8.7158     4.7421     7.0332     8.2752   119.3836     0.0748     0.1239     2.4311
