~VERSION INFORMATION
 VERS.                2.0:   CWLS LOG ASCII STANDARD - VERSION 2.0
 WRAP.                 NO:   ONE LINE PER DEPTH STEP
~WELL INFORMATION
#MNEM.UNIT      DATA TYPE    INFORMATION
#----------   ------------   ------------------------------
 STRT.F           15.0000:   START DEPTH
 STOP.F          557.0000:   STOP DEPTH
 STEP.F            0.5000:   STEP LENGTH
 NULL.          -999.2500:   NO VALUE
 COMP. FENIX & SICISSOR INC.:   COMPANY
 WELL.       NPR #85-S-10:   WELL
 FLD .             TEAPOT:   FIELD
 LOC .      S10 T38N R78W:   LOCATION
 CNTY.            NATRONA:   COUNTY
 STAT.            WYOMING:   STATE
 CTRY. UNITED STATES OF AMERICA:   COUNTRY
 SRVC.           BIRDWELL:   SERVICE COMPANY
 DATE.        27-NOV-1978:   LOGDATE
 API .       490251075300:   API NUMBER
~CURVE INFORMATION
#MNEM.UNIT       API CODE    CURVE DESCRIPTION
#----------   ------------   ------------------------------
 DEPT.F                  :   
 CALD.IN     45 280 60 00:   CALIPER FROM DENSITY LOG
 DPHI.DEC    45 890 12 00:   DENSITY POROSITY SANDSTONE
 GRD .GAPI   45 310 01 00:   GAMMA RAY FROM DENSITY LOG
 RHOB.G/C3   45 350 01 00:   BULK DENSITY
 CORR.G/C3   45 356 01 00:   DENSITY CORRECTION
 ILD .OHMM   05 120 46 00:   INDUCTION LOG DEEP
 SN  .OHMM   05 040 00 00:   SHORT NORMAL
 SPR .MV     05 010 01 00:   SPONTANEOUS POTENTIAL
~PARAMETER INFORMATION
#MNEM.UNIT          VALUE    DESCRIPTION
#----------   ------------   ------------------------------
 PD  .                 GL:   PERMANENT DATUM
 EPD .F              5196:   ELEVATION PERMANENT DATUM
 LMF .                 KB:   LOG MEASURED FROM
 DAPD.F                 4:   FEET ABOVE PERMANENT DATUM
 DMF .                 KB:   DRILLING MEASURED FROM
 EKB .F              5200:   KELLING BUSHING
 EGL .F              5196:   GROUND LEVEL
 DATE.        27-NOV-1978:   RUN DATE
 RUN .                  1:   RUN NUMBER
 DD  .F               557:   DEPTH DRILLER
 DL  .F               551:   DEPTH LOGGER
 BLI .F               545:   BOTTOM LOG INTERVAL
 TLI .F                48:   TOP LOG INTERVAL
 CS  .IN            8.625:   CASING SIZE
 CBD .F                40:   CASING BOTTOM DRILLER
 CBL .F                35:   CASING BOTTOM LOGGER
 BS  .IN            7.875:   BIT SIZE
 BSD .F               557:   BIT SIZE AT DEPTH
 DFT .                KCL:   DRILLING FLUID TYPE
 DFD .                8.8:   DRILLING FLUID DENSITY
 DFV .                 38:   DRILLING FLUID VISCOSITY
 DFPH.               11.1:   DRILLING FLUID PH
 DFL .                 14:   DRILLING FLUID LOSS
 MSS .           FLOWLINE:   MUD SAMPLE SOURCE
 RMS .OHMM           0.32:   RESISTIVITY MUD SAMPLE
 MST .F                58:   MUD SAMPLE TEMPERATURE
 RMF .OHMM           0.31:   RESISTIVITY MUD FILTRATE SAMPLE
 MFST.F                74:   MUD FILTRATE SAMPLE TEMPERATURE
 RMC .OHMM           0.53:   RESISTIVITY MUD CAKE
 MCST.F                75:   MUD CAKE SAMPLE TEMPERATURE
 MFSS.               MEAS:   MUD FILTRATE SAMPLE SOURCE
 MCSS.               MEAS:   MUD CAKE SAMPLE SOURCE
 RMB .OHMM           0.31:   RESISTIVITY MUD AT BHT
 BHT .F                59:   BOTTOM HOLE TEMPERATURE
 TCS .HRS               2:   TIME CURCULATED STOPPED
 MRT .F                59:   MAXIMUM RECORDED TEMPERATURE
 LUN .               2958:   LOGGING UNIT NUMBER
 LUL .             CASPER:   LOGGING UNIT LOCATION
 ENGI.             MILLER:   RECORDING ENGINEER
 WITN.           DINSMORE:   WITNESSED BY
 CLNT.            A2DTECH:   CLIENT CODE
 ORIG.         2.5" PRINT:   ORIGIN OF DATA
 UWI .       490251075300:   UNIQUE WELL ID
 DICO. A2D Technologies, Inc.:   DIGITIZING COMPANY
~OTHER INFORMATION
~A   DEPT     CALD       DPHI         GRD      RHOB       CORR        ILD         SN        SPR   
# ...
  501.0000     8.2712     0.1597    94.4404     2.4229     0.0150    10.5797    10.6499   -31.6955
  501.5000     8.2749     0.1651    94.8970     2.4098     0.0119    10.4762    10.5005   -31.6890
  502.0000     8.2786     0.1671    95.2212     2.4052     0.0058    10.3728    10.3531   -32.0569
  502.5000     8.2823     0.1578    95.6728     2.4037     0.0180    10.2693    10.3517   -32.3730
  503.0000     8.2860     0.1535    95.6764     2.4084     0.0238    10.1658    10.3335   -32.8913
  503.5000     8.2897     0.1517    95.6794     2.4343     0.0172    10.0730    10.2050   -33.0051
  504.0000     8.2934     0.1508    95.3762     2.4332     0.0109     9.9330    10.0617   -33.4878
  504.5000     8.2971     0.1557    95.0737     2.4249     0.0056     9.9330    10.0603   -34.0915
  505.0000     8.3008     0.1605    94.7709     2.4178     0.0056     9.7338     9.8616   -34.5630
  505.5000     8.3045     0.1599    95.0797     2.4154     0.0055     9.6587     9.7103   -35.2977
  506.0000     8.3082     0.1533    95.6943     2.4156     0.0055     9.6587     9.6129   -35.5966
  506.5000     8.3119     0.1540    98.1438     2.4177     0.0115     9.6587     9.6063   -35.8956
  507.0000     8.3156     0.1578    98.1468     2.4193     0.0144     9.5245     9.3522   -35.8896
  507.5000     8.3193     0.1618   100.2905     2.4163     0.0174     9.3921     9.3312   -36.1886
  508.0000     8.3230     0.1665   103.6983     2.4117     0.0204     9.3921     9.0986   -36.4878
  508.5000     8.3267     0.1703   103.9664     2.3981     0.0233     9.2615     8.9377   -37.0915
  509.0000     8.3304     0.1780   104.0408     2.3845     0.0263     9.1235     8.6862   -37.6952
  509.5000     8.3341     0.1858   104.6707     2.3725     0.0294     8.8619     8.5124   -37.9941
  510.0000     8.3378     0.1863   106.9317     2.3649     0.0352     8.5539     8.3199   -38.2931
  510.5000     8.3415     0.1831   125.0693     2.3634     0.0352     7.7303     8.0857   -38.6494
  511.0000     8.3452     0.1708   133.4312     2.3857     0.0343     7.0474     7.8581   -38.8910
  511.5000     8.3489     0.1482   134.4179     2.4255     0.0291     6.0551     7.4925   -39.4948
  512.0000     8.3526     0.1289   132.9787     2.4451     0.0290     5.2537     6.7941   -39.9025
  512.5000     8.3558     0.1252   117.2681     2.4482     0.0350     5.0448     6.3359   -40.0915
  513.0000     8.3558     0.1252   103.3828     2.4482     0.0380     5.0457     5.9920   -40.3902
  513.5000     8.3558     0.1252   100.3277     2.4573     0.0409     5.1176     5.8279   -40.5457
  514.0000     8.3558     0.1264    96.3551     2.4664     0.0379     5.2634     5.8295   -40.6829
  514.5000     8.3558     0.1301    95.7462     2.4679     0.0378     5.5414     6.1674   -40.6758
  515.0000     8.3558     0.1344    95.6983     2.4647     0.0227     6.3181     7.3170   -40.9747
  515.5000     8.3558     0.1388    95.4465     2.4600     0.0106     7.2699     8.4437   -41.2737
  516.0000     8.3558     0.1436    95.7555     2.4526     0.0015     8.3651     9.4389   -41.2677
  516.5000     8.3252     0.1466    96.0642     2.4477    -0.0045     9.1004     9.9732   -41.8716
  517.0000     8.3252     0.1481   101.0111     2.4419    -0.0006     9.6266    10.2678   -41.8656
  517.5000     8.2945     0.1391   102.4922     2.4377     0.0058     9.9016    10.5241   -42.1646
  518.0000     8.2945     0.1287   101.5372     2.4460     0.0104     9.9030    10.5271   -42.1585
  518.5000     8.2945     0.1252   100.9691     2.4607     0.0092     9.9043    10.4465   -42.1524
  519.0000     8.2945     0.1281   100.6663     2.4680     0.0016     9.9057    10.5330   -42.1463
  519.5000     8.2331     0.1303   101.1029     2.4636    -0.0018     9.9071    10.5360   -42.1402
  520.0000     8.2331     0.1330   103.5270     2.4574    -0.0018     9.9085    10.5395   -42.1341
  520.5000     8.2316     0.1355   103.7334     2.4521    -0.0019    10.0498    10.6912   -42.2266
  521.0000     8.2025     0.1384   101.9429     2.4484    -0.0019    10.1931    10.8451   -42.4280
  521.5000     8.2025     0.1402   101.4515     2.4469    -0.0019    10.1945    11.0012   -42.5539
  522.0000     8.2025     0.1420   100.1958     2.4470    -0.0020    10.2458    11.1595   -43.1748
  522.5000     8.2025     0.1444    96.5341     2.4470    -0.0020    10.4873    11.3202   -43.6280
  523.0000     8.2331     0.1475    93.0464     2.4470    -0.0021    10.5559    11.4831   -43.9257
  523.5000     8.2331     0.1499    92.4378     2.4440    -0.0021    10.7145    11.6484   -44.2256
  524.0000     8.2761     0.1511    92.4408     2.4319     0.0008    10.7901    11.8161   -44.8284
  524.5000     8.2945     0.1517    92.1376     2.4259     0.0008    10.7919    11.8379   -44.8225
  525.0000     8.2945     0.1523    92.1409     2.4289     0.0018    10.7933    12.1589   -45.4263
  525.5000     8.2945     0.1492    92.4497     2.4335     0.0037    10.7948    12.1624   -45.7253
  526.0000     8.2945     0.1462    95.2050     2.4380     0.0037    10.9487    12.3375   -46.0244
  526.5000     8.2945     0.1442    94.9022     2.4395     0.0036    11.1048    12.3410   -46.6281
  527.0000     8.3252     0.1431    94.5993     2.4395     0.0006    11.1063    12.3444   -46.9451
  527.5000     8.3252     0.1426    94.2711     2.4392    -0.0025    11.1078    12.3479   -47.2612
  528.0000     8.3252     0.1487    92.3020     2.4333    -0.0025    11.1093    12.3514   -47.8821
  528.5000     8.3252     0.1600    90.0211     2.4175    -0.0086    11.1109    12.3548   -48.5030
  529.0000     8.3252     0.1692    90.2386     2.4037    -0.0117    11.1124    12.1869   -49.4289
  529.5000     8.3558     0.1724    91.6432     2.3975    -0.0147    11.1140    12.1902   -49.7449
  530.0000     8.3558     0.1688    91.5591     2.3943    -0.0146    11.1156    12.1935   -50.2451
  530.5000     8.3558     0.1570    91.5627     2.3950    -0.0084    11.1233    12.1969   -50.6819
  531.0000     8.3589     0.1514    91.5658     2.4050    -0.0028    11.1748    12.0303   -51.9208
  531.5000     8.3558     0.1480    91.5688     2.4220    -0.0089    11.2263    12.0336   -53.0121
  532.0000     8.3558     0.1480    91.7349     2.4352    -0.0119    11.2779    11.8693   -53.8769
  532.5000     8.3558     0.1540    91.8807     2.4291    -0.0120    11.3294    11.8726   -54.7856
  533.0000     8.3558     0.1582    92.1902     2.4201    -0.0120    11.3809    11.8759   -55.6944
  533.5000     8.3252     0.1570    92.4989     2.4140    -0.0086    11.4325    11.8793   -56.2982
  534.0000     8.3252     0.1478    93.1135     2.4140     0.0150    11.4447    11.8826   -57.2069
  534.5000     8.2945     0.1357    93.7282     2.4292     0.0300    11.4463    11.8859   -58.1156
  535.0000     8.2945     0.1231    94.9544     2.4716     0.0390    11.4479    11.7233   -59.3292
  535.5000     8.2945     0.1183   101.3794     2.4755     0.0329    11.4494    11.5632   -60.5498
  536.0000     8.2945     0.1184   101.4026     2.4776     0.0239    11.4510    11.3404   -61.4999
  536.5000     8.2945     0.1247   101.6912     2.4722     0.0147    11.4526    11.2504   -63.0529
  537.0000     8.2945     0.1355   101.6942     2.4561     0.0087    11.4541    11.0155   -64.3008
  537.5000     8.2945     0.1485   102.4617     2.4429     0.0082    11.4557    10.7055   -66.1585
  538.0000     8.2945     0.1539   105.0640     2.4337     0.0026    11.4573    10.6458   -67.8050
  538.5000     8.2945     0.1539   103.7879     2.4263     0.0065    11.4589    10.3548   -69.3750
  539.0000     8.2945     0.1531   102.4812     2.4293     0.0109    11.6223    10.3576   -71.3780
  539.5000     8.2331     0.1514   101.6228     2.4354     0.0233    11.5894    10.0740   -74.3305
  540.0000     8.2331     0.1401   101.4062     2.4384     0.0341    11.4635    10.0768   -77.7844
  540.5000     8.2331     0.1302   101.1034     2.4536     0.0385    11.4653    10.0795   -84.2610
  541.0000     8.2331     0.1264   100.8419     2.4702     0.0385    11.4073     9.9419   -87.6087
