~VERSION INFORMATION
 VERS.                2.0:   CWLS LOG ASCII STANDARD - VERSION 2.0
 WRAP.                 NO:   ONE LINE PER DEPTH STEP
~WELL INFORMATION
#MNEM.UNIT      DATA TYPE    INFORMATION
#----------   ------------   ------------------------------
 STRT.F           36.0000:   START DEPTH
 STOP.F          592.0000:   STOP DEPTH
 STEP.F            0.5000:   STEP LENGTH
 NULL.          -999.2500:   NO VALUE
 COMP. FENIX & SCISSON INC:   COMPANY
 WELL.           S #35-10:   WELL
 FLD .              NPR-3:   FIELD
 LOC .      S10 T38N R78W:   LOCATION
 CNTY.            NATRONA:   COUNTY
 STAT.            WYOMING:   STATE
 CTRY. UNITED STATES OF AMERICA:   COUNTRY
 SRVC.              Welex:   SERVICE COMPANY
 DATE.        07-MAR-1977:   LOGDATE
 API .       490251029000:   API NUMBER
~CURVE INFORMATION
#MNEM.UNIT       API CODE    CURVE DESCRIPTION
#----------   ------------   ------------------------------
 DEPT.F                  :   
 SPR .MV     07 010 01 00:   SPONTANEOUS POTENTIAL
 ILM .OHMM   07 120 44 00:   INDUCTION LOG MEDIUM
 ILD .OHMM   07 120 46 00:   INDUCTION LOG DEEP
 SGRD.OHMM   07 220 05 00:   SHALLOW GUARD RESISTIVITY
 CALD.IN     45 280 60 00:   CALIPER FROM DENSITY LOG
 RHOB.G/C3   45 350 01 00:   BULK DENSITY
 CORR.G/C3   45 356 01 00:   DENSITY CORRECTION
 DPHI.DEC    45 890 12 00:   DENSITY POROSITY SANDSTONE
 GRD .GAPI   45 310 01 00:   GAMMA RAY FROM DENSITY LOG
~PARAMETER INFORMATION
#MNEM.UNIT          VALUE    DESCRIPTION
#----------   ------------   ------------------------------
 PD  .                 GL:   PERMANENT DATUM
 EPD .F              5234:   ELEVATION PERMANENT DATUM
 LMF .                 GL:   LOG MEASURED FROM
 DMF .                 GL:   DRILLING MEASURED FROM
 EGL .F              5234:   GROUND LEVEL
 DATE.             3-7-77:   RUN DATE
 RUN .                  1:   RUN NUMBER
 DD  .F               600:   DEPTH DRILLER
 DL  .F               593:   DEPTH LOGGER
 BLI .F               591:   BOTTOM LOG INTERVAL
 TLI .F                35:   TOP LOG INTERVAL
 CS  .IN            8.625:   CASING SIZE
 CBD .F                42:   CASING BOTTOM DRILLER
 CBL .F                42:   CASING BOTTOM LOGGER
 BS  .IN            7.875:   BIT SIZE
 BSD .F               600:   BIT SIZE AT DEPTH
 DFT .            KCL MUD:   DRILLING FLUID TYPE
 MSS .          FLOW LINE:   MUD SAMPLE SOURCE
 RMS .OHMM            .40:   RESISTIVITY MUD SAMPLE
 MST .F                58:   MUD SAMPLE TEMPERATURE
 RMF .OHMM            .33:   RESISTIVITY MUD FILTRATE SAMPLE
 MFST.F                58:   MUD FILTRATE SAMPLE TEMPERATURE
 RMC .OHMM            .44:   RESISTIVITY MUD CAKE
 MCST.F                58:   MUD CAKE SAMPLE TEMPERATURE
 MFSS.           FANN KIT:   MUD FILTRATE SAMPLE SOURCE
 MCSS.           FANN KIT:   MUD CAKE SAMPLE SOURCE
 RMB .OHMM            .31:   RESISTIVITY MUD AT BHT
 BHT .F                62:   BOTTOM HOLE TEMPERATURE
 TCS .HRS               3:   TIME CURCULATED STOPPED
 MRT .F                62:   MAXIMUM RECORDED TEMPERATURE
 LUN .               8611:   LOGGING UNIT NUMBER
 LUL .           GILLETTE:   LOGGING UNIT LOCATION
 ENGI.            C. DOAK:   RECORDING ENGINEER
 WITN.      L. STUEBINGER:   WITNESSED BY
 CLNT.            A2DTECH:   CLIENT CODE
 ORIG.        2" 5" PRINT:   ORIGIN OF DATA
 UWI .       490251029000:   UNIQUE WELL ID
 DICO. A2D Technologies, Inc.:   DIGITIZING COMPANY
~OTHER INFORMATION
~A   DEPT      SPR        ILM        ILD       SGRD         CALD       RHOB      CORR        DPHI       GRD  
# ...
   72.5000   -47.0297     8.1354     6.6285     9.7374     7.8390     2.4492     0.0383     0.1160   120.6994
   73.0000   -47.0765     8.0450     6.6023     9.8450     7.8390     2.4430     0.0358     0.1191   122.0628
   73.5000   -47.1259     7.9548     6.5762     9.9458     7.8390     2.4365     0.0334     0.1222   123.3993
   74.0000   -47.1753     8.0702     6.5609    10.0054     7.8388     2.4369     0.0309     0.1242   124.7383
   74.5000   -47.2045     8.2522     6.5967     9.7195     7.8390     2.4467     0.0314     0.1239   126.0900
   75.0000   -47.1089     8.2522     6.6225     9.4695     7.8536     2.4565     0.0342     0.1202   127.3647
   75.5000   -47.0158     7.9548     6.7859     9.6536     7.9151     2.4663     0.0371     0.1165   125.0714
   76.0000   -46.9103     8.2876     6.9414     9.8614     7.9744     2.4683     0.0397     0.1128   122.3704
   76.5000   -46.8059     8.7690     7.0994    10.0737     8.0018     2.4629     0.0380     0.1119   119.7629
   77.0000   -46.7025     8.9660     7.2610    10.2906     8.0091     2.4574     0.0362     0.1140   118.0157
   77.5000   -46.6448     8.7881     7.4263    10.5122     8.0162     2.4545     0.0345     0.1153   118.5120
   78.0000   -46.7977     8.7191     7.5952    10.7077     8.0218     2.4567     0.0328     0.1146   117.1188
   78.5000   -46.9468     8.9937     7.7696    10.8665     8.0272     2.4586     0.0311     0.1138   118.4740
   79.0000   -47.0950     9.2125     7.8566    10.7673     8.0327     2.4588     0.0298     0.1130   120.8044
   79.5000   -47.1901     9.1561     7.8822    11.9105     8.0377     2.4568     0.0314     0.1122   123.1570
   80.0000   -46.9948     9.0634     7.8102    11.5787     8.0378     2.4592     0.0348     0.1113   124.6938
   80.5000   -46.8279     8.9716     7.7450    11.0764     8.0371     2.4626     0.0380     0.1103   126.0611
   81.0000   -46.9738     8.7283     7.6106    10.5914     8.0319     2.4661     0.0412     0.1092   126.3717
   81.5000   -47.1223     8.4753     7.4785    10.3174     8.0267     2.4722     0.0440     0.1082   126.1656
   82.0000   -47.2337     8.2296     7.3488    10.0289     8.0216     2.4890     0.0482     0.1071   126.5033
   82.5000   -47.3301     7.9945     7.2212     9.7511     8.0164     2.5062     0.0526     0.1068   127.1370
   83.0000   -47.4269     7.8102     7.0957     9.4861     8.0112     2.5034     0.0516     0.1074   127.6770
   83.5000   -47.5231     7.6663     6.9731     9.2042     8.0061     2.4811     0.0452     0.1111   126.4511
   84.0000   -47.6195     7.4601     6.8689     9.0732     8.0009     2.4513     0.0389     0.1150   125.1618
   84.5000   -47.7158     7.5331     6.9123     8.9975     7.9957     2.4420     0.0340     0.1189   123.0760
   85.0000   -47.8123     7.6644     6.9505     8.9223     7.9906     2.4342     0.0281     0.1228   120.8629
   85.5000   -47.9095     7.7980     6.9889     8.8806     7.9854     2.4341     0.0237     0.1241   118.6435
   86.0000   -48.0073     7.9339     7.0275     9.1501     7.9801     2.4372     0.0261     0.1215   116.3918
   86.5000   -47.9809     8.0722     7.0663     9.4734     7.9701     2.4462     0.0292     0.1167   116.5231
   87.0000   -47.9456     8.2129     7.1053     9.8084     7.9497     2.4552     0.0323     0.1113   118.3734
   87.5000   -47.9109     8.3562     7.1446    10.1556     7.9295     2.4642     0.0353     0.1082   120.2474
   88.0000   -47.8772     8.5028     7.1841    10.5731     7.9093     2.4732     0.0369     0.1051   122.5389
   88.5000   -47.8425     8.6395     7.2238    10.4469     7.8891     2.4788     0.0385     0.1020   125.0607
   89.0000   -47.7520     8.7191     7.2637    10.2577     7.8688     2.4811     0.0401     0.0994   126.8611
   89.5000   -47.3566     8.4782     7.3038    10.0976     7.8486     2.4834     0.0417     0.0983   128.6575
   90.0000   -47.2177     8.3282     7.3442    10.2983     7.8284     2.4856     0.0433     0.0978   128.2082
   90.5000   -47.2168     8.6222     7.3846    10.4750     7.8080     2.4834     0.0449     0.0988   127.4338
   91.0000   -47.3943     8.9061     7.4320    10.2606     7.8123     2.4797     0.0450     0.1001   127.4582
   91.5000   -47.5925     9.1994     7.4808    10.1906     7.8352     2.4737     0.0416     0.1038   128.4929
   92.0000   -47.7908     9.5024     7.5300    10.6148     7.8584     2.4677     0.0383     0.1085   129.4262
   92.5000   -47.9891     9.6701     7.5796    10.8665     7.8816     2.4622     0.0351     0.1132   130.2999
   93.0000   -47.9735     9.7429     7.6297    10.5403     7.9048     2.4578     0.0340     0.1130   131.0850
   93.5000   -47.9278     9.8163     7.6682    10.3783     7.9280     2.4613     0.0352     0.1112   131.1488
   94.0000   -47.8822     9.9140     7.5935    10.7643     7.9512     2.4650     0.0364     0.1094   131.2122
   94.5000   -47.8388     9.7186     7.5216    10.8668     7.9743     2.4685     0.0376     0.1083   132.2409
   95.0000   -47.8887     9.5065     7.4505    10.7832     7.9975     2.4645     0.0388     0.1095   133.4456
   95.5000   -48.0540     9.2991     7.3800    10.5071     8.0207     2.4602     0.0397     0.1107   132.5903
   96.0000   -48.2184     9.0962     7.3102    10.1687     8.0437     2.4598     0.0381     0.1104   129.9435
   96.5000   -48.3834     8.8977     7.2411     9.8424     8.0576     2.4650     0.0365     0.1081   130.8673
   97.0000   -48.5482     8.6395     7.1726     9.7338     8.0527     2.4701     0.0348     0.1058   132.5471
   97.5000   -48.7130     8.6674     7.1256     9.9429     8.0477     2.4723     0.0332     0.1049   133.0516
   98.0000   -48.8781     8.7232     7.1812    10.0547     8.0424     2.4676     0.0333     0.1076   131.3827
   98.5000   -49.0447     8.7794     7.2240    10.1678     8.0440     2.4674     0.0361     0.1075   132.0540
   99.0000   -49.1956     8.8359     7.2576    10.2391     8.0084     2.4688     0.0384     0.1058   133.8210
   99.5000   -49.0455     8.8928     7.1978    10.2860     7.9467     2.4749     0.0407     0.1038   134.8046
  100.0000   -48.8842     8.9501     7.1491    10.1383     7.8783     2.4836     0.0432     0.0980   134.2179
  100.5000   -48.9421     9.0077     7.1008    10.0000     7.8378     2.4897     0.0437     0.0938   132.0874
  101.0000   -49.1971     9.0450     7.0528     9.9132     7.8360     2.4872     0.0437     0.0952   129.1858
  101.5000   -49.4080     9.0023     6.9961    10.0360     7.8164     2.4845     0.0437     0.0966   126.1427
  102.0000   -49.3791     8.9710     7.0606    10.1963     7.7970     2.4846     0.0437     0.0974   123.0942
  102.5000   -49.3535     8.9398     7.0982    10.3587     7.7795     2.4833     0.0437     0.0977   120.1046
  103.0000   -49.3283     8.9086     7.1432    10.4750     7.7804     2.4818     0.0438     0.0987   118.3989
  103.5000   -49.3032     8.8776     7.1913    10.2521     7.7816     2.4798     0.0411     0.1005   120.0927
  104.0000   -49.2782     8.8467     7.1622    10.0040     7.7827     2.4730     0.0381     0.1043   121.7209
  104.5000   -49.2531     8.8159     7.1314    10.3764     7.7838     2.4660     0.0351     0.1078   123.2990
  105.0000   -49.2283     8.7852     7.1256    10.1807     7.7849     2.4626     0.0321     0.1091   123.9596
  105.5000   -49.2032     8.7547     7.1256     9.8614     7.7860     2.4608     0.0291     0.1104   124.4679
  106.0000   -49.1618     8.7242     7.1662     9.8235     7.7872     2.4590     0.0262     0.1117   124.5245
  106.5000   -49.1213     8.6936     7.2127    10.6690     7.7883     2.4592     0.0258     0.1111   125.2906
  107.0000   -49.0810     8.6635     7.2595    10.3589     7.7894     2.4645     0.0278     0.1092   126.0727
  107.5000   -49.0407     8.6395     7.3066     9.8267     7.7905     2.4696     0.0304     0.1072   126.8673
  108.0000   -49.0004     8.8765     7.3806    10.1384     7.7916     2.4744     0.0331     0.1053   127.9010
  108.5000   -48.9600     9.1177     7.5130    10.6787     7.7927     2.4724     0.0357     0.1035   129.2507
