~VERSION INFORMATION
 VERS.                2.0:   CWLS LOG ASCII STANDARD - VERSION 2.0
 WRAP.                 NO:   ONE LINE PER DEPTH STEP
~WELL INFORMATION
#MNEM.UNIT      DATA TYPE    INFORMATION
#----------   ------------   ------------------------------
 STRT.F           43.0000:   START DEPTH
 STOP.F          973.0000:   STOP DEPTH
 STEP.F            0.5000:   STEP LENGTH
 NULL.          -999.2500:   NO VALUE
 COMP. LAWRENCE/ALLISON INC:   COMPANY
 WELL.    68-11 SX #11-11:   WELL
 FLD .           NPR NO 3:   FIELD
 LOC .      S11 T38N R78W:   LOCATION
 CNTY.            NATRONA:   COUNTY
 STAT.            WYOMING:   STATE
 CTRY. UNITED STATES OF AMERICA:   COUNTRY
 SRVC.           Gearhart:   SERVICE COMPANY
 DATE.        15-MAY-1986:   LOGDATE
 API .       490251105800:   API NUMBER
~CURVE INFORMATION
#MNEM.UNIT       API CODE    CURVE DESCRIPTION
#----------   ------------   ------------------------------
 DEPT.F                  :   
 GRN .GAPI   42 310 01 00:   GAMMA RAY FROM COMPENSATED NEUTRON LOG
 CNS .DEC    42 890 01 00:   NEUTRON POROSITY LIMESTONE
~PARAMETER INFORMATION
#MNEM.UNIT          VALUE    DESCRIPTION
#----------   ------------   ------------------------------
 PD  .                 GL:   PERMANENT DATUM
 LMF .                 KB:   LOG MEASURED FROM
 DMF .                 KB:   DRILLING MEASURED FROM
 DATE.        15-MAY-1986:   RUN DATE
 RUN .                  1:   RUN NUMBER
 DD  .F               974:   DEPTH DRILLER
 DL  .F               974:   DEPTH LOGGER
 BLI .F               973:   BOTTOM LOG INTERVAL
 TLI .F                39:   TOP LOG INTERVAL
 CS  .IN              4.5:   CASING SIZE
 BS  .IN             7.87:   BIT SIZE
 BSD .F               974:   BIT SIZE AT DEPTH
 DFT .              WATER:   DRILLING FLUID TYPE
 DFD .               8.34:   DRILLING FLUID DENSITY
 BHT .F                66:   BOTTOM HOLE TEMPERATURE
 LUN .               6084:   LOGGING UNIT NUMBER
 LUL .           GILLETTE:   LOGGING UNIT LOCATION
 ENGI.              BAUER:   RECORDING ENGINEER
 WITN.       STRONG/FIVAS:   WITNESSED BY
 CLNT.            A2DTECH:   CLIENT CODE
 ORIG.           5" PRINT:   ORIGIN OF DATA
 UWI .       490251105800:   UNIQUE WELL ID
 DICO. A2D Technologies, Inc.:   DIGITIZING COMPANY
 R1  . POROSITY WITH LIMESTONE:   REMARKS 1
~OTHER INFORMATION
~A   DEPT       GRN       CNS   
   43.0000    64.9604  -999.2500
   43.5000    64.9666  -999.2500
   44.0000    64.9738  -999.2500
   44.5000    65.2838  -999.2500
   45.0000    65.2897  -999.2500
   45.5000    65.2957  -999.2500
   46.0000    65.3017  -999.2500
   46.5000    65.6116  -999.2500
   47.0000    65.3122  -999.2500
   47.5000    64.7117  -999.2500
   48.0000    63.5019  -999.2500
   48.5000    62.5946  -999.2500
   49.0000    62.6020  -999.2500
   49.5000    62.9120  -999.2500
   50.0000    63.8298  -999.2500
   50.5000    64.7477  -999.2500
   51.0000    65.0577  -999.2500
   51.5000    65.0650  -999.2500
   52.0000    65.0710  -999.2500
   52.5000    64.7715  -999.2500
   53.0000    64.4736  -999.2500
   53.5000    63.2652  -999.2500
   54.0000    61.7515  -999.2500
   54.5000    60.5416  -999.2500
   55.0000    60.2422  -999.2500
   55.5000    60.2496  -999.2500
   56.0000    60.5596  -999.2500
   56.5000    61.7814  -999.2500
   57.0000    64.2189  -999.2500
   57.5000    67.2644  -999.2500
   58.0000    69.1347  -999.2500
   58.5000    70.0122  -999.2500
   59.0000    67.8918  -999.2500
   59.5000    65.4661  -999.2500
   60.0000    63.9509  -999.2500
   60.5000    61.8307  -999.2500
   61.0000    60.6194  -999.2500
   61.5000    61.5387  -999.2500
   62.0000    62.7605  -999.2500
   62.5000    63.0704  -999.2500
   63.0000    63.0764  -999.2500
   63.5000    62.7784  -999.2500
   64.0000    61.8725  -999.2500
   64.5000    61.8785  -999.2500
   65.0000    62.7964  -999.2500
   65.5000    64.0182  -999.2500
   66.0000    64.9362  -999.2500
   66.5000    64.0301  -999.2500
   67.0000    62.8218  -999.2500
   67.5000    62.5223  -999.2500
   68.0000    64.0495  -999.2500
   68.5000    65.2713  -999.2500
   69.0000    64.6694  -999.2500
   69.5000    64.0660  -999.2500
   70.0000    64.3774  -999.2500
   70.5000    65.2952  -999.2500
   71.0000    65.6052  -999.2500
   71.5000    64.3953  -999.2500
   72.0000    64.7053     0.3994
   72.5000    66.2310     0.3991
   73.0000    67.4732     0.3864
   73.5000    68.1480     0.3852
   74.0000    67.1623     0.3903
   74.5000    65.6485     0.3922
   75.0000    66.8703     0.3994
   75.5000    67.4827     0.3994
   76.0000    65.3625     0.3994
   76.5000    63.2408     0.3994
   77.0000    62.0295     0.3994
   77.5000    62.3409     0.3994
   78.0000    63.8667     0.3994
   78.5000    64.4805     0.3994
   79.0000    65.0944     0.3994
   79.5000    64.4925     0.3994
   80.0000    63.2827     0.3994
   80.5000    62.0728     0.3994
   81.0000    61.1267     0.3994
   81.5000    62.9982     0.3994
   82.0000    67.8674     0.3994
   82.5000    74.5603     0.3994
   83.0000    79.4295     0.3994
   83.5000    81.2592     0.3988
   84.0000    82.1770     0.3732
   84.5000    81.5736     0.3704
   85.0000    80.0598     0.3677
   85.5000    79.7618     0.3520
   86.0000    79.7693     0.3394
   86.5000    80.0792     0.3608
   87.0000    81.3010     0.3900
   87.5000    82.5228     0.3997
   88.0000    82.5289     0.3831
   88.5000    82.2308     0.3732
   89.0000    82.8462     0.3520
   89.5000    84.3719     0.3481
   90.0000    87.1135     0.3590
   90.5000    88.6392     0.3596
   91.0000    88.9476     0.3632
   91.5000    87.7393     0.3662
   92.0000    87.1374     0.3729
   92.5000    86.5340     0.3729
   93.0000    86.5414     0.3741
   93.5000    86.2420     0.3774
   94.0000    85.9455     0.3837
   94.5000    85.9515     0.3754
   95.0000    85.9574     0.3662
   95.5000    86.2675     0.3557
   96.0000    86.2736     0.3403
   96.5000    86.2808     0.3318
   97.0000    84.7671     0.3294
   97.5000    83.5572     0.3436
   98.0000    82.6514     0.3535
   98.5000    85.3929     0.3397
   99.0000    86.3107     0.3312
   99.5000    86.3167     0.3231
  100.0000    85.3401     0.3258
  100.5000    83.0648     0.3312
  101.0000    81.7849     0.3427
  101.5000    81.7999     0.3514
  102.0000    83.9396     0.3566
  102.5000    86.0793     0.3596
  103.0000    87.6110     0.3644
  103.5000    89.4572     0.3515
  104.0000    90.9989     0.3412
  104.5000    91.6696     0.3475
  105.0000    92.5223     0.3635
  105.5000    91.3185     0.3710
  106.0000    90.1177     0.3593
  106.5000    88.0020     0.3405
  107.0000    88.6220     0.3280
  107.5000    90.4577     0.3185
  108.0000    92.2934     0.3219
  108.5000    91.6975     0.3336
  109.0000    89.8858     0.3426
  109.5000    88.6820     0.3543
  110.0000    87.7792     0.3629
  110.5000    86.5784     0.3520
  111.0000    85.3716     0.3391
  111.5000    83.5629     0.3234
  112.0000    82.9666     0.3195
  112.5000    83.5869     0.3170
  113.0000    83.2949     0.3088
  113.5000    82.3900     0.3050
  114.0000    81.7992     0.3053
  114.5000    83.0628     0.3059
  115.0000    84.5593     0.3002
  115.5000    84.8747     0.2932
  116.0000    84.2788     0.2896
  116.5000    83.9869     0.2911
  117.0000    85.5217     0.2947
  117.5000    87.0534     0.2944
  118.0000    88.2812     0.2959
  118.5000    87.9893     0.2986
  119.0000    86.7825     0.3044
  119.5000    86.7975     0.3119
  120.0000    86.8095     0.3189
  120.5000    86.2136     0.3140
  121.0000    85.3138     0.3164
  121.5000    84.7174     0.3237
  122.0000    85.9457     0.3306
  122.5000    87.1735     0.3349
  123.0000    88.4013     0.3407
  123.5000    89.0264     0.3465
  124.0000    89.6413     0.3481
  124.5000    89.6890     0.3436
  125.0000    90.2736     0.3457
  125.5000    88.4644     0.3339
  126.0000    86.9566     0.3198
  126.5000    85.7528     0.3258
  127.0000    83.3332     0.3360
  127.5000    82.1264     0.3475
  128.0000    84.8770     0.3237
  128.5000    87.6245     0.3119
  129.0000    88.2415     0.3161
  129.5000    85.8249     0.3249
  130.0000    83.4053     0.3680
  130.5000    80.9857     0.3608
  131.0000    80.0828     0.3388
  131.5000    80.0978     0.2866
  132.0000    79.8059     0.2742
  132.5000    78.9060     0.2775
  133.0000    77.3983     0.2938
  133.5000    76.4984     0.3101
  134.0000    77.1387     0.3167
  134.5000    77.8450     0.3173
  135.0000    79.6252     0.3225
  135.5000    81.1087     0.3336
  136.0000    81.7286     0.3321
  136.5000    82.6525     0.3198
  137.0000    83.2724     0.3029
  137.5000    83.2844     0.3005
  138.0000    82.3846     0.2992
  138.5000    82.3966     0.2920
  139.0000    83.6244     0.2903
  139.5000    84.8522     0.2986
  140.0000    85.1682     0.3222
  140.5000    83.9644     0.3303
  141.0000    81.5418     0.3379
  141.5000    85.2042     0.3180
  142.0000    86.4320     0.2803
  142.5000    87.6598     0.2944
  143.0000    88.8876     0.3142
  143.5000    88.5957     0.3418
  144.0000    87.6958     0.3484
  144.5000    88.9595     0.3415
  145.0000    90.2027     0.3309
  145.5000    88.9507     0.3210
  146.0000    87.1390     0.3171
  146.5000    86.2361     0.3300
  147.0000    86.2511     0.3442
  147.5000    87.1750     0.3560
  148.0000    87.7949     0.3478
  148.5000    86.5911     0.3373
  149.0000    85.3873     0.3300
  149.5000    85.3993     0.3288
  150.0000    85.5197     0.3388
  150.5000    86.1966     0.3354
  151.0000    87.5445     0.3318
  151.5000    87.8514     0.3351
  152.0000    87.8544     0.3456
  152.5000    87.5527     0.3584
  153.0000    87.2518     0.3698
  153.5000    86.3437     0.3774
  154.0000    85.4346     0.3695
  154.5000    86.0457     0.3509
  155.0000    87.5684     0.3240
  155.5000    89.6991     0.3049
  156.0000    90.3263     0.2980
  156.5000    90.3130     0.3084
  157.0000    88.7437     0.3137
  157.5000    87.2802     0.3182
  158.0000    86.9785     0.2983
  158.5000    86.9822     0.2956
  159.0000    87.5931     0.3064
  159.5000    87.9001     0.3107
  160.0000    90.0307     0.3103
  160.5000    90.9456     0.3112
  161.0000    91.5565     0.3152
  161.5000    91.8634     0.3215
  162.0000    91.2585     0.3266
  162.5000    87.6141     0.3118
  163.0000    84.8815     0.3004
  163.5000    80.6292     0.3028
  164.0000    77.5927     0.3161
