~VERSION INFORMATION
 VERS.                2.0:   CWLS LOG ASCII STANDARD - VERSION 2.0
 WRAP.                 NO:   ONE LINE PER DEPTH STEP
~WELL INFORMATION
#MNEM.UNIT      DATA TYPE    INFORMATION
#----------   ------------   ------------------------------
 STRT.F            0.0000:   START DEPTH
 STOP.F          825.0000:   STOP DEPTH
 STEP.F            0.5000:   STEP LENGTH
 NULL.          -999.2500:   NO VALUE
 COMP. BROWN JOHN E&C INC:   COMPANY
 WELL. NAVAL PETROLEUM RESERVE 3 SHX- #21-1-2:   WELL
 FLD .             TEAPOT:   FIELD
 LOC .       S2 T38N R78W:   LOCATION
 CNTY.            NATRONA:   COUNTY
 STAT.            WYOMING:   STATE
 CTRY. UNITED STATES OF AMERICA:   COUNTRY
 SRVC.     Atlas Wireline:   SERVICE COMPANY
 DATE.        11-NOV-1991:   LOGDATE
 API .       490252247600:   API NUMBER
~CURVE INFORMATION
#MNEM.UNIT       API CODE    CURVE DESCRIPTION
#----------   ------------   ------------------------------
 DEPT.F                  :   
 GRR .GAPI   07 310 01 00:   GAMMA RAY
 RFOC.OHMM   07 220 04 00:   RESISTIVITY FOCUSED LOG
 RILD.OHMM   07 120 46 00:   INDUCTION LOG DEEP RESISTIVITY
 RILM.OHMM   07 120 44 00:   INDUCTION LOG MEDIUM RESISTIVITY
 SPR .MV     07 010 01 00:   SPONTANEOUS POTENTIAL
~PARAMETER INFORMATION
#MNEM.UNIT          VALUE    DESCRIPTION
#----------   ------------   ------------------------------
 PD  .                 GL:   PERMANENT DATUM
 EPD .F              5110:   ELEVATION PERMANENT DATUM
 LMF .                 KB:   LOG MEASURED FROM
 DAPD.F                10:   FEET ABOVE PERMANENT DATUM
 DMF .                 KB:   DRILLING MEASURED FROM
 EKB .F              5120:   KELLING BUSHING
 EGL .F              5110:   GROUND LEVEL
 DATE.        11-NOV-1991:   RUN DATE
 RUN .                  1:   RUN NUMBER
 DD  .F               830:   DEPTH DRILLER
 DL  .F               527:   DEPTH LOGGER
 BLI .F               525:   BOTTOM LOG INTERVAL
 CS  .IN            9.625:   CASING SIZE
 CBD .F                58:   CASING BOTTOM DRILLER
 CBL .F                58:   CASING BOTTOM LOGGER
 BS  .IN             8.75:   BIT SIZE
 BSD .F               830:   BIT SIZE AT DEPTH
 DFT .          KCL WATER:   DRILLING FLUID TYPE
 RMS .OHMM          0.248:   RESISTIVITY MUD SAMPLE
 MST .F                93:   MUD SAMPLE TEMPERATURE
 BHT .F               104:   BOTTOM HOLE TEMPERATURE
 TCS .HRS               2:   TIME CURCULATED STOPPED
 MRT .F               104:   MAXIMUM RECORDED TEMPERATURE
 LUN .            HL 6274:   LOGGING UNIT NUMBER
 LUL .             CASPER:   LOGGING UNIT LOCATION
 ENGI.       P. RASMUSSEN:   RECORDING ENGINEER
 WITN.        GARY STRONG:   WITNESSED BY
 CLNT.            A2DTECH:   CLIENT CODE
 ORIG.           5" PRINT:   ORIGIN OF DATA
 UWI .       490252247600:   UNIQUE WELL ID
 DICO. A2D Technologies, Inc.:   DIGITIZING COMPANY
~OTHER INFORMATION
~A    DEPT       GRR     RFOC       RILD       RILM        SPR   
# ...
  305.0000   103.7722     6.8852     7.0972     6.3783   -58.2012
  305.5000    94.1306     8.9524     7.8166     6.9777   -58.2041
  306.0000    90.1877     9.0109     8.0887     7.2223   -57.9151
  306.5000    90.5608     7.3981     7.7028     7.1700   -57.3307
  307.0000    95.6390     6.6922     7.8646     7.0206   -56.2856
  307.5000   103.4118     6.6899     8.0232     6.9216   -55.5404
  308.0000   110.5858     6.8754     7.9088     7.0164   -54.9450
  308.5000   112.0741     7.1644     7.5663     6.9179   -54.3497
  309.0000   106.0715     7.2124     7.3556     6.7270   -54.2031
  309.5000   104.8623     7.2093     7.1001     6.4961   -54.2085
  310.0000   109.1019     7.0588     6.8974     6.1441   -54.2129
  310.5000   118.9080     6.8638     6.7468     5.9332   -54.6672
  311.0000   119.4981     6.6662     6.5237     5.7695   -54.8224
  311.5000   119.1842     6.4001     6.3861     5.6885   -53.9272
  312.0000   116.1786     6.2665     6.2949     5.6866   -52.8821
  312.5000   111.9753     6.2212     6.2481     5.6851   -53.1864
  313.0000   109.2691     6.1762     6.2016     5.6836   -54.0903
  313.5000   108.6576     6.1741     6.2415     5.7219   -55.8938
  314.0000   111.1138     6.2154     6.2813     5.7602   -56.6478
  314.5000   111.6295     6.2560     6.3695     5.8386   -56.3373
  315.0000   108.3215     6.3410     6.5399     5.9610   -55.4323
  315.5000   102.9207     6.4305     6.7199     6.2245   -55.0117
  316.0000   101.1127     6.8848     6.8582     6.7008   -55.1660
  316.5000    99.9034     8.3539     6.8536     6.8877   -54.8705
  317.0000    97.4966     9.5246     6.9454     6.6050   -54.7249
  317.5000    92.9940     8.9465     7.2865     6.4227   -54.7304
  318.0000    94.3071     7.0197     7.4871     6.4656   -54.8847
  318.5000   106.4409     6.5937     7.5379     6.5541   -55.3388
  319.0000   115.4113     6.5460     7.3734     6.6900   -56.7076
  319.5000   115.7020     6.7274     7.2626     6.8287   -57.1478
  320.0000   110.8970     6.9651     7.1659     6.9698   -57.1522
  320.5000   110.5889     7.1056     7.1621     7.0169   -57.3064
  321.0000   111.1736     7.2022     7.2089     7.0638   -57.3108
  321.5000   109.0658     7.2498     7.2551     7.1105   -57.7650
  322.0000   107.2578     7.2976     7.2502     7.1086   -58.0692
  322.5000   111.7343     7.3458     7.1963     7.0576   -58.5233
  323.0000   112.0249     7.3427     7.1428     7.0066   -59.1274
  323.5000   111.7110     7.2897     7.0407     6.8135   -59.6042
  324.0000   109.3042     7.0883     6.9882     6.6250   -58.9873
  324.5000   105.1010     6.9857     6.9355     6.5321   -56.7428
  325.0000   105.0399     6.8821     6.8364     6.3960   -56.2963
  325.5000   106.8741     6.8397     6.7855     6.2627   -57.0514
  326.0000   112.0240     6.8374     6.7582     6.2178   -57.3556
  326.5000   112.2401     6.7880     6.7314     6.1305   -57.3600
  327.0000   109.8304     6.7857     6.6814     6.0865   -56.7647
  327.5000   109.2229     6.7834     6.7242     6.0898   -55.2574
  328.0000   110.4059     6.7344     6.7205     6.1678   -55.4252
  328.5000   109.4961     6.7321     6.7168     6.2094   -56.4790
  329.0000   107.3887     6.7276     6.7599     6.2073   -57.3829
  329.5000   107.0777     6.7079     6.7554     6.2056   -58.4368
  330.0000   109.5409     6.7253     6.7527     6.2475   -59.0408
  330.5000   115.7342     6.7691     6.7959     6.2889   -59.0452
  331.0000   118.4201     6.7669     6.8062     6.3749   -58.8995
  331.5000   115.4115     6.7646     6.8823     6.4175   -58.9040
  332.0000   113.0047     6.7623     6.8786     6.4604   -59.2284
  332.5000   110.8973     6.7600     6.9452     6.3694   -60.4131
  333.0000   108.7899     6.8047     6.9670     6.2800   -61.6169
  333.5000   106.6824     6.8496     7.0117     6.2350   -62.2210
  334.0000   108.2475     6.8472     7.0069     6.2333   -62.9750
  334.5000   115.0395     6.8648     7.0031     6.1886   -63.4291
  335.0000   113.5309     6.8944     6.9994     6.1869   -63.4335
  335.5000   112.0223     6.9357     6.9956     6.2755   -63.5878
  336.0000   113.2083     6.9328     6.9918     6.5811   -63.7521
  336.5000   114.9931     6.9786     7.0376     6.9064   -64.1973
  337.0000   114.9814     7.0247     7.0328     6.8568   -64.6514
  337.5000   114.9698     7.0223     7.0779     6.8076   -64.6558
  338.0000   113.3772     7.0687     7.1232     6.8531   -64.6602
  338.5000   109.2575     7.1153     7.2187     6.9470   -65.1143
  339.0000   110.4410     7.3120     7.3154     7.0910   -65.5685
  339.5000   112.2258     7.5147     7.4639     7.2380   -65.5902
  340.0000   107.7232     7.7230     7.6175     7.3370   -65.4273
  340.5000   104.1188     7.9371     7.6663     7.3346   -65.1145
  341.0000   103.5113     7.9902     7.7154     7.3841   -64.6864
  341.5000   112.1794     7.8771     7.7332     7.3816   -64.3909
  342.0000   116.6667     7.8201     7.8136     7.3287   -64.6957
  342.5000   117.5898     7.7636     7.8092     7.2761   -64.8505
  343.0000   118.1325     7.8148     7.8049     7.1740   -64.2552
  343.5000   117.2198     7.8116     7.7998     6.9729   -63.8098
  344.0000   116.9088     7.8089     7.8509     6.9259   -63.6642
  344.5000   116.8972     7.8634     7.8456     7.1182   -63.5187
  345.0000   117.4873     7.9127     7.8969     7.3672   -63.4983
  345.5000   117.4727     8.0200     7.9475     7.6780   -63.3775
  346.0000   116.8543     8.1290     7.9984     7.7830   -63.3830
  346.5000   112.5490     8.1827     8.0486     7.9996   -63.3873
  347.0000   109.0517     8.2943     8.1579     8.1092   -63.0919
  347.5000   109.3424     8.4067     8.2732     8.1633   -62.6454
  348.0000   112.6213     8.5802     8.4921     8.2750   -62.7156
  348.5000   119.1965     8.8173     8.6669     8.4460   -62.9550
  349.0000   120.9842     9.0617     8.9662     8.6212   -63.1244
  349.5000   119.4727     9.4426     9.7378     8.9227   -63.4146
  350.0000   111.0779    10.3280    10.7979     9.3637   -63.5679
  350.5000   104.4052    11.3748    11.5660    10.3867   -63.5733
  351.0000   102.0697    11.7714    11.7211    11.0522   -63.2767
  351.5000   103.2557    10.9806    11.3159    11.2814   -63.1312
  352.0000   109.5315     9.8873    11.0700    10.8701   -62.9856
  352.5000   109.8222     9.4228    10.6193    10.4470   -62.9911
  353.0000   109.8076     9.0993    10.3236    10.0844   -62.8455
  353.5000   110.0958     8.9712     9.8981     9.8054   -62.7000
  354.0000   113.6991     8.8449     9.4901     9.5705   -62.8554
  354.5000   116.3850     8.6497     9.2900     9.3666   -62.8597
  355.0000   115.4781     8.6448     9.0941     9.2031   -62.7142
  355.5000   113.6730     8.6407     9.0264     9.1358   -61.9689
  356.0000   111.2691     8.6967     8.9593     9.1327   -61.2421
  356.5000   109.1645     8.6926     8.9544     9.1935   -60.9466
  357.0000   112.7486     8.7499     8.9495     9.2547   -60.6541
  357.5000   108.5461     8.8056     8.9436     9.2508   -60.5097
  358.0000   106.7410     8.9859     8.8974     9.2477   -60.0660
  358.5000   110.0257     8.9816     8.9556     9.2446   -59.7576
  359.0000   112.4122     8.9764     9.0142     9.2389   -59.4779
  359.5000   110.3077     8.9104     9.0732     9.1744   -61.1344
  360.0000   110.5984     8.8448     9.1323     9.1074   -61.5900
  360.5000   111.1886     8.7191     9.0650     9.0414   -61.4444
  361.0000   111.4791     8.6549     9.0613     9.0384   -61.1518
  361.5000   111.7698     8.5912     9.0577     8.8494   -60.5580
  362.0000   109.3637     8.5871     8.9915     8.6046   -59.8142
  362.5000   107.5586     8.6427     8.9259     8.4833   -59.5201
  363.0000   108.7475     8.6987     8.8607     8.4218   -61.1766
  363.5000   113.8286     8.8157     8.7959     8.4811   -62.0819
  364.0000   116.2173     8.8728     8.7916     8.6630   -62.2362
  364.5000   115.9070     8.8676     8.7274     8.7706   -61.7937
  365.0000   116.1977     8.8636     8.6636     8.5272   -62.0994
  365.5000   115.2435     8.8593     8.5410     8.2340   -62.7049
