~VERSION INFORMATION
 VERS.                2.0:   CWLS LOG ASCII STANDARD - VERSION 2.0
 WRAP.                 NO:   ONE LINE PER DEPTH STEP
~WELL INFORMATION
#MNEM.UNIT      DATA TYPE    INFORMATION
#----------   ------------   ------------------------------
 STRT.F           20.0000:   START DEPTH
 STOP.F          503.5000:   STOP DEPTH
 STEP.F            0.5000:   STEP LENGTH
 NULL.          -999.2500:   NO VALUE
 COMP.   FLUOR DANIEL INC:   COMPANY
 WELL. NAVAL PETROLEUM RESERVE 3 X-10 #71-3-10:   WELL
 FLD .          N.P.R. #3:   FIELD
 LOC .      S10 T37N R78W:   LOCATION
 CNTY.            NATRONA:   COUNTY
 STAT.            WYOMING:   STATE
 CTRY. UNITED STATES OF AMERICA:   COUNTRY
 SRVC.      Western Atlas:   SERVICE COMPANY
 DATE.        02-MAY-1996:   LOGDATE
 API .       490252277900:   API NUMBER
~CURVE INFORMATION
#MNEM.UNIT       API CODE    CURVE DESCRIPTION
#----------   ------------   ------------------------------
 DEPT.F                  :   
 AMP .MV     81 524 00 00:   AMPLITUD
 GR  .GAPI   81 310 01 00:   GAMMA RAY
~PARAMETER INFORMATION
#MNEM.UNIT          VALUE    DESCRIPTION
#----------   ------------   ------------------------------
 PD  .                 GL:   PERMANENT DATUM
 EPD .F            5165.5:   ELEVATION PERMANENT DATUM
 LMF .                 KB:   LOG MEASURED FROM
 DAPD.F                10:   FEET ABOVE PERMANENT DATUM
 DMF .                 KB:   DRILLING MEASURED FROM
 EKB .F            5175.5:   KELLING BUSHING
 EDF .F            5174.5:   DRILLING FLOOR
 EGL .F            5165.5:   GROUND LEVEL
 DATE.        02-MAY-1996:   RUN DATE
 RUN .                  1:   RUN NUMBER
 DD  .F               515:   DEPTH DRILLER
 DL  .F               511:   DEPTH LOGGER
 BLI .F               504:   BOTTOM LOG INTERVAL
 TLI .F                20:   TOP LOG INTERVAL
 CS  .IN              4.5:   CASING SIZE
 BSD .F               515:   BIT SIZE AT DEPTH
 DFT .              WATER:   DRILLING FLUID TYPE
 TCS .HRS              75:   TIME CURCULATED STOPPED
 LUN .            ML 4116:   LOGGING UNIT NUMBER
 LUL .             CASPER:   LOGGING UNIT LOCATION
 ENGI.          MARK HAMM:   RECORDING ENGINEER
 WITN.        STEVE HARDY:   WITNESSED BY
 CLNT.            A2DTECH:   CLIENT CODE
 ORIG.           5" PRINT:   ORIGIN OF DATA
 UWI .       490252277900:   UNIQUE WELL ID
 DICO. A2D Technologies, Inc.:   DIGITIZING COMPANY
~OTHER INFORMATION
~A   DEPT        AMP        GR  
# ...
  384.5000     0.0311    32.9425
  385.0000     0.0437    30.2670
  385.5000     0.2700    29.4998
  386.0000     0.4963    31.5953
  386.5000     1.1501    36.3626
  387.0000     2.0191    36.9313
  387.5000     3.0992    35.1145
  388.0000     4.7792    32.3436
  388.5000     8.4708    34.0565
  389.0000    12.5445    39.2054
  389.5000    19.2294    42.0643
  390.0000    21.9725    41.6788
  390.5000    20.7054    39.9575
  391.0000    17.9393    35.9461
  391.5000    16.2420    33.6523
  392.0000    16.6821    32.1218
  392.5000    17.3359    31.3556
  393.0000    15.8523    32.3051
  393.5000    14.3687    34.0189
  394.0000    12.4576    37.4503
  394.5000    10.5465    41.4542
  395.0000     7.9942    42.9771
  395.5000     4.3732    42.7824
  396.0000     3.0921    41.6031
  396.5000     2.9022    40.1023
  397.0000     3.3454    38.9535
  397.5000     3.7855    38.9498
  398.0000     3.7980    39.3277
  398.5000     3.3800    39.1331
  399.0000     2.9682    37.6026
  399.5000     2.7639    36.6447
  400.0000     2.5628    39.1223
  400.5000     3.2135    40.8417
  401.0000     5.1434    40.6528
  401.5000     7.0734    41.2272
  402.0000     9.8583    42.5649
  402.5000    15.4224    42.9485
  403.0000    17.5661    42.5687
  403.5000    16.2899    43.1941
  404.0000    15.2275    44.4813
  404.5000    14.5926    43.9107
  405.0000    14.1714    41.4316
  405.5000    13.1090    41.2422
  406.0000    12.4739    43.3438
  406.5000    12.2666    44.1090
  407.0000    12.4981    44.6834
  407.5000    13.3479    46.4028
  408.0000    11.0689    49.2673
  408.5000     8.0186    51.3684
  409.0000     5.6737    50.0344
  409.5000     3.7564    45.0745
  410.0000     2.2665    45.0763
  410.5000     2.0575    44.8747
  411.0000     2.7066    43.9351
  411.5000     3.5678    44.7008
  412.0000     4.4291    46.2294
  412.5000     6.1453    48.1396
  413.0000     8.9307    49.6682
  413.5000    12.1432    49.8609
  414.0000    14.0731    48.5269
  414.5000    13.4382    44.1395
  415.0000    12.1620    40.8971
  415.5000    10.4584    39.9443
  416.0000     7.8941    40.7100
  416.5000     6.1407    41.5006
  417.0000     4.1765    39.3779
  417.5000     3.0027    36.8989
  418.0000     2.7952    37.7149
  418.5000     2.1603    41.3938
  419.0000     1.9529    43.5843
  419.5000     1.9607    44.3496
  420.0000     1.9670    43.5881
  420.5000     1.9733    42.6358
  421.0000     2.1934    42.2555
  421.5000     2.4134    43.2121
  422.0000     2.8472    45.3132
  422.5000     3.0672    45.6963
  423.0000     3.5096    41.5001
  423.5000     3.9350    38.6394
  424.0000     4.5839    38.2595
  424.5000     4.8039    40.7424
  425.0000     4.8448    42.4618
  425.5000     5.0287    42.4510
  426.0000     4.6091    41.8931
  426.5000     4.6154    43.8038
  427.0000     4.1926    46.2866
  427.5000     3.9852    48.5786
  428.0000     3.7777    47.2446
  428.5000     3.7856    45.7197
  429.0000     3.5780    45.5303
  429.5000     3.3707    46.2960
  430.0000     3.1633    45.9162
  430.5000     2.9558    44.3913
  431.0000     2.9637    44.0111
  431.5000     2.9700    44.3951
  432.0000     3.1900    45.5420
  432.5000     3.4085    46.8798
  433.0000     3.2010    49.6171
  433.5000     2.9936    53.9446
  434.0000     3.0015    48.2217
  434.5000     2.5803    45.5519
  435.0000     2.1591    45.9354
  435.5000     1.7379    46.3190
  436.0000     1.5304    46.3209
  436.5000     1.3230    46.8953
  437.0000     1.1156    48.4239
  437.5000     1.1221    49.9524
  438.0000     0.9160    52.0536
  438.5000     0.9223    53.9638
  439.0000     0.9286    53.7749
  439.5000     1.1486    49.7691
  440.0000     1.3687    46.3359
  440.5000     1.3750    46.9103
  441.0000     1.5950    46.9122
  441.5000     2.2425    44.8153
  442.0000     2.8900    42.1454
  442.5000     3.5376    42.1473
  443.0000     4.6126    44.4392
  443.5000     5.6976    49.2121
  444.0000     6.1215    50.5498
  444.5000     5.7002    49.0250
  445.0000     5.2790    47.5002
  445.5000     4.8578    47.3107
  446.0000     4.2229    48.0760
  446.5000     3.5895    47.1241
  447.0000     3.3805    46.7443
  447.5000     3.1730    46.9370
  448.0000     2.9672    47.5114
  448.5000     2.5444    48.2767
  449.0000     1.9111    49.8057
  449.5000     1.7035    52.4794
  450.0000     1.7099    53.6241
  450.5000     1.7190    50.9663
  451.0000     1.9411    50.0233
  451.5000     1.9495    49.8435
  452.0000     2.3854    49.0840
  452.5000     2.3939    46.3740
  453.0000     2.4024    43.5824
  453.5000     2.4126    41.6852
  454.0000     2.4210    46.4674
  454.5000     2.8569    53.9214
  455.0000     3.0790    58.7036
  455.5000     3.0874    63.8675
  456.0000     3.5232    66.3596
  456.5000     4.1728    66.9433
  457.0000     6.7461    66.3820
  457.5000     9.1056    64.4848
  458.0000    11.2514    61.7939
  458.5000    14.4660    60.1179
  459.0000    13.5512    60.1319
  459.5000     8.9275    59.9495
  460.0000     4.6611    57.6734
  460.5000     3.8145    55.3946
  461.0000     3.6070    52.3523
  461.5000     3.4017    52.7452
  462.0000     2.9847    55.4282
  462.5000     2.7772    55.8211
  463.0000     2.7877    55.8323
  463.5000     2.5820    56.2252
  464.0000     3.0182    55.8547
  464.5000     3.4541    54.8435
  465.0000     3.8901    52.8265
  465.5000     4.1124    50.7385
  466.0000     3.9067    48.0779
  466.5000     3.9172    48.6616
  467.0000     4.1393    50.3904
  467.5000     4.3614    52.5008
  468.0000     4.3698    51.9395
  468.5000     4.5919    50.4240
  469.0000     4.3845    49.0992
  469.5000     4.3950    49.1107
  470.0000     4.1896    48.9309
  470.5000     4.1980    49.1358
  471.0000     3.9926    50.6737
  471.5000     3.7873    52.0208
  472.0000     4.0115    51.8411
  472.5000     4.4473    50.7073
  473.0000     5.0969    48.8101
  473.5000     5.5328    48.0552
  474.0000     6.1824    47.6875
  474.5000     6.6183    46.9354
  475.0000     7.0541    47.1374
  475.5000     7.7037    49.1233
  476.0000     8.3533    54.6437
  476.5000     8.7892    57.4764
  477.0000     9.2251    55.9637
  477.5000     9.6611    54.2573
  478.0000     9.8834    51.9784
  478.5000     9.6798    49.6996
  479.0000     9.2586    49.7108
  479.5000     8.8395    51.2487
  480.0000     8.6362    55.2676
  480.5000     8.4309    59.6858
  481.0000     8.4393    51.6337
  481.5000     8.4476    51.2935
  482.0000     8.4560    57.0327
  482.5000     8.8919    58.1862
  483.0000     8.9003    53.8109
  483.5000     8.9087    52.1045
  484.0000     8.9173    51.7313
  484.5000     8.9275    52.5086
  485.0000     8.9359    54.0465
  485.5000     9.1580    57.3020
  486.0000     9.3801    61.1300
  486.5000     9.1748    62.0954
  487.0000     8.9673    61.7099
  487.5000     8.3366    60.9097
  488.0000     8.1291    59.0784
  488.5000     7.4984    58.3263
  489.0000     6.6518    57.9530
  489.5000     6.0190    57.0128
  490.0000     5.8136    52.6319
  490.5000     6.0360    53.0276
  491.0000     6.4737    53.0388
  491.5000     6.6958    51.9050
  492.0000     6.7042    51.9162
  492.5000     6.7126    53.4795
  493.0000     6.9347    56.1603
  493.5000     6.9431    56.5300
  494.0000     7.3789    55.3961
  494.5000     7.3873    55.2165
  495.0000     7.1820    56.1847
  495.5000     7.1903    39.3290
  496.0000     6.7712  -999.2500
  496.5000     6.7798  -999.2500
  497.0000     6.5743  -999.2500
  497.5000     6.5847  -999.2500
  498.0000     6.3773  -999.2500
  498.5000     6.6015  -999.2500
  499.0000     6.8236  -999.2500
  499.5000     7.0458  -999.2500
  500.0000     7.4816  -999.2500
  500.5000     8.1312  -999.2500
  501.0000     8.7808  -999.2500
  501.5000     9.8579  -999.2500
  502.0000    10.7212  -999.2500
  502.5000    11.5989  -999.2500
  503.0000    12.0205  -999.2500
  503.5000    10.2060  -999.2500
