~VERSION INFORMATION
 VERS.                2.0:   CWLS LOG ASCII STANDARD - VERSION 2.0
 WRAP.                 NO:   ONE LINE PER DEPTH STEP
~WELL INFORMATION
#MNEM.UNIT      DATA TYPE    INFORMATION
#----------   ------------   ------------------------------
 STRT.F          714.0000:   START DEPTH
 STOP.F         1640.0000:   STOP DEPTH
 STEP.F            0.5000:   STEP LENGTH
 NULL.          -999.2500:   NO VALUE
 COMP. BROWN JOHN E&C INC:   COMPANY
 WELL. NPR 3 STX-15 #83-15:   WELL
 FLD .             TEAPOT:   FIELD
 LOC .      S15 T38N R78W:   LOCATION
 CNTY.            NATRONA:   COUNTY
 STAT.            WYOMING:   STATE
 CTRY. UNITED STATES OF AMERICA:   COUNTRY
 SRVC.            Unknown:   SERVICE COMPANY
 DATE.        30-AUG-1991:   LOGDATE
 API .       490251111300:   API NUMBER
~CURVE INFORMATION
#MNEM.UNIT       API CODE    CURVE DESCRIPTION
#----------   ------------   ------------------------------
 DEPT.F                  :   
 TGAS.UNITS  91 830 01 00:   TOTAL GAS FROM HOTWIRE
 C1  .VF     91 831 01 00:   METHANE
 C2  .VF     91 832 01 00:   ETHANE
 C3  .VF     91 833 01 00:   PROPANE
 C4  .VF     91 834 01 00:   BUTANE
 ROP .MIN/FT 91 810 01 00:   RAT OF DRILLING PENETRATION
~PARAMETER INFORMATION
#MNEM.UNIT          VALUE    DESCRIPTION
#----------   ------------   ------------------------------
 EKB .F              5265:   KELLING BUSHING
 EGL .F              5255:   GROUND LEVEL
 DATE.            5-30-91:   RUN DATE
 DD  .F              1626:   DEPTH DRILLER
 TCS .HRS            1200:   TIME CURCULATED STOPPED
 TLAB.HRS            1815:   TIME LOGGER AT BOTTOM
 ENGI.               HUSK:   RECORDING ENGINEER
 WITN.              TOWER:   WITNESSED BY
 CLNT.            A2DTECH:   CLIENT CODE
 ORIG.           5" PRINT:   ORIGIN OF DATA
 UWI .       490251111300:   UNIQUE WELL ID
 DICO. A2D Technologies, Inc.:   DIGITIZING COMPANY
~OTHER INFORMATION
~A   DEPT     TGAS         C1         C2         C3         C4          ROP 
# ...
 1182.0000   796.6168   424.8570  -999.2500     7.0145     1.1273     1.4648
 1182.5000   796.7040   424.9146  -999.2500     6.5846     1.1426     1.4208
 1183.0000   796.7911   424.9721  -999.2500     6.4801     1.1597     1.3771
 1183.5000   796.8783   425.0296  -999.2500     6.4999     1.1763     1.3328
 1184.0000   796.9655   425.0872  -999.2500     6.5223     1.1929     1.2874
 1184.5000   797.0526   425.1447  -999.2500     6.5445     1.2095     1.2730
 1185.0000   797.1398   425.2023  -999.2500     6.5664     1.2260     1.2644
 1185.5000   797.2269   425.2599  -999.2500     6.5883     1.2426     1.2555
 1186.0000   797.3141   425.3174  -999.2500     6.6102     1.2591     1.2466
 1186.5000   797.4012   425.3749  -999.2500     6.6321     1.2757     1.2383
 1187.0000   797.4884   425.4325  -999.2500     6.6540     1.2923     1.1850
 1187.5000   797.5756   425.4901  -999.2500     6.6759     1.3088     1.1172
 1188.0000   797.6627   425.5476  -999.2500     6.6978     1.3254     1.0496
 1188.5000   797.7499   425.6052  -999.2500     6.7197     1.3419     1.0365
 1189.0000   797.8371   425.6627  -999.2500     6.7416     1.3585     1.0263
 1189.5000   797.9243   425.7202  -999.2500     6.7635     1.3750     1.0162
 1190.0000   798.0114   425.7778  -999.2500     6.7854     1.3916     1.0215
 1190.5000   798.0986   425.8354  -999.2500     6.8074     1.4082     1.0550
 1191.0000   798.1857   425.8929  -999.2500     6.8293     1.4247     1.0880
 1191.5000   798.2729   425.9505  -999.2500     6.8512     1.4413     1.1211
 1192.0000   798.3600   426.0080  -999.2500     6.8731     1.4578     1.1477
 1192.5000   798.4472   426.0656  -999.2500     6.8950     1.4744     1.1369
 1193.0000   798.5344   426.1231  -999.2500     6.9169     1.4910     1.1263
 1193.5000   798.6215   426.1807  -999.2500     6.9388     1.5075     1.1160
 1194.0000   798.7087   426.2382  -999.2500     6.9607     1.5241     1.1229
 1194.5000   798.7958   426.2958  -999.2500     6.9826     1.5406     1.1547
 1195.0000   798.8830   426.3533  -999.2500     7.0045     1.5572     1.1862
 1195.5000   798.9702   426.4109  -999.2500     7.0264     1.5738     1.2177
 1196.0000   799.0573   426.4684  -999.2500     7.0483     1.5903     1.2496
 1196.5000   799.1445   426.5260  -999.2500     7.0703     1.6069     1.2617
 1197.0000   799.2316   426.5835  -999.2500     7.0922     1.6234     1.2642
 1197.5000   799.3188   426.6411  -999.2500     7.1141     1.6400     1.2666
 1198.0000   799.4059   426.6986  -999.2500     7.1360     1.6566     1.2691
 1198.5000   799.4931   426.7562  -999.2500     7.1580     1.6731     1.2715
 1199.0000   799.5803   426.8137  -999.2500     7.1796     1.6897     1.2728
 1199.5000   799.6674   426.8713  -999.2500     7.1870     1.7062     1.2731
 1200.0000   799.7546   426.9286  -999.2500     7.1570     1.7228     1.2705
 1200.5000   799.8417   426.9837  -999.2500     7.1277     1.7393     1.2272
 1201.0000   799.9290   427.0388  -999.2500     7.0983     1.7559     1.1851
 1201.5000   800.0161   427.0939  -999.2500     7.0690     1.7725     1.1431
 1202.0000   800.1033   427.1490  -999.2500     7.0397     1.7890     1.1013
 1202.5000   800.1904   427.2041  -999.2500     7.0103     1.8056     1.1136
 1203.0000   800.2776   427.2592  -999.2500     6.9810     1.8221     1.1314
 1203.5000   800.3647   427.3143  -999.2500     6.9517     1.8387     1.1729
 1204.0000   800.4519   427.3694  -999.2500     6.9223     1.8553     1.2159
 1204.5000   800.5391   427.4245  -999.2500     6.8930     1.8721     1.2596
 1205.0000   800.6262   427.4796  -999.2500     6.8637     1.8750     1.2681
 1205.5000   800.7134   427.5347  -999.2500     6.8343     1.8750     1.2621
 1206.0000   800.8005   427.5898  -999.2500     6.8050     1.8750     1.2556
 1206.5000   800.8877   427.6449  -999.2500     6.7757     1.8750     1.2492
 1207.0000   800.9749   427.7000  -999.2500     6.7463     1.8750     1.2428
 1207.5000   801.0620   427.7551  -999.2500     6.7165     1.8750     1.2364
 1208.0000   801.1492   427.8102  -999.2500     6.7145     1.8750     1.2301
 1208.5000   801.2363   427.8653  -999.2500     6.7246     1.8750     1.2237
 1209.0000   801.3235   427.9204  -999.2500     6.7349     1.8750     1.2172
 1209.5000   801.4106   427.9755  -999.2500     6.7453     1.8750     1.2107
 1210.0000   801.4978   428.0306  -999.2500     6.7557     1.8750     1.2160
 1210.5000   801.5850   428.0857  -999.2500     6.7660     1.8750     1.2230
 1211.0000   801.6721   428.1408  -999.2500     6.7764     1.8750     1.2302
 1211.5000   801.7593   428.1959  -999.2500     6.7867     1.8750     1.2335
 1212.0000   801.8464   428.2510  -999.2500     6.7971     1.8749     1.1932
 1212.5000   801.9336   428.3061  -999.2500     6.8074     1.8742     1.1529
 1213.0000   802.0208   428.3612  -999.2500     6.8178     1.9052     1.1127
 1213.5000   802.1079   428.4163  -999.2500     6.8282     1.9408     1.0726
 1214.0000   802.1951   428.4714  -999.2500     6.8385     1.9766     1.0352
 1214.5000   802.2823   428.5265  -999.2500     6.8489     2.0123     1.0343
 1215.0000   802.3694   428.5816  -999.2500     6.8592     2.0479     1.0344
 1215.5000   802.4566   428.6367  -999.2500     6.8696     2.0836     1.0345
 1216.0000   802.5438   428.6918  -999.2500     6.8799     2.1193     1.0345
 1216.5000   802.6309   428.7469  -999.2500     6.8903     2.1549     1.0345
 1217.0000   802.7181   428.8020  -999.2500     6.9007     2.1906     1.0342
 1217.5000   802.8052   428.8571  -999.2500     6.9110     2.2263     1.0193
 1218.0000   802.8924   428.9122  -999.2500     6.9214     2.2619     0.9833
 1218.5000   802.9796   428.9673  -999.2500     6.9317     2.2976     0.9475
 1219.0000   803.0667   429.0224  -999.2500     6.9420     2.3333     0.9119
 1219.5000   803.1539   429.0775  -999.2500     6.9539     2.3689     0.8831
 1220.0000   803.2410   429.1326  -999.2500     6.9743     2.4046     0.9028
 1220.5000   803.3282   429.1877  -999.2500     6.9951     2.4402     0.9325
 1221.0000   803.4153   429.2428  -999.2500     7.0158     2.4759     0.9625
 1221.5000   803.5025   429.2979  -999.2500     7.0365     2.5116     0.9926
 1222.0000   803.5897   429.3529  -999.2500     7.0572     2.5473     1.0211
 1222.5000   803.6768   429.4081  -999.2500     7.0779     2.5829     1.0221
 1223.0000   803.7640   429.4626  -999.2500     7.0986     2.6186     1.0220
 1223.5000   803.8511   429.5838  -999.2500     7.1194     2.6542     1.0222
 1224.0000   803.9383   429.7543  -999.2500     7.1401     2.6899     1.0403
 1224.5000   804.0255   429.9251  -999.2500     7.1608     2.7256     1.0868
 1225.0000   804.1126   430.0960  -999.2500     7.1815     2.7612     1.1329
 1225.5000   804.1998   430.2668  -999.2500     7.2022     2.7969     1.1790
 1226.0000   804.2870   430.4376  -999.2500     7.2229     2.8326     1.2032
 1226.5000   804.3741   430.6084  -999.2500     7.2436     2.8682     1.1603
 1227.0000   804.4613   430.7792  -999.2500     7.2644     2.9039     1.1184
 1227.5000   804.5485   430.9500  -999.2500     7.2851     2.9396     1.0764
 1228.0000   804.6356   431.1208  -999.2500     7.3058     2.9752     1.0357
 1228.5000   804.7228   431.2917  -999.2500     7.3265     3.0109     1.0307
 1229.0000   804.8099   431.4625  -999.2500     7.3472     3.0466     1.0274
 1229.5000   804.8971   431.6333  -999.2500     7.3679     3.0823     1.0239
 1230.0000   804.9843   431.8041  -999.2500     7.3886     3.1184     1.0204
 1230.5000   805.0714   431.9749  -999.2500     7.4094     3.1349     1.0168
 1231.0000   805.1586   432.1457  -999.2500     7.4301     3.1472     1.0133
 1231.5000   805.2457   432.3165  -999.2500     7.4508     3.1595     1.0097
 1232.0000   805.3329   432.4873  -999.2500     7.4715     3.1718     1.0062
 1232.5000   805.4200   432.6581  -999.2500     7.4922     3.1841     1.0026
 1233.0000   805.5072   432.8289  -999.2500     7.5129     3.1965     0.9993
 1233.5000   805.5944   432.9997  -999.2500     7.5336     3.2088     1.0089
