~VERSION INFORMATION
 VERS.                2.0:   CWLS LOG ASCII STANDARD - VERSION 2.0
 WRAP.                 NO:   ONE LINE PER DEPTH STEP
~WELL INFORMATION
#MNEM.UNIT      DATA TYPE    INFORMATION
#----------   ------------   ------------------------------
 STRT.F          100.0000:   START DEPTH
 STOP.F         1196.0000:   STOP DEPTH
 STEP.F            0.5000:   STEP LENGTH
 NULL.          -999.2500:   NO VALUE
 COMP. DEPARTMENT OF ENERGY:   COMPANY
 WELL.     NRP ##3 77S-11:   WELL
 FLD .             TEAPOT:   FIELD
 LOC .      S11 T38N R78W:   LOCATION
 CNTY.            NATRONA:   COUNTY
 STAT.            WYOMING:   STATE
 CTRY. UNITED STATES OF AMERICA:   COUNTRY
 SRVC.       Schlumberger:   SERVICE COMPANY
 DATE.        18-AUG-1959:   LOGDATE
 API .       490250632900:   API NUMBER
~CURVE INFORMATION
#MNEM.UNIT       API CODE    CURVE DESCRIPTION
#----------   ------------   ------------------------------
 DEPT.F                  :   
 SPR .MV     05 010 01 00:   SPONTANEOUS POTENTIAL FROM RES.
 ASN .OHMM   05 041 16 00:   AMPLIFIED SHORT NORMAL 16"
 ILD .OHMM   05 120 46 00:   INDUCTION LOG DEEP
 CILD.MMHO   05 110 46 00:   CONDUCTIVITY INDUCTION LOG DEEP
~PARAMETER INFORMATION
#MNEM.UNIT          VALUE    DESCRIPTION
#----------   ------------   ------------------------------
 PD  .                 GL:   PERMANENT DATUM
 EPD .F              5258:   ELEVATION PERMANENT DATUM
 LMF .                 KB:   LOG MEASURED FROM
 DAPD.F                 4:   FEET ABOVE PERMANENT DATUM
 DMF .                 KB:   DRILLING MEASURED FROM
 EKB .F              5262:   KELLING BUSHING
 EGL .F              5258:   GROUND LEVEL
 DATE.            8-18-59:   RUN DATE
 RUN .                  1:   RUN NUMBER
 DD  .F              1200:   DEPTH DRILLER
 DL  .F              1201:   DEPTH LOGGER
 BLI .F              1196:   BOTTOM LOG INTERVAL
 TLI .F               100:   TOP LOG INTERVAL
 CBD .F                17:   CASING BOTTOM DRILLER
 BS  .IN             6.75:   BIT SIZE
 BSD .F              1200:   BIT SIZE AT DEPTH
 DFT . GEL-OIL-PHDS-CAUSTIC:   DRILLING FLUID TYPE
 DFD .               10.8:   DRILLING FLUID DENSITY
 DFV .                 60:   DRILLING FLUID VISCOSITY
 DFPH.                  9:   DRILLING FLUID PH
 DFL .                  4:   DRILLING FLUID LOSS
 RMS .OHMM            1.8:   RESISTIVITY MUD SAMPLE
 MST .F                90:   MUD SAMPLE TEMPERATURE
 RMF .OHMM            1.5:   RESISTIVITY MUD FILTRATE SAMPLE
 MFST.F                90:   MUD FILTRATE SAMPLE TEMPERATURE
 RMC .OHMM              2:   RESISTIVITY MUD CAKE
 MCST.F                90:   MUD CAKE SAMPLE TEMPERATURE
 TCS .HRS               1:   TIME CURCULATED STOPPED
 LUN .               2523:   LOGGING UNIT NUMBER
 LUL .               CSPR:   LOGGING UNIT LOCATION
 ENGI.             KNOBEL:   RECORDING ENGINEER
 WITN.             MARTIN:   WITNESSED BY
 CLNT.            A2DTECH:   CLIENT CODE
 ORIG.     1", 2.5" PRINT:   ORIGIN OF DATA
 UWI .       490250632900:   UNIQUE WELL ID
 DICO. A2D Technologies, Inc.:   DIGITIZING COMPANY
~OTHER INFORMATION
~A   DEPT      SPR          ASN        ILD      CILD  
# ...
 1122.0000   -39.3676    12.1450    10.9370    90.5883
 1122.5000   -39.1744    12.0948    10.9203    90.6966
 1123.0000   -38.8999    12.0465    10.9033    90.8258
 1123.5000   -38.7419    11.9977    10.8844    90.9387
 1124.0000   -38.7439    11.9480    10.8654    91.0680
 1124.5000   -38.8474    11.8981    10.8474    91.1771
 1125.0000   -38.9896    11.8482    10.8302    91.3128
 1125.5000   -39.0406    11.7994    10.8124    91.4212
 1126.0000   -38.7859    11.7513    10.7930    91.4963
 1126.5000   -38.1648    11.7011    10.7738    91.8308
 1127.0000   -37.4428    11.6489    10.7578    92.0731
 1127.5000   -36.9673    11.6006    10.7416    92.3154
 1128.0000   -36.7915    11.5565    10.7194    92.5577
 1128.5000   -36.6936    11.5049    10.6966    92.8000
 1129.0000   -36.5113    11.4428    10.6925    93.0423
 1129.5000   -36.2889    11.3954    10.7198    93.2621
 1130.0000   -36.1133    11.3950    10.7687    92.8953
 1130.5000   -35.9669    11.4419    10.8197    92.5598
 1131.0000   -35.7864    11.5038    10.8648    92.2243
 1131.5000   -35.5830    11.5557    10.9090    91.8888
 1132.0000   -35.4538    11.5999    10.9562    91.5533
 1132.5000   -35.4593    11.6485    11.0038    91.2178
 1133.0000   -35.5053    11.7013    11.0498    90.8823
 1133.5000   -35.3890    11.7515    11.0958    90.5468
 1134.0000   -35.0070    11.7987    11.1430    90.2113
 1134.5000   -34.4736    11.8484    11.1893    89.8758
 1135.0000   -33.9847    11.9009    11.2349    89.5403
 1135.5000   -33.6235    11.9500    11.2820    89.2048
 1136.0000   -33.3347    11.9952    11.3304    88.8693
 1136.5000   -33.0488    12.0460    11.3756    88.5338
 1137.0000   -32.7638    12.1036    11.4183    88.1983
 1137.5000   -32.5098    12.1516    11.4670    87.8628
 1138.0000   -32.2791    12.1859    11.5215    87.5273
 1138.5000   -32.0267    12.2353    11.5609    87.1918
 1139.0000   -31.7605    12.3197    11.5685    86.8563
 1139.5000   -31.5933    12.4013    11.5620    86.5208
 1140.0000   -31.6358    12.4192    11.5702    86.1989
 1140.5000   -31.8473    12.3674    11.5796    86.1989
 1141.0000   -32.0765    12.2970    11.5351    86.2793
 1141.5000   -32.2553    12.2455    11.4085    86.0942
 1142.0000   -32.4487    12.2037    11.2424    86.2976
 1142.5000   -32.6910    12.1531    11.1097    88.3746
 1143.0000   -32.8907    12.0965    11.0455    90.2234
 1143.5000   -32.9607    12.0436    11.0325    91.4035
 1144.0000   -32.9459    11.9951    11.0361    91.4419
 1144.5000   -32.9389    11.9462    11.0374    91.1672
 1145.0000   -32.9325    11.8935    11.0358    91.1687
 1145.5000   -32.8517    11.8375    11.0357    90.9545
 1146.0000   -32.6922    11.7869    11.0369    90.8964
 1146.5000   -32.5216    11.7529    11.0365    90.7365
 1147.0000   -32.3624    11.7336    11.0354    90.6324
 1147.5000   -32.1778    11.7133    11.0366    90.5087
 1148.0000   -31.9936    11.6813    11.0380    90.3781
 1148.5000   -31.9233    11.6432    11.0357    90.2718
 1149.0000   -32.0376    11.6076    11.0335    90.1301
 1149.5000   -32.2761    11.5750    11.0386    90.0300
 1150.0000   -32.5235    11.5415    11.0436    89.8854
 1150.5000   -32.7229    11.5062    11.0243    89.7314
 1151.0000   -32.9013    11.4712    10.9669    90.1457
 1151.5000   -33.1158    11.4366    10.8849    90.9066
 1152.0000   -33.3731    11.4036    10.8020    91.6367
 1152.5000   -33.5758    11.3704    10.7266    92.3924
 1153.0000   -33.5976    11.3342    10.6518    93.1277
 1153.5000   -33.4365    11.2972    10.5731    93.8779
 1154.0000   -33.2270    11.2666    10.4942    94.6157
 1154.5000   -33.0608    11.2404    10.4176    95.3595
 1155.0000   -32.8832    11.2025    10.3411    96.1026
 1155.5000   -32.6203    11.1439    10.2626    96.8370
 1156.0000   -32.3109    11.0774    10.1847    97.5801
 1156.5000   -32.0343    10.9966    10.1089    98.3558
 1157.0000   -31.7909    10.9403    10.0318    99.1004
 1157.5000   -31.5322    10.8752     9.9513    99.8451
 1158.0000   -31.2602    10.8040     9.8732   100.5897
 1158.5000   -31.0062    10.7506     9.8022   101.3344
 1159.0000   -30.7538    10.6187     9.7238   102.0911
 1159.5000   -30.4690    10.2699     9.6171   104.2365
 1160.0000   -30.2060     9.8076     9.4779   106.4173
 1160.5000   -30.0893     9.4725     9.3073   108.5981
 1161.0000   -30.1510     9.2634     9.0856   110.9201
 1161.5000   -30.2642     9.0409     8.7893   114.9991
 1162.0000   -30.3210     8.8231     8.4377   119.3606
 1162.5000   -30.4075     8.6291     8.0813   125.0465
 1163.0000   -30.6565     8.3237     7.7454   130.3439
 1163.5000   -30.9604     7.8436     7.4183   143.8787
 1164.0000   -31.0329     7.2564     7.0801   155.0651
 1164.5000   -30.7737     6.6118     6.7159   172.3119
 1165.0000   -30.3692     6.0219     6.3253   183.8494
 1165.5000   -29.9822     5.7087     5.9452   190.9018
 1166.0000   -29.5655     5.7590     5.6497   197.3796
 1166.5000   -29.0736     6.0372     5.5098   203.6724
 1167.0000   -28.6370     6.4647     5.5745   209.3625
 1167.5000   -28.3897     7.1524     5.8765   214.0317
 1168.0000   -28.2811     8.0759     6.4045   204.0310
 1168.5000   -28.1786     8.8384     7.0579   177.9157
 1169.0000   -28.0334     9.1311     7.6781   152.9801
 1169.5000   -27.8633     9.2186     8.1542   129.3224
 1170.0000   -27.6956     9.4643     8.4879   122.9067
 1170.5000   -27.5919     9.7237     8.7559   118.5833
 1171.0000   -27.6291     9.8104     9.0276   110.5274
 1171.5000   -27.8005    10.0010     9.3152   110.4183
 1172.0000   -28.0114    10.4486     9.5864   109.1543
 1172.5000   -28.1930    10.7282     9.8116   107.5267
 1173.0000   -28.3594    10.6578     9.9939   106.0096
 1173.5000   -28.5412    10.6748    10.1561   104.4926
 1174.0000   -28.7317    11.0747    10.3144   102.9755
 1174.5000   -28.9113    11.5226    10.4731   101.4585
 1175.0000   -29.0860    11.7027    10.6298    99.9414
 1175.5000   -29.2694    11.7841    10.7833    98.4244
 1176.0000   -29.4570    11.9307    10.9401    96.9073
 1176.5000   -29.6338    12.0721    11.1037    95.0279
 1177.0000   -29.8048    12.1883    11.2595    91.4963
 1177.5000   -29.9938    12.3181    11.3797    87.9647
 1178.0000   -30.2018    12.4723    11.4529    87.7266
 1178.5000   -30.3808    12.6032    11.4977    87.4035
 1179.0000   -30.4776    12.6390    11.5392    87.0805
 1179.5000   -30.5031    12.6312    11.5880    86.7574
 1180.0000   -30.5306    12.6480    11.6423    86.3876
 1180.5000   -30.6032    12.6683    11.6948    86.1103
 1181.0000   -30.6726    12.6911    11.7331    85.7652
 1181.5000   -30.6823    12.7048    11.7478    85.4444
 1182.0000   -30.6978    12.7168    11.7453    85.1368
 1182.5000   -30.8767    12.7327    11.7421    84.7847
 1183.0000   -31.2854    12.7493    11.7437    84.4335
 1183.5000   -31.8049    12.7662    11.7439    84.6229
 1184.0000   -32.2587    12.7834    11.7420    84.9407
 1184.5000   -32.5906    12.7973    11.7449    85.1922
 1185.0000   -32.8761    12.8048    11.7484    85.4995
 1185.5000   -33.1815    12.8063    11.7357    85.7700
 1186.0000   -33.4647    12.8025    11.7015    86.0470
 1186.5000   -33.6210    12.7985    11.6577    86.3485
 1187.0000   -33.6092    12.8026    11.6107    86.5901
 1187.5000   -33.5114    12.8119    11.5578    86.9109
 1188.0000   -33.4402    12.8061    11.5092    87.1923
 1188.5000   -33.3986    12.7655    11.4791    87.4737
 1189.0000   -33.2975    12.6879    11.4433    87.7551
 1189.5000   -33.1182    12.5790    11.3464    87.9647
 1190.0000   -32.9488    12.4407    11.1663    89.9353
 1190.5000   -32.7986    12.2798    10.9419    91.5055
 1191.0000   -32.4921    12.1127    10.7218    93.0756
 1191.5000   -31.8783    11.9526    10.5233    94.6458
 1192.0000   -31.0928    11.8000    10.3506    96.2159
 1192.5000   -30.4938    11.6479    10.2133    97.7861
 1193.0000   -30.3785    11.4885    10.1075    99.3562
 1193.5000   -30.8095    11.3218    10.0072   100.9264
 1194.0000   -31.5821    11.1672     9.8955   102.4965
 1194.5000   -32.2635    11.0586     9.7819   103.8569
