~VERSION INFORMATION
 VERS.                2.0:   CWLS LOG ASCII STANDARD - VERSION 2.0
 WRAP.                 NO:   ONE LINE PER DEPTH STEP
~WELL INFORMATION
#MNEM.UNIT      DATA TYPE    INFORMATION
#----------   ------------   ------------------------------
 STRT.F           12.0000:   START DEPTH
 STOP.F          664.5000:   STOP DEPTH
 STEP.F            0.5000:   STEP LENGTH
 NULL.          -999.2500:   NO VALUE
 COMP. LAWRENCE/ALLISON INC:   COMPANY
 WELL.   23-16 SHX #14-14:   WELL
 FLD .             TEAPOT:   FIELD
 LOC .      S14 T38N R78W:   LOCATION
 CNTY.            NATRONA:   COUNTY
 STAT.            WYOMING:   STATE
 CTRY. UNITED STATES OF AMERICA:   COUNTRY
 SRVC.           Gearhart:   SERVICE COMPANY
 DATE.        03-JUL-1987:   LOGDATE
 API .       490251114200:   API NUMBER
~CURVE INFORMATION
#MNEM.UNIT       API CODE    CURVE DESCRIPTION
#----------   ------------   ------------------------------
 DEPT.F                  :   
 RILD.OHMM   07 120 46 00:   INDUCTION LOG DEEP RESISTIVITY
 RILM.OHMM   07 120 44 00:   INDUCTION LOG MEDIUM RESISTIVITY
 GRR .GAPI   07 310 01 00:   GAMMA RAY FROM RES. LOG
~PARAMETER INFORMATION
#MNEM.UNIT          VALUE    DESCRIPTION
#----------   ------------   ------------------------------
 PD  .                 GL:   PERMANENT DATUM
 EPD .F              5203:   ELEVATION PERMANENT DATUM
 LMF .                 KB:   LOG MEASURED FROM
 DAPD.F                 8:   FEET ABOVE PERMANENT DATUM
 DMF .                 KB:   DRILLING MEASURED FROM
 EKB .F              5211:   KELLING BUSHING
 EDF .F              5210:   DRILLING FLOOR
 EGL .F              5203:   GROUND LEVEL
 DATE.             7-3-87:   RUN DATE
 RUN .                  1:   RUN NUMBER
 DD  .F               679:   DEPTH DRILLER
 DL  .F               672:   DEPTH LOGGER
 BLI .F               664:   BOTTOM LOG INTERVAL
 TLI .F                48:   TOP LOG INTERVAL
 CS  .IN            8.625:   CASING SIZE
 CBD .F                48:   CASING BOTTOM DRILLER
 CBL .F                48:   CASING BOTTOM LOGGER
 BS  .IN            7.875:   BIT SIZE
 BSD .F               679:   BIT SIZE AT DEPTH
 DFT .               FOAM:   DRILLING FLUID TYPE
 TCS .HRS            1345:   TIME CURCULATED STOPPED
 TLAB.HRS            1450:   TIME LOGGER AT BOTTOM
 MRT .F                80:   MAXIMUM RECORDED TEMPERATURE
 LUN .               7597:   LOGGING UNIT NUMBER
 LUL .           GILLETTE:   LOGGING UNIT LOCATION
 ENGI.            WANGLER:   RECORDING ENGINEER
 WITN.             STRONG:   WITNESSED BY
 CLNT.            A2DTECH:   CLIENT CODE
 ORIG.       2", 5" PRINT:   ORIGIN OF DATA
 UWI .       490251114200:   UNIQUE WELL ID
 DICO. A2D Technologies, Inc.:   DIGITIZING COMPANY
~OTHER INFORMATION
~A   DEPT     RILD       RILM         GRR  
# ...
  103.0000     2.0139     1.8529   129.5748
  103.5000     2.0754     1.8190   125.9850
  104.0000     2.1479     1.7692   121.3521
  104.5000     2.4567     1.8529   116.6453
  105.0000     2.8368     2.1577   114.8319
  105.5000     3.2750     2.6733   115.7900
  106.0000     3.7848     3.3121   114.8199
  106.5000     4.2774     4.1458   108.0038
  107.0000     5.2059     4.7293   101.3040
  107.5000     6.3259     5.7109    97.2459
  108.0000     7.3794     6.8963    96.7707
  108.5000     8.2975     8.4634    95.0918
  109.0000     9.0220     8.4578    92.4443
  109.5000     8.7134     8.5385    89.8304
  110.0000     8.3338     7.9371    88.2946
  110.5000     7.9709     7.5288    91.6353
  111.0000     7.6237     7.1416    96.3852
  111.5000     7.2916     6.7714   101.1506
  112.0000     7.2247     6.7714   105.8830
  112.5000     7.2247     6.9571   107.9316
  113.0000     7.3750     7.0811   102.3768
  113.5000     7.7979     7.3039    97.8343
  114.0000     8.2451     7.6722    93.1947
  114.5000     8.7179     8.0610    92.8019
  115.0000     9.2178     8.4691    95.6242
  115.5000     9.7464     8.8978    98.3239
  116.0000    10.3053     9.3481    96.9837
  116.5000    10.8963     9.8212    94.6806
  117.0000    11.5212    10.3183    95.3155
  117.5000    12.0837    10.8398    97.9985
  118.0000    12.3515    11.3892    97.1870
  118.5000    12.6252    11.7505    94.8203
  119.0000    12.9050    12.1875    92.4253
  119.5000    13.1910    12.6407    90.6763
  120.0000    13.4833    12.9107    90.8979
  120.5000    13.7821    13.0418    91.3435
  121.0000    14.0875    13.1744    90.7168
  121.5000    14.3997    13.3095    90.7683
  122.0000    14.7188    13.4258    93.8326
  122.5000    15.0466    13.5577    97.1959
  123.0000    15.2739    13.7893   100.0190
  123.5000    15.4588    14.0107    97.1592
  124.0000    15.6446    14.2357    94.1792
  124.5000    15.8330    14.4643    92.3004
  125.0000    16.0236    14.6966    92.2998
  125.5000    16.2166    14.9327    92.9936
  126.0000    16.4118    15.1725    94.2977
  126.5000    16.6094    15.4530    95.6105
  127.0000    16.8094    15.5156    96.9199
  127.5000    17.0118    15.5784    98.2211
  128.0000    17.2167    15.6414    99.2068
  128.5000    17.4240    15.7045    98.7978
  129.0000    17.6338    15.9065    97.9412
  129.5000    17.7738    16.1643    97.1889
  130.0000    18.0824    16.4260    97.7640
  130.5000    18.3963    16.6919    98.9769
  131.0000    18.7156    16.9620   100.1852
  131.5000    19.0405    17.2365   101.3944
  132.0000    19.3710    17.5154   102.4382
  132.5000    19.4803    17.7988   101.1339
  133.0000    19.5306    18.0870    97.2332
  133.5000    19.5811    18.3795    93.3766
  134.0000    19.6317    18.6770    89.4841
  134.5000    19.6825    18.7452    87.8594
  135.0000    19.7334    18.6932    88.3189
  135.5000    19.7844    18.6265    89.0702
  136.0000    19.8157    18.5600    90.4307
  136.5000    19.6710    18.4938    92.7415
  137.0000    19.4890    18.4278    93.9675
  137.5000    19.3087    18.2779    93.2735
  138.0000    19.1301    18.0732    94.1073
  138.5000    18.9531    17.8707    96.5828
  139.0000    18.7778    17.6705    98.7477
  139.5000    18.4412    17.4725    97.8684
  140.0000    18.1282    17.2764    95.7534
  140.5000    17.8204    17.0851    93.7151
  141.0000    17.5180    17.0922    91.6747
  141.5000    16.8856    16.4230    89.9619
  142.0000    16.0890    15.9764    91.3494
  142.5000    15.3306    15.2712    94.6433
  143.0000    14.6090    14.2903    97.1014
  143.5000    13.9125    13.3725    97.1649
  144.0000    12.9603    12.5136    97.1848
  144.5000    11.9204    11.8001    98.1885
  145.0000    10.9639    10.7222   101.7827
  145.5000    10.0841     9.7923   105.3403
  146.0000     9.2750     8.9430   108.8919
  146.5000     8.5308     8.1674   112.4808
  147.0000     8.1712     7.7527   114.1717
  147.5000     7.9044     7.4007   112.8166
  148.0000     7.6464     7.0989   110.7967
  148.5000     7.3968     6.8936   108.8739
  149.0000     7.1553     6.6943   109.9151
  149.5000     6.9217     6.5006   113.7712
  150.0000     6.8979     6.4056   117.6077
  150.5000     6.9370     6.4056   121.1017
  151.0000     6.9936     6.4056   119.9896
  151.5000     7.0505     6.4711   116.5625
  152.0000     7.1078     6.5617   113.1797
  152.5000     7.1656     6.6536   109.8571
  153.0000     7.2247     6.7467   109.4861
  153.5000     7.2250     6.8416   110.1135
  154.0000     7.2245     6.8984   109.7096
  154.5000     7.2252     6.8056   110.6812
  155.0000     7.1510     6.7297   113.1819
  155.5000     7.0913     6.6550   115.6836
  156.0000     7.0322     6.5810   116.5469
  156.5000     6.9734     6.5079   116.6068
  157.0000     6.9004     6.4356   117.5309
  157.5000     6.9161     6.3641   118.5061
  158.0000     6.9427     6.2881   118.5311
  158.5000     6.9692     6.2881   117.4426
  159.0000     6.9957     6.3590   117.7174
  159.5000     7.0224     6.4222   118.9013
  160.0000     7.0490     6.4860   120.0836
  160.5000     7.0748     6.5540   119.5921
  161.0000     7.0942     6.6287   117.7574
  161.5000     7.2431     6.7042   116.9508
  162.0000     7.3494     6.7806   117.4307
  162.5000     7.4572     6.8579   118.5962
  163.0000     7.5667     6.9360   119.8622
  163.5000     7.6774     6.9621   121.1296
  164.0000     7.7807     7.1092   121.6801
  164.5000     7.8526     7.2486   117.8862
  165.0000     7.9201     7.3908   114.0454
  165.5000     7.9878     7.5357   110.4851
  166.0000     8.0741     7.6835   111.8854
  166.5000     8.0732     7.8524   114.9392
  167.0000     8.0736     7.8524   113.2561
  167.5000     8.0736     7.8011   109.4092
  168.0000     8.0741     7.7490   105.3505
  168.5000     8.0286     7.6972   105.2348
  169.0000     7.9735     7.6458   108.1606
  169.5000     7.9186     7.5055   111.1949
  170.0000     7.8641     7.3506   111.3305
  170.5000     7.8100     7.1989   111.2801
  171.0000     7.7563     7.0922   112.7217
  171.5000     7.7083     7.0385   113.7433
  172.0000     7.7161     6.9787   113.7354
  172.5000     7.7247     6.9194   113.7337
  173.0000     7.7334     6.8344   113.7052
  173.5000     7.7420     6.8479   114.8989
  174.0000     7.7507     6.8742   116.2646
  174.5000     7.7595     6.9001   116.9679
  175.0000     7.7680     6.9260   116.5335
  175.5000     7.7800     6.9523   114.7230
  176.0000     7.6233     7.0008   112.9249
  176.5000     7.3769     7.0646   112.7724
  177.0000     7.2919     7.1286   114.6322
  177.5000     7.3962     7.1933   116.4667
  178.0000     7.5198     7.2585   116.7291
  178.5000     7.6454     7.2919   115.1761
  179.0000     7.7322     7.2919   113.6143
  179.5000     7.8104     7.2919   113.4318
  180.0000     7.8893     7.2915   113.7048
  180.5000     7.9342     7.3129   112.6347
  181.0000     7.9504     7.3509   111.1394
  181.5000     7.9667     7.3893   112.6719
  182.0000     7.9829     7.4282   114.6737
  182.5000     7.9991     7.4675   114.1406
  183.0000     7.9465     7.4996   110.5886
  183.5000     7.8947     7.4305   108.3965
  184.0000     7.8433     7.3088   111.3797
  184.5000     7.7922     7.1951   115.4622
  185.0000     7.7414     7.0728   119.6697
  185.5000     7.6910     6.9475   122.1483
  186.0000     7.6409     6.8233   121.4670
  186.5000     7.5912     6.6509   119.2140
  187.0000     7.5417     6.7126   116.9959
  187.5000     7.4926     6.7424   114.7799
  188.0000     7.4438     6.7877   112.5331
  188.5000     7.3953     6.8334   111.7746
  189.0000     7.3471     6.8793   114.1099
  189.5000     7.2992     6.8981   116.5512
  190.0000     7.2514     6.8862   119.0182
  190.5000     7.2248     6.8298   119.7338
  191.0000     7.2531     6.7742   118.5966
  191.5000     7.2732     6.7192   117.7587
  192.0000     7.2934     6.6645   117.9606
  192.5000     7.3135     6.6472   118.1742
  193.0000     7.3337     6.7016   117.8799
  193.5000     7.3540     6.7807   118.3058
