~VERSION INFORMATION
 VERS.                2.0:   CWLS LOG ASCII STANDARD - VERSION 2.0
 WRAP.                 NO:   ONE LINE PER DEPTH STEP
~WELL INFORMATION
#MNEM.UNIT      DATA TYPE    INFORMATION
#----------   ------------   ------------------------------
 STRT.F           34.0000:   START DEPTH
 STOP.F          514.0000:   STOP DEPTH
 STEP.F            0.5000:   STEP LENGTH
 NULL.          -999.2500:   NO VALUE
 COMP. FENIX & SCISSON INC:   COMPANY
 WELL. NPR 3 #41 SX 10-10:   WELL
 FLD .             TEAPOT:   FIELD
 LOC .      S10 T38N R78W:   LOCATION
 CNTY.            NATRONA:   COUNTY
 STAT.            WYOMING:   STATE
 CTRY. UNITED STATES OF AMERICA:   COUNTRY
 SRVC.           BIRDWELL:   SERVICE COMPANY
 DATE.        25-JUN-1978:   LOGDATE
 API .       490251065200:   API NUMBER
~CURVE INFORMATION
#MNEM.UNIT       API CODE    CURVE DESCRIPTION
#----------   ------------   ------------------------------
 DEPT.F                  :   
 SPR .MV     07 010 01 00:   SPONTANEOUS POTENTIAL
 ILD .OHMM   07 120 46 00:   INDUCTION LOG DEEP
 SN  .OHMM   07 040 16 00:   SHORT NORMAL 16"
 CALD.IN     45 280 60 00:   CALIPER FROM DENSITY LOG
 GRD .GAPI   45 310 01 00:   GAMMA RAY FROM DENSITY LOG
 CORR.G/C3   45 356 01 00:   DENSITY CORRECTION
 DPHI.DEC    45 890 12 00:   DENSITY POROSITY SANDSTONE
 DEN .G/C3   45 350 01 00:   COMPENSATED BULK DENSTIY
 GRN .GAPI   35 310 01 00:   GAMMA RAY
 NEUT.NAPI   35 330 01 00:   NEUTRON
~PARAMETER INFORMATION
#MNEM.UNIT          VALUE    DESCRIPTION
#----------   ------------   ------------------------------
 PD  .                 GL:   PERMANENT DATUM
 EPD .F              5235:   ELEVATION PERMANENT DATUM
 LMF .                 KB:   LOG MEASURED FROM
 DAPD.F                 4:   FEET ABOVE PERMANENT DATUM
 DMF .                 KB:   DRILLING MEASURED FROM
 EKB .F              5239:   KELLING BUSHING
 EGL .F              5235:   GROUND LEVEL
 DATE.        25-JUN-1978:   RUN DATE
 RUN .                  1:   RUN NUMBER
 DD  .F               510:   DEPTH DRILLER
 DL  .F               514:   DEPTH LOGGER
 BLI .F               514:   BOTTOM LOG INTERVAL
 TLI .F                30:   TOP LOG INTERVAL
 CS  .IN            8.625:   CASING SIZE
 CBD .F                40:   CASING BOTTOM DRILLER
 CBL .F                40:   CASING BOTTOM LOGGER
 BS  .IN            7.875:   BIT SIZE
 BSD .F               510:   BIT SIZE AT DEPTH
 DFT .                KCL:   DRILLING FLUID TYPE
 DFD .                8.6:   DRILLING FLUID DENSITY
 DFV .                 31:   DRILLING FLUID VISCOSITY
 DFPH.                9.5:   DRILLING FLUID PH
 DFL .                 17:   DRILLING FLUID LOSS
 MSS .           FLOWLINE:   MUD SAMPLE SOURCE
 RMS .OHMM             .5:   RESISTIVITY MUD SAMPLE
 MST .F                74:   MUD SAMPLE TEMPERATURE
 RMF .OHMM            .54:   RESISTIVITY MUD FILTRATE SAMPLE
 MFST.F                72:   MUD FILTRATE SAMPLE TEMPERATURE
 RMC .OHMM            1.0:   RESISTIVITY MUD CAKE
 MCST.F                66:   MUD CAKE SAMPLE TEMPERATURE
 MFSS.               MEAS:   MUD FILTRATE SAMPLE SOURCE
 MCSS.               MEAS:   MUD CAKE SAMPLE SOURCE
 BHT .F                74:   BOTTOM HOLE TEMPERATURE
 TCS .HRS            0100:   TIME CURCULATED STOPPED
 MRT .F                74:   MAXIMUM RECORDED TEMPERATURE
 LUN .               2958:   LOGGING UNIT NUMBER
 LUL .               CASP:   LOGGING UNIT LOCATION
 ENGI.           REYNOLDS:   RECORDING ENGINEER
 CLNT.            A2DTECH:   CLIENT CODE
 ORIG.           5" PRINT:   ORIGIN OF DATA
 UWI .       490251065200:   UNIQUE WELL ID
 DICO. A2D Technologies, Inc.:   DIGITIZING COMPANY
~OTHER INFORMATION
~A   DEPT      SPR        ILD         SN       CALD        GRD       CORR       DPHI        DEN        GRN       NEUT   
# ...
  302.0000   -62.9204     7.7128     7.8720     8.7613   105.1647     0.0315     0.1116     2.5087    57.3752  1502.6993
  302.5000   -62.9013     7.7097     7.9793     8.7764   103.2053     0.0315     0.1143     2.5102    59.7719  1522.8356
  303.0000   -63.0624     7.6540     8.0880     8.7915   101.3968     0.0329     0.1170     2.5004    64.1781  1533.5266
  303.5000   -63.0596     7.5987     8.2521     8.8218   100.4933     0.0344     0.1192     2.4967    65.2257  1536.5756
  304.0000   -63.0523     7.5438     8.3070     8.8369   102.3047     0.0329     0.1209     2.4967    69.4312  1511.7302
  304.5000   -63.0451     7.6465     8.4771     8.8218   104.4228     0.0314     0.1216     2.4944    69.6268  1512.2966
  305.0000   -63.0378     7.7505     8.5918     8.8369   105.8019     0.0314     0.1089     2.4956    68.2932  1510.1477
  305.5000   -63.0306     7.8560     8.7081     8.8520   106.2307     0.0314     0.1062     2.5102    63.7642  1515.4414
  306.0000   -63.0234     7.9622     8.8251     8.8973   103.3667     0.0329     0.1134     2.5125    61.8157  1508.6169
  306.5000   -63.0161     7.9040     8.8217     8.9426   100.5020     0.0313     0.1135     2.5065    63.1640  1528.7273
  307.0000   -63.0089     7.7928     8.8182     8.9728   100.6547     0.0313     0.1122     2.5050    65.4898  1540.7676
  307.5000   -63.0016     7.6832     8.8760     8.9728   100.8070     0.0313     0.1170     2.5050    65.7356  1531.8894
  308.0000   -62.9944     7.6277     8.8716     8.9728   100.6476     0.0328     0.1131     2.5058    58.7128  1510.8494
  308.5000   -62.9871     7.6246     8.8681     8.9577   100.2069     0.0298     0.1098     2.5065    57.9306  1499.9510
  309.0000   -62.9799     7.6751     8.8646     8.9577    99.0017     0.0268     0.1113     2.5065    56.5210  1494.4502
  309.5000   -62.9726     7.7264     8.8612     9.0030    96.5899     0.0236     0.1128     2.5050    55.0873  1513.2371
  310.0000   -62.9654     7.8853     8.7957     9.0785    96.7422     0.0117     0.1170     2.4968    54.4808  1505.0375
  310.5000   -62.9581     8.1091     8.7923     9.0937    96.8945     0.0057     0.1247     2.4938    53.9494  1479.0675
  311.0000   -62.9509     8.3858     8.7282     9.0634    96.8959     0.0042     0.1411     2.4878    54.3203  1487.2631
  311.5000   -62.9436     8.5006     8.7248     9.0937    96.5606    -0.0018     0.1511     2.4644    54.7664  1506.0500
  312.0000   -62.9364     8.2081     8.7213     9.1541    95.5414    -0.0124     0.1692     2.4389    49.7977  1522.1383
  312.5000   -62.9305     7.8175     8.6570     9.1843    97.8056    -0.0199     0.1867     2.4164    49.1911  1531.4799
  313.0000   -62.9906     7.2415     8.6536     9.1994    99.7679    -0.0197     0.2072     2.3969    50.2387  1528.6776
  313.5000   -63.0676     6.3914     8.3557     9.1994   100.5235    -0.0154     0.2272     2.3563    51.8126  1509.9045
  314.0000   -62.2093     5.8396     7.9575     9.1994   102.4857     0.1587     0.2575     2.2872    52.3338  1473.1221
  314.5000   -61.4594     5.8377     7.1207     9.1994   107.3288     0.1888     0.2916     2.2399    52.7171  1431.1895
  315.0000   -61.1620     5.9582     6.4101     9.1843   110.1056     0.0626     0.2596     2.2166    52.8500  1402.7499
  315.5000   -61.1422     6.0392     6.1949     9.1692   110.3332     0.0206     0.1408     2.2459    52.9189  1360.8174
  316.0000   -61.1224     6.0792     6.2360     9.4477   105.6593     0.0160     0.1146     2.4396    52.9903  1362.0630
  316.5000   -61.1025     5.9932     6.4972     9.5229   100.9851     0.0175     0.1188     2.5439    53.0605  1417.5015
  317.0000   -61.0827     5.9912     6.9698     9.4260   100.9865     0.0190     0.1185     2.4976    53.2797  1465.7279
  317.5000   -61.0629     6.5075     8.6809     9.4562   100.3846     0.0190     0.1182     2.4939    54.1756  1504.7548
  318.0000   -61.0431     8.0062     9.5602     9.4562    97.5707     0.0190     0.1194     2.4924    59.2094  1519.5195
  318.5000   -61.0232    10.7150    10.1705     9.4864    93.4498     0.0190     0.1216     2.4916    58.4512  1489.7048
  319.0000   -61.0034    10.6249    10.1665     9.5015    92.6971     0.0173     0.1222     2.4916    55.1379  1484.2039
  319.5000   -60.9836    10.4032    10.1616     9.5317    92.3969     0.0114     0.1234     2.4894    54.3058  1483.8711
  320.0000   -60.9628    10.4720    10.1576     9.5780    91.7946     0.0069     0.1285     2.4841    50.2406  1465.0802
  320.5000   -60.9017    10.4686    10.1536     9.6375    92.5506     0.0054     0.1392     2.4794    46.1741  1459.6051
  321.0000   -60.8375    10.7588    10.2202     9.7130    93.0045     0.0009     0.1457     2.4639    44.8157  1464.8729
  321.5000   -60.7733    11.0563    10.5085     9.7432    91.7818    -0.0052     0.1520     2.4428    44.0588  1476.9132
  322.0000   -60.7091    11.5212    11.0186     9.8036    93.0078    -0.0112     0.1616     2.4316    42.7755  1486.2549
  322.5000   -60.6449    12.0057    11.5610     9.8640    93.0093     0.0143     0.1932     2.4151    41.1915  1487.9458
  323.0000   -60.5807    12.6220    12.0463     9.9245    88.6367     0.0536     0.2189     2.3948    40.5098  1494.1436
  323.5000   -60.5165    14.0666    12.5521     9.9698    82.3203     0.0699     0.2298     2.3348    39.6764  1485.9181
  324.0000   -60.4523    15.6000    13.0778    10.0000    74.9141     0.0413     0.1665     2.3039    39.1450  1439.9374
  324.5000   -60.3881    16.9452    13.6268    10.0302    69.7520     0.0188     0.1622     2.3640    38.0873  1430.6183
  325.0000   -60.3239    17.9038    14.0038    10.0302    65.3394     0.0158     0.1785     2.4106    37.2552  1505.8470
  325.5000   -60.2597    18.6552    14.3911    10.0302    64.2099     0.0158     0.1957     2.4001    36.4983  1547.5725
  326.0000   -60.1955    18.7801    14.8014    10.0151    64.2114     0.0172     0.2099     2.3640    36.1173  1515.0592
  326.5000   -60.1760    18.7724    15.0920    10.0324    64.5145     0.0187     0.2258     2.3370    38.3679  1497.4403
  327.0000   -60.1471    18.6369    15.2964    10.0604    67.0800     0.0217     0.2325     2.3171    38.0608  1532.3931
  327.5000   -60.0984    18.6306    15.3980    10.0604    67.3957     0.0217     0.2388     2.3002    37.4543  1521.4949
  328.0000   -60.0498    18.4947    15.4973    10.0453    67.0829     0.0217     0.2392     2.2942    38.5018  1510.5968
  328.5000   -60.0011    18.4887    15.5988    10.0453    69.6488     0.0217     0.2424     2.2927    39.2499  1515.8904
  329.0000   -59.9524    18.3552    15.5912    10.0604    70.1028     0.0217     0.2379     2.2950    38.0406  1500.9182
  329.5000   -59.9038    18.3491    15.4776    10.0771    70.1042     0.0216     0.2346     2.3002    38.3350  1494.0940
  330.0000   -59.8551    18.4690    15.4715    10.0906    70.2565     0.0261     0.2319     2.3040    39.1571  1515.5795
  330.5000   -59.8064    18.4630    15.4639    10.0906    71.0121     0.0336     0.2280     2.3086    40.2046  1500.6074
  331.0000   -59.7578    18.7141    15.4578    10.0755    71.7677     0.0486     0.2246     2.3145    41.4026  1470.8186
  331.5000   -59.7091    18.9687    15.4517    10.0906    71.0956     0.0561     0.2244     2.3183    42.2246  1457.2174
  332.0000   -59.6604    19.2252    15.4457    10.1057    69.3577     0.0321     0.2165     2.3100    42.2196  1475.9828
  332.5000   -59.6118    19.4883    15.4395    10.1360    69.2080     0.0185     0.1897     2.3596    39.8959  1492.0710
  333.0000   -59.5631    19.7534    15.5407    10.1360    69.8131     0.0140     0.1833     2.4032    38.3736  1513.5566
  333.5000   -59.5503    20.0208    15.6425    10.1511    70.1162     0.0005     0.1858     2.3851    37.6918  1520.2039
  334.0000   -59.5610    20.1640    15.7449    10.1511    69.5144     0.0245     0.1954     2.3799    39.7169  1518.7466
  334.5000   -59.5699    20.4271    15.8465    10.1662    67.3941     0.0305     0.2193     2.3619    40.9148  1543.1506
  335.0000   -59.5795    20.5622    16.0610    10.1511    65.5957     0.0245     0.2225     2.3206    40.7594  1569.8137
