~VERSION INFORMATION
 VERS.                2.0:   CWLS LOG ASCII STANDARD - VERSION 2.0
 WRAP.                 NO:   ONE LINE PER DEPTH STEP
~WELL INFORMATION
#MNEM.UNIT      DATA TYPE    INFORMATION
#----------   ------------   ------------------------------
 STRT.F           30.0000:   START DEPTH
 STOP.F          602.0000:   STOP DEPTH
 STEP.F            0.5000:   STEP LENGTH
 NULL.          -999.2500:   NO VALUE
 COMP. FENIX & SCISSON U.S NAVY:   COMPANY
 WELL.   S-3 NPR #3 #51-3:   WELL
 FLD .             TEAPOT:   FIELD
 LOC .       S3 T38N R78W:   LOCATION
 CNTY.            NATRONA:   COUNTY
 STAT.            WYOMING:   STATE
 CTRY. UNITED STATES OF AMERICA:   COUNTRY
 SRVC.              Welex:   SERVICE COMPANY
 DATE.        08-MAR-1977:   LOGDATE
 API .       490251030800:   API NUMBER
~CURVE INFORMATION
#MNEM.UNIT       API CODE    CURVE DESCRIPTION
#----------   ------------   ------------------------------
 DEPT.F                  :   
 SPR .MV     07 010 01 00:   SPONTANEOUS POTENTIAL
 ILD .OHMM   07 120 46 00:   INDUCTION LOG DEEP
 ILM .OHMM   07 120 44 00:   INDUCTION LOG MEDIUM
 SGRD.OHMM   07 221 05 00:   SHALLOW SHORT GUARD RESISTIVITY
 CALD.IN     45 280 60 00:   CALIPER FROM DENSITY LOG
 CORR.G/C3   45 356 01 00:   DENSITY CORRECTION
 RHOB.G/C3   45 350 01 00:   BULK DENSITY
 DPHI.DEC    45 890 12 00:   DENSITY POROSITY SANDSTONE
 GRD .GAPI   45 310 01 00:   GAMMA RAY FROM DENSITY LOG
~PARAMETER INFORMATION
#MNEM.UNIT          VALUE    DESCRIPTION
#----------   ------------   ------------------------------
 PD  .                 GL:   PERMANENT DATUM
 EPD .F              5140:   ELEVATION PERMANENT DATUM
 LMF .                 GL:   LOG MEASURED FROM
 DAPD.F                  :   FEET ABOVE PERMANENT DATUM
 DMF .                 GL:   DRILLING MEASURED FROM
 EKB .F                  :   KELLING BUSHING
 EDF .F                  :   DRILLING FLOOR
 EGL .F              5140:   GROUND LEVEL
 DATE.             3-8-77:   RUN DATE
 RUN .                  1:   RUN NUMBER
 DD  .F               611:   DEPTH DRILLER
 DL  .F               555:   DEPTH LOGGER
 BLI .F               553:   BOTTOM LOG INTERVAL
 TLI .F                40:   TOP LOG INTERVAL
 CS  .IN            8.625:   CASING SIZE
 CBD .F                40:   CASING BOTTOM DRILLER
 CBL .F                40:   CASING BOTTOM LOGGER
 BS  .IN            7.875:   BIT SIZE
 BSD .F               611:   BIT SIZE AT DEPTH
 DFT .           CHEM GEL:   DRILLING FLUID TYPE
 DFD .                8.6:   DRILLING FLUID DENSITY
 DFV .                 42:   DRILLING FLUID VISCOSITY
 DFPH.                  8:   DRILLING FLUID PH
 DFL .                3.2:   DRILLING FLUID LOSS
 MSS .           FLOWLINE:   MUD SAMPLE SOURCE
 RMS .OHMM           1.49:   RESISTIVITY MUD SAMPLE
 MST .F                48:   MUD SAMPLE TEMPERATURE
 RMF .OHMM           1.07:   RESISTIVITY MUD FILTRATE SAMPLE
 MFST.F                48:   MUD FILTRATE SAMPLE TEMPERATURE
 RMC .OHMM           2.34:   RESISTIVITY MUD CAKE
 MCST.F                48:   MUD CAKE SAMPLE TEMPERATURE
 MFSS.           MEASURED:   MUD FILTRATE SAMPLE SOURCE
 MCSS.           MEASURED:   MUD CAKE SAMPLE SOURCE
 RMB .OHMM           1.19:   RESISTIVITY MUD AT BHT
 BHT .F                60:   BOTTOM HOLE TEMPERATURE
 TCS .HRS               2:   TIME CURCULATED STOPPED
 TLAB.HRS                :   TIME LOGGER AT BOTTOM
 MRT .F                60:   MAXIMUM RECORDED TEMPERATURE
 LUN .               0716:   LOGGING UNIT NUMBER
 LUL .             VERNAL:   LOGGING UNIT LOCATION
 ENGI.           CALLAHAN:   RECORDING ENGINEER
 WITN.         STUEBINGER:   WITNESSED BY
 CLNT.            A2DTECH:   CLIENT CODE
 ORIG.       2", 5" PRINT:   ORIGIN OF DATA
 UWI .       490251030800:   UNIQUE WELL ID
 DICO. A2D Technologies, Inc.:   DIGITIZING COMPANY
 OS  .                   :   OTHER SERVICES
 PWI .                   :   PRIMARY WELL IDENTIFIER
 R1  .                   :   REMARKS 1
 R2  .                   :   REMARKS 2
 LSRV.                   :   LOG MNEMONIC
~OTHER INFORMATION
~A   DEPT      SPR        ILD        ILM       SGRD       CALD       CORR       RHOB       DPHI        GRD   
# ...
  358.5000   -37.5908     8.0898     7.9007    10.7586     7.8486     0.0130     2.4266     0.1343   140.4386
  359.0000   -37.7553     7.6396     7.5221    10.5291     7.8482    -0.0081     2.4096     0.1439   140.4430
  359.5000   -38.0671     7.0330     7.1617     9.8875     7.8477    -0.0114     2.3863     0.1592   141.6522
  360.0000   -38.0787     6.7892     6.9616     7.3367     7.8473     0.0220     2.3976     0.1604   141.8072
  360.5000   -37.7899     6.7379     6.8614     5.1158     7.8469     0.0171     2.4164     0.1427   140.4562
  361.0000   -37.6512     6.6408     6.8567     7.0298     7.8464     0.0069     2.4201     0.1382   142.7197
  361.5000   -37.6656     6.6364     6.7570     9.7959     7.8459     0.0234     2.4434     0.1247   140.0143
  362.0000   -37.5270     6.6781     6.7060     9.5692     7.8454     0.0264     2.4494     0.1268   140.6200
  362.5000   -37.0880     6.9077     6.7492     9.6482     7.8450     0.0279     2.4412     0.1280   138.0653
  363.0000   -36.9494     6.9994     6.9331    10.1214     7.8446     0.0308     2.4366     0.1274   138.6721
  363.5000   -36.9610     7.0935     7.1228    10.2580     7.8441     0.0323     2.4419     0.1295   138.3753
  364.0000   -37.1255     6.7992     6.8274     9.6310     7.8437     0.0308     2.4341     0.1323   135.6689
  364.5000   -36.9839     6.4721     6.5454     7.2454     7.8432     0.0262     2.4210     0.1365   134.6190
  365.0000   -37.8992     6.4232     6.4067     6.3045     7.8428     0.0202     2.4088     0.1449   134.9247
  365.5000   -38.2111     6.5548     6.5822     6.0026     7.8424     0.0156     2.4095     0.1437   134.7785
  366.0000   -37.7718     6.9225     6.9043     9.0893     7.8569     0.0126     2.4208     0.1395   133.2780
  366.5000   -37.4833     7.0632     7.0521     9.6118     7.8564     0.0065     2.4306     0.1344   132.0776
  367.0000   -38.2485     7.1136     7.1863    10.0708     7.8559     0.0020     2.4471     0.1242   132.0820
  367.5000   -37.8067     7.3518     7.4860    10.3490     7.8555     0.0004     2.4366     0.1329   133.7430
  368.0000   -37.5207     7.8194     7.9618    10.3413     7.8550    -0.0056     2.4238     0.1356   134.5004
  368.5000   -37.5323     8.0351     8.1235    10.3352     7.8396    -0.0117     2.4178     0.1408   133.3000
  369.0000   -37.5438     8.0844     8.1179    10.3289     7.8542    -0.0147     2.4208     0.1385   132.2502
  369.5000   -37.5556     8.0745     8.0554    10.3213     7.8537    -0.0087     2.4276     0.1336   131.8028
  370.0000   -37.7198     7.9062     7.8847    10.2440     7.8533    -0.0042     2.4360     0.1300   129.0964
  370.5000   -38.1818     7.5794     7.4551    10.2379     7.8528    -0.0012     2.4418     0.1285   130.9534
  371.0000   -37.7429     7.2662     7.0979    10.3029     7.8674     0.0048     2.4328     0.1333   131.5148
  371.5000   -37.1538     6.7755     6.8035    10.2968     7.8669     0.0153     2.4298     0.1294   128.5083
  372.0000   -37.9160     6.4494     6.5226     8.4170     7.8664     0.0152     2.4094     0.1384   128.9645
  372.5000   -38.0781     6.3128     6.4287     6.6014     7.8510     0.0014     2.3982     0.1486   130.0231
  373.0000   -37.9391     6.3525     6.2925     5.1775     7.8356     0.0024     2.3914     0.1574   129.4251
  373.5000   -37.5030     6.4815     6.3759     6.7320     7.7903     0.0197     2.3944     0.1571   127.9235
  374.0000   -37.5145     6.6592     6.5506     8.8292     7.6701    -0.0045     2.4102     0.1369   126.2713
  374.5000   -37.9765     6.8892     6.8375     7.5562     7.5349    -0.0045     2.4252     0.1266   124.7697
  375.0000   -38.5886     7.1261     7.3066     9.6315     7.5195     0.0030     2.4508     0.1150   124.4729
  375.5000   -39.5039     7.2219     7.7174    10.3877     7.5340     0.0195     2.4737     0.1057   124.3117
  376.0000   -39.6627     7.5220     8.0393    10.8219     7.6084     0.0346     2.5103     0.0922   124.7840
  376.5000   -39.3739     7.7819     8.3745    11.0427     7.5330     0.0376     2.5079     0.0838   125.6920
  377.0000   -39.2352     8.0508     8.7334    11.1126     7.6673     0.0315     2.4951     0.0874   125.9966
  377.5000   -39.0991     8.5174     9.4060    11.4180     7.7717     0.0209     2.5191     0.0961   123.1406
  378.0000   -38.9608     8.9822     9.7307    11.6507     7.7712     0.0119     2.4936     0.1001   122.3909
  378.5000   -38.8222     9.2269     9.7934    11.5617     7.7858     0.0118     2.4785     0.1010   124.8061
  379.0000   -38.8366     9.3509     9.8549    11.3959     7.7853     0.0168     2.4808     0.1013   125.4129
  379.5000   -38.8481     9.3432     9.8467    11.4692     7.7849     0.0283     2.4875     0.1010   126.1703
  380.0000   -38.8596     9.4019     9.9774    11.8635     7.7844     0.0358     2.4958     0.0932   126.1747
  380.5000   -38.8711     9.3941     9.9691    11.6933     7.7839     0.0433     2.4980     0.0902   122.6852
  381.0000   -38.8829     9.4547     9.8938    11.6864     7.7835     0.0539     2.5018     0.0886   120.9135
  381.5000   -38.8970     9.4469     9.8873    11.6794     7.7981     0.0614     2.5057     0.0800   121.8216
  382.0000   -38.7555     9.5078     9.8808    11.6724     7.8127     0.0463     2.5085     0.0776   123.9344
  382.5000   -38.4696     9.6336     9.8740    11.8282     7.8121     0.0327     2.5055     0.0962   125.4448
  383.0000   -38.3281     9.6930     9.8661    11.8194     7.8117     0.0342     2.4912     0.0965   125.9010
  383.5000   -38.3425     9.6850     9.8595    11.9771     7.8112     0.0371     2.4897     0.0953   126.0561
  384.0000   -38.2039     9.6786     9.8530    12.2231     7.7808     0.0401     2.4837     0.0966   125.7582
  384.5000   -38.2183     9.5392     9.7786    11.8803     7.7504     0.0416     2.4822     0.1011   125.4624
  385.0000   -37.9266     9.4671     9.7047    11.2805     7.7050     0.0416     2.5002     0.0963   125.0151
  385.5000   -37.7879     9.4606     9.6299    10.6938     7.6597     0.0476     2.4995     0.0984   124.2214
  386.0000   -37.6493     9.5203     9.6235    10.7633     7.6443     0.0581     2.4842     0.0999   123.2166
  386.5000   -37.6637     9.5801     9.6172    11.2116     7.6438     0.0611     2.5017     0.0923   125.0294
  387.0000   -37.6757     9.6403     9.7463    11.9255     7.6284     0.0580     2.5016     0.0903   125.1844
  387.5000   -37.3893     9.5658     9.8740    12.7730     7.6430     0.0474     2.4977     0.0924   124.7370
  388.0000   -37.2478     9.4795     9.8659    13.3070     7.6575     0.0278     2.4859     0.1023   122.9342
  388.5000   -37.1092     9.0996     9.8593    12.5805     7.7040     0.0067     2.4596     0.1117   122.4857
  389.0000   -36.8232     8.7235     9.7174    12.7483     7.8511    -0.0084     2.4430     0.1231   123.2442
  389.5000   -37.1391     8.1910     8.9992    12.7407     7.8658    -0.0069     2.4310     0.1279   124.6040
  390.0000   -37.7500     7.6379     7.4092     9.8550     7.8652     0.0021     2.4189     0.1339   126.1145
  390.5000   -37.6085     7.2186     6.5156     7.9372     7.8648     0.0131     2.4107     0.1378   127.3237
  391.0000   -37.7731     7.0684     6.1374     4.9583     7.8643     0.0297     2.4099     0.1466   126.2739
  391.5000   -37.9347     7.1622     6.2188     5.1656     7.8639     0.0472     2.4159     0.1442   127.0313
  392.0000   -37.7958     7.2573     6.7062     8.6182     7.8635     0.0728     2.4227     0.1394   123.8742
  392.5000   -37.9580     7.4550     7.5384    12.7816     7.8630     0.0743     2.4333     0.1335   116.6497
  393.0000   -38.4226     7.8751     8.4280    13.1328     7.8476     0.0486     2.4402     0.1270   114.8468
  393.5000   -38.4341     8.4907     9.7911    13.3985     7.8171     0.0546     2.4512     0.1226   114.3994
  394.0000   -38.1453     9.1567    10.4857    14.1533     7.7718     0.0772     2.4610     0.1214   113.9520
  394.5000   -37.7035     9.7391    11.0752    14.4440     7.6516     0.0952     2.4738     0.1187   113.0528
