~VERSION INFORMATION
 VERS.                2.0:   CWLS LOG ASCII STANDARD - VERSION 2.0
 WRAP.                 NO:   ONE LINE PER DEPTH STEP
~WELL INFORMATION
#MNEM.UNIT      DATA TYPE    INFORMATION
#----------   ------------   ------------------------------
 STRT.F           20.0000:   START DEPTH
 STOP.F          672.0000:   STOP DEPTH
 STEP.F            0.5000:   STEP LENGTH
 NULL.          -999.2500:   NO VALUE
 COMP.              FENIX:   COMPANY
 WELL.    NPR ##3 23-S-11:   WELL
 FLD .        TEAPOT DOME:   FIELD
 LOC .      S11 T38N R78W:   LOCATION
 CNTY.            NATRONA:   COUNTY
 STAT.            WYOMING:   STATE
 CTRY. UNITED STATES OF AMERICA:   COUNTRY
 SRVC.           BIRDWELL:   SERVICE COMPANY
 DATE.        05-FEB-1978:   LOGDATE
 API .       490251057300:   API NUMBER
~CURVE INFORMATION
#MNEM.UNIT       API CODE    CURVE DESCRIPTION
#----------   ------------   ------------------------------
 DEPT.F                  :   
 ILD .OHMM   05 120 46 00:   INDUCTION LOG DEEP
 SN  .OHMM   05 040 16 00:   SHORT NORMAL 16"
 SPR .MV     05 010 01 00:   SPONTANEOUS POTENTIAL FROM RES.
 CALD.IN     45 280 60 00:   CALIPER FROM DENSITY LOG
 CORR.G/C3   45 356 01 00:   DENSITY CORRECTION
 DPHI.DEC    45 890 10 00:   DENSITY POROSITY LIMESTONE
 GRD .GAPI   45 310 01 00:   GAMMA RAY FROM DENSITY LOG
 RHOB.G/C3   45 350 01 00:   BULK DENSITY
~PARAMETER INFORMATION
#MNEM.UNIT          VALUE    DESCRIPTION
#----------   ------------   ------------------------------
 PD  .                 GL:   PERMANENT DATUM
 EPD .F              5175:   ELEVATION PERMANENT DATUM
 LMF .                 KB:   LOG MEASURED FROM
 DMF .                 KB:   DRILLING MEASURED FROM
 EKB .F              5178:   KELLING BUSHING
 EGL .F              5175:   GROUND LEVEL
 DATE.        05-FEB-1978:   RUN DATE
 RUN .                  1:   RUN NUMBER
 DD  .F               670:   DEPTH DRILLER
 DL  .F               675:   DEPTH LOGGER
 BLI .F               670:   BOTTOM LOG INTERVAL
 TLI .F                40:   TOP LOG INTERVAL
 CS  .IN            8.625:   CASING SIZE
 CBD .F                39:   CASING BOTTOM DRILLER
 CBL .F                40:   CASING BOTTOM LOGGER
 BS  .IN            7.875:   BIT SIZE
 BSD .F               670:   BIT SIZE AT DEPTH
 DFT .                KCL:   DRILLING FLUID TYPE
 DFD .                8.4:   DRILLING FLUID DENSITY
 DFV .                 32:   DRILLING FLUID VISCOSITY
 DFPH.                  8:   DRILLING FLUID PH
 DFL .                8.8:   DRILLING FLUID LOSS
 MSS .           FLOWLINE:   MUD SAMPLE SOURCE
 RMS .OHMM           0.58:   RESISTIVITY MUD SAMPLE
 MST .F                62:   MUD SAMPLE TEMPERATURE
 RMF .OHMM           0.58:   RESISTIVITY MUD FILTRATE SAMPLE
 MFST.F                62:   MUD FILTRATE SAMPLE TEMPERATURE
 RMC .OHMM            0.9:   RESISTIVITY MUD CAKE
 MCST.F                66:   MUD CAKE SAMPLE TEMPERATURE
 MFSS.               MEAS:   MUD FILTRATE SAMPLE SOURCE
 RMB .OHMM           0.55:   RESISTIVITY MUD AT BHT
 BHT .F                72:   BOTTOM HOLE TEMPERATURE
 TCS .HRS               1:   TIME CURCULATED STOPPED
 MRT .F                72:   MAXIMUM RECORDED TEMPERATURE
 LUN .               2958:   LOGGING UNIT NUMBER
 LUL .               CASP:   LOGGING UNIT LOCATION
 ENGI.            POINTER:   RECORDING ENGINEER
 WITN.         HARRINGTON:   WITNESSED BY
 CLNT.            A2DTECH:   CLIENT CODE
 ORIG.           5" PRINT:   ORIGIN OF DATA
 UWI .       490251057300:   UNIQUE WELL ID
 DICO. A2D Technologies, Inc.:   DIGITIZING COMPANY
~OTHER INFORMATION
~A   DEPT      ILD         SN        SPR       CALD       CORR       DPHI         GRD      RHOB   
# ...
  344.0000     7.7360     8.3330   -53.7027     7.9492     0.0216     0.1094    79.2534     2.4667
  344.5000     7.7869     8.3893   -53.7116     7.9482     0.0186     0.1088    79.1017     2.4667
  345.0000     7.7845     8.4519   -53.7204     7.9472     0.0171     0.1089    78.6505     2.4622
  345.5000     7.8364     8.4439   -53.5746     7.9462     0.0171     0.1073    78.1993     2.4569
  346.0000     7.7798     8.3258   -53.2805     7.9450     0.0178     0.1130    76.2189     2.4562
  346.5000     7.7200     8.2094   -53.2897     7.9440     0.0155     0.1118    75.1977     2.4584
  347.0000     7.5618     8.0386   -53.2988     7.9581     0.0110     0.1159    74.4466     2.4621
  347.5000     7.4039     7.9262   -53.3079     7.9569     0.0087     0.1112    80.2923     2.4621
  348.0000     7.2997     8.0354   -53.3679     7.9559     0.0102     0.1145    82.4098     2.4569
  348.5000     7.1969     8.1461   -53.4799     7.9702     0.0109     0.1164    82.5384     2.4553
  349.0000     7.0956     8.2011   -53.7207     7.9690     0.0109     0.1155    82.2368     2.4561
  349.5000     7.0935     8.1423   -53.8025     7.9678     0.0109     0.1155    81.9355     2.4568
  350.0000     7.0668     8.1076   -53.9638     7.9517     0.0109     0.1167    81.6339     2.4560
  350.5000     6.9915     8.0026   -53.9726     7.9507     0.0118     0.1170    81.7824     2.4545
  351.0000     6.9889     7.9123   -53.9817     7.9648     0.0123     0.1173    80.7315     2.4530
  351.5000     6.9868     7.9096   -53.9909     7.9636     0.0153     0.1176    79.9805     2.4515
  352.0000     6.9849     7.8523   -54.0015     7.9331     0.0206     0.1164    79.6789     2.4530
  352.5000     6.9343     7.7954   -54.0103     7.9321     0.0288     0.1134    79.5275     2.4560
  353.0000     6.8843     7.6771   -54.0183     7.9312     0.0303     0.1107    79.8263     2.4582
  353.5000     6.8346     7.5762   -54.0274     7.9304     0.0273     0.1101    80.2744     2.4612
  354.0000     6.7384     7.4176   -54.0370     7.9293     0.0272     0.1107    79.8228     2.4634
  354.5000     6.5926     7.2623   -54.0458     7.9285     0.0287     0.1113    77.4226     2.4642
  355.0000     6.4594     7.1103   -54.0549     7.9126     0.0303     0.1132    76.2218     2.4589
  355.5000     6.3245     6.9133   -54.0640     7.8967     0.0317     0.1158    75.6207     2.4566
  356.0000     6.2789     6.7217   -54.0732     7.8956     0.0279     0.1171    75.6189     2.4581
  356.5000     6.2770     6.5255   -54.0835     7.8948     0.0234     0.1141    75.6175     2.4574
  357.0000     6.2751     6.3539   -54.0924     7.8939     0.0159     0.1168    75.3163     2.4468
  357.5000     6.3169     6.3517   -54.1006     7.8780     0.0106     0.1249    74.1030     2.4363
  358.0000     6.3805     6.4832   -54.1101     7.8770     0.0076     0.1330    74.2636     2.4288
  358.5000     6.4916     6.7097   -54.1189     7.8761     0.0061     0.1355    74.8619     2.4212
  359.0000     6.5338     6.9929   -54.1280     7.8903     0.0068     0.1279    75.6101     2.4197
  359.5000     6.6686     7.2878   -54.1372     7.8895     0.0068     0.1222    78.5022     2.4370
  360.0000     6.6666     7.4420   -54.1463     7.9035     0.0061     0.1204    81.3041     2.4445
  360.5000     6.7115     7.5401   -54.1567     7.9026     0.0061     0.1232    81.4530     2.4392
  361.0000     6.7089     7.6429   -54.0122     7.9169     0.0053     0.1270    81.6015     2.4362
  361.5000     6.7537     7.6935   -54.0213     7.9158     0.0045     0.1270    81.5997     2.4363
  362.0000     6.7515     7.7445   -54.0309     7.9149     0.0060     0.1255    81.4483     2.4377
  362.5000     6.7494     7.7413   -54.0397     7.9141     0.0120     0.1228    81.2967     2.4406
  363.0000     6.7473     7.7387   -54.0488     7.9132     0.0150     0.1213    81.4452     2.4438
  363.5000     6.7449     7.7361   -54.0597     7.9122     0.0180     0.1210    81.6149     2.4541
  364.0000     6.6962     7.7334   -54.0671     7.9266     0.0172     0.1168    82.0421     2.4586
  364.5000     6.6479     7.6237   -53.9228     7.9256     0.0149     0.1163    83.3897     2.4587
  365.0000     6.6000     7.5161   -53.9339     7.9247     0.0149     0.1175    84.2879     2.4547
  365.5000     6.5071     7.3587   -53.7903     7.9237     0.0170     0.1184    84.2864     2.4526
  366.0000     6.4155     7.3054   -53.7353     7.9228     0.0187     0.1181    84.4349     2.4533
  366.5000     6.2815     7.1524   -53.6555     7.9220     0.0209     0.1172    84.5835     2.4571
  367.0000     6.1073     7.1006   -53.6663     7.9060     0.0224     0.1151    84.4318     2.4608
  367.5000     5.9385     7.0924   -53.7593     7.9050     0.0223     0.1136    82.9308     2.4630
  368.0000     5.6947     6.9009   -53.8523     7.9192     0.0231     0.1112    79.4811     2.4675
  368.5000     5.4609     6.5715   -53.9453     7.9334     0.0246     0.1142    78.1303     2.4630
  369.0000     5.2368     6.2577   -54.0070     7.9474     0.0268     0.1181    78.1289     2.4540
  369.5000     5.1630     6.0005   -54.3208     7.9466     0.0283     0.1181    75.5784     2.4517
  370.0000     5.1615     5.6745   -54.3296     7.9457     0.0238     0.1178    74.6775     2.4479
  370.5000     5.1599     5.4791   -54.3385     7.9449     0.0177     0.1205    74.2263     2.4366
  371.0000     5.2304     5.3643   -54.3476     7.9591     0.0095     0.1268    74.3798     2.4306
  371.5000     5.3384     5.3621   -54.3585     7.9430    -0.0003     0.1281    75.4225     2.4276
  372.0000     5.5251     5.5112   -54.3673     7.9271     0.0132     0.1452    76.6205     2.3795
  372.5000     5.7982     5.8239   -54.3762     7.9262     0.0177     0.1584    78.7181     2.3780
  373.0000     6.0847     6.1544   -54.2304     7.9252     0.0139     0.1494    80.3808     2.4073
  373.5000     6.4299     6.5489   -53.9366     7.9243     0.0124     0.1245    81.5635     2.4418
  374.0000     6.6548     6.8726   -53.7927     7.9235     0.0146     0.1146    81.5621     2.4568
  374.5000     6.8917     7.1655   -53.8019     7.9224     0.0169     0.1119    81.8605     2.4614
  375.0000     7.0955     7.4003   -53.6585     7.9216     0.0169     0.1095    82.7836     2.4643
  375.5000     7.2755     7.5653   -53.6694     7.9207     0.0041     0.1098    84.2561     2.4665
  376.0000     7.4238     7.7223   -53.6783     7.9199     0.0071     0.1125    84.5549     2.4673
  376.5000     7.5801     7.8436   -53.6860     7.9489     0.0101     0.1161    82.0044     2.4625
  377.0000     7.6311     7.9350   -53.5414     7.9481     0.0139     0.1200    80.6537     2.4537
  377.5000     7.7354     8.0986   -53.5525     7.9472     0.0190     0.1134    81.5515     2.4582
  378.0000     7.7863     8.0959   -53.5610     7.9309     0.0228     0.1086    81.5501     2.4687
  378.5000     7.7839     8.1896   -53.5701     7.9152     0.0258     0.1062    81.2488     2.4747
  379.0000     7.7814     8.3175   -53.5806     7.9144     0.0265     0.1050    80.7973     2.4755
  379.5000     7.7786     8.3147   -53.4931     7.9135     0.0235     0.1002    80.9458     2.4837
  380.0000     7.7762     8.3999   -53.4436     7.9127     0.0235     0.1023    81.8440     2.4807
  380.5000     7.7739     8.4840   -53.4543     7.8966     0.0234     0.1068    82.1424     2.4747
  381.0000     7.7715     8.4811   -53.6168     7.8806     0.0167     0.0954    82.1406     2.4784
  381.5000     7.7692     8.5374   -53.6250     7.8798     0.0219     0.0969    82.1392     2.4844
  382.0000     7.7668     8.5344   -53.6353     7.8787     0.0264     0.1074    79.1393     2.4776
  382.5000     7.7645     8.5314   -53.6433     7.8779     0.0303     0.1078    76.4393     2.4761
  383.0000     7.7620     8.5355   -53.6524     7.8770     0.0384     0.1051    76.7377     2.4814
  383.5000     7.7592     8.5849   -53.6633     7.8762     0.0316     0.0978    78.9848     2.4899
  384.0000     7.7572     8.6212   -53.6707     7.8902     0.0241     0.0852    81.9819     2.5046
