~VERSION INFORMATION
 VERS.                2.0:   CWLS LOG ASCII STANDARD - VERSION 2.0
 WRAP.                 NO:   ONE LINE PER DEPTH STEP
~WELL INFORMATION
#MNEM.UNIT      DATA TYPE    INFORMATION
#----------   ------------   ------------------------------
 STRT.F           30.0000:   START DEPTH
 STOP.F          502.0000:   STOP DEPTH
 STEP.F            0.5000:   STEP LENGTH
 NULL.          -999.2500:   NO VALUE
 COMP.   FLUOR DANIEL INC:   COMPANY
 WELL. NPR 3  74-66 SX-1 #66-10:   WELL
 FLD .             TEAPOT:   FIELD
 LOC .      S10 T38N R78W:   LOCATION
 CNTY.            NATRONA:   COUNTY
 STAT.            WYOMING:   STATE
 CTRY. UNITED STATES OF AMERICA:   COUNTRY
 SRVC.           Gearhart:   SERVICE COMPANY
 DATE.        19-JUL-1987:   LOGDATE
 API .       490251114700:   API NUMBER
~CURVE INFORMATION
#MNEM.UNIT       API CODE    CURVE DESCRIPTION
#----------   ------------   ------------------------------
 DEPT.F                  :   
 RLL .OHMM   07 220 00 00:   LATEROLOG RESISTIVITY
 RILD.OHMM   07 120 46 00:   INDUCTION LOG DEEP RESISTIVITY
 RILM.OHMM   07 120 44 00:   INDUCTION LOG MEDIUM RESISTIVITY
 GRR .GAPI   07 310 01 00:   GAMMA RAY FROM RES. LOG
 SPR .MV     07 010 01 00:   SPONTANEOUS POTENTIAL FROM RES. LOG
~PARAMETER INFORMATION
#MNEM.UNIT          VALUE    DESCRIPTION
#----------   ------------   ------------------------------
 PD  .                 GL:   PERMANENT DATUM
 EPD .F              5163:   ELEVATION PERMANENT DATUM
 LMF .                 KB:   LOG MEASURED FROM
 DAPD.F                 8:   FEET ABOVE PERMANENT DATUM
 DMF .                 KB:   DRILLING MEASURED FROM
 EKB .F              5171:   KELLING BUSHING
 EDF .F              5169:   DRILLING FLOOR
 EGL .F              5163:   GROUND LEVEL
 DATE.            7-19-87:   RUN DATE
 RUN .                  1:   RUN NUMBER
 DD  .F               500:   DEPTH DRILLER
 DL  .F               502:   DEPTH LOGGER
 BLI .F               500:   BOTTOM LOG INTERVAL
 TLI .F                30:   TOP LOG INTERVAL
 CS  .IN            8.625:   CASING SIZE
 CBD .F                40:   CASING BOTTOM DRILLER
 CBL .F                48:   CASING BOTTOM LOGGER
 BS  .IN            7.875:   BIT SIZE
 BSD .F               500:   BIT SIZE AT DEPTH
 DFT .                MUD:   DRILLING FLUID TYPE
 DFD .                8.9:   DRILLING FLUID DENSITY
 DFV .                 40:   DRILLING FLUID VISCOSITY
 MSS .            MUD PIT:   MUD SAMPLE SOURCE
 RMS .OHMM             .4:   RESISTIVITY MUD SAMPLE
 MST .F                70:   MUD SAMPLE TEMPERATURE
 RMF .OHMM             .3:   RESISTIVITY MUD FILTRATE SAMPLE
 MFST.F                70:   MUD FILTRATE SAMPLE TEMPERATURE
 RMC .OHMM            .32:   RESISTIVITY MUD CAKE
 MCST.F                70:   MUD CAKE SAMPLE TEMPERATURE
 MFSS.              CHART:   MUD FILTRATE SAMPLE SOURCE
 MCSS.              CHART:   MUD CAKE SAMPLE SOURCE
 RMB .OHMM            .35:   RESISTIVITY MUD AT BHT
 BHT .F                80:   BOTTOM HOLE TEMPERATURE
 TCS .HRS            2230:   TIME CURCULATED STOPPED
 TLAB.HRS            2330:   TIME LOGGER AT BOTTOM
 MRT .F                80:   MAXIMUM RECORDED TEMPERATURE
 LUN .               7597:   LOGGING UNIT NUMBER
 LUL .           GILLETTE:   LOGGING UNIT LOCATION
 ENGI.         WEATHERMON:   RECORDING ENGINEER
 WITN.             STRONG:   WITNESSED BY
 CLNT.            A2DTECH:   CLIENT CODE
 ORIG.       2", 5" PRINT:   ORIGIN OF DATA
 UWI .       490251114700:   UNIQUE WELL ID
 DICO. A2D Technologies, Inc.:   DIGITIZING COMPANY
~OTHER INFORMATION
~A   DEPT      RLL       RILD       RILM         GRR       SPR   
# ...
  274.0000     7.8228     6.1573     5.9915   117.4513   -88.8367
  274.5000     7.8228     5.8878     5.6338   118.6604   -92.4652
  275.0000     6.8648     5.6505     4.9186   121.7915   -94.4332
  275.5000     6.2486     5.6001     4.7254   126.8556   -85.5235
  276.0000     6.1736     5.5471     4.5630   129.9439   -85.1243
  276.5000     6.0867     5.4931     4.7604   131.0234   -84.3152
  277.0000     6.1297     5.4443     5.0075   128.9021   -81.5998
  277.5000     6.3186     5.5983     5.0542   126.4531   -79.9331
  278.0000     6.9089     5.8509     5.1130   124.9422   -86.2121
  278.5000     7.4031     6.2571     5.5717   124.7352   -87.0867
  279.0000     7.5395     6.6916     6.0227   123.0067   -89.8213
  279.5000     7.5349     7.1297     6.4330   120.7704   -85.3291
  280.0000     8.0939     7.3505     6.8154   119.2078   -83.8479
  280.5000     8.5053     7.5668     7.0777   121.4363   -83.9446
  281.0000     8.3223     7.7894     7.3480   124.9715   -83.3419
  281.5000     8.2714     8.0186     7.6801   124.0321   -83.9856
  282.0000     8.9098     8.2545     7.6263   121.2900   -83.9952
  282.5000     8.8777     8.4266     7.5373   118.7128   -83.6038
  283.0000     8.8274     8.4182     7.5754   116.8945   -83.9086
  283.5000     8.8274     8.4105     7.6177   116.5059   -84.1831
  284.0000     8.8274     8.4028     7.6603   118.0829   -84.3189
  284.5000     8.8274     8.3952     7.7032   120.2145   -85.4798
  285.0000     8.8274     8.3875     7.7504   121.4087   -83.5624
  285.5000     8.8274     8.3799     7.6618   122.3974   -83.4211
  286.0000     8.8272     8.3722     7.5650   123.3932   -84.4696
  286.5000     8.8282     8.3645     7.4694   123.0605   -84.5542
  287.0000     8.8609     8.3571     7.3822   121.3233   -83.8467
  287.5000     8.8939     8.3486     7.3177   118.9925   -84.1645
  288.0000     8.9270     8.4917     7.2622   117.4110   -84.5550
  288.5000     8.9603     8.6528     7.3563   118.5065   -84.3813
  289.0000     8.9930     8.8169     7.4411   119.7495   -84.7043
  289.5000     9.1849     8.9098     7.5224   119.4534   -85.3467
  290.0000     9.5531     8.8428     7.8592   117.6648   -86.0015
  290.5000     9.9815     8.7895     8.1191   114.8191   -86.1573
  291.0000    10.1350     8.6380     8.0614   112.6776   -85.6511
  291.5000    10.2909     8.0193     7.6963   109.8663   -85.0857
  292.0000    10.4492     7.4445     7.1466   106.9887   -84.8016
  292.5000    10.5323     6.8684     6.6362   106.4992   -85.0994
  293.0000     8.7749     6.7584     5.8359   110.0140   -85.3048
  293.5000     7.7502     6.6699     5.0081   115.8640   -85.1552
  294.0000     6.8048     6.6180     4.8252   123.0777   -85.0108
  294.5000     6.9972     6.7461     5.1638   131.2261   -83.9959
  295.0000     7.9715     6.8403     5.7470   133.7909   -85.3892
  295.5000     9.1685     6.9475     6.4357   121.7370   -86.5952
  296.0000    10.5433     7.4672     6.7148   112.7256   -84.8941
  296.5000    11.7714     8.3903     7.2809   104.5255   -83.6073
  297.0000    11.5097     9.4297     7.8997   104.2356   -84.8896
  297.5000    11.2956    10.2921     8.5635   109.3099   -85.5772
  298.0000    11.0852    10.4586     9.0659   113.2180   -84.0639
  298.5000    11.0245    10.6987     9.3585   115.5534   -82.2861
  299.0000    10.9739    11.0008     9.5289   114.0494   -82.6717
  299.5000    10.9235    11.3139     9.5807   112.9028   -83.1343
  300.0000    10.8733    11.6660     9.5976   113.0938   -84.0387
  300.5000    10.8274    12.5363     9.5405   113.3276   -84.8899
  301.0000    11.1027    13.5750     9.5086   111.7919   -83.4361
  301.5000    11.5433    14.7066    10.3583   109.6408   -81.9492
  302.0000    13.7137    16.3890    11.4729   105.4170   -81.1757
  302.5000    17.1832    18.4071    14.0317    93.7061   -80.3983
  303.0000    21.2627    19.8413    17.1343    80.9830   -80.1279
  303.5000    25.6420    21.5477    19.7094    68.1119   -79.0758
  304.0000    27.1787    23.5061    20.4369    57.2672   -77.7138
  304.5000    27.1787    25.6426    20.5655    49.0937   -78.4956
  305.0000    24.7666    26.9116    20.2102    48.3648   -79.8648
  305.5000    22.4847    27.6886    19.9060    51.4823   -80.5212
  306.0000    20.6709    27.6886    19.2214    60.4623   -80.8507
  306.5000    20.3752    27.4443    18.5604    73.2371   -81.1762
  307.0000    20.6968    27.0392    17.9220    79.9594   -81.4209
  307.5000    20.9513    26.6782    17.3057    79.9359   -82.0184
  308.0000    20.8110    26.8070    16.4538    78.9281   -83.1405
  308.5000    20.6569    26.9250    16.5240    76.4361   -85.7730
  309.0000    20.3658    27.0436    16.6506    76.5686   -81.6879
  309.5000    19.8795    27.1787    16.7781    75.8198   -79.7355
  310.0000    19.4501    27.0184    16.9205    74.5069   -80.0520
  310.5000    19.8150    26.7821    16.6037    73.1871   -80.3138
  311.0000    19.7126    26.1117    16.7821    71.8657   -80.0448
  311.5000    19.6317    25.1192    17.0137    70.5623   -79.7446
  312.0000    19.8549    24.1685    17.2365    69.7824   -79.5989
  312.5000    20.0000    23.2498    16.8015    70.1238   -80.3415
  313.0000    20.1868    22.9919    16.0014    71.3759   -80.8295
  313.5000    19.2411    22.9919    15.9929    73.4809   -80.3408
  314.0000    18.1755    22.9828    17.3869    75.5859   -80.2028
  314.5000    16.9973    23.8554    19.0535    77.6985   -79.9409
  315.0000    15.9241    24.9359    21.0211    78.0166   -79.6136
  315.5000    15.7856    26.0715    23.2003    78.1403   -79.9617
  316.0000    15.7067    27.2588    25.6046    77.6847   -80.3338
  316.5000    16.5189    28.4713    28.7785    75.4474   -82.6820
  317.0000    17.9768    28.9861    28.7814    73.0157   -82.5828
  317.5000    19.5634    29.5499    25.7144    72.9216   -84.9824
  318.0000    21.2899    29.9833    23.1191    74.6040   -85.5915
  318.5000    21.9288    30.4702    20.7575    79.6790   -82.9454
  319.0000    22.2655    30.9651    20.1516    82.7878   -84.2013
  319.5000    22.6061    31.4679    19.8036    82.4264   -86.2173
  320.0000    22.7766    31.8307    20.3091    80.3327   -86.6128
  320.5000    22.1935    30.8549    21.0862    78.2270   -85.2528
  321.0000    21.9455    30.1183    21.8852    76.4405   -83.9182
  321.5000    22.5443    29.3992    22.7142    76.0959   -84.6761
  322.0000    23.0674    28.7349    23.8627    78.0440   -85.7186
  322.5000    23.6015    28.2893    23.1989    80.2603   -85.5056
  323.0000    23.8627    27.8711    22.2192    82.4956   -86.3270
  323.5000    23.8664    27.4603    21.2849    83.5927   -89.2804
  324.0000    23.8666    27.0581    20.7575    83.6167   -90.3365
  324.5000    23.3235    26.6739    21.2475    82.4211   -87.3544
  325.0000    22.8882    25.8306    21.7396    82.0649   -86.6583
  325.5000    22.4603    25.0541    22.2482    83.5030   -86.7059
  326.0000    22.0406    24.3009    22.5755    86.5582   -86.2218
  326.5000    21.6289    23.6420    22.1895    88.8797   -87.7262
  327.0000    21.2251    23.7794    21.8040    88.5874   -87.5655
  327.5000    20.8255    23.9150    21.4279    87.9988   -87.4043
  328.0000    20.4586    24.0513    21.0583    86.3318   -88.0328
  328.5000    20.0000    24.2484    20.7575    84.3028   -88.8739
  329.0000    20.0996    24.5431    20.9168    82.5917   -90.3307
  329.5000    20.2678    24.8415    21.0805    81.0341   -90.8128
  330.0000    20.4374    25.1434    21.2455    80.6872   -90.6578
  330.5000    20.6084    25.3278    21.4117    80.8857   -90.8961
  331.0000    20.7808    25.4667    21.5793    81.3291   -89.5176
  331.5000    20.9513    25.4675    21.7449    82.3456   -88.2032
  332.0000    20.4804    25.4676    20.7535    85.0646   -89.3912
  332.5000    19.8150    25.4668    19.8247    87.7685   -89.4726
  333.0000    20.1339    25.4668    18.9375    89.4665   -89.2828
  333.5000    20.7628    24.7630    18.2250    90.3235   -89.0791
  334.0000    21.1470    24.0374    18.7507    90.3314   -89.6633
  334.5000    21.0377    23.3330    19.3024    89.0615   -90.1857
