~VERSION INFORMATION
 VERS.                2.0:   CWLS LOG ASCII STANDARD - VERSION 2.0
 WRAP.                 NO:   ONE LINE PER DEPTH STEP
~WELL INFORMATION
#MNEM.UNIT      DATA TYPE    INFORMATION
#----------   ------------   ------------------------------
 STRT.F            0.0000:   START DEPTH
 STOP.F          530.0000:   STOP DEPTH
 STEP.F            0.5000:   STEP LENGTH
 NULL.          -999.2500:   NO VALUE
 COMP.   LAWRENCE-ALLISON:   COMPANY
 WELL. NPR 3 #51-56SX10 OB3:   WELL
 FLD .             TEAPOT:   FIELD
 LOC .      S10 T38N R78W:   LOCATION
 CNTY.            NATRONA:   COUNTY
 STAT.            WYOMING:   STATE
 CTRY. UNITED STATES OF AMERICA:   COUNTRY
 SRVC.           Gearhart:   SERVICE COMPANY
 DATE.        28-JUN-1987:   LOGDATE
 API .       490251100800:   API NUMBER
~CURVE INFORMATION
#MNEM.UNIT       API CODE    CURVE DESCRIPTION
#----------   ------------   ------------------------------
 DEPT.F                  :   
 CALD.IN     45 280 60 00:   CALIPER ROM DENSITY LOG
 CNC .DEC    45 890 03 00:   NEUTRON POROSITY SANDSTONE
 CORR.G/C3   45 356 01 00:   DENSITY CORRECTION
 DEN .G/C3   45 350 01 00:   COMPENSATED BULK DENSTIY
 PORD.DEC    45 890 12 00:   POROSITY DENSITY SANDSTONE
 GRR .GAPI   07 310 01 00:   GAMMA RAY
 ILD .OHMM   07 120 46 00:   INDUCTION LOG DEEP
 ILM .OHMM   07 120 44 00:   INDUCTION LOG MEDIUM
 LL  .OHMM   07 220 00 00:   LATEROLOG RESISTIVITY
 SPR .MV     07 010 01 00:   SPONTANEOUS POTENTIAL
 DT  .US/F   60 520 00 00:   INTERVAL TRANSIT TIME
~PARAMETER INFORMATION
#MNEM.UNIT          VALUE    DESCRIPTION
#----------   ------------   ------------------------------
 PD  .                 GL:   PERMANENT DATUM
 EPD .F              5198:   ELEVATION PERMANENT DATUM
 LMF .                 KB:   LOG MEASURED FROM
 DAPD.F                 8:   FEET ABOVE PERMANENT DATUM
 DMF .                 KB:   DRILLING MEASURED FROM
 EKB .F              5206:   KELLING BUSHING
 EDF .F              5204:   DRILLING FLOOR
 EGL .F              5198:   GROUND LEVEL
 DATE.        28-JUN-1987:   RUN DATE
 RUN .                  1:   RUN NUMBER
 DD  .F               535:   DEPTH DRILLER
 DL  .F               536:   DEPTH LOGGER
 BLI .F               533:   BOTTOM LOG INTERVAL
 BS  .IN             7.87:   BIT SIZE
 BSD .F               535:   BIT SIZE AT DEPTH
 DFT .                MUD:   DRILLING FLUID TYPE
 RMS .OHMM           0.84:   RESISTIVITY MUD SAMPLE
 MST .F                57:   MUD SAMPLE TEMPERATURE
 RMF .OHMM           0.63:   RESISTIVITY MUD FILTRATE SAMPLE
 MFST.F                57:   MUD FILTRATE SAMPLE TEMPERATURE
 RMC .OHMM           1.05:   RESISTIVITY MUD CAKE
 MCST.F                57:   MUD CAKE SAMPLE TEMPERATURE
 MFSS.               CALC:   MUD FILTRATE SAMPLE SOURCE
 MCSS.               CALC:   MUD CAKE SAMPLE SOURCE
 RMB .OHMM           0.59:   RESISTIVITY MUD AT BHT
 BHT .F                80:   BOTTOM HOLE TEMPERATURE
 TCS .HRS            1200:   TIME CURCULATED STOPPED
 TLAB.HRS            1322:   TIME LOGGER AT BOTTOM
 LUN .               7650:   LOGGING UNIT NUMBER
 LUL .           GILLETTE:   LOGGING UNIT LOCATION
 ENGI. JOHNSTON/HUCKFELDT:   RECORDING ENGINEER
 WITN.             STRONG:   WITNESSED BY
 CLNT.            A2DTECH:   CLIENT CODE
 ORIG.      2.5" 5" PRINT:   ORIGIN OF DATA
 UWI .       490251100800:   UNIQUE WELL ID
 DICO. A2D Technologies, Inc.:   DIGITIZING COMPANY
~OTHER INFORMATION
~A    DEPT    CALD        CNC       CORR        DEN       PORD         GRR         ILD        ILM       LL        SPR         DT   
# ...
  427.0000     6.2345     0.2836     0.0512     2.5431     0.0826    82.7705    12.6708    12.7982    10.6302   -22.4564    93.5433
  427.5000     6.2348     0.2962     0.0513     2.5379     0.0892    83.9805    12.6767    12.8033    10.6360   -20.0551    93.8502
  428.0000     6.2351     0.2932     0.0650     2.5311     0.0898    85.1905    12.6827    12.1212    10.6419   -23.8181    93.9305
  428.5000     6.2354     0.2793     0.0801     2.5319     0.0876    85.1993    12.6887    11.6347    10.6477   -23.8093    93.8594
  429.0000     6.2357     0.2714     0.0833     2.5335     0.0867    85.2081    12.3489    11.4801    10.6536   -21.6984    93.8652
  429.5000     6.2360     0.2768     0.0727     2.5327     0.0900    85.2169    12.3551    11.4850    10.4783   -23.7917    93.7186
  430.0000     6.2511     0.2771     0.0638     2.5275     0.0905    85.2257    12.1916    11.4898    10.3327   -29.1883    93.4964
  430.5000     6.2514     0.2741     0.0760     2.5283     0.0905    85.2345    11.8622    11.4945    10.0011   -25.2756    93.1975
  431.0000     6.2517     0.2654     0.0698     2.5276     0.0899    85.2433    11.6966    11.4993     9.8283   -23.1647    93.2789
  431.5000     6.2520     0.2586     0.0656     2.5254     0.0932    84.6246    11.3955    11.4473     9.8348   -21.3541    93.4346
  432.0000     6.2374     0.2517     0.0597     2.5231     0.0934    84.0040    11.3723    11.2870     9.8402   -20.1401    93.7416
  432.5000     6.2377     0.2559     0.0447     2.5247     0.0931    82.0120    11.2135    11.2004     9.8457   -25.2703    94.2092
  433.0000     6.2380     0.2561     0.0387     2.5247     0.0934    79.8730    11.1012    10.9729     9.8521   -26.8289    94.8091
  433.5000     6.2532     0.2429     0.0509     2.5233     0.0940    80.7697    10.9025    10.8192     9.8574   -28.2633    94.8903
  434.0000     6.2535     0.2401     0.0585     2.5225     0.0945    82.4665    10.6030    10.3247     9.8627   -29.2212    94.9705
  434.5000     6.2538     0.2548     0.0571     2.5211     0.0954    85.9098    10.4550    10.1874     9.8680   -30.8078    94.9751
  435.0000     6.2541     0.2645     0.0421     2.5188     0.0972    88.7787    10.0963     9.7786     9.8733   -32.2623    95.1309
  435.5000     6.2544     0.2756     0.0302     2.5159     0.1011    90.6476     9.8885     9.2576     9.7433   -32.9954    95.3622
  436.0000     6.2547     0.2873     0.0272     2.5129     0.1005    92.5405     9.1805     8.7644     9.6150   -31.2192    95.6692
  436.5000     6.2550     0.2969     0.0379     2.5137     0.0974    92.5495     8.8126     8.5294     9.2266   -29.5505    95.9005
  437.0000     6.2553     0.2975     0.0591     2.5265     0.0914    92.2122     8.4595     8.3008     8.8528   -27.0411    96.6635
  437.5000     6.2556     0.2782     0.0893     2.5288     0.0904    91.3680     8.0093     7.8585     8.5957   -30.1051    97.0531
  438.0000     6.2559     0.2757     0.0758     2.5281     0.0919    90.1756     7.5831     7.5377     8.1267   -31.4755    97.0481
  438.5000     6.2710     0.2772     0.0427     2.5259     0.0919    89.5838     7.1796     7.3198     7.5781   -32.3375    96.9771
  439.0000     6.2564     0.2949     0.0383     2.5259     0.0919    88.9910     6.9876     6.9050     7.0390   -33.2296    96.8306
  439.5000     6.2568     0.2991     0.0559     2.5260     0.0927    89.0008     6.6147     6.6517     6.5589   -33.2208    96.6840
  440.0000     6.2571     0.3114     0.0672     2.5200     0.0969    93.8144     6.4331     6.2042     5.5962   -28.1069    97.4456
  440.5000     6.2574     0.3088     0.0642     2.5049     0.1098   106.4358     6.2667     5.3546     5.4151   -27.7327   101.9893
  441.0000     6.2725     0.2958     0.0809     2.4869     0.1167   106.4664     6.3725     5.4131     5.5348   -29.5908   102.5397
  441.5000     6.2728     0.2824     0.1016     2.4832     0.1146    99.1968     6.5801     6.0088     6.1977   -29.5820   102.9201
  442.0000     6.2731     0.2808     0.0976     2.5043     0.1022    90.7027     6.8443     6.6802     7.0492   -28.9726   102.6001
  442.5000     6.2563     0.2845     0.0766     2.5104     0.1013    84.8494     7.2761     7.0742     7.7676   -25.6605   101.4135
  443.0000     6.2440     0.2996     0.0677     2.5081     0.1036    84.9529     7.5566     7.5933     8.2125   -27.7738    99.4559
  443.5000     6.2592     0.3049     0.0633     2.5037     0.1055    86.3153     7.9950     8.1190     8.3310   -30.8380    96.1378
  444.0000     6.2595     0.3121     0.0513     2.4992     0.1057    88.6326     8.4021     8.4653     8.5685   -33.8058    95.3896
  444.5000     6.2449     0.3136     0.0393     2.5000     0.1048    89.0901     8.8270     8.8264     8.6921   -34.3340    95.1687
  445.0000     6.2452     0.3139     0.0349     2.5068     0.1006    88.4970     9.2606     9.0768     8.6968   -33.6637    95.0271
  445.5000     6.2455     0.3138     0.0516     2.5166     0.0963    87.1890     9.5240     9.3344     8.7015   -31.8428    94.5813
  446.0000     6.2458     0.3138     0.0471     2.5174     0.0963    85.5135     9.7949     9.5992     8.7063   -28.6019    94.0599
  446.5000     6.2461     0.3138     0.0412     2.5174     0.0966    85.8199    10.0734     9.8716     8.8320   -31.3964    93.6896
  447.0000     6.2464     0.3134     0.0322     2.5175     0.0962    87.0591    10.2181    10.2945     8.9596   -30.5886    91.5053
  447.5000     6.2467     0.3134     0.0233     2.5175     0.0962    90.3471    10.5087    10.7518     9.1174   -25.9008    88.9431
  448.0000     6.2321     0.3134     0.0219     2.5161     0.0992    90.3559    10.8076    11.0734     9.4780   -21.3935    83.7353
  448.5000     6.2324     0.3133     0.0295     2.5138     0.1004    90.3647    10.9628    11.5349     9.8397   -21.5546    83.6655
  449.0000     6.2476     0.3133     0.0537     2.5094     0.1013    89.7729    11.1204    11.6718    10.2208   -27.9514    89.0550
  449.5000     6.2478     0.3133     0.0659     2.5086     0.1015    87.9799    11.2977    11.7220    10.3763   -27.6413    91.5621
  450.0000     6.2481     0.3136     0.0569     2.5109     0.1006    87.9887    11.6281    12.0081    10.6067   -30.5305    92.5321
  450.5000     6.2336     0.3138     0.0570     2.5162     0.0985    87.9975    11.9313    12.0775    10.7096   -32.1204  -999.2500
  451.0000     6.1859     0.3165     0.0556     2.5238     0.0930    89.2075    11.9829    12.2593    10.8436   -32.1081  -999.2500
  451.5000     6.0831     0.3189     0.0526     2.5299     0.0888    92.8199    12.3333    12.3591    10.9777   -30.9220  -999.2500
  452.0000     6.1008     0.3189     0.0512     2.5277     0.0884    92.8288    12.6261    12.4581    11.1118   -27.8018  -999.2500
  452.5000     6.1308     0.3176     0.0483     2.5239     0.0929    91.8318    12.9854    12.8928    11.2560   -27.1021  -999.2500
  453.0000     6.1311     0.3139     0.0484     2.5240     0.0935    84.8910    13.0824    13.0770    11.5597   -29.0547  -999.2500
  453.5000  -999.2500  -999.2500  -999.2500  -999.2500  -999.2500    82.6449    12.9979    13.2639    11.7266   -32.9468  -999.2500
  454.0000  -999.2500  -999.2500  -999.2500  -999.2500  -999.2500    83.7836    13.0054    13.2693    11.7331   -34.5426  -999.2500
  454.5000  -999.2500  -999.2500  -999.2500  -999.2500  -999.2500    89.2703    13.0115    13.3085    11.7396   -35.0293  -999.2500
  455.0000  -999.2500  -999.2500  -999.2500  -999.2500  -999.2500    89.2793    13.0176    13.2796    11.4644   -34.5846  -999.2500
  455.5000  -999.2500  -999.2500  -999.2500  -999.2500  -999.2500    88.4684    13.0237    13.2853    11.1219   -33.8158  -999.2500
  456.0000  -999.2500  -999.2500  -999.2500  -999.2500  -999.2500    87.2472    13.0299    13.2907    11.2043   -33.4895  -999.2500
  456.5000  -999.2500  -999.2500  -999.2500  -999.2500  -999.2500    85.4254    13.0360    13.2961    11.2888   -33.9470  -999.2500
  457.0000  -999.2500  -999.2500  -999.2500  -999.2500  -999.2500    82.6847    13.0421    13.3016    11.7733   -33.7635  -999.2500
