~VERSION INFORMATION
 VERS.                2.0:   CWLS LOG ASCII STANDARD - VERSION 2.0
 WRAP.                 NO:   ONE LINE PER DEPTH STEP
~WELL INFORMATION
#MNEM.UNIT      DATA TYPE    INFORMATION
#----------   ------------   ------------------------------
 STRT.F           30.0000:   START DEPTH
 STOP.F          691.0000:   STOP DEPTH
 STEP.F            0.5000:   STEP LENGTH
 NULL.          -999.2500:   NO VALUE
 COMP. U.S. DEPARTMENT OF ENERGY:   COMPANY
 WELL. NAVAL PETROLEUM RESERVE #3 #77-S-34:   WELL
 FLD .        TEAPOT DOME:   FIELD
 LOC .      S34 T39N R78W:   LOCATION
 CNTY.            NATRONA:   COUNTY
 STAT.            WYOMING:   STATE
 CTRY. UNITED STATES OF AMERICA:   COUNTRY
 SRVC.              Welex:   SERVICE COMPANY
 DATE.        26-APR-1977:   LOGDATE
 API .       490251034700:   API NUMBER
~CURVE INFORMATION
#MNEM.UNIT       API CODE    CURVE DESCRIPTION
#----------   ------------   ------------------------------
 DEPT.F                  :   
 CALD.IN     45 280 60 00:   CALIPER FROM DENSITY LOG
 CORR.G/C3   45 356 01 00:   DENSITY CORRECTION
 DPHI.DEC    45 890 12 00:   DENSITY POROSITY SANDSTONE
 RHOB.G/C3   45 350 01 00:   BULK DENSITY
 GRD .GAPI   45 310 01 00:   GAMMA RAY FROM DENSITY LOG
 ILD .OHMM   07 120 46 00:   INDUCTION LOG DEEP
 ILM .OHMM   07 120 44 00:   INDUCTION LOG MEDIUM
 SGRD.OHMM   07 220 05 00:   SHALLOW GUARD RESISTIVITY
 SPR .MV     07 010 01 00:   SPONTANEOUS POTENTIAL FROM RES.
~PARAMETER INFORMATION
#MNEM.UNIT          VALUE    DESCRIPTION
#----------   ------------   ------------------------------
 PD  .                 GL:   PERMANENT DATUM
 EPD .F              5075:   ELEVATION PERMANENT DATUM
 LMF .                 GL:   LOG MEASURED FROM
 DMF .                 GL:   DRILLING MEASURED FROM
 EGL .F              5075:   GROUND LEVEL
 DATE.          4-26-1977:   RUN DATE
 RUN .                  1:   RUN NUMBER
 DD  .F               700:   DEPTH DRILLER
 DL  .F               693:   DEPTH LOGGER
 BLI .F               691:   BOTTOM LOG INTERVAL
 TLI .F                35:   TOP LOG INTERVAL
 CS  .IN            8.625:   CASING SIZE
 CBD .F                40:   CASING BOTTOM DRILLER
 CBL .F                39:   CASING BOTTOM LOGGER
 BS  .IN            7.875:   BIT SIZE
 BSD .F               700:   BIT SIZE AT DEPTH
 DFT .            KCL MUD:   DRILLING FLUID TYPE
 DFD .                9.5:   DRILLING FLUID DENSITY
 DFV .                 35:   DRILLING FLUID VISCOSITY
 DFPH.               10.5:   DRILLING FLUID PH
 DFL .                 12:   DRILLING FLUID LOSS
 MSS .           FLOWLINE:   MUD SAMPLE SOURCE
 RMS .OHMM            .32:   RESISTIVITY MUD SAMPLE
 MST .F                66:   MUD SAMPLE TEMPERATURE
 RMF .OHMM            .28:   RESISTIVITY MUD FILTRATE SAMPLE
 MFST.F                66:   MUD FILTRATE SAMPLE TEMPERATURE
 RMC .OHMM            .49:   RESISTIVITY MUD CAKE
 MCST.F                66:   MUD CAKE SAMPLE TEMPERATURE
 RMB .OHMM            .28:   RESISTIVITY MUD AT BHT
 BHT .F                74:   BOTTOM HOLE TEMPERATURE
 TCS .HRS             1.5:   TIME CURCULATED STOPPED
 MRT .F                74:   MAXIMUM RECORDED TEMPERATURE
 LUN .               8611:   LOGGING UNIT NUMBER
 LUL .           GILLETTE:   LOGGING UNIT LOCATION
 ENGI.            C. DOAK:   RECORDING ENGINEER
 WITN.       MR. ROB LYON:   WITNESSED BY
 CLNT.            A2DTECH:   CLIENT CODE
 ORIG.           5" PRINT:   ORIGIN OF DATA
 UWI .       490251034700:   UNIQUE WELL ID
 DICO. A2D Technologies, Inc.:   DIGITIZING COMPANY
~OTHER INFORMATION
~A   DEPT       CALD      CORR      DPHI         RHOB       GRD       ILD        ILM       SGRD        SPR   
# ...
  322.0000     7.9994     0.0025     0.1330     2.4577   137.0614     6.5862     7.9120     9.4560   -43.7132
  322.5000     8.0001     0.0053     0.1321     2.4569   137.5137     6.4523     7.8045     9.5238   -43.7147
  323.0000     7.9857     0.0058     0.1330     2.4569   138.1109     6.3647     7.6461     9.2043   -43.7161
  323.5000     7.9862     0.0068     0.1318     2.4599   137.5144     6.2784     7.4907     8.8950   -43.5680
  324.0000     7.9868     0.0083     0.1315     2.4607   135.4231     6.2363     7.3384     8.7756   -43.7193
  324.5000     7.9874     0.0083     0.1318     2.4600   131.5381     6.2802     7.2389     8.7780   -43.7207
  325.0000     7.9881     0.0068     0.1329     2.4533   124.6640     6.3684     7.4938     8.7199   -43.7221
  325.5000     7.9737     0.0067     0.1356     2.4480   122.1243     6.3693     7.6513     8.7830   -43.7235
  326.0000     7.9743     0.0067     0.1392     2.4451   120.6309     6.4142     7.7052     9.0308   -43.7250
  326.5000     7.9749     0.0067     0.1356     2.4585   119.8849     6.4594     7.6008     9.3506   -43.5769
  327.0000     7.9606     0.0067     0.1322     2.4553   119.9123     6.4604     7.6020     9.4174   -43.4288
  327.5000     7.9611     0.0067     0.1364     2.4481   122.5787     6.5060     7.6564     9.2910   -43.4306
  328.0000     7.9617     0.0082     0.1391     2.4451   126.9150     6.5518     7.7630     9.1656   -43.4360
  328.5000     7.9623     0.0097     0.1412     2.4421   130.0554     6.6437     7.8177     9.1686   -43.5832
  329.0000     7.9733     0.0126     0.1403     2.4422   132.3019     6.7370     7.8728     9.4465   -43.5846
  329.5000     7.9785     0.0171     0.1394     2.4526   133.9450     6.8314     7.8738     9.6938   -43.5861
  330.0000     7.9792     0.0231     0.1354     2.4654   134.6938     6.8795     7.9295     9.6963   -43.5875
  330.5000     7.9872     0.0261     0.1258     2.4751   134.6952     6.9280     7.9305     9.6988   -43.7387
  331.0000     7.9952     0.0261     0.1189     2.4819   134.0987     7.0254     7.9316     9.7014   -43.7401
  331.5000     7.9958     0.0261     0.1190     2.4751   131.2604     7.0749     7.9874     9.8392   -43.5917
  332.0000     7.9965     0.0231     0.1216     2.4752   128.8702     7.1247     7.9885     9.9097   -43.5935
  332.5000     7.9971     0.0200     0.1237     2.4752   127.3768     7.1257     7.9898    10.1193   -43.5949
  333.0000     7.9827     0.0140     0.1264     2.4690   127.6772     7.1268     7.9908    10.1220   -43.5967
  333.5000     7.9683     0.0094     0.1303     2.4528   128.1270     7.1278     7.9919    10.1253   -43.5981
  334.0000     7.9690     0.0050     0.1389     2.4333   126.1856     7.1287     7.9929     9.9893   -43.7490
  334.5000     7.9696     0.0035     0.1497     2.4214   123.1975     7.1296     7.9942     9.7875   -43.6009
  335.0000     7.9701     0.0050     0.1538     2.4229   124.6936     7.1308     7.9952     9.5240   -43.6027
  335.5000     7.9707     0.0143     0.1501     2.4304   126.7878     7.1317     7.9963     9.3961   -43.4543
  336.0000     7.9714     0.0199     0.1445     2.4394   127.9853     7.0834     7.9973     9.7286   -43.6055
  336.5000     7.9719     0.0199     0.1388     2.4491   128.8836     7.0356     7.9437     9.7311   -43.6069
  337.0000     7.9725     0.0169     0.1334     2.4581   129.9314     6.9404     7.9447     9.4691   -43.4589
  337.5000     7.9731     0.0124     0.1301     2.4641   130.6801     6.8936     7.8912     9.3420   -43.6101
  338.0000     7.9737     0.0109     0.1280     2.4589   131.2795     6.8472     7.8381     9.6725   -43.4620
  338.5000     7.9594     0.0094     0.1301     2.4559   129.6370     6.8483     7.7318     9.7419   -43.4635
  339.0000     7.9600     0.0078     0.1318     2.4544   127.2468     6.8494     7.7331     9.7445   -43.3154
  339.5000     7.9456     0.0093     0.1333     2.4589   125.9029     6.8977     7.8414     9.5476   -43.1673
  340.0000     7.9462     0.0123     0.1315     2.4619   125.0075     6.9463     7.9512     9.3378   -43.0196
  340.5000     7.9318     0.0153     0.1294     2.4619   125.0092     7.0436     8.1747     8.9789   -42.8716
  341.0000     7.9325     0.0183     0.1294     2.4620   124.7113     7.0935     8.4622     9.6218   -42.8730
  341.5000     7.9331     0.0213     0.1290     2.4635   123.5173     7.1435     8.6998    10.0998   -42.7249
  342.0000     7.9336     0.0228     0.1260     2.4702   123.0703     7.2937     8.9440    10.3134   -42.8758
  342.5000     7.9493     0.0227     0.1224     2.4740   122.3246     7.4471     9.1320    10.3880   -42.7277
  343.0000     7.9498     0.0227     0.1212     2.4710   120.5323     7.6566     9.2602    10.5349   -42.5797
  343.5000     7.9504     0.0227     0.1212     2.4703   118.1421     7.8717     9.3899    10.7577   -42.5815
  344.0000     7.9659     0.0227     0.1212     2.4725   116.9477     8.0372     9.5214    11.0611   -42.5832
  344.5000     7.9666     0.0242     0.1209     2.4755   116.3512     8.2062     9.6547    11.2182   -42.5846
  345.0000     7.9521     0.0257     0.1204     2.4785   116.8014     8.4371     9.7230    11.2211   -42.4362
  345.5000     7.9528     0.0257     0.1202     2.4800   116.6534     8.5553     9.7915    11.2241   -42.2885
  346.0000     7.9534     0.0271     0.1190     2.4831   114.2631     8.7352     9.9286    11.3046   -42.2903
  346.5000     7.9690     0.0271     0.1157     2.4883   112.1464     8.9806    10.0677    11.5565   -42.1419
  347.0000     7.9845     0.0286     0.1118     2.4950   110.0810     9.2971    10.2090    11.8701   -41.9938
  347.5000     7.9851     0.0286     0.1079     2.4997   109.1855     9.4926    10.2809    12.0379   -41.6966
  348.0000     7.9857     0.0286     0.1042     2.5056   109.3364     9.6922    10.3533    12.2081   -41.3852
  348.5000     8.0013     0.0316     0.1057     2.5056   110.6831     9.8961    10.4983    12.2112   -41.1015
  349.0000     7.9868     0.0318     0.1090     2.4899   110.8340    10.1045    10.6457    14.3124   -40.9535
  349.5000     7.9875     0.0330     0.1144     2.4710   110.3870    10.2461    11.0964    19.3849   -40.8054
  350.0000     7.9582     0.0315     0.1216     2.4652   111.4523    10.5338    11.4075    14.0076   -40.8072
  350.5000     7.9433     0.0285     0.1261     2.4607   112.4828    10.2473    11.4866    13.0950   -41.1061
  351.0000     7.9285     0.0285     0.1293     2.4637   113.2316     9.9686    11.8075    12.7404   -40.9567
  351.5000     7.9287     0.0284     0.1299     2.4652   112.3365     9.6864    11.5602    12.8305   -40.9567
  352.0000     7.9289     0.0284     0.1263     2.4615   111.1421     9.3045    11.1744    12.9209   -40.8072
  352.5000     7.9290     0.0284     0.1296     2.4562   111.1435     9.0515    10.8707    12.5717   -40.8072
  353.0000     7.9441     0.0283     0.1314     2.4577   111.4442     8.8662    11.0215    12.4009   -40.9567
  353.5000     7.9442     0.0268     0.1308     2.4600   111.1467     8.7448    11.0215    12.4029   -40.9567
  354.0000     7.9444     0.0238     0.1295     2.4622   110.6997     8.6847    10.5027    12.3194   -40.9567
  354.5000     7.9446     0.0207     0.1295     2.4637   109.6547     8.6847    10.2172    12.0690   -40.9567
  355.0000     7.9447     0.0185     0.1313     2.4562   108.9091     8.7448    10.0082    12.1540   -40.8072
  355.5000     7.9448     0.0132     0.1352     2.4473   108.1631     8.8053    10.0082    11.6638   -40.8072
  356.0000     7.9450     0.0102     0.1397     2.4405   110.4067     8.8053    10.0082    11.6588   -40.9567
  356.5000     7.9452     0.0071     0.1412     2.4443   112.9492     8.8053    10.0082    11.5871   -40.9567
  357.0000     7.9602     0.0056     0.1403     2.4488   114.8941     8.8662    10.0082    11.6687   -40.9567
  357.5000     7.9604     0.0071     0.1384     2.4398   116.3903     8.9275    10.0082    11.8317   -40.9567
  358.0000     7.9755     0.0070     0.1417     2.4435   117.7370     8.8662    10.0774    11.4329   -41.1061
