~VERSION INFORMATION
 VERS.                2.0:   CWLS LOG ASCII STANDARD - VERSION 2.0
 WRAP.                 NO:   ONE LINE PER DEPTH STEP
~WELL INFORMATION
#MNEM.UNIT      DATA TYPE    INFORMATION
#----------   ------------   ------------------------------
 STRT.F           53.0000:   START DEPTH
 STOP.F         4152.0000:   STOP DEPTH
 STEP.F            0.5000:   STEP LENGTH
 NULL.          -999.2500:   NO VALUE
 COMP. DEPARTMENT OF ENERGY:   COMPANY
 WELL. RES 3 TEAPOT #11-STX-11:   WELL
 FLD . TEAPOT NAVAL RESERVE:   FIELD
 LOC .      S11 T38N R78W:   LOCATION
 CNTY.            NATRONA:   COUNTY
 STAT.            WYOMING:   STATE
 CTRY. UNITED STATES OF AMERICA:   COUNTRY
 SRVC.       Schlumberger:   SERVICE COMPANY
 DATE.        24-JUL-1975:   LOGDATE
 API .       490251025200:   API NUMBER
~CURVE INFORMATION
#MNEM.UNIT       API CODE    CURVE DESCRIPTION
#----------   ------------   ------------------------------
 DEPT.F                  :   
 SPR .MV     07 010 01 00:   SPONTANEOUS POTENTIAL
 ILD .OHMM   07 120 46 00:   INDUCTION LOG DEEP
 ILM .OHMM   07 120 44 00:   INDUCTION LOG MEDIUM
 LL8 .OHMM   07 220 08 00:   LATEROLOG-8 RES.
 DPOR.DEC    45 890 12 00:   DENSITY POROSITY SANDSTONE
 NPOR.DEC    42 890 03 00:   NEUTRON POROSITY SANDSTONE
 RHOB.G/C3   45 350 01 00:   BULK DENSITY
 CORR.G/C3   45 356 01 00:   DENSITY CORRECTION
 GRD .GAPI   45 310 01 00:   GAMMA RAY FROM DENSITY LOG
 CALD.IN     45 280 60 00:   CALIPER FROM DENSITY LOG
~PARAMETER INFORMATION
#MNEM.UNIT          VALUE    DESCRIPTION
#----------   ------------   ------------------------------
 PD  .                 GL:   PERMANENT DATUM
 EPD .F              5165:   ELEVATION PERMANENT DATUM
 LMF .                 KB:   LOG MEASURED FROM
 DAPD.F                13:   FEET ABOVE PERMANENT DATUM
 DMF .                 KB:   DRILLING MEASURED FROM
 EKB .F              5178:   KELLING BUSHING
 EGL .F              5165:   GROUND LEVEL
 DATE.            7-24-75:   RUN DATE
 RUN .                  1:   RUN NUMBER
 DD  .F              4150:   DEPTH DRILLER
 DL  .F              4154:   DEPTH LOGGER
 BLI .F              4152:   BOTTOM LOG INTERVAL
 TLI .F              1800:   TOP LOG INTERVAL
 CS  .IN            8.625:   CASING SIZE
 CBD .F               625:   CASING BOTTOM DRILLER
 CBL .F               627:   CASING BOTTOM LOGGER
 BS  .IN            7.875:   BIT SIZE
 BSD .F              4150:   BIT SIZE AT DEPTH
 DFT .                FGM:   DRILLING FLUID TYPE
 DFD .                9.5:   DRILLING FLUID DENSITY
 DFV .                 85:   DRILLING FLUID VISCOSITY
 MSS .           FLOWLINE:   MUD SAMPLE SOURCE
 RMS .OHMM           1.34:   RESISTIVITY MUD SAMPLE
 MST .F                91:   MUD SAMPLE TEMPERATURE
 RMF .OHMM           1.17:   RESISTIVITY MUD FILTRATE SAMPLE
 MFST.F                91:   MUD FILTRATE SAMPLE TEMPERATURE
 MFSS.                  M:   MUD FILTRATE SAMPLE SOURCE
 RMB .OHMM            .94:   RESISTIVITY MUD AT BHT
 BHT .F               130:   BOTTOM HOLE TEMPERATURE
 TCS .HRS            1230:   TIME CURCULATED STOPPED
 TLAB.HRS            1900:   TIME LOGGER AT BOTTOM
 MRT .F               132:   MAXIMUM RECORDED TEMPERATURE
 LUN .               7680:   LOGGING UNIT NUMBER
 LUL .               CSPR:   LOGGING UNIT LOCATION
 ENGI.             FRENCH:   RECORDING ENGINEER
 WITN.             CARTER:   WITNESSED BY
 CLNT.            A2DTECH:   CLIENT CODE
 ORIG.       2", 5" PRINT:   ORIGIN OF DATA
 UWI .       490251025200:   UNIQUE WELL ID
 DICO. A2D Technologies, Inc.:   DIGITIZING COMPANY
~OTHER INFORMATION
~A   DEPT      SPR          ILD        ILM       LL8      DPOR       NPOR       RHOB       CORR        GRD       CALD   
# ...
 3637.5000  -999.2500  -999.2500  -999.2500  -999.2500     0.1037     0.2749     2.4957     0.0294   200.3580     8.3525
 3638.0000  -999.2500  -999.2500  -999.2500  -999.2500     0.0860     0.2519     2.4760     0.0316   202.7511     8.3688
 3638.5000  -999.2500  -999.2500  -999.2500  -999.2500     0.0992     0.2692     2.4608     0.0281   206.4738     8.3846
 3639.0000  -999.2500  -999.2500  -999.2500  -999.2500     0.1085     0.2824     2.4428     0.0234   214.6078     8.3933
 3639.5000  -999.2500  -999.2500  -999.2500  -999.2500     0.1178     0.2916     2.4282     0.0195   220.7810     8.3885
 3640.0000  -999.2500  -999.2500  -999.2500  -999.2500     0.1304     0.3023     2.4357     0.0157   217.8007     8.3840
 3640.5000  -999.2500  -999.2500  -999.2500  -999.2500     0.1354     0.3183     2.4331     0.0156   214.1408     8.3793
 3641.0000  -999.2500  -999.2500  -999.2500  -999.2500     0.1336     0.3254     2.4239     0.0236   212.9030     8.3747
 3641.5000  -999.2500  -999.2500  -999.2500  -999.2500     0.1338     0.3162     2.4010     0.0181   217.4233     8.3804
 3642.0000  -999.2500  -999.2500  -999.2500  -999.2500     0.1324     0.3251     2.3877     0.0353   221.9738     8.3876
 3642.5000  -999.2500  -999.2500  -999.2500  -999.2500     0.1590     0.3310     2.4177     0.0544   220.2263     8.3949
 3643.0000  -999.2500  -999.2500  -999.2500  -999.2500     0.1595     0.3248     2.4337     0.0465   218.6519     8.4021
 3643.5000  -999.2500  -999.2500  -999.2500  -999.2500     0.1336     0.3174     2.4014     0.0371   221.6769     8.4093
 3644.0000  -999.2500  -999.2500  -999.2500  -999.2500     0.1425     0.3208     2.4087     0.0295   229.0970     8.4165
 3644.5000  -999.2500  -999.2500  -999.2500  -999.2500     0.1504     0.3269     2.4202     0.0428   236.4444     8.4237
 3645.0000  -999.2500  -999.2500  -999.2500  -999.2500     0.1469     0.3331     2.4269     0.0549   243.5870     8.4305
 3645.5000  -999.2500  -999.2500  -999.2500  -999.2500     0.1411     0.3358     2.3890     0.0139   238.8708     8.4127
 3646.0000  -999.2500  -999.2500  -999.2500  -999.2500     0.1380     0.3243     2.4015     0.0010   231.1856     8.3620
 3646.5000  -999.2500  -999.2500  -999.2500  -999.2500     0.1567     0.3010     2.4205     0.0098   225.0348     8.3121
 3647.0000  -999.2500  -999.2500  -999.2500  -999.2500     0.1479     0.2805     2.4333     0.0326   233.8885     8.2723
 3647.5000  -999.2500  -999.2500  -999.2500  -999.2500     0.1376     0.2640     2.4394     0.0606   246.6783     8.2423
 3648.0000  -999.2500  -999.2500  -999.2500  -999.2500     0.1309     0.2903     2.4006     0.0830   270.6668     8.2153
 3648.5000  -999.2500  -999.2500  -999.2500  -999.2500     0.1300     0.3237     2.3655     0.0547   285.9774     8.2271
 3649.0000  -999.2500  -999.2500  -999.2500  -999.2500     0.1567     0.3753     2.3416    -0.0143   256.3120     8.2393
 3649.5000  -999.2500  -999.2500  -999.2500  -999.2500     0.1757     0.3881     2.3869    -0.0029   223.8130     8.2513
 3650.0000  -999.2500  -999.2500  -999.2500  -999.2500     0.1855     0.3279     2.4437     0.0134   202.9028     8.2633
 3650.5000  -999.2500  -999.2500  -999.2500  -999.2500     0.1420     0.2802     2.4560     0.0081   201.4492     8.2753
 3651.0000  -999.2500  -999.2500  -999.2500  -999.2500     0.1197     0.2810     2.4430     0.0153   204.1511     8.2873
 3651.5000  -999.2500  -999.2500  -999.2500  -999.2500     0.1230     0.3016     2.4435     0.0325   212.9622     8.2994
 3652.0000  -999.2500  -999.2500  -999.2500  -999.2500     0.1230     0.3197     2.4537     0.0260   220.9109     8.3120
 3652.5000  -999.2500  -999.2500  -999.2500  -999.2500     0.1268     0.3426     2.4150     0.0183   217.1568     8.3073
 3653.0000  -999.2500  -999.2500  -999.2500  -999.2500     0.1347     0.3377     2.4385     0.0261   209.6523     8.2973
 3653.5000  -999.2500  -999.2500  -999.2500  -999.2500     0.1396     0.3315     2.4525     0.0308   200.7570     8.2871
 3654.0000  -999.2500  -999.2500  -999.2500  -999.2500     0.1275     0.3240     2.4380     0.0149   198.6843     8.2768
 3654.5000  -999.2500  -999.2500  -999.2500  -999.2500     0.1232     0.3119     2.4233     0.0182   199.9014     8.2767
 3655.0000  -999.2500  -999.2500  -999.2500  -999.2500     0.1313     0.3013     2.4174     0.0139   200.9867     8.2830
 3655.5000  -999.2500  -999.2500  -999.2500  -999.2500     0.1379     0.2993     2.4094     0.0177   202.6880     8.2894
 3656.0000  -999.2500  -999.2500  -999.2500  -999.2500     0.1446     0.2983     2.3997     0.0257   210.6134     8.2957
 3656.5000  -999.2500  -999.2500  -999.2500  -999.2500     0.1500     0.3087     2.3906     0.0252   218.9258     8.3020
 3657.0000  -999.2500  -999.2500  -999.2500  -999.2500     0.1544     0.3201     2.3814     0.0155   227.1836     8.3083
 3657.5000  -999.2500  -999.2500  -999.2500  -999.2500     0.1575     0.3341     2.3758     0.0055   230.4535     8.3144
 3658.0000  -999.2500  -999.2500  -999.2500  -999.2500     0.1664     0.3412     2.3958     0.0067   210.0703     8.3147
 3658.5000  -999.2500  -999.2500  -999.2500  -999.2500     0.1664     0.3069     2.4145    -0.0008   198.0810     8.3146
 3659.0000  -999.2500  -999.2500  -999.2500  -999.2500     0.1544     0.2830     2.3965     0.0003   198.7253     8.3146
 3659.5000  -999.2500  -999.2500  -999.2500  -999.2500     0.1463     0.2698     2.4212     0.0138   211.5488     8.3152
 3660.0000  -999.2500  -999.2500  -999.2500  -999.2500     0.1543     0.2686     2.4315     0.0433   224.3538     8.3498
 3660.5000  -999.2500  -999.2500  -999.2500  -999.2500     0.1352     0.2870     2.4416     0.0928   243.6700     8.4365
 3661.0000  -999.2500  -999.2500  -999.2500  -999.2500     0.1368     0.3234     2.4444     0.1182   272.1165     8.5495
 3661.5000  -999.2500  -999.2500  -999.2500  -999.2500     0.1305     0.3690     2.3839     0.0736   300.1316     8.7292
 3662.0000  -999.2500  -999.2500  -999.2500  -999.2500     0.1284     0.4147     2.3497     0.0411   293.1743     8.8882
 3662.5000  -999.2500  -999.2500  -999.2500  -999.2500     0.1720     0.4401     2.3942     0.0232   283.4045     8.5286
 3663.0000  -999.2500  -999.2500  -999.2500  -999.2500     0.1807     0.3974     2.4161     0.0472   279.6410     8.4707
 3663.5000  -999.2500  -999.2500  -999.2500  -999.2500     0.1458     0.3469     2.4031     0.0778   285.6548     8.5124
 3664.0000  -999.2500  -999.2500  -999.2500  -999.2500     0.1605     0.3659     2.4287     0.0829   274.2971     8.5774
 3664.5000  -999.2500  -999.2500  -999.2500  -999.2500     0.1377     0.3821     2.3941     0.0414   254.5838     8.4996
 3665.0000  -999.2500  -999.2500  -999.2500  -999.2500     0.1443     0.3492     2.4233     0.0175   219.8878     8.3891
 3665.5000  -999.2500  -999.2500  -999.2500  -999.2500     0.1512     0.3130     2.4613     0.0256   192.5945     8.3377
 3666.0000  -999.2500  -999.2500  -999.2500  -999.2500     0.1305     0.2754     2.4440     0.0219   189.2146     8.3123
 3666.5000  -999.2500  -999.2500  -999.2500  -999.2500     0.1165     0.2791     2.4272     0.0113   187.7524     8.2871
 3667.0000  -999.2500  -999.2500  -999.2500  -999.2500     0.1295     0.2857     2.4457     0.0099   187.3544     8.2747
 3667.5000  -999.2500  -999.2500  -999.2500  -999.2500     0.1340     0.2909     2.4563     0.0221   192.7967     8.2694
 3668.0000  -999.2500  -999.2500  -999.2500  -999.2500     0.1237     0.2933     2.4420     0.0205   202.2823     8.2636
 3668.5000  -999.2500  -999.2500  -999.2500  -999.2500     0.1212     0.3018     2.4302     0.0287   208.8585     8.2578
 3669.0000  -999.2500  -999.2500  -999.2500  -999.2500     0.1300     0.3082     2.4323     0.0227   217.8976     8.2521
 3669.5000  -999.2500  -999.2500  -999.2500  -999.2500     0.1341     0.3185     2.4222     0.0194   213.1926     8.2463
 3670.0000  -999.2500  -999.2500  -999.2500  -999.2500     0.1380     0.3242     2.4380     0.0099   204.6121     8.2405
 3670.5000  -999.2500  -999.2500  -999.2500  -999.2500     0.1337     0.3143     2.4232     0.0025   204.7051     8.2348
