~VERSION INFORMATION
 VERS.                2.0:   CWLS LOG ASCII STANDARD - VERSION 2.0
 WRAP.                 NO:   ONE LINE PER DEPTH STEP
~WELL INFORMATION
#MNEM.UNIT      DATA TYPE    INFORMATION
#----------   ------------   ------------------------------
 STRT.F           53.0000:   START DEPTH
 STOP.F         4152.0000:   STOP DEPTH
 STEP.F            0.5000:   STEP LENGTH
 NULL.          -999.2500:   NO VALUE
 COMP. DEPARTMENT OF ENERGY:   COMPANY
 WELL. RES 3 TEAPOT #11-STX-11:   WELL
 FLD . TEAPOT NAVAL RESERVE:   FIELD
 LOC .      S11 T38N R78W:   LOCATION
 CNTY.            NATRONA:   COUNTY
 STAT.            WYOMING:   STATE
 CTRY. UNITED STATES OF AMERICA:   COUNTRY
 SRVC.       Schlumberger:   SERVICE COMPANY
 DATE.        24-JUL-1975:   LOGDATE
 API .       490251025200:   API NUMBER
~CURVE INFORMATION
#MNEM.UNIT       API CODE    CURVE DESCRIPTION
#----------   ------------   ------------------------------
 DEPT.F                  :   
 SPR .MV     07 010 01 00:   SPONTANEOUS POTENTIAL
 ILD .OHMM   07 120 46 00:   INDUCTION LOG DEEP
 ILM .OHMM   07 120 44 00:   INDUCTION LOG MEDIUM
 LL8 .OHMM   07 220 08 00:   LATEROLOG-8 RES.
 DPOR.DEC    45 890 12 00:   DENSITY POROSITY SANDSTONE
 NPOR.DEC    42 890 03 00:   NEUTRON POROSITY SANDSTONE
 RHOB.G/C3   45 350 01 00:   BULK DENSITY
 CORR.G/C3   45 356 01 00:   DENSITY CORRECTION
 GRD .GAPI   45 310 01 00:   GAMMA RAY FROM DENSITY LOG
 CALD.IN     45 280 60 00:   CALIPER FROM DENSITY LOG
~PARAMETER INFORMATION
#MNEM.UNIT          VALUE    DESCRIPTION
#----------   ------------   ------------------------------
 PD  .                 GL:   PERMANENT DATUM
 EPD .F              5165:   ELEVATION PERMANENT DATUM
 LMF .                 KB:   LOG MEASURED FROM
 DAPD.F                13:   FEET ABOVE PERMANENT DATUM
 DMF .                 KB:   DRILLING MEASURED FROM
 EKB .F              5178:   KELLING BUSHING
 EGL .F              5165:   GROUND LEVEL
 DATE.            7-24-75:   RUN DATE
 RUN .                  1:   RUN NUMBER
 DD  .F              4150:   DEPTH DRILLER
 DL  .F              4154:   DEPTH LOGGER
 BLI .F              4152:   BOTTOM LOG INTERVAL
 TLI .F              1800:   TOP LOG INTERVAL
 CS  .IN            8.625:   CASING SIZE
 CBD .F               625:   CASING BOTTOM DRILLER
 CBL .F               627:   CASING BOTTOM LOGGER
 BS  .IN            7.875:   BIT SIZE
 BSD .F              4150:   BIT SIZE AT DEPTH
 DFT .                FGM:   DRILLING FLUID TYPE
 DFD .                9.5:   DRILLING FLUID DENSITY
 DFV .                 85:   DRILLING FLUID VISCOSITY
 MSS .           FLOWLINE:   MUD SAMPLE SOURCE
 RMS .OHMM           1.34:   RESISTIVITY MUD SAMPLE
 MST .F                91:   MUD SAMPLE TEMPERATURE
 RMF .OHMM           1.17:   RESISTIVITY MUD FILTRATE SAMPLE
 MFST.F                91:   MUD FILTRATE SAMPLE TEMPERATURE
 MFSS.                  M:   MUD FILTRATE SAMPLE SOURCE
 RMB .OHMM            .94:   RESISTIVITY MUD AT BHT
 BHT .F               130:   BOTTOM HOLE TEMPERATURE
 TCS .HRS            1230:   TIME CURCULATED STOPPED
 TLAB.HRS            1900:   TIME LOGGER AT BOTTOM
 MRT .F               132:   MAXIMUM RECORDED TEMPERATURE
 LUN .               7680:   LOGGING UNIT NUMBER
 LUL .               CSPR:   LOGGING UNIT LOCATION
 ENGI.             FRENCH:   RECORDING ENGINEER
 WITN.             CARTER:   WITNESSED BY
 CLNT.            A2DTECH:   CLIENT CODE
 ORIG.       2", 5" PRINT:   ORIGIN OF DATA
 UWI .       490251025200:   UNIQUE WELL ID
 DICO. A2D Technologies, Inc.:   DIGITIZING COMPANY
~OTHER INFORMATION
~A   DEPT      SPR          ILD        ILM       LL8      DPOR       NPOR       RHOB       CORR        GRD       CALD   
# ...
 2967.5000  -999.2500  -999.2500  -999.2500  -999.2500     0.0656     0.3471     2.5249     0.0142   233.1163    10.2730
 2968.0000  -999.2500  -999.2500  -999.2500  -999.2500     0.0748     0.3511     2.5490     0.0179   230.9153    10.2885
 2968.5000  -999.2500  -999.2500  -999.2500  -999.2500     0.0649     0.3550     2.5269     0.0061   227.6269    10.3041
 2969.0000  -999.2500  -999.2500  -999.2500  -999.2500     0.0628     0.3549     2.4999    -0.0062   224.3161    10.3182
 2969.5000  -999.2500  -999.2500  -999.2500  -999.2500     0.0812     0.3453     2.5085     0.0035   222.5917    10.3139
 2970.0000  -999.2500  -999.2500  -999.2500  -999.2500     0.0912     0.3370     2.5221     0.0141   221.4306    10.3093
 2970.5000  -999.2500  -999.2500  -999.2500  -999.2500     0.0828     0.3428     2.5326     0.0118   220.1306    10.3047
 2971.0000  -999.2500  -999.2500  -999.2500  -999.2500     0.0718     0.3499     2.5390     0.0215   216.2955    10.3001
 2971.5000  -999.2500  -999.2500  -999.2500  -999.2500     0.0675     0.3514     2.5382     0.0113   211.2950    10.3011
 2972.0000  -999.2500  -999.2500  -999.2500  -999.2500     0.0645     0.3322     2.5209     0.0026   204.9442    10.3123
 2972.5000  -999.2500  -999.2500  -999.2500  -999.2500     0.0755     0.3182     2.5324     0.0027   202.5051    10.3231
 2973.0000  -999.2500  -999.2500  -999.2500  -999.2500     0.0753     0.3054     2.5185     0.0074   201.8183    10.3339
 2973.5000  -999.2500  -999.2500  -999.2500  -999.2500     0.0709     0.3003     2.5174     0.0119   202.7757    10.3446
 2974.0000  -999.2500  -999.2500  -999.2500  -999.2500     0.0800     0.2963     2.5419     0.0109   204.8029    10.3555
 2974.5000  -999.2500  -999.2500  -999.2500  -999.2500     0.0760     0.3013     2.5513     0.0122   206.6798    10.3587
 2975.0000  -999.2500  -999.2500  -999.2500  -999.2500     0.0665     0.3059     2.5458     0.0132   206.7195    10.3587
 2975.5000  -999.2500  -999.2500  -999.2500  -999.2500     0.0604     0.3074     2.5303     0.0080   203.8962    10.3588
 2976.0000  -999.2500  -999.2500  -999.2500  -999.2500     0.0670     0.3072     2.5146    -0.0003   200.4121    10.3613
 2976.5000  -999.2500  -999.2500  -999.2500  -999.2500     0.0750     0.3098     2.5022    -0.0111   198.3430    10.3701
 2977.0000  -999.2500  -999.2500  -999.2500  -999.2500     0.0831     0.3074     2.5101    -0.0086   196.3263    10.3789
 2977.5000  -999.2500  -999.2500  -999.2500  -999.2500     0.0884     0.3013     2.5220    -0.0026   194.0914    10.3877
 2978.0000  -999.2500  -999.2500  -999.2500  -999.2500     0.0849     0.2958     2.5253     0.0041   196.4609    10.3968
 2978.5000  -999.2500  -999.2500  -999.2500  -999.2500     0.0769     0.2962     2.5314     0.0125   202.1134    10.3935
 2979.0000  -999.2500  -999.2500  -999.2500  -999.2500     0.0744     0.2977     2.5385     0.0149   209.0256    10.3863
 2979.5000  -999.2500  -999.2500  -999.2500  -999.2500     0.0719     0.3112     2.5326     0.0106   216.6175    10.3787
 2980.0000  -999.2500  -999.2500  -999.2500  -999.2500     0.0676     0.3210     2.5195     0.0075   216.0620    10.3973
 2980.5000  -999.2500  -999.2500  -999.2500  -999.2500     0.0701     0.3278     2.5171     0.0102   213.2284    10.4224
 2981.0000  -999.2500  -999.2500  -999.2500  -999.2500     0.0764     0.3338     2.5310     0.0266   210.9945    10.4475
 2981.5000  -999.2500  -999.2500  -999.2500  -999.2500     0.0804     0.3411     2.5456     0.0521   213.3772    10.4727
 2982.0000  -999.2500  -999.2500  -999.2500  -999.2500     0.0705     0.3489     2.5551     0.0656   213.8315    10.5169
 2982.5000  -999.2500  -999.2500  -999.2500  -999.2500     0.0619     0.3553     2.4997     0.0133   204.8701    10.5675
 2983.0000  -999.2500  -999.2500  -999.2500  -999.2500     0.0572     0.3462     2.4929     0.0123   198.0394    10.6174
 2983.5000  -999.2500  -999.2500  -999.2500  -999.2500     0.0952     0.3142     2.5614     0.0173   194.1822    10.6158
 2984.0000  -999.2500  -999.2500  -999.2500  -999.2500     0.0771     0.2829     2.5714     0.0144   195.1951    10.6088
 2984.5000  -999.2500  -999.2500  -999.2500  -999.2500     0.0529     0.2774     2.5636     0.0088   197.0300    10.6019
 2985.0000  -999.2500  -999.2500  -999.2500  -999.2500     0.0520     0.2813     2.5532     0.0028   197.0779    10.6099
 2985.5000  -999.2500  -999.2500  -999.2500  -999.2500     0.0544     0.2839     2.5429    -0.0027   196.2427    10.6280
 2986.0000  -999.2500  -999.2500  -999.2500  -999.2500     0.0606     0.2865     2.5342     0.0049   194.2071    10.6463
 2986.5000  -999.2500  -999.2500  -999.2500  -999.2500     0.0669     0.2869     2.5478     0.0173   192.4001    10.6646
 2987.0000  -999.2500  -999.2500  -999.2500  -999.2500     0.0680     0.2867     2.5665     0.0235   191.7370    10.6819
 2987.5000  -999.2500  -999.2500  -999.2500  -999.2500     0.0615     0.2792     2.5707     0.0168   192.9032    10.6939
 2988.0000  -999.2500  -999.2500  -999.2500  -999.2500     0.0520     0.2704     2.5605     0.0132   194.3608    10.7061
 2988.5000  -999.2500  -999.2500  -999.2500  -999.2500     0.0492     0.2616     2.5503     0.0092   192.5737    10.7183
 2989.0000  -999.2500  -999.2500  -999.2500  -999.2500     0.0545     0.2509     2.5402     0.0050   189.3109    10.7305
 2989.5000  -999.2500  -999.2500  -999.2500  -999.2500     0.0605     0.2543     2.5420     0.0034   186.6747    10.7427
 2990.0000  -999.2500  -999.2500  -999.2500  -999.2500     0.0660     0.2600     2.5608     0.0077   185.3235    10.7551
 2990.5000  -999.2500  -999.2500  -999.2500  -999.2500     0.0607     0.2634     2.5780     0.0176   186.4785    10.7645
 2991.0000  -999.2500  -999.2500  -999.2500  -999.2500     0.0509     0.2579     2.5900     0.0207   188.1903    10.7767
 2991.5000  -999.2500  -999.2500  -999.2500  -999.2500     0.0411     0.2506     2.5756     0.0116   192.7038    10.7887
 2992.0000  -999.2500  -999.2500  -999.2500  -999.2500     0.0373     0.2503     2.5575     0.0027   200.5405    10.8008
 2992.5000  -999.2500  -999.2500  -999.2500  -999.2500     0.0510     0.2628     2.5396    -0.0028   206.5075    10.8130
 2993.0000  -999.2500  -999.2500  -999.2500  -999.2500     0.0646     0.2754     2.5238     0.0006   210.7741    10.8285
 2993.5000  -999.2500  -999.2500  -999.2500  -999.2500     0.0732     0.2879     2.4993    -0.0054   215.0502    10.8484
 2994.0000  -999.2500  -999.2500  -999.2500  -999.2500     0.0831     0.3022     2.4753     0.0006   220.0001    10.8688
 2994.5000  -999.2500  -999.2500  -999.2500  -999.2500     0.1005     0.3340     2.4527     0.0490   227.8663    10.8998
 2995.0000  -999.2500  -999.2500  -999.2500  -999.2500     0.1192     0.3633     2.4713     0.1239   234.7033    10.9931
 2995.5000  -999.2500  -999.2500  -999.2500  -999.2500     0.1145     0.3928     2.4360     0.1013   228.9742    11.0893
 2996.0000  -999.2500  -999.2500  -999.2500  -999.2500     0.1120     0.4233     2.3978     0.0578   220.0602    11.3169
 2996.5000  -999.2500  -999.2500  -999.2500  -999.2500     0.1381     0.4321     2.3659    -0.0042   208.8524    11.4972
 2997.0000  -999.2500  -999.2500  -999.2500  -999.2500     0.1655     0.3875     2.4651    -0.0073   193.2585    11.0502
 2997.5000  -999.2500  -999.2500  -999.2500  -999.2500     0.1663     0.3267     2.5499     0.0067   188.7179    10.9586
 2998.0000  -999.2500  -999.2500  -999.2500  -999.2500     0.0872     0.2862     2.5638     0.0015   185.7530    10.9682
 2998.5000  -999.2500  -999.2500  -999.2500  -999.2500     0.0577     0.2503     2.5750     0.0194   182.9984    10.9792
 2999.0000  -999.2500  -999.2500  -999.2500  -999.2500     0.0487     0.2386     2.5642     0.0065   181.2075    10.9897
 2999.5000  -999.2500  -999.2500  -999.2500  -999.2500     0.0441     0.2439     2.5629     0.0016   181.3660    11.0000
 3000.0000  -999.2500  -999.2500  -999.2500  -999.2500     0.0520     0.2448     2.5813    -0.0016   181.7751    11.0104
 3000.5000  -999.2500  -999.2500  -999.2500  -999.2500     0.0493     0.2482     2.5559    -0.0072   180.5072    11.0208
