~VERSION INFORMATION
 VERS.                2.0:   CWLS LOG ASCII STANDARD - VERSION 2.0
 WRAP.                 NO:   ONE LINE PER DEPTH STEP
~WELL INFORMATION
#MNEM.UNIT      DATA TYPE    INFORMATION
#----------   ------------   ------------------------------
 STRT.F           25.0000:   START DEPTH
 STOP.F          832.0000:   STOP DEPTH
 STEP.F            0.5000:   STEP LENGTH
 NULL.          -999.2500:   NO VALUE
 COMP.          U.S. NAVY:   COMPANY
 WELL. RES 3 TEAPOT DOM #32-S-2:   WELL
 FLD .        TEAPOT DOME:   FIELD
 LOC .       S2 T38N R78W:   LOCATION
 CNTY.            NATRONA:   COUNTY
 STAT.            WYOMING:   STATE
 CTRY. UNITED STATES OF AMERICA:   COUNTRY
 SRVC. Schlumberger Well Surveying Corp:   SERVICE COMPANY
 DATE.        03-AUG-1959:   LOGDATE
 API .       490250646800:   API NUMBER
~CURVE INFORMATION
#MNEM.UNIT       API CODE    CURVE DESCRIPTION
#----------   ------------   ------------------------------
 DEPT.F                  :   
 SPR .MV     05 010 01 00:   SPONTANEOUS POTENTIAL FROM RES.
 ILD .OHMM   05 120 46 00:   INDUCTION LOG DEEP
 CILD.MMHO   05 110 46 00:   CONDUCTIVITY INDUCTION LOG DEEP
 ASN .OHMM   05 041 16 00:   AMPLIFIED SHORT NORMAL 16"
~PARAMETER INFORMATION
#MNEM.UNIT          VALUE    DESCRIPTION
#----------   ------------   ------------------------------
 LMF .                 KB:   LOG MEASURED FROM
 DMF .                 KB:   DRILLING MEASURED FROM
 EKB .F              5126:   KELLING BUSHING
 EGL .F              5122:   GROUND LEVEL
 DATE.           8-3-1959:   RUN DATE
 RUN .                  1:   RUN NUMBER
 DD  .F               840:   DEPTH DRILLER
 DL  .F               841:   DEPTH LOGGER
 BLI .F               835:   BOTTOM LOG INTERVAL
 TLI .F                17:   TOP LOG INTERVAL
 CBD .F                17:   CASING BOTTOM DRILLER
 CBL .F                17:   CASING BOTTOM LOGGER
 BS  .IN             6.75:   BIT SIZE
 BSD .F               840:   BIT SIZE AT DEPTH
 DFT .                GEL:   DRILLING FLUID TYPE
 DFD .                9.5:   DRILLING FLUID DENSITY
 DFV .                100:   DRILLING FLUID VISCOSITY
 DFPH.                9.5:   DRILLING FLUID PH
 DFL .                  4:   DRILLING FLUID LOSS
 RMS .OHMM              4:   RESISTIVITY MUD SAMPLE
 MST .F                73:   MUD SAMPLE TEMPERATURE
 RMF .OHMM            3.9:   RESISTIVITY MUD FILTRATE SAMPLE
 MFST.F                73:   MUD FILTRATE SAMPLE TEMPERATURE
 RMC .OHMM            4.1:   RESISTIVITY MUD CAKE
 MCST.F                73:   MUD CAKE SAMPLE TEMPERATURE
 RMB .OHMM              4:   RESISTIVITY MUD AT BHT
 BHT .F                73:   BOTTOM HOLE TEMPERATURE
 TCS .HRS               1:   TIME CURCULATED STOPPED
 LUN .               2523:   LOGGING UNIT NUMBER
 LUL .              CSPR.:   LOGGING UNIT LOCATION
 ENGI.             ATWOOD:   RECORDING ENGINEER
 WITN.             MARTIN:   WITNESSED BY
 CLNT.            A2DTECH:   CLIENT CODE
 ORIG.           5" PRINT:   ORIGIN OF DATA
 UWI .       490250646800:   UNIQUE WELL ID
 DICO. A2D Technologies, Inc.:   DIGITIZING COMPANY
~OTHER INFORMATION
~A   DEPT      SPR        ILD       CILD        ASN   
# ...
  755.0000   -74.5814    19.4046    49.7461    20.9909
  755.5000   -73.3701    19.3555    49.5480    21.1818
  756.0000   -72.3505    19.0931    50.0691    21.1103
  756.5000   -70.5343    18.7542    50.5523    20.6651
  757.0000   -68.5017    18.3675    51.0356    20.1030
  757.5000   -67.5554    17.9792    51.5189    19.5433
  758.0000   -68.2758    17.5937    52.0021    19.0304
  758.5000   -68.8880    17.2028    53.1022    18.6724
  759.0000   -69.6336    16.8224    54.9064    18.5315
  759.5000   -70.2694    16.4180    56.7106    18.3685
  760.0000   -71.0494    16.1868    58.5148    18.1238
  760.5000   -72.6373    16.4286    59.0770    17.6127
  761.0000   -74.3422    16.8129    58.1749    18.0690
  761.5000   -74.2743    17.1015    57.2728    18.8861
  762.0000   -73.5894    17.1392    56.3707    18.5514
  762.5000   -73.0571    17.1027    55.4686    17.6654
  763.0000   -72.4612    16.8417    55.4453    17.4128
  763.5000   -71.8943    16.5583    56.5777    17.1460
  764.0000   -70.9323    16.2819    57.7125    16.8545
  764.5000   -70.0272    16.0016    58.8483    16.5471
  765.0000   -69.1138    15.7231    59.9803    16.2416
  765.5000   -68.3332    15.4438    61.1073    15.9410
  766.0000   -68.6293    15.1647    62.2309    15.6413
  766.5000   -69.2293    14.8863    63.3551    15.3413
  767.0000   -69.6815    14.6063    64.4986    15.0417
  767.5000   -69.2981    14.3302    65.7980    14.7349
  768.0000   -68.6908    14.0465    67.1978    14.4450
  768.5000   -68.1621    13.7769    68.5976    14.1193
  769.0000   -67.7571    13.4770    69.9974    13.9405
  769.5000   -67.4513    13.3042    71.3972    13.8671
  770.0000   -67.1482    13.2172    73.0495    13.7534
  770.5000   -66.8459    13.1092    73.2421    13.6560
  771.0000   -66.5436    13.0157    73.5333    13.5565
  771.5000   -66.2418    12.9145    73.8527    13.4581
  772.0000   -65.9400    12.8173    74.1694    13.3249
  772.5000   -65.6387    12.7089    74.4822    13.1933
  773.0000   -65.3358    12.6227    74.8525    13.0601
  773.5000   -65.0361    12.5279    75.6748    12.9276
  774.0000   -64.7301    12.4325    76.6940    12.7952
  774.5000   -64.4358    12.3381    77.7152    12.6624
  775.0000   -64.1148    12.2420    78.7353    12.5289
  775.5000   -63.8597    12.1488    79.7538    12.3973
  776.0000   -63.6872    12.0497    80.7723    12.2620
  776.5000   -63.4910    11.9814    81.3380    12.1533
  777.0000   -63.3057    11.9997    81.5957    12.0869
  777.5000   -63.1146    12.0186    81.8535    12.0270
  778.0000   -62.9265    12.0395    82.1112    11.9700
  778.5000   -62.7369    12.0570    82.3689    11.9083
  779.0000   -62.5480    12.0872    82.6267    11.8876
  779.5000   -62.3587    12.1271    82.8844    11.8999
  780.0000   -62.1695    12.1643    82.9285    11.9061
  780.5000   -61.9802    12.2017    82.8184    11.9153
  781.0000   -61.7911    12.2407    82.7084    11.9229
  781.5000   -61.6016    12.2754    82.5984    11.9313
  782.0000   -61.4062    12.3200    82.4884    11.9395
  782.5000   -61.2479    12.3211    82.3784    11.9473
  783.0000   -61.0866    12.2632    82.2684    11.9562
  783.5000   -60.9244    12.2104    82.1584    11.9628
  784.0000   -60.7626    12.1568    82.1953    11.9742
  784.5000   -60.6006    12.0983    82.4882    11.9608
  785.0000   -60.4387    12.0581    82.7811    11.9120
  785.5000   -60.2767    12.0450    83.0740    11.8660
  786.0000   -60.1148    12.0261    83.3669    11.8182
  786.5000   -59.9529    12.0101    83.6591    11.7714
  787.0000   -59.7909    11.9925    83.9523    11.7240
  787.5000   -59.6290    11.9758    84.2455    11.6769
  788.0000   -59.4670    11.9586    84.5389    11.6297
  788.5000   -59.3051    11.9418    84.8324    11.5824
  789.0000   -59.1431    11.9244    85.1256    11.5353
  789.5000   -58.9812    11.9080    85.4181    11.4880
  790.0000   -58.8192    11.8902    85.7096    11.4411
  790.5000   -58.6572    11.8921    86.0029    11.3931
  791.0000   -58.4952    11.9047    86.2957    11.3497
  791.5000   -58.3332    11.9141    86.6080    11.3660
  792.0000   -58.1709    11.9250    86.2665    11.3927
  792.5000   -58.0094    11.9350    85.9007    11.4177
  793.0000   -57.8464    11.9456    85.5350    11.4421
  793.5000   -57.6861    11.9556    85.1693    11.4693
  794.0000   -57.5202    11.9669    84.8036    11.4907
  794.5000   -57.3888    11.9708    84.4379    11.5232
  795.0000   -57.3363    11.8959    84.0722    11.4722
  795.5000   -57.2932    11.8032    84.2865    11.3726
  796.0000   -57.2479    11.7140    85.1020    11.2909
  796.5000   -57.2071    11.6231    86.0554    11.2014
  797.0000   -57.1566    11.5333    87.0087    11.1161
  797.5000   -57.1249    11.4429    87.9620    11.0284
  798.0000   -57.0584    11.3528    88.9153    10.9424
  798.5000   -57.0597    11.2625    89.8686    10.8547
  799.0000   -56.6921    11.1725    90.8219    10.7696
  799.5000   -56.3902    11.0823    91.7752    10.6778
  800.0000   -56.2408    10.9926    92.7286    10.5760
  800.5000   -56.0340    10.8932    93.6819    10.4494
  801.0000   -55.8583    10.7450    94.7431    10.3162
  801.5000   -55.6633    10.5761    96.0317    10.1818
  802.0000   -55.4836    10.4104    97.4847    10.0556
  802.5000   -55.2883    10.2432    98.9378     9.8506
  803.0000   -55.1174    10.0770   100.3908     9.6547
  803.5000   -54.9009     9.9103   101.8439     9.4431
  804.0000   -54.9948     9.7278   103.2969     9.2357
  804.5000   -55.3932     9.5169   104.6860     9.0300
  805.0000   -55.6984     9.2754   108.2028     8.7912
  805.5000   -56.1141     9.0060   111.5712     8.5232
  806.0000   -56.0071     8.5934   117.7973     8.1791
  806.5000   -54.7367     8.0908   123.9047     7.8919
  807.0000   -54.2584     7.6083   139.2751     7.3623
  807.5000   -55.1942     7.1026   151.8363     6.9158
  808.0000   -54.7103     6.6323   162.6221     6.4438
  808.5000   -53.5486     6.0896   169.1856     6.0059
  809.0000   -52.3655     5.7922   175.0518     5.7706
  809.5000   -52.7843     5.7088   181.0609     5.7775
  810.0000   -53.7984     5.6171   189.2949     5.7918
  810.5000   -54.6893     5.4751   197.7878     6.2997
  811.0000   -54.6784     5.8204   190.9521     7.2789
  811.5000   -54.3412     6.6362   175.2750     7.9825
  812.0000   -54.1049     7.3030   152.8187     8.3185
  812.5000   -53.8192     8.1241   129.0913     8.3914
  813.0000   -53.7393     8.7051   120.0523     8.5034
  813.5000   -53.7453     8.8545   114.2093     8.5718
  814.0000   -53.7427     8.9294   111.5105     8.6098
  814.5000   -53.7409     8.9208   111.5262     8.6484
  815.0000   -53.7482     8.9438   112.2354     8.6805
  815.5000   -53.7308     8.9517   112.9445     8.7400
  816.0000   -53.8141     8.9634   113.7250     8.8304
  816.5000   -54.6032     8.9803   113.7250     8.8893
  817.0000   -55.7204     8.9802   113.7250     8.9145
  817.5000   -56.3745     9.0871   113.0631     8.9597
  818.0000   -56.0217     9.2637   111.6962     9.0947
  818.5000   -55.5301     9.4138   110.3292     9.2319
  819.0000   -55.0506     9.5756   108.9623     9.3701
  819.5000   -54.5685     9.7313   107.3977     9.5029
  820.0000   -54.0871     9.8900   105.8371     9.6487
  820.5000   -53.5992    10.0478   104.0125     9.8428
  821.0000   -53.3764    10.2050   102.1879    10.0694
  821.5000   -54.4172    10.3642   100.3633    10.1736
  822.0000   -54.7673    10.5191    98.5388    10.2238
  822.5000   -53.4736    10.6827    96.7142    10.3467
  823.0000   -53.5582    10.7983    95.4775    10.4463
  823.5000   -54.2055    10.8022    95.0692    10.5345
  824.0000   -54.8138    10.8027    94.6609    10.5657
  824.5000   -55.4732    10.8020    94.2526    10.6002
  825.0000   -54.9788    10.8022    93.8443    10.6126
  825.5000   -54.1876    10.8021    93.4360    10.5495
  826.0000   -53.3969    10.8020    92.9353    10.4886
  826.5000   -52.6987    10.8022    93.4217    10.4278
  827.0000   -51.7743    10.8020    94.0505    10.3666
  827.5000   -51.6031    10.8026    94.6793    10.3063
