~VERSION INFORMATION
 VERS.                2.0:   CWLS LOG ASCII STANDARD - VERSION 2.0
 WRAP.                 NO:   ONE LINE PER DEPTH STEP
~WELL INFORMATION
#MNEM.UNIT      DATA TYPE    INFORMATION
#----------   ------------   ------------------------------
 STRT.F            0.0000:   START DEPTH
 STOP.F         1002.0000:   STOP DEPTH
 STEP.F            0.5000:   STEP LENGTH
 NULL.          -999.2500:   NO VALUE
 COMP. U S NAVY-INTEX OIL:   COMPANY
 WELL.     NPR ##3 28-S-2:   WELL
 FLD .             TEAPOT:   FIELD
 LOC .       S2 T38N R78W:   LOCATION
 CNTY.            NATRONA:   COUNTY
 STAT.            WYOMING:   STATE
 CTRY. UNITED STATES OF AMERICA:   COUNTRY
 SRVC.      NL McCullough:   SERVICE COMPANY
 DATE.        13-JUN-1963:   LOGDATE
 API .       490250639400:   API NUMBER
~CURVE INFORMATION
#MNEM.UNIT       API CODE    CURVE DESCRIPTION
#----------   ------------   ------------------------------
 DEPT.F                  :   
 ASN .OHMM   05 041 16 00:   AMPLIFIED SHORT NORMAL 16"
 ILD .OHMM   05 120 46 00:   INDUCTION LOG DEEP
 CILD.MMHO   05 110 46 00:   CONDUCTIVITY INDUCTION LOG DEEP
 SPR .MV     05 010 01 00:   SPONTANEOUS POTENTIAL FROM RES.
 GR  .GAPI   30 310 01 00:   GAMMA RAY
~PARAMETER INFORMATION
#MNEM.UNIT          VALUE    DESCRIPTION
#----------   ------------   ------------------------------
 PD  .                 GL:   PERMANENT DATUM
 EPD .F              5147:   ELEVATION PERMANENT DATUM
 LMF .                 KB:   LOG MEASURED FROM
 DAPD.F                 5:   FEET ABOVE PERMANENT DATUM
 DMF .                 KB:   DRILLING MEASURED FROM
 EKB .F              5152:   KELLING BUSHING
 EGL .F              5147:   GROUND LEVEL
 DATE.        13-SEP-1963:   RUN DATE
 RUN .                  1:   RUN NUMBER
 BLI .F               600:   BOTTOM LOG INTERVAL
 CS  .IN                7:   CASING SIZE
 DFT .                OIL:   DRILLING FLUID TYPE
 ENGI.            JACKSON:   RECORDING ENGINEER
 WITN.             HUDSON:   WITNESSED BY
 CLNT.            A2DTECH:   CLIENT CODE
 ORIG.           5" PRINT:   ORIGIN OF DATA
 UWI .       490250639400:   UNIQUE WELL ID
 DICO. A2D Technologies, Inc.:   DIGITIZING COMPANY
~OTHER INFORMATION
~A    DEPT     ASN        ILD       CILD        SPR          GR  
# ...
  732.0000     9.5205     8.2938   114.6149   -35.7797  -999.2500
  732.5000     9.5209     8.2958   113.8330   -35.7737  -999.2500
  733.0000     9.5214     8.3708   113.0510   -35.7677  -999.2500
  733.5000     9.5218     8.4460   112.2690   -35.7617  -999.2500
  734.0000     9.5970     8.4468   112.2389   -35.7558  -999.2500
  734.5000     9.6722     8.4475   112.9682   -35.7498  -999.2500
  735.0000     9.6727     8.3733   112.9306   -35.7438  -999.2500
  735.5000     9.5983     8.3741   112.9005   -35.7378  -999.2500
  736.0000     9.5988     8.3748   112.8704   -35.7318  -999.2500
  736.5000     9.5993     8.3756   112.0884   -35.7259  -999.2500
  737.0000     9.5997     8.3763   112.0583   -35.8702  -999.2500
  737.5000     9.6002     8.4520   112.0282   -36.0130  -999.2500
  738.0000     9.6754     8.5278   111.9981   -36.0056  -999.2500
  738.5000     9.6758     8.6035   111.2161   -35.9996  -999.2500
  739.0000     9.6763     8.6792   111.1860   -35.9936  -999.2500
  739.5000     9.7515     8.6799   110.4040   -36.1364  -999.2500
  740.0000     9.8267     8.6807   108.8702   -36.1305  -999.2500
  740.5000     9.9018     8.7564   108.8401   -36.4221  -999.2500
  741.0000     9.9023     8.8321   108.0581   -36.8625  -999.2500
  741.5000     9.9027     8.8329   107.2761   -37.1542  -999.2500
  742.0000     9.9032     8.9086   107.2460   -37.2985  -999.2500
  742.5000     9.9036     8.9093   106.4640   -37.2910  -999.2500
  743.0000     9.9041     8.9101   105.6821   -37.1363  -999.2500
  743.5000     9.9045     8.9108   105.6520   -36.9815  -999.2500
  744.0000     9.9050     8.9865   104.8700   -36.9755  -999.2500
  744.5000     9.9802     8.9873   104.8399   -36.8207  -999.2500
  745.0000     9.9806     8.9880   104.8098   -36.6659  -999.2500
  745.5000    10.0558     8.9888   104.0278   -36.6599  -999.2500
  746.0000    10.1310     8.9896   103.9977   -36.6540  -999.2500
  746.5000    10.2062     9.0653   102.4638   -36.6480  -999.2500
  747.0000    10.2066     9.0660   101.6818   -36.7923  -999.2500
  747.5000    10.2818     9.0668   100.1480   -36.7848  -999.2500
  748.0000    10.2823     9.0675   100.1179   -36.7789  -999.2500
  748.5000    10.3575     9.0683    99.3359   -36.7729  -999.2500
  749.0000    10.4327     9.2190    99.3058   -36.7669  -999.2500
  749.5000    10.4331     9.2947    99.2757   -36.9112  -999.2500
  750.0000    10.4336     9.3854    98.4951   -36.7430  -999.2500
  750.5000    10.4340     9.4763    98.4580   -36.5830  -999.2500
  751.0000    10.5117     9.5672    98.4209   -36.4490  -999.2500
  751.5000    10.6457     9.6725    98.3813   -36.4446  -999.2500
  752.0000    10.7798     9.5981    98.3440   -36.2913  -999.2500
  752.5000    10.9133     9.5239    97.5548   -36.1381  -999.2500
  753.0000    10.8389     9.5249    96.7657   -35.9848  -999.2500
  753.5000    10.8374     9.5256    96.7284   -35.9803  -999.2500
  754.0000    10.8395     9.6013    96.6911   -35.9759  -999.2500
  754.5000    10.8398     9.6770    96.6538   -35.9714  -999.2500
  755.0000    10.9148     9.7527    95.8647   -35.9670  -999.2500
  755.5000    10.9898     9.9034    95.8023   -35.9625  -999.2500
  756.0000    11.0649     9.9791    94.9880   -36.1080  -999.2500
  756.5000    11.1399    10.0548    93.4211   -36.4000  -999.2500
  757.0000    11.2149    10.2055    92.6068   -36.6932  -999.2500
  757.5000    11.2900    10.3562    91.7917   -36.8375  -999.2500
  758.0000    11.3650    10.4319    91.1204   -36.9819  -999.2500
  758.5000    11.4401    10.5076    89.5793   -37.1262  -999.2500
  759.0000    11.5196    10.5083    88.7902   -36.9730  -999.2500
  759.5000    11.5901    10.5091    88.7529   -36.9685  -999.2500
  760.0000    11.5904    10.5098    88.7156   -36.9641  -999.2500
  760.5000    11.5907    10.5106    88.6783   -36.8108  -999.2500
  761.0000    11.6658    10.5113    88.6410   -36.8063  -999.2500
  761.5000    11.6718    10.5121    88.6037   -36.6531  -999.2500
  762.0000    11.7411    10.4377    90.8221   -36.4998  -999.2500
  762.5000    11.6667    10.4386    93.0405   -36.3465  -999.2500
  763.0000    11.6605    10.3642    93.7644   -36.1933  -999.2500
  763.5000    11.5925    10.3651    92.2140   -36.1888  -999.2500
  764.0000    11.5181    10.3659    91.4248   -36.0355  -999.2500
  764.5000    11.5184    10.4416    90.6357   -36.0311  -999.2500
  765.0000    11.5262    10.4423    90.5984   -36.0266  -999.2500
  765.5000    11.6762    10.5181    89.8092   -36.0222  -999.2500
  766.0000    11.9010    10.5188    88.2682   -36.3153  -999.2500
  766.5000    11.9762    10.6695    85.9753   -36.4598  -999.2500
  767.0000    12.1263    10.8202    84.4342   -36.7529  -999.2500
  767.5000    12.2676    11.0458    82.8932   -36.8973  -999.2500
  768.0000    12.2769    11.2714    82.1040   -37.0417  -999.2500
  768.5000    12.3429    11.3471    81.3149   -37.0371  -999.2500
  769.0000    12.4274    11.4978    80.5257   -36.8838  -999.2500
  769.5000    12.5677    11.4986    80.4884   -36.8794  -999.2500
  770.0000    12.5680    11.5743    80.4511   -36.8749  -999.2500
  770.5000    12.5683    11.5750    80.4135   -36.7217  -999.2500
  771.0000    12.5686    11.6507    80.3760   -36.7172  -999.2500
  771.5000    12.5689    11.6515    80.3384   -36.7127  -999.2500
  772.0000    12.5802    11.6522    80.3008   -36.7083  -999.2500
  772.5000    12.5695    11.6530    80.3883   -36.5550  -999.2500
  773.0000    12.5698    11.5786    81.7312   -36.5506  -999.2500
  773.5000    12.5701    11.3546    83.1883   -36.5461  -999.2500
  774.0000    12.4957    11.2054    84.6641   -36.3928  -999.2500
  774.5000    12.3465    10.9813    86.8825   -36.3884  -999.2500
  775.0000    12.1849    10.7572    89.0915   -36.3839  -999.2500
  775.5000    11.9607    10.6080    90.5673   -36.3795  -999.2500
  776.0000    11.6617    10.3838    92.0245   -36.3750  -999.2500
  776.5000    11.4508    10.2347    92.7484   -36.5194  -999.2500
  777.0000    11.3629    10.0855    93.4630   -36.5149  -999.2500
  777.5000    11.2272    10.0113    94.1776   -36.5105  -999.2500
  778.0000    11.1528     9.9371    94.8829   -36.5060  -999.2500
  778.5000    11.0783     9.7879    95.5975   -36.5014  -999.2500
  779.0000    11.0641     9.7886    96.3121   -36.4970  -999.2500
  779.5000    10.9895     9.6394    97.0267   -36.4925  -999.2500
  780.0000    10.7803     9.4903    98.4931   -36.4881  -999.2500
  780.5000    10.5563     9.4910    99.2171   -36.3348  -999.2500
  781.0000    10.3325     9.2669   100.6835   -36.0327  -999.2500
  781.5000    10.1086     9.1927   102.8926   -35.8795  -999.2500
  782.0000     9.9594     8.9685   104.3684   -35.7262  -999.2500
  782.5000     9.9293     8.7444   106.5774   -35.7217  -999.2500
  783.0000     9.8918     8.5952   108.7958   -35.5685  -999.2500
  783.5000     9.8543     8.2956   114.0216   -35.5640  -999.2500
  784.0000     9.8168     7.9960   119.2475   -35.5596  -999.2500
  784.5000     9.7793     7.6944   125.9771   -35.5551  -999.2500
  785.0000     9.7418     7.2464   131.2030   -35.5506  -999.2500
  785.5000     9.5429     7.0247   133.4466   -35.5461  -999.2500
  786.0000     9.1695     6.9505   134.8878   -35.5416  -999.2500
  786.5000     9.0054     6.9513   134.8497   -35.6862  -999.2500
  787.0000     8.9758     6.9520   134.0602   -35.7054  -999.2500
  787.5000     8.9910     7.0277   133.1455   -35.8261  -999.2500
  788.0000     9.1857     7.2605   128.7144   -35.8214  -999.2500
  788.5000     9.5895     7.4868   123.4139   -35.8170  -999.2500
  789.0000     9.8617     7.7882   118.1135   -35.8125  -999.2500
  789.5000     9.9816     8.0987   112.0611   -35.8081  -999.2500
  790.0000    10.1016     8.4657   107.5126   -35.6539  -999.2500
  790.5000    10.2216     8.9171   103.7159   -35.5006  -999.2500
  791.0000    10.3416     9.2184   101.4230   -35.4961  -999.2500
  791.5000    10.4882     9.5198    99.1301   -35.4917  -999.2500
  792.0000    10.6380     9.6581    97.5890   -35.4872  -999.2500
  792.5000    10.7878     9.7338    96.0480   -35.4828  -999.2500
