~VERSION INFORMATION
 VERS.                2.0:   CWLS LOG ASCII STANDARD - VERSION 2.0
 WRAP.                 NO:   ONE LINE PER DEPTH STEP
~WELL INFORMATION
#MNEM.UNIT      DATA TYPE    INFORMATION
#----------   ------------   ------------------------------
 STRT.F           90.0000:   START DEPTH
 STOP.F         1312.0000:   STOP DEPTH
 STEP.F            0.5000:   STEP LENGTH
 NULL.          -999.2500:   NO VALUE
 COMP. US NAVY/ INTEX OIL CO:   COMPANY
 WELL. RES 3 TEAPOT DOME NPR "S' #42-2:   WELL
 FLD .             TEAPOT:   FIELD
 LOC .       S2 T38N R78W:   LOCATION
 CNTY.            NATRONA:   COUNTY
 STAT.            WYOMING:   STATE
 CTRY. UNITED STATES OF AMERICA:   COUNTRY
 SRVC. Schlumberger Well Surveying Corp:   SERVICE COMPANY
 DATE.        17-JUL-1964:   LOGDATE
 API .       490250646400:   API NUMBER
~CURVE INFORMATION
#MNEM.UNIT       API CODE    CURVE DESCRIPTION
#----------   ------------   ------------------------------
 DEPT.F                  :   
 GR  .GAPI   30 310 01 00:   GAMMA RAY
 CALS.IN     60 280 50 00:   CALIPER FROM SONIC LOG
 DT  .US/F   60 520 32 00:   INTERVAL TRANSIT TIME
 SPR .MV     05 010 01 00:   SPONTANEOUS POTENTIAL FROM RES.
 CILD.MMHO   05 110 46 00:   CONDUCTIVITY INDUCTION LOG DEEP
 ILD .OHMM   05 120 46 00:   INDUCTION LOG DEEP
 ASN .OHMM   05 040 16 00:   AMPLIFIED SHORT NORMAL 16"
~PARAMETER INFORMATION
#MNEM.UNIT          VALUE    DESCRIPTION
#----------   ------------   ------------------------------
 PD  .                 GL:   PERMANENT DATUM
 EPD .F              5142:   ELEVATION PERMANENT DATUM
 LMF .                 KB:   LOG MEASURED FROM
 DAPD.F                 8:   FEET ABOVE PERMANENT DATUM
 DMF .                 KB:   DRILLING MEASURED FROM
 EKB .F              5150:   KELLING BUSHING
 EGL .F              5142:   GROUND LEVEL
 DATE.          7-17-1964:   RUN DATE
 RUN .                  1:   RUN NUMBER
 DD  .F              1300:   DEPTH DRILLER
 DL  .F              1310:   DEPTH LOGGER
 BLI .F              1309:   BOTTOM LOG INTERVAL
 TLI .F               107:   TOP LOG INTERVAL
 CS  .IN            12.25:   CASING SIZE
 CBD .F                10:   CASING BOTTOM DRILLER
 BS  .IN               11:   BIT SIZE
 BSD .F              1300:   BIT SIZE AT DEPTH
 DFT .            GEL-OIL:   DRILLING FLUID TYPE
 DFD .                9.6:   DRILLING FLUID DENSITY
 DFV .                 63:   DRILLING FLUID VISCOSITY
 DFPH.                  8:   DRILLING FLUID PH
 DFL .                9.6:   DRILLING FLUID LOSS
 MSS .           FLOWLINE:   MUD SAMPLE SOURCE
 RMS .OHMM           2.07:   RESISTIVITY MUD SAMPLE
 MST .F                92:   MUD SAMPLE TEMPERATURE
 RMF .OHMM           1.42:   RESISTIVITY MUD FILTRATE SAMPLE
 MFST.F                92:   MUD FILTRATE SAMPLE TEMPERATURE
 RMC .OHMM           2.33:   RESISTIVITY MUD CAKE
 MCST.F                92:   MUD CAKE SAMPLE TEMPERATURE
 MFSS.                 FP:   MUD FILTRATE SAMPLE SOURCE
 MCSS.                 FP:   MUD CAKE SAMPLE SOURCE
 TCS .HRS               1:   TIME CURCULATED STOPPED
 LUN .               4507:   LOGGING UNIT NUMBER
 LUL .              CSPR.:   LOGGING UNIT LOCATION
 ENGI.             DANNER:   RECORDING ENGINEER
 WITN.          JORGENSEN:   WITNESSED BY
 CLNT.            A2DTECH:   CLIENT CODE
 ORIG.        2" 5" PRINT:   ORIGIN OF DATA
 UWI .       490250646400:   UNIQUE WELL ID
 DICO. A2D Technologies, Inc.:   DIGITIZING COMPANY
~OTHER INFORMATION
~A   DEPT       GR       CALS         DT        SPR        CILD         ILD        ASN 
# ...
 1182.0000  -999.2500  -999.2500  -999.2500   -27.6968   185.7424     5.4559     6.8624
 1182.5000  -999.2500  -999.2500  -999.2500   -27.6888   185.8953     5.4554     6.8773
 1183.0000  -999.2500  -999.2500  -999.2500   -27.6807   186.0682     5.4556     6.8717
 1183.5000  -999.2500  -999.2500  -999.2500   -27.6727   186.2413     5.4554     6.8697
 1184.0000  -999.2500  -999.2500  -999.2500   -27.6646   186.4135     5.4554     6.8652
 1184.5000  -999.2500  -999.2500  -999.2500   -27.6566   186.5841     5.4553     6.8630
 1185.0000  -999.2500  -999.2500  -999.2500   -27.6484   186.5703     5.4553     6.8575
 1185.5000  -999.2500  -999.2500  -999.2500   -27.6406   186.1731     5.4550     6.8673
 1186.0000  -999.2500  -999.2500  -999.2500   -27.6322   185.7737     5.4550     6.9016
 1186.5000  -999.2500  -999.2500  -999.2500   -27.6247   185.3584     5.4561     6.9347
 1187.0000  -999.2500  -999.2500  -999.2500   -27.6154   184.9590     5.4941     6.9686
 1187.5000  -999.2500  -999.2500  -999.2500   -27.6169   184.2155     5.5443     7.0017
 1188.0000  -999.2500  -999.2500  -999.2500   -27.6408   182.7177     5.5949     7.0353
 1188.5000  -999.2500  -999.2500  -999.2500   -27.6649   180.2042     5.6486     7.0720
 1189.0000  -999.2500  -999.2500  -999.2500   -27.6895   175.4114     5.7521     7.1394
 1189.5000  -999.2500  -999.2500  -999.2500   -27.7138   169.6697     5.8636     7.2269
 1190.0000  -999.2500  -999.2500  -999.2500   -27.7382   163.1177     6.1276     7.3739
 1190.5000  -999.2500  -999.2500  -999.2500   -27.7625   154.9481     6.6523     7.5883
 1191.0000  -999.2500  -999.2500  -999.2500   -27.7869   146.7786     7.2036     7.9910
 1191.5000  -999.2500  -999.2500  -999.2500   -27.8112   138.6091     7.7198     8.4000
 1192.0000  -999.2500  -999.2500  -999.2500   -27.8356   130.4395     8.3240     9.8081
 1192.5000  -999.2500  -999.2500  -999.2500   -27.8600   123.3090     8.7602    10.1257
 1193.0000  -999.2500  -999.2500  -999.2500   -27.8843   118.7445     8.9889    10.4572
 1193.5000  -999.2500  -999.2500  -999.2500   -27.9087   114.1799     9.2311    10.6332
 1194.0000  -999.2500  -999.2500  -999.2500   -27.9330   108.6086     9.3562    10.7731
 1194.5000  -999.2500  -999.2500  -999.2500   -27.9575   108.2973     9.5469    10.8506
 1195.0000  -999.2500  -999.2500  -999.2500   -27.9816   107.8979     9.5504    10.8388
 1195.5000  -999.2500  -999.2500  -999.2500   -28.0057   107.9052     9.5025    10.7929
 1196.0000  -999.2500  -999.2500  -999.2500   -28.0129   108.9945     9.4580    10.7578
 1196.5000  -999.2500  -999.2500  -999.2500   -28.0120   110.0837     9.4112    10.7169
 1197.0000  -999.2500  -999.2500  -999.2500   -28.0124   111.1730     9.3661    10.6799
 1197.5000  -999.2500  -999.2500  -999.2500   -28.0124   112.2623     9.3201    10.6405
 1198.0000  -999.2500  -999.2500  -999.2500   -28.0121   113.5926     9.2743    10.6035
 1198.5000  -999.2500  -999.2500  -999.2500   -28.0130   113.4795     9.2291    10.5633
 1199.0000  -999.2500  -999.2500  -999.2500   -28.0115   113.3335     9.1825    10.5287
 1199.5000  -999.2500  -999.2500  -999.2500   -28.0148   113.1875     9.1390    10.4822
 1200.0000  -999.2500  -999.2500  -999.2500   -27.9911   113.0398     9.0877    10.4768
 1200.5000  -999.2500  -999.2500  -999.2500   -27.9118   112.8904     9.0573    10.5509
 1201.0000  -999.2500  -999.2500  -999.2500   -27.8323   112.7400     9.1329    10.6211
 1201.5000  -999.2500  -999.2500  -999.2500   -27.7513   112.4529     9.2357    10.6932
 1202.0000  -999.2500  -999.2500  -999.2500   -27.6718   111.6116     9.3358    10.7667
 1202.5000  -999.2500  -999.2500  -999.2500   -27.5905   110.7762     9.4368    10.8349
 1203.0000  -999.2500  -999.2500  -999.2500   -27.5118   109.6928     9.5377    10.9167
 1203.5000  -999.2500  -999.2500  -999.2500   -27.4305   108.6094     9.6383    10.9681
 1204.0000  -999.2500  -999.2500  -999.2500   -27.4177   107.5260     9.7473    11.0356
 1204.5000  -999.2500  -999.2500  -999.2500   -27.4410   106.4426     9.7742    11.1435
 1205.0000  -999.2500  -999.2500  -999.2500   -27.4559   105.3592     9.7860    11.2405
 1205.5000  -999.2500  -999.2500  -999.2500   -27.4748   104.5283     9.8022    11.3490
 1206.0000  -999.2500  -999.2500  -999.2500   -27.4916   104.2768     9.8163    11.3430
 1206.5000  -999.2500  -999.2500  -999.2500   -27.5095   104.0253     9.8315    11.3122
 1207.0000  -999.2500  -999.2500  -999.2500   -27.5270   103.7738     9.8462    11.2865
 1207.5000  -999.2500  -999.2500  -999.2500   -27.5443   103.6687     9.8609    11.2596
 1208.0000  -999.2500  -999.2500  -999.2500   -27.5622   103.8699     9.8758    11.2311
 1208.5000  -999.2500  -999.2500  -999.2500   -27.5789   104.0711     9.8901    11.2074
 1209.0000  -999.2500  -999.2500  -999.2500   -27.5980   104.2723     9.9058    11.1724
 1209.5000  -999.2500  -999.2500  -999.2500   -27.6064   104.4735     9.9192    11.1929
 1210.0000  -999.2500  -999.2500  -999.2500   -27.5749   104.2542     9.9367    11.2973
 1210.5000  -999.2500  -999.2500  -999.2500   -27.5454   103.2483     9.9465    11.3953
 1211.0000  -999.2500  -999.2500  -999.2500   -27.5155   102.2422    10.0119    11.4979
 1211.5000  -999.2500  -999.2500  -999.2500   -27.4859   101.2362    10.1686    11.5976
 1212.0000  -999.2500  -999.2500  -999.2500   -27.4561   100.2302    10.3110    11.6997
 1212.5000  -999.2500  -999.2500  -999.2500   -27.4264    99.2242    10.4796    11.7989
 1213.0000  -999.2500  -999.2500  -999.2500   -27.3968    98.5986    10.5687    11.9026
 1213.5000  -999.2500  -999.2500  -999.2500   -27.3670    98.5986    10.5591    12.0002
 1214.0000  -999.2500  -999.2500  -999.2500   -27.3375    98.5986    10.5617    12.1652
 1214.5000  -999.2500  -999.2500  -999.2500   -27.3075    98.5986    10.5650    12.1186
 1215.0000  -999.2500  -999.2500  -999.2500   -27.2785    99.1465    10.5192    11.9777
 1215.5000  -999.2500  -999.2500  -999.2500   -27.2475   100.5231    10.4007    11.8523
 1216.0000  -999.2500  -999.2500  -999.2500   -27.2212   101.8998    10.2896    11.7181
 1216.5000  -999.2500  -999.2500  -999.2500   -27.1820   103.2764    10.1741    11.5888
 1217.0000  -999.2500  -999.2500  -999.2500   -27.1336   104.6531    10.0609    11.4568
 1217.5000  -999.2500  -999.2500  -999.2500   -27.0907   106.0297     9.9466    11.3261
 1218.0000  -999.2500  -999.2500  -999.2500   -27.0453   107.4063     9.8328    11.1948
 1218.5000  -999.2500  -999.2500  -999.2500   -27.0015   108.7830     9.7190    11.0639
 1219.0000  -999.2500  -999.2500  -999.2500   -26.9562   110.1596     9.6048    10.9318
 1219.5000  -999.2500  -999.2500  -999.2500   -26.9129   111.6116     9.4915    10.8288
 1220.0000  -999.2500  -999.2500  -999.2500   -26.8662   111.6116     9.3762    10.7563
 1220.5000  -999.2500  -999.2500  -999.2500   -26.8269   111.6116     9.2699    10.7617
 1221.0000  -999.2500  -999.2500  -999.2500   -26.7634   111.6116     9.2722    10.7593
 1221.5000  -999.2500  -999.2500  -999.2500   -26.6820   111.6116     9.2913    10.7608
 1222.0000  -999.2500  -999.2500  -999.2500   -26.6093   111.6116     9.3065    10.7601
 1222.5000  -999.2500  -999.2500  -999.2500   -26.5324   111.6116     9.3236    10.7606
 1223.0000  -999.2500  -999.2500  -999.2500   -26.4587   111.6116     9.3397    10.7606
 1223.5000  -999.2500  -999.2500  -999.2500   -26.3815   111.6116     9.3563    10.7608
 1224.0000  -999.2500  -999.2500  -999.2500   -26.3093   111.6116     9.3726    10.7608
 1224.5000  -999.2500  -999.2500  -999.2500   -26.2291   111.2796     9.3890    10.7608
 1225.0000  -999.2500  -999.2500  -999.2500   -26.2224   110.9443     9.4053    10.7608
 1225.5000  -999.2500  -999.2500  -999.2500   -26.2686   110.6106     9.4217    10.7608
 1226.0000  -999.2500  -999.2500  -999.2500   -26.3033   110.3727     9.4380    10.7608
 1226.5000  -999.2500  -999.2500  -999.2500   -26.3435   110.1360     9.4544    10.7608
 1227.0000  -999.2500  -999.2500  -999.2500   -26.3807   109.8993     9.4706    10.7608
