~VERSION INFORMATION
 VERS.                2.0:   CWLS LOG ASCII STANDARD - VERSION 2.0
 WRAP.                 NO:   ONE LINE PER DEPTH STEP
~WELL INFORMATION
#MNEM.UNIT      DATA TYPE    INFORMATION
#----------   ------------   ------------------------------
 STRT.F           15.0000:   START DEPTH
 STOP.F          531.0000:   STOP DEPTH
 STEP.F            0.1000:   STEP LENGTH
 NULL.          -999.2500:   NO VALUE
 COMP. LAWRENCE/ALLISON INC:   COMPANY
 WELL.   NPR 3 #42-61SX10:   WELL
 FLD .          N.P.R. #3:   FIELD
 LOC .      S10 T38N R78W:   LOCATION
 CNTY.            NATRONA:   COUNTY
 STAT.            WYOMING:   STATE
 CTRY. UNITED STATES OF AMERICA:   COUNTRY
 SRVC.           Gearhart:   SERVICE COMPANY
 DATE.        06-JUL-1986:   LOGDATE
 API .       490251109500:   API NUMBER
~CURVE INFORMATION
#MNEM.UNIT       API CODE    CURVE DESCRIPTION
#----------   ------------   ------------------------------
 DEPT.F                  :   
 GRR .GAPI   07 310 01 00:   GAMMA RAY
 RILD.OHMM   07 120 46 00:   INDUCTION LOG DEEP
 RILM.OHMM   07 120 44 00:   INDUCTION LOG MEDIUM
~PARAMETER INFORMATION
#MNEM.UNIT          VALUE    DESCRIPTION
#----------   ------------   ------------------------------
 PD  .                 GL:   PERMANENT DATUM
 EPD .F              5196:   ELEVATION PERMANENT DATUM
 LMF .                 KB:   LOG MEASURED FROM
 DAPD.F                 5:   FEET ABOVE PERMANENT DATUM
 DMF .                 KB:   DRILLING MEASURED FROM
 EKB .F              5201:   KELLING BUSHING
 EGL .F              5196:   GROUND LEVEL
 DATE.        06-JUL-1986:   RUN DATE
 RUN .                  1:   RUN NUMBER
 DD  .F               548:   DEPTH DRILLER
 DL  .F               541:   DEPTH LOGGER
 BLI .F               531:   BOTTOM LOG INTERVAL
 TLI .F                15:   TOP LOG INTERVAL
 CS  .IN            8.625:   CASING SIZE
 CBD .F                47:   CASING BOTTOM DRILLER
 CBL .F                47:   CASING BOTTOM LOGGER
 BS  .IN            7.875:   BIT SIZE
 BSD .F               548:   BIT SIZE AT DEPTH
 DFT .                AIR:   DRILLING FLUID TYPE
 BHT .F                82:   BOTTOM HOLE TEMPERATURE
 TCS .HRS            2000:   TIME CURCULATED STOPPED
 TLAB.HRS            2130:   TIME LOGGER AT BOTTOM
 MRT .F                82:   MAXIMUM RECORDED TEMPERATURE
 LUN .               7609:   LOGGING UNIT NUMBER
 LUL .           GILLETTE:   LOGGING UNIT LOCATION
 ENGI.              BAUER:   RECORDING ENGINEER
 WITN.           JENNINGS:   WITNESSED BY
 CLNT.            A2DTECH:   CLIENT CODE
 ORIG.           5" PRINT:   ORIGIN OF DATA
 UWI .       490251109500:   UNIQUE WELL ID
 DICO. A2D Technologies, Inc.:   DIGITIZING COMPANY
~OTHER INFORMATION
~A   DEPT      GRR       RILD       RILM   
# ...
  197.0000   115.6254     6.5438     6.5477
  197.1000   115.8764     6.5072     6.5478
  197.2000   116.1274     6.5073     6.5479
  197.3000   116.3689     6.5074     6.5330
  197.4000   116.3674     6.5075     6.5023
  197.5000   116.3664     6.4925     6.5024
  197.6000   116.3652     6.4622     6.4656
  197.7000   116.3640     6.4623     6.4571
  197.8000   116.3135     6.4624     6.4572
  197.9000   116.0562     6.4336     6.4440
  198.0000   115.8066     6.4174     6.4068
  198.1000   115.3580     6.4175     6.3674
  198.2000   114.7102     6.4123     6.3330
  198.3000   113.9523     6.3728     6.2964
  198.4000   113.2303     6.3384     6.2600
  198.5000   112.6900     6.3019     6.2351
  198.6000   111.9842     6.2655     6.2278
  198.7000   111.4080     6.2293     6.1483
  198.8000   110.9024     6.1899     6.1166
  198.9000   110.4723     6.1104     6.0813
  199.0000   110.2413     6.0792     6.0462
  199.1000   110.5452     6.0205     6.0112
  199.2000   110.5441     5.9671     5.9745
  199.3000   111.0479     5.9326     5.8952
  199.4000   112.3795     5.8967     5.8663
  199.5000   114.7062     5.8178     5.8324
  199.6000   117.9480     5.7897     5.7987
  199.7000   120.6141     5.7563     5.7652
  199.8000   122.4853     5.7092     5.7314
  199.9000   124.2894     5.6501     5.6526
  200.0000   125.0366     5.6175     5.6200
  200.1000   124.6533     5.5612     5.5796
  200.2000   124.2736     5.5048     5.5392
  200.3000   124.8836     5.4485     5.4988
  200.4000   125.5084     5.4148     5.4583
  200.5000   126.1160     5.4086     5.4267
  200.6000   126.6268     5.3772     5.3953
  200.7000   126.8997     5.3460     5.3640
  200.8000   126.3682     5.3150     5.3328
  200.9000   125.1852     5.3027     5.3019
  201.0000   124.3216     5.2905     5.2709
  201.1000   123.2984     5.2658     5.2406
  201.2000   122.0422     5.2660     5.2102
  201.3000   120.5074     5.2662     5.1800
  201.4000   118.9557     5.2418     5.1499
  201.5000   116.9373     5.2297     5.1200
  201.6000   115.8213     5.2298     5.0899
  201.7000   114.8892     5.2300     5.0608
  201.8000   114.1216     5.2302     5.0315
  201.9000   113.4280     5.2304     5.0194
  202.0000   112.9160     5.2305     5.0195
  202.1000   112.3535     5.2491     5.0251
  202.2000   111.8922     5.2677     5.0552
  202.3000   111.5609     5.2679     5.1138
  202.4000   111.3046     5.2680     5.1505
  202.5000   111.0483     5.3054     5.1808
  202.6000   110.8239     5.3055     5.2230
  202.7000   111.1285     5.3244     5.2789
  202.8000   111.3657     5.3558     5.3107
  202.9000   111.8089     5.3874     5.3413
  203.0000   112.3196     5.4192     5.3728
  203.1000   112.8304     5.4512     5.4227
  203.2000   113.3802     5.5092     5.4746
  203.3000   114.1783     5.5743     5.5124
  203.4000   114.9130     5.6401     5.5791
  203.5000   115.6794     5.7067     5.6432
  203.6000   116.4459     5.7740     5.7098
  203.7000   117.2122     5.8423     5.7577
  203.8000   117.9322     5.9113     5.8170
  203.9000   118.4495     5.9812     5.9199
  204.0000   118.9537     6.0518     6.0280
  204.1000   119.6672     6.1232     6.1666
  204.2000   120.2805     6.1954     6.3415
  204.3000   120.7913     6.2833     6.5299
  204.4000   121.1945     6.3130     6.7383
  204.5000   121.1939     6.3728     6.9854
  204.6000   121.1932     6.4480     7.2873
  204.7000   121.1927     6.5241     7.5819
  204.8000   121.1921     6.6011     7.8995
  204.9000   120.8593     6.6479     8.2577
  205.0000   120.2138     6.7107     8.6151
  205.1000   119.9575     6.7661     8.9307
  205.2000   119.6628     6.8221     9.3185
  205.3000   119.4449     6.8945     9.6933
  205.4000   118.8532     6.9351    10.0994
  205.5000   118.2036     7.0171    10.4867
  205.6000   117.7600     7.0668    10.8378
  205.7000   117.5037     7.1085    11.1382
  205.8000   117.2164     7.1673    11.3445
  205.9000   117.2159     7.2434    11.4083
  206.0000   117.2153     7.2861    11.4755
  206.1000   117.2147     7.3291    11.4689
  206.2000   117.2140     7.3724    11.4257
  206.3000   117.2134     7.4159    11.4260
  206.4000   117.2128     7.4773    11.4264
  206.5000   117.2122     7.5566    11.3635
  206.6000   117.3940     7.6012    11.3471
  206.7000   117.5163     7.6461    11.3474
  206.8000   117.4327     7.6913    11.3477
  206.9000   117.2098     7.7367    11.3384
  207.0000   117.2091     7.7824    11.2690
  207.1000   117.2085     7.8283    11.2693
  207.2000   117.2079     7.8745    11.2208
  207.3000   117.2073     7.8748    11.1911
  207.4000   117.1163     7.9120    11.1471
  207.5000   116.8601     7.9587    11.0088
  207.6000   116.5948     8.0057    10.8060
  207.7000   116.3475     8.0435    10.5723
  207.8000   116.0912     8.0437    10.3285
  207.9000   115.9823     8.0440    10.0591
  208.0000   115.9817     8.0820     9.7507
  208.1000   115.9811     8.1012     9.4285
  208.2000   115.9805     8.1015     9.1964
  208.3000   116.2339     8.1017     8.9985
  208.4000   116.4889     8.1020     8.7170
  208.5000   116.8987     8.1022     8.4425
  208.6000   117.3044     8.1025     8.2463
  208.7000   117.6703     8.1027     8.1567
  208.8000   118.4310     8.1030     8.1061
  208.9000   119.0295     8.1033     8.0624
  209.0000   119.6642     8.1035     8.0498
  209.1000   120.1065     8.1038     8.0500
  209.2000   120.5863     8.0662     8.0350
  209.3000   121.2900     8.0475     7.9942
  209.4000   121.7877     8.0419     7.9944
  209.5000   122.0793     8.0274     7.9946
  209.6000   122.5168     8.0128     7.9949
  209.7000   122.8582     7.9983     7.9707
  209.8000   123.1133     7.9838     7.9394
  209.9000   123.3684     7.9693     7.9340
  210.0000   123.6031     7.9547     7.8843
  210.1000   123.6024     7.9373     7.8845
  210.2000   123.3755     7.9375     7.8847
  210.3000   123.2959     7.9100     7.8611
  210.4000   123.0412     7.8824     7.8300
  210.5000   122.6066     7.8735     7.8302
  210.6000   122.3503     7.8278     7.8305
  210.7000   122.0720     7.8280     7.7889
  210.8000   121.6041     7.7917     7.7437
  210.9000   121.0921     7.7465     7.7219
  211.0000   120.5801     7.7195     7.7081
  211.1000   120.0682     7.7107     7.6634
  211.2000   119.5913     7.6660     7.6149
  211.3000   119.3203     7.6662     7.6151
  211.4000   118.8377     7.6307     7.5839
  211.5000   118.3257     7.6130     7.5623
  211.6000   117.9554     7.5955     7.5489
  211.7000   117.6991     7.5514     7.5051
  211.8000   117.4005     7.5075     7.4575
  211.9000   116.8739     7.4552     7.4577
  212.0000   116.6249     7.4206     7.4273
  212.1000   116.1699     7.3775     7.3842
  212.2000   115.8070     7.3347     7.3543
  212.3000   115.5507     7.3006     7.3458
  212.4000   115.2944     7.3008     7.2522
  212.5000   115.0382     7.2585     7.2524
  212.6000   114.7321     7.2164     7.2230
  212.7000   114.7316     7.1494     7.1811
  212.8000   114.7310     7.0829     7.1272
  212.9000   114.8371     7.0417     7.0444
  213.0000   115.0921     7.0008     6.9543
  213.1000   115.3472     6.9521     6.9181
  213.2000   115.6445     6.9198     6.8503
  213.3000   115.8573     6.8796     6.7903
  213.4000   116.1124     6.8238     6.7394
  213.5000   116.3674     6.7523     6.6648
  213.6000   116.5582     6.7131     6.6219
  213.7000   116.5722     6.6353     6.5536
  213.8000   116.8622     6.5890     6.4776
  213.9000   117.0823     6.5279     6.4207
  214.0000   117.3374     6.4671     6.3728
  214.1000   117.5925     6.4221     6.2988
  214.2000   117.7759     6.3474     6.2175
  214.3000   117.7972     6.3106     6.1537
  214.4000   118.0799     6.2740     6.1067
  214.5000   118.3074     6.2158     6.0713
  214.6000   118.3841     6.1579     6.0261
  214.7000   118.3835     6.1222     5.9590
  214.8000   118.3829     6.0866     5.9204
  214.9000   118.4116     6.0442     5.8599
  215.0000   118.6870     6.0161     5.8150
  215.1000   118.4511     5.9812     5.7813
