~VERSION INFORMATION
 VERS.                2.0:   CWLS LOG ASCII STANDARD - VERSION 2.0
 WRAP.                 NO:   ONE LINE PER DEPTH STEP
~WELL INFORMATION
#MNEM.UNIT      DATA TYPE    INFORMATION
#----------   ------------   ------------------------------
 STRT.F            8.0000:   START DEPTH
 STOP.F         2320.0000:   STOP DEPTH
 STEP.F            0.5000:   STEP LENGTH
 NULL.          -999.2500:   NO VALUE
 COMP.    FENIX & SCISSON:   COMPANY
 WELL. N.P.R #3 #77-SHX-10:   WELL
 FLD .             TEAPOT:   FIELD
 LOC .      S10 T38N R78W:   LOCATION
 CNTY.            NATRONA:   COUNTY
 STAT.            WYOMING:   STATE
 CTRY. UNITED STATES OF AMERICA:   COUNTRY
 SRVC.              Welex:   SERVICE COMPANY
 DATE.        05-JUN-1980:   LOGDATE
 API .       490251064900:   API NUMBER
~CURVE INFORMATION
#MNEM.UNIT       API CODE    CURVE DESCRIPTION
#----------   ------------   ------------------------------
 DEPT.F                  :   
 GRD .GAPI   45 310 01 00:   GAMMA RAY FROM DENSITY LOG
 CALD.IN     45 280 60 00:   CALIPER FROM DENSITY LOG
 RHOB.G/C3   45 350 01 00:   BULK DENSITY
 DPHI.DEC    45 890 12 00:   DENSITY POROSITY SANDSTONE
 ILD .OHMM   05 120 46 00:   INDUCTION LOG DEEP
 CORR.G/C3   45 356 01 00:   DENSITY CORRECTION
~PARAMETER INFORMATION
#MNEM.UNIT          VALUE    DESCRIPTION
#----------   ------------   ------------------------------
 PD  .                 GL:   PERMANENT DATUM
 EPD .F              5210:   ELEVATION PERMANENT DATUM
 LMF .                 KB:   LOG MEASURED FROM
 DAPD.F                10:   FEET ABOVE PERMANENT DATUM
 DMF .                 KB:   DRILLING MEASURED FROM
 EKB .F              5220:   KELLING BUSHING
 EGL .F              5210:   GROUND LEVEL
 DATE.        05-JUN-1980:   RUN DATE
 RUN .                  1:   RUN NUMBER
 DD  .F              2358:   DEPTH DRILLER
 DL  .F              2322:   DEPTH LOGGER
 BLI .F              2320:   BOTTOM LOG INTERVAL
 TLI .F               900:   TOP LOG INTERVAL
 CS  .IN                7:   CASING SIZE
 BS  .IN             6.25:   BIT SIZE
 BSD .F              2358:   BIT SIZE AT DEPTH
 DFT .        AIR DRILLED:   DRILLING FLUID TYPE
 MRT .F               107:   MAXIMUM RECORDED TEMPERATURE
 ENGI.               REIN:   RECORDING ENGINEER
 WITN.              AMEND:   WITNESSED BY
 CLNT.            A2DTECH:   CLIENT CODE
 ORIG.           5" PRINT:   ORIGIN OF DATA
 UWI .       490251064900:   UNIQUE WELL ID
 DICO. A2D Technologies, Inc.:   DIGITIZING COMPANY
~OTHER INFORMATION
~A    DEPT      GRD      CALD       RHOB       DPHI        ILD       CORR   
# ...
 1568.0000    95.1039     7.2656     2.4607     0.0577  -999.2500     0.1338
 1568.5000    94.5564     7.2934     2.4682     0.0613  -999.2500     0.1307
 1569.0000    94.9970     7.2625     2.4779     0.0517  -999.2500     0.1442
 1569.5000    95.4377     7.2169     2.4636     0.0511  -999.2500     0.1427
 1570.0000    95.7214     7.2012     2.4801     0.0451  -999.2500     0.1562
 1570.5000    96.1730     7.1994     2.4875     0.0376  -999.2500     0.1667
 1571.0000    96.4871     7.0949     2.4942     0.0340  -999.2500     0.1742
 1571.5000    96.9426     6.9748     2.4995     0.0325  -999.2500     0.1681
 1572.0000    97.4329     6.8697     2.4957     0.0394  -999.2500     0.1529
 1572.5000    97.9394     6.7496     2.4769     0.0476  -999.2500     0.1378
 1573.0000    97.9337     6.7182     2.4806     0.0458  -999.2500     0.1241
 1573.5000    97.9280     6.7775     2.4873     0.0425  -999.2500     0.1271
 1574.0000    97.6238     7.0896     2.4950     0.0371  -999.2500     0.1361
 1574.5000    97.1702     7.2974     2.4918     0.0370  -999.2500     0.1436
 1575.0000    97.0140     7.3711     2.4813     0.0452  -999.2500     0.1541
 1575.5000    97.3082     7.3250     2.4872     0.0407  -999.2500     0.1586
 1576.0000    97.8981     7.2946     2.4857     0.0428  -999.2500     0.1630
 1576.5000    98.3402     7.2640     2.4737     0.0464  -999.2500     0.1781
 1577.0000    98.4837     7.2333     2.4939     0.0386  -999.2500     0.1946
 1577.5000    97.5811     7.1877     2.5081     0.0256  -999.2500     0.2196
 1578.0000    96.6799     7.1569     2.5126     0.0263  -999.2500     0.2307
 1578.5000    96.6742     7.1262     2.5110     0.0296  -999.2500     0.2277
 1579.0000    96.8177     7.0806     2.5017     0.0242  -999.2500     0.2185
 1579.5000    97.1214     7.0649     2.4705     0.0453  -999.2500     0.1958
 1580.0000    97.5722     7.0342     2.4660     0.0480  -999.2500     0.1663
 1580.5000    98.1425     7.0036     2.4734     0.0552  -999.2500     0.1549
 1581.0000    98.7338     6.9429     2.4486     0.0624  -999.2500     0.1700
 1581.5000    99.3252     6.8824     2.4509     0.0606  -999.2500     0.1805
 1582.0000    99.9224     6.8220     2.4404     0.0603  -999.2500     0.1698
 1582.5000   100.8049     6.8062     2.4231     0.0805  -999.2500     0.1577
 1583.0000   101.5455     6.8203     2.4448     0.0640  -999.2500     0.1848
 1583.5000   101.3905     6.8490     2.4613     0.0541  -999.2500     0.1938
 1584.0000   100.4893     6.7885     2.4657     0.0550  -999.2500     0.1560
 1584.5000    99.5871     6.8771     2.4537     0.0637  -999.2500     0.1031
 1585.0000    99.2824     7.1147     2.4372     0.0726  -999.2500     0.0785
 1585.5000    99.4274     7.3225     2.4207     0.0796  -999.2500     0.0727
 1586.0000    99.4647     7.3365     2.4184     0.0802  -999.2500     0.0742
 1586.5000    99.5653     7.3355     2.4312     0.0772  -999.2500     0.0877
 1587.0000    99.4089     7.2899     2.4446     0.0658  -999.2500     0.1164
 1587.5000    99.2525     7.2835     2.4520     0.0659  -999.2500     0.1302
 1588.0000    98.9483     7.2584     2.4385     0.0646  -999.2500     0.1359
 1588.5000    98.3456     7.2554     2.4332     0.0701  -999.2500     0.1373
 1589.0000    97.7429     7.2267     2.4370     0.0728  -999.2500     0.1418
 1589.5000    97.2895     7.2110     2.4781     0.0635  -999.2500     0.1523
 1590.0000    97.6020     7.2101     2.5043     0.0350  -999.2500     0.1800
 1590.5000    98.1722     7.2241     2.5253     0.0215  -999.2500     0.2096
 1591.0000    98.3172     7.2232     2.5095     0.0275  -999.2500     0.2141
 1591.5000    98.3460     7.1775     2.5342     0.0284  -999.2500     0.1929
 1592.0000    98.6029     6.9084     2.5477     0.0125  -999.2500     0.2124
 1592.5000    98.5970     6.6244     2.5222     0.0141  -999.2500     0.2030
 1593.0000    98.5900     6.6086     2.5177     0.0170  -999.2500     0.1791
 1593.5000    98.5851     6.6408     2.5281     0.0134  -999.2500     0.1624
 1594.0000    98.5115     6.8899     2.4876     0.0392  -999.2500     0.1382
 1594.5000    98.2744     7.0383     2.4831     0.0449  -999.2500     0.1140
 1595.0000    98.1095     6.9776     2.4973     0.0311  -999.2500     0.1079
 1595.5000    97.6646     6.8873     2.5055     0.0297  -999.2500     0.1138
 1596.0000    97.3604     6.8566     2.5107     0.0243  -999.2500     0.1198
 1596.5000    96.9070     7.0195     2.5122     0.0255  -999.2500     0.1273
 1597.0000    96.4535     7.2124     2.5122     0.0261  -999.2500     0.1348
 1597.5000    96.2985     7.3904     2.5084     0.0243  -999.2500     0.1408
 1598.0000    96.4421     7.4343     2.4979     0.0360  -999.2500     0.1437
 1598.5000    96.8828     7.4483     2.4791     0.0489  -999.2500     0.1361
 1599.0000    97.3248     7.3876     2.4671     0.0558  -999.2500     0.1210
 1599.5000    97.8876     7.3272     2.4791     0.0471  -999.2500     0.1421
 1600.0000    98.4328     7.3114     2.4663     0.0568  -999.2500     0.1647
 1600.5000    98.9709     7.3126     2.4557     0.0589  -999.2500     0.1646
 1601.0000    99.4488     7.2948     2.4737     0.0505  -999.2500     0.1766
 1601.5000    99.9115     7.2341     2.4894     0.0391  -999.2500     0.1917
 1602.0000   100.1265     7.1737     2.5051     0.0331  -999.2500     0.1977
 1602.5000    99.6716     7.0834     2.4946     0.0325  -999.2500     0.1810
 1603.0000    99.1941     6.9782     2.4766     0.0508  -999.2500     0.1658
 1603.5000    98.4648     6.8873     2.4601     0.0595  -999.2500     0.1491
 1604.0000    97.7128     7.0036     2.4510     0.0613  -999.2500     0.1128
 1604.5000    96.8116     7.1366     2.4622     0.0574  -999.2500     0.1158
 1605.0000    96.3581     7.1954     2.4765     0.0457  -999.2500     0.1278
 1605.5000    96.3522     7.2536     2.4734     0.0469  -999.2500     0.1398
 1606.0000    96.9423     7.2077     2.4719     0.0476  -999.2500     0.1337
 1606.5000    97.8321     7.1002     2.4972     0.0254  -999.2500     0.1624
 1607.0000    98.8712     6.9816     2.5198     0.0134  -999.2500     0.1895
 1607.5000    99.3134     6.9060     2.5123     0.0414  -999.2500     0.1517
 1608.0000    98.8458     6.9794     2.4560     0.0663  -999.2500     0.1110
 1608.5000    97.5094     7.1720     2.4328     0.0717  -999.2500     0.0851
 1609.0000    98.3993     7.2304     2.4369     0.0672  -999.2500     0.0895
 1609.5000    98.8428     7.2588     2.4642     0.0525  -999.2500     0.0970
 1610.0000    98.0894     7.2729     2.4702     0.0556  -999.2500     0.1211
 1610.5000    97.1881     7.2714     2.4731     0.0418  -999.2500     0.1150
 1611.0000    98.6736     7.3150     2.4881     0.0262  -999.2500     0.1422
 1611.5000    99.8619     7.3288     2.5107     0.0235  -999.2500     0.1527
 1612.0000   100.1561     7.3425     2.4895     0.0391  -999.2500     0.1451
 1612.5000    99.7013     7.3262     2.5007     0.0370  -999.2500     0.1511
 1613.0000    98.9413     7.3251     2.5142     0.0172  -999.2500     0.1727
 1613.5000    98.0467     7.3239     2.5284     0.0112  -999.2500     0.1917
 1614.0000    97.4439     7.3079     2.5404    -0.0008  -999.2500     0.2052
 1614.5000    97.2890     7.2618     2.5493    -0.0017  -999.2500     0.1961
 1615.0000    97.3881     7.2010     2.5508    -0.0020  -999.2500     0.1885
 1615.5000    97.8451     7.1254     2.5343     0.0212  -999.2500     0.1853
 1616.0000    98.2694     7.0348     2.4930     0.0392  -999.2500     0.1582
 1616.5000    98.5597     6.9741     2.4907     0.0353  -999.2500     0.1340
 1617.0000    98.9692     7.0344     2.4945     0.0368  -999.2500     0.1324
 1617.5000    99.2152     7.1354     2.4847     0.0417  -999.2500     0.1308
 1618.0000    99.5951     7.2237     2.4914     0.0288  -999.2500     0.1353
 1618.5000    99.7245     7.2825     2.5161     0.0144  -999.2500     0.1639
 1619.0000    99.7164     7.1618     2.5356     0.0028  -999.2500     0.1837
 1619.5000    99.7090     7.0712     2.5439     0.0063  -999.2500     0.1895
