~VERSION INFORMATION
 VERS.                2.0:   CWLS LOG ASCII STANDARD - VERSION 2.0
 WRAP.                 NO:   ONE LINE PER DEPTH STEP
~WELL INFORMATION
#MNEM.UNIT      DATA TYPE    INFORMATION
#----------   ------------   ------------------------------
 STRT.F         1782.0000:   START DEPTH
 STOP.F         2281.0000:   STOP DEPTH
 STEP.F            0.5000:   STEP LENGTH
 NULL.          -999.2500:   NO VALUE
 COMP. BROWN JOHN E&C INC:   COMPANY
 WELL. NAVAL PETROLEUM RESERVE 3 STX- #64-3:   WELL
 FLD .            NATRONA:   FIELD
 LOC .       S3 T38N R78W:   LOCATION
 CNTY.            NATRONA:   COUNTY
 STAT.            WYOMING:   STATE
 CTRY. UNITED STATES OF AMERICA:   COUNTRY
 SRVC.            Unknown:   SERVICE COMPANY
 DATE.        12-JUN-1983:   LOGDATE
 API .       490251092800:   API NUMBER
~CURVE INFORMATION
#MNEM.UNIT       API CODE    CURVE DESCRIPTION
#----------   ------------   ------------------------------
 DEPT.F                  :   
 ROP .MIN/FT 91 810 01 00:   RATE OF DRILLING PENETRATION
 TGAS.UNITS  91 830 01 00:   TOTAL GAS FROM HOTWIRE
~PARAMETER INFORMATION
#MNEM.UNIT          VALUE    DESCRIPTION
#----------   ------------   ------------------------------
 EKB .F              5165:   KELLING BUSHING
 EGL .F              5155:   GROUND LEVEL
 DATE.            6-12-84:   RUN DATE
 DD  .F              2281:   DEPTH DRILLER
 BLI .F              2281:   BOTTOM LOG INTERVAL
 TLI .F              1780:   TOP LOG INTERVAL
 CS  .IN            9.625:   CASING SIZE
 TLAB.HRS            0202:   TIME LOGGER AT BOTTOM
 ENGI.              TOWER:   RECORDING ENGINEER
 WITN.               HUSK:   WITNESSED BY
 CLNT.            A2DTECH:   CLIENT CODE
 ORIG.     2.5", 5" PRINT:   ORIGIN OF DATA
 UWI .       490251092800:   UNIQUE WELL ID
 DICO. A2D Technologies, Inc.:   DIGITIZING COMPANY
~OTHER INFORMATION
~A  DEPT         ROP      TGAS  
# ...
 2146.5000     0.7405   148.0834
 2147.0000     0.7375   148.0896
 2147.5000     0.7342   148.0959
 2148.0000     0.7312   148.1021
 2148.5000     0.7281   148.1083
 2149.0000     0.7250   148.1145
 2149.5000     0.7221   148.1207
 2150.0000     0.7188   148.1270
 2150.5000     0.7153   148.1332
 2151.0000     0.6977   148.1394
 2151.5000     0.6822   148.1456
 2152.0000     0.6672   148.1518
 2152.5000     0.6830   148.1581
 2153.0000     0.6981   148.1643
 2153.5000     0.7145   148.1705
 2154.0000     0.7303   148.1767
 2154.5000     0.7461   148.1829
 2155.0000     0.7628   148.1891
 2155.5000     0.7776   148.1954
 2156.0000     0.7890   148.2016
 2156.5000     0.7538   148.2081
 2157.0000     0.7240   148.2167
 2157.5000     0.6919   148.2195
 2158.0000     0.6601   148.2262
 2158.5000     0.6288   148.2458
 2159.0000     0.5971   148.2271
 2159.5000     0.5655   148.1939
 2160.0000     0.5339   147.3936
 2160.5000     0.5024   146.7092
 2161.0000     0.4704   145.9776
 2161.5000     0.4395   145.2655
 2162.0000     0.4080   144.5480
 2162.5000     0.3736   143.7935
 2163.0000     0.3842   143.3941
 2163.5000     0.4232   143.4293
 2164.0000     0.4603   143.4309
 2164.5000     0.4976   143.4230
 2165.0000     0.5165   143.4275
 2165.5000     0.5151   143.4279
 2166.0000     0.5149   143.4273
 2166.5000     0.5154   143.4281
 2167.0000     0.5152   143.4281
 2167.5000     0.5147   143.4281
 2168.0000     0.5153   143.4281
 2168.5000     0.4914   143.4281
 2169.0000     0.4569   143.4281
 2169.5000     0.4251   143.4281
 2170.0000     0.3927   143.4281
 2170.5000     0.4282   143.4281
 2171.0000     0.4648   143.4281
 2171.5000     0.5050   143.4281
 2172.0000     0.5466   143.4281
 2172.5000     0.5587   143.4281
 2173.0000     0.5366   143.4281
 2173.5000     0.5170   143.4281
 2174.0000     0.4979   143.4281
 2174.5000     0.4777   143.4281
 2175.0000     0.4583   143.4281
 2175.5000     0.4403   143.4281
 2176.0000     0.4377   143.4281
 2176.5000     0.4353   143.4281
 2177.0000     0.4335   143.4281
 2177.5000     0.4315   143.4281
 2178.0000     0.4294   143.4281
 2178.5000     0.4274   143.4281
 2179.0000     0.4254   143.4281
 2179.5000     0.4234   143.4281
 2180.0000     0.4212   143.4281
 2180.5000     0.4194   143.4281
 2181.0000     0.4174   143.4281
 2181.5000     0.4143   143.4281
 2182.0000     0.4244   143.4281
 2182.5000     0.4421   143.4281
 2183.0000     0.4591   143.4281
 2183.5000     0.4759   143.4281
 2184.0000     0.4901   143.4281
 2184.5000     0.5009   143.4281
 2185.0000     0.5117   143.4281
 2185.5000     0.5049   143.4281
 2186.0000     0.4811   143.4281
 2186.5000     0.4649   143.4281
 2187.0000     0.4650   143.4284
 2187.5000     0.4640   143.4279
 2188.0000     0.4488   143.4280
 2188.5000     0.4336   143.4301
 2189.0000     0.4172   143.4070
 2189.5000     0.4021   143.3646
 2190.0000     0.3866   143.3238
 2190.5000     0.3680   143.2842
 2191.0000     0.3883   143.2436
 2191.5000     0.4363   143.2024
 2192.0000     0.4817   143.1634
 2192.5000     0.5088   143.1297
 2193.0000     0.4847   143.1580
 2193.5000     0.4612   143.1831
 2194.0000     0.4369   143.2106
 2194.5000     0.4151   143.2377
 2195.0000     0.4118   143.2644
 2195.5000     0.4086   143.2917
 2196.0000     0.4059   143.3183
 2196.5000     0.4031   143.3454
 2197.0000     0.4004   143.3734
 2197.5000     0.3977   143.3975
 2198.0000     0.3943   143.4240
 2198.5000     0.3927   143.3457
 2199.0000     0.3917   143.2587
 2199.5000     0.4254   143.1685
 2200.0000     0.4574   143.0797
 2200.5000     0.4493   142.9900
 2201.0000     0.4298   142.9018
 2201.5000     0.4094   142.8286
 2202.0000     0.3904   142.8423
 2202.5000     0.3706   142.8533
 2203.0000     0.3495   142.8670
 2203.5000     0.3432   142.8804
 2204.0000     0.3579   142.8932
 2204.5000     0.3712   142.9065
 2205.0000     0.3842   142.9196
 2205.5000     0.3978   142.9327
 2206.0000     0.4110   142.9458
 2206.5000     0.4244   142.9589
 2207.0000     0.4382   142.9720
 2207.5000     0.4505   142.9850
 2208.0000     0.4633   142.9981
 2208.5000     0.4411   143.0112
 2209.0000     0.4178   143.0243
 2209.5000     0.3931   143.0374
 2210.0000     0.3689   143.0505
 2210.5000     0.3445   143.0636
 2211.0000     0.3205   143.0766
 2211.5000     0.2964   143.0897
 2212.0000     0.2705   143.1028
 2212.5000     0.2755   143.1159
 2213.0000     0.2979   143.1290
 2213.5000     0.3190   143.1421
 2214.0000     0.3392   143.1552
 2214.5000     0.3601   143.1682
 2215.0000     0.3808   143.1813
 2215.5000     0.4014   143.1944
 2216.0000     0.4222   143.2075
 2216.5000     0.4429   143.2206
 2217.0000     0.4633   143.2337
 2217.5000     0.4842   143.2467
 2218.0000     0.4845   143.2598
 2218.5000     0.4758   143.2729
 2219.0000     0.4673   143.2860
 2219.5000     0.4591   143.2991
 2220.0000     0.4507   143.3122
 2220.5000     0.4424   143.3253
 2221.0000     0.4340   143.3383
 2221.5000     0.4257   143.3514
 2222.0000     0.4181   143.3644
 2222.5000     0.4056   143.3777
 2223.0000     0.3899   143.3907
 2223.5000     0.3747   143.4033
 2224.0000     0.3670   143.4174
 2224.5000     0.3771   143.4302
 2225.0000     0.3868   143.4688
 2225.5000     0.3968   143.5024
 2226.0000     0.4070   143.5377
 2226.5000     0.4169   143.5728
 2227.0000     0.4268   143.6075
 2227.5000     0.4369   143.6425
 2228.0000     0.4351   143.6775
 2228.5000     0.4280   143.7124
 2229.0000     0.4210   143.7473
 2229.5000     0.4141   143.7823
 2230.0000     0.4072   143.8172
 2230.5000     0.4003   143.8521
 2231.0000     0.3934   143.8870
 2231.5000     0.3864   143.9220
 2232.0000     0.3795   143.9569
 2232.5000     0.3729   143.9918
 2233.0000     0.3660   144.0267
 2233.5000     0.3792   144.0617
 2234.0000     0.3989   144.0966
 2234.5000     0.4189   144.1315
 2235.0000     0.4380   144.1666
 2235.5000     0.4579   144.2016
 2236.0000     0.4791   144.2362
 2236.5000     0.4847   144.2716
 2237.0000     0.4647   144.3074
 2237.5000     0.4462   144.3207
 2238.0000     0.4279   144.2822
 2238.5000     0.4094   144.2452
 2239.0000     0.3909   144.2075
 2239.5000     0.3717   144.1694
 2240.0000     0.3638   144.1321
 2240.5000     0.3644   144.0939
 2241.0000     0.3632   144.0554
 2241.5000     0.3806   144.0352
 2242.0000     0.4157   144.0543
 2242.5000     0.4515   144.0723
 2243.0000     0.4525   144.0906
 2243.5000     0.4224   144.1093
 2244.0000     0.3938   144.1276
 2244.5000     0.3680   144.1461
 2245.0000     0.3417   144.1645
 2245.5000     0.3665   144.1829
 2246.0000     0.3920   144.2014
 2246.5000     0.4194   144.2201
 2247.0000     0.4391   144.2397
 2247.5000     0.4366   144.2563
 2248.0000     0.4348   144.2760
 2248.5000     0.4325   144.3003
 2249.0000     0.4301   144.3049
 2249.5000     0.4279   144.3101
 2250.0000     0.4257   143.7724
 2250.5000     0.4233   143.2009
 2251.0000     0.4211   142.6112
 2251.5000     0.4190   142.0277
 2252.0000     0.4164   141.4460
 2252.5000     0.4140   140.8605
 2253.0000     0.4040   140.2782
 2253.5000     0.3952   139.6955
 2254.0000     0.3858   139.1065
 2254.5000     0.3767   138.5301
 2255.0000     0.3674   138.0247
 2255.5000     0.3577   138.0236
 2256.0000     0.3497   138.0190
 2256.5000     0.3411   138.0302
 2257.0000     0.3724   138.0386
 2257.5000     0.4077   138.0441
 2258.0000     0.4461   138.0520
 2258.5000     0.4635   138.0593
 2259.0000     0.4532   138.0662
 2259.5000     0.4452   138.0732
 2260.0000     0.4376   138.0801
 2260.5000     0.4292   138.0870
 2261.0000     0.4213   138.0939
 2261.5000     0.4149   138.1009
 2262.0000     0.4177   138.1078
 2262.5000     0.4201   138.1147
 2263.0000     0.4227   138.1216
 2263.5000     0.4253   138.1286
 2264.0000     0.4279   138.1355
 2264.5000     0.4306   138.1424
 2265.0000     0.4329   138.1494
 2265.5000     0.4356   138.1563
 2266.0000     0.4393   138.1632
 2266.5000     0.4286   138.1702
 2267.0000     0.3985   138.1771
 2267.5000     0.3714   138.1840
