~VERSION INFORMATION
 VERS.                2.0:   CWLS LOG ASCII STANDARD - VERSION 2.0
 WRAP.                 NO:   ONE LINE PER DEPTH STEP
~WELL INFORMATION
#MNEM.UNIT      DATA TYPE    INFORMATION
#----------   ------------   ------------------------------
 STRT.F           31.0000:   START DEPTH
 STOP.F          662.0000:   STOP DEPTH
 STEP.F            0.5000:   STEP LENGTH
 NULL.          -999.2500:   NO VALUE
 COMP. FENIX & SCISSON INC:   COMPANY
 WELL.   NPR-3 #83SX15-15:   WELL
 FLD .             TEAPOT:   FIELD
 LOC .      S15 T38N R78W:   LOCATION
 CNTY.            NATRONA:   COUNTY
 STAT.            WYOMING:   STATE
 CTRY. UNITED STATES OF AMERICA:   COUNTRY
 SRVC.            Unknown:   SERVICE COMPANY
 DATE.        17-MAY-1978:   LOGDATE
 API .       490251062500:   API NUMBER
~CURVE INFORMATION
#MNEM.UNIT       API CODE    CURVE DESCRIPTION
#----------   ------------   ------------------------------
 DEPT.F                  :   
 SN  .OHMM   07 040 16 00:   SHORT NORMAL 16'
 ILD .OHMM   07 120 46 00:   INDUCTION LOG DEEP
 CALD.IN     45 280 60 00:   CALIPER
 GRD .GAPI   45 310 01 00:   GAMMA RAY FROM DENSITY LOG
 RHOB.G/C3   45 350 01 00:   BULK DENSITY
 DPHI.DEC    45 890 10 00:   DENSITY POROSITY SANDSTONE
 CORR.G/C3   45 356 01 00:   DENSITY CORRECTION
~PARAMETER INFORMATION
#MNEM.UNIT          VALUE    DESCRIPTION
#----------   ------------   ------------------------------
 PD  .                 GL:   PERMANENT DATUM
 EPD .F              5265:   ELEVATION PERMANENT DATUM
 LMF .                 KB:   LOG MEASURED FROM
 DMF .                 KB:   DRILLING MEASURED FROM
 EKB .F              5269:   KELLING BUSHING
 EGL .F              5265:   GROUND LEVEL
 DATE.          5-17-1978:   RUN DATE
 RUN .                  1:   RUN NUMBER
 DD  .F               670:   DEPTH DRILLER
 DL  .F               668:   DEPTH LOGGER
 BLI .F               662:   BOTTOM LOG INTERVAL
 TLI .F                40:   TOP LOG INTERVAL
 CS  .IN            8.625:   CASING SIZE
 CBD .F                40:   CASING BOTTOM DRILLER
 BS  .IN            7.875:   BIT SIZE
 BSD .F               670:   BIT SIZE AT DEPTH
 DFT .                KCL:   DRILLING FLUID TYPE
 DFD .                8.6:   DRILLING FLUID DENSITY
 DFV .                 31:   DRILLING FLUID VISCOSITY
 DFPH.                 10:   DRILLING FLUID PH
 BHT .F                75:   BOTTOM HOLE TEMPERATURE
 TCS .HRS               2:   TIME CURCULATED STOPPED
 MRT .F                75:   MAXIMUM RECORDED TEMPERATURE
 LUN .               3006:   LOGGING UNIT NUMBER
 LUL .                CPR:   LOGGING UNIT LOCATION
 ENGI.             MILLER:   RECORDING ENGINEER
 WITN.           MCGINLEY:   WITNESSED BY
 CLNT.            A2DTECH:   CLIENT CODE
 ORIG.      2" & 5" PRINT:   ORIGIN OF DATA
 UWI .       490251062500:   UNIQUE WELL ID
 DICO. A2D Technologies, Inc.:   DIGITIZING COMPANY
~OTHER INFORMATION
~A   DEPT       SN        ILD       CALD         GRD      RHOB       DPHI       CORR   
# ...
  577.0000     9.8674    10.6422     7.0752    64.2469     2.4569     0.1314     0.0450
  577.5000     9.8702    10.6422     7.0781    62.1416     2.4571     0.1298     0.0448
  578.0000     9.8731    10.6422     7.0818    61.2436     2.4553     0.1355     0.0396
  578.5000     9.8760    10.6422     7.1219    61.1022     2.4503     0.1409     0.0343
  579.0000     9.8789    10.6422     7.1666    60.8508     2.4485     0.1393     0.0326
  579.5000     9.8817    10.6420     7.2151    59.9864     2.4479     0.1388     0.0319
  580.0000     9.8846    10.6280     7.1023    59.0332     2.4473     0.1409     0.0313
  580.5000     9.8862    10.5923     7.0617    58.0681     2.4471     0.1401     0.0306
  581.0000     9.8862    10.5569     7.2052    57.8014     2.4477     0.1390     0.0300
  581.5000     9.8862    10.5216     7.4088    57.9710     2.4498     0.1366     0.0294
  582.0000     9.8857    10.4864     7.4294    58.6641     2.4541     0.1342     0.0297
  582.5000     9.9309    10.4514     7.4041    61.3413     2.4543     0.1338     0.0316
  583.0000     9.9869    10.4163     7.3783    63.6795     2.4547     0.1338     0.0334
  583.5000    10.0435    10.3816     7.3526    63.6603     2.4548     0.1338     0.0353
  584.0000    10.1004    10.3521     7.3211    63.6025     2.4511     0.1366     0.0371
  584.5000    10.1575    10.4479     7.2776    63.5590     2.4473     0.1400     0.0389
  585.0000    10.2155    10.4479     7.1339    63.4514     2.4436     0.1434     0.0407
  585.5000    10.2586    10.6422     6.9783    63.0010     2.4398     0.1438     0.0439
  586.0000    10.4600    11.1504     6.8600    60.8167     2.4351     0.1475     0.0486
  586.5000    10.6934    11.8555     6.9647    58.4175     2.4295     0.1532     0.0548
  587.0000    10.9321    12.6019     7.1677    56.1727     2.4156     0.1590     0.0603
  587.5000    11.1761    13.3969     7.3712    55.8550     2.4091     0.1648     0.0677
  588.0000    11.4255    14.2422     7.5741    54.9945     2.4074     0.1670     0.0707
  588.5000    11.6805    15.1407     7.5999    52.7329     2.4181     0.1558     0.0823
  589.0000    11.9412    16.0960     7.5917    50.4456     2.4286     0.1441     0.0869
  589.5000    12.2078    17.1115     7.5835    49.7856     2.4549     0.1324     0.0845
  590.0000    12.4802    17.4997     7.5436    48.8134     2.4423     0.1297     0.0780
  590.5000    12.6774    17.6616     7.4762    47.1645     2.4381     0.1509     0.0696
  591.0000    12.5671    16.9115     7.4191    45.5258     2.4042     0.1676     0.0533
  591.5000    12.4316    15.9154     7.4228    44.4861     2.3772     0.1843     0.0488
  592.0000    12.3295    14.9761     7.3181    45.3575     2.3532     0.1998     0.0472
  592.5000    11.6178    14.0924     7.1891    46.8795     2.3351     0.2090     0.0485
  593.0000    10.9622    13.2590     7.1136    47.3555     2.3258     0.2150     0.0560
  593.5000    10.3436    12.4488     6.8029    47.5019     2.3318     0.2060     0.0633
  594.0000     9.9777    11.9522     6.7414    47.7890     2.3516     0.1960     0.0638
  594.5000     9.9153    11.4559     6.7632    48.8089     2.3670     0.1869     0.0645
  595.0000     9.8531    11.1437     6.8090    49.1963     2.3717     0.1862     0.0652
  595.5000     9.7913    10.8400     6.8986    50.6181     2.3739     0.1846     0.0665
  596.0000     9.7299    10.8329     6.9877    53.4613     2.3864     0.1763     0.0737
  596.5000     9.6688    10.8387     7.0403    52.6631     2.3899     0.1694     0.0739
  597.0000     9.6082    10.8968     6.9443    51.3344     2.3889     0.1725     0.0689
  597.5000     9.5479    10.9329     7.0348    51.9444     2.3862     0.1758     0.0649
  598.0000     9.4880    10.9691     7.1282    54.4835     2.3880     0.1752     0.0650
  598.5000     9.4285    11.0054     7.1853    55.9115     2.3906     0.1710     0.0650
  599.0000     9.3694    11.0419     7.2011    56.0177     2.3925     0.1722     0.0650
  599.5000     9.3106    11.0784     7.2028    56.5433     2.3852     0.1765     0.0662
  600.0000     9.2689    11.1151     7.1493    56.7050     2.3799     0.1782     0.0688
  600.5000     9.3047    11.1519     7.0903    55.3216     2.3780     0.1790     0.0700
  601.0000     9.3325    11.1889     7.0836    52.7509     2.3768     0.1804     0.0711
  601.5000     9.3604    11.2260     7.0816    50.1951     2.3763     0.1834     0.0723
  602.0000     9.3884    11.2516     7.1240    48.9574     2.3798     0.1801     0.0759
  602.5000     9.4165    11.2625     7.1972    50.4609     2.3832     0.1765     0.0840
  603.0000     9.4447    11.2733     7.2460    53.4817     2.3837     0.1730     0.0900
  603.5000     9.4730    11.2842     7.2571    56.4786     2.3804     0.1811     0.0924
  604.0000     9.5013    11.2951     7.2549    59.5569     2.3787     0.1842     0.0958
  604.5000     9.5297    11.3060     7.2458    57.9721     2.4019     0.1603     0.1192
  605.0000     9.5583    11.3169     7.2365    55.5717     2.4179     0.1510     0.1318
  605.5000     9.5869    11.3279     7.2273    55.5397     2.4318     0.1438     0.1305
  606.0000     9.6156    11.3388     7.2179    56.8436     2.4294     0.1555     0.1181
  606.5000     9.6443    11.3498     7.2087    58.0084     2.4161     0.1637     0.1059
  607.0000     9.6732    11.3607     7.2116    56.7594     2.4044     0.1658     0.0937
  607.5000     9.7021    11.3717     7.2779    54.7042     2.4027     0.1658     0.0815
  608.0000     9.7311    11.3827     7.3430    53.8777     2.4049     0.1641     0.0798
  608.5000     9.7603    11.3937     7.3768    53.0191     2.4103     0.1614     0.0787
  609.0000     9.7895    11.4047     7.3671    52.9077     2.4158     0.1587     0.0775
  609.5000     9.8188    11.4157     7.3598    53.5723     2.4198     0.1570     0.0745
  610.0000     9.8482    11.4267     7.3816    55.5505     2.4200     0.1585     0.0702
  610.5000     9.8776    11.4377     7.4054    56.9990     2.4292     0.1455     0.0660
  611.0000     9.9072    11.4491     7.4296    57.2292     2.4384     0.1427     0.0618
  611.5000     9.9368    11.4818     7.4308    57.8527     2.4470     0.1402     0.0576
  612.0000     9.9665    11.5540     7.4134    58.6047     2.4479     0.1409     0.0562
  612.5000     9.9964    11.6267     7.3856    58.1161     2.4463     0.1435     0.0553
  613.0000    10.0263    11.6998     7.3985    56.8714     2.4479     0.1401     0.0545
  613.5000    10.0563    11.7734     7.4181    56.5223     2.4506     0.1361     0.0536
  614.0000    10.0864    11.8474     7.3979    57.2914     2.4525     0.1350     0.0522
  614.5000    10.1165    11.9219     7.3711    58.8676     2.4479     0.1408     0.0500
  615.0000    10.1468    11.9969     7.3442    58.5734     2.4394     0.1470     0.0505
  615.5000    10.1632    12.0723     7.3201    58.4897     2.4337     0.1493     0.0546
  616.0000    10.1524    12.1483     7.3279    60.1236     2.4334     0.1482     0.0586
  616.5000    10.1439    12.2247     7.3508    61.5542     2.4331     0.1450     0.0608
  617.0000    10.1354    12.3015     7.3733    60.9623     2.4303     0.1507     0.0601
  617.5000    10.1269    12.3319     7.3956    58.9022     2.4262     0.1535     0.0595
  618.0000    10.1184    12.2443     7.4331    56.8522     2.4247     0.1550     0.0610
  618.5000    10.1099    12.1825     7.4738    55.9157     2.4244     0.1528     0.0690
  619.0000    10.1014    12.1210     7.5147    56.1505     2.4240     0.1564     0.0708
  619.5000    10.0930    12.0599     7.5200    56.7549     2.4256     0.1531     0.0724
  620.0000    10.0845    11.9992     7.5097    58.7450     2.4279     0.1494     0.0739
  620.5000    10.0761    11.9387     7.4665    59.9233     2.4291     0.1501     0.0715
  621.0000    10.0661    11.8785     7.4251    58.4148     2.4295     0.1518     0.0623
  621.5000    10.0501    11.8187     7.3838    56.5060     2.4298     0.1494     0.0593
  622.0000    10.0346    11.7591     7.3425    55.9861     2.4295     0.1470     0.0562
