~VERSION INFORMATION
 VERS.                2.0:   CWLS LOG ASCII STANDARD - VERSION 2.0
 WRAP.                 NO:   ONE LINE PER DEPTH STEP
~WELL INFORMATION
#MNEM.UNIT      DATA TYPE    INFORMATION
#----------   ------------   ------------------------------
 STRT.F           30.0000:   START DEPTH
 STOP.F          481.0000:   STOP DEPTH
 STEP.F            0.5000:   STEP LENGTH
 NULL.          -999.2500:   NO VALUE
 COMP. FENIX & SCISSON INC:   COMPANY
 WELL.       NPR-3 #47-10:   WELL
 FLD .             TEAPOT:   FIELD
 LOC .      S10 T38N R78W:   LOCATION
 CNTY.            NATRONA:   COUNTY
 STAT.            WYOMING:   STATE
 CTRY. UNITED STATES OF AMERICA:   COUNTRY
 SRVC.           BIRDWELL:   SERVICE COMPANY
 DATE.        16-JUN-1978:   LOGDATE
 API .       490251064800:   API NUMBER
~CURVE INFORMATION
#MNEM.UNIT       API CODE    CURVE DESCRIPTION
#----------   ------------   ------------------------------
 DEPT.F                  :   
 SPR .MV     05 010 01 00:   SPONTANEOUS POTENTIAL FROM RES.
 SN  .OHMM   05 040 16 00:   SHORT NORMAL 16"
 ILD .OHMM   05 120 46 00:   INDUCTION LOG DEEP
 CALD.IN     45 280 60 00:   CALIPER FROM DENSITY LOG
 GRD .GAPI   45 310 01 00:   GAMMA RAY FROM DENSITY LOG
 CORR.G/C3   45 356 01 00:   DENSITY CORRECTION
 DPHI.DEC    45 890 12 00:   DENSITY POROSITY SANDSTONE
 DEN .G/C3   45 350 01 00:   COMPENSATED BULK DENSITY
~PARAMETER INFORMATION
#MNEM.UNIT          VALUE    DESCRIPTION
#----------   ------------   ------------------------------
 PD  .                 GL:   PERMANENT DATUM
 EPD .F              5200:   ELEVATION PERMANENT DATUM
 LMF .                 KB:   LOG MEASURED FROM
 DAPD.F                 4:   FEET ABOVE PERMANENT DATUM
 DMF .                 KB:   DRILLING MEASURED FROM
 EKB .F              5204:   KELLING BUSHING
 EGL .F              5200:   GROUND LEVEL
 DATE.        16-JUN-1978:   RUN DATE
 RUN .                  1:   RUN NUMBER
 DD  .F               513:   DEPTH DRILLER
 DL  .F               481:   DEPTH LOGGER
 BLI .F               475:   BOTTOM LOG INTERVAL
 TLI .F                40:   TOP LOG INTERVAL
 CS  .IN            8.625:   CASING SIZE
 CBD .F                40:   CASING BOTTOM DRILLER
 CBL .F                40:   CASING BOTTOM LOGGER
 BS  .IN            7.875:   BIT SIZE
 BSD .F               513:   BIT SIZE AT DEPTH
 DFT .                KCL:   DRILLING FLUID TYPE
 DFD .                8.6:   DRILLING FLUID DENSITY
 DFV .                 30:   DRILLING FLUID VISCOSITY
 DFPH.                 10:   DRILLING FLUID PH
 DFL .                 16:   DRILLING FLUID LOSS
 MSS .           FLOWLINE:   MUD SAMPLE SOURCE
 RMS .OHMM            .36:   RESISTIVITY MUD SAMPLE
 MST .F                72:   MUD SAMPLE TEMPERATURE
 RMF .OHMM            .34:   RESISTIVITY MUD FILTRATE SAMPLE
 MFST.F                70:   MUD FILTRATE SAMPLE TEMPERATURE
 RMC .OHMM            .52:   RESISTIVITY MUD CAKE
 MCST.F                72:   MUD CAKE SAMPLE TEMPERATURE
 MFSS.               MEAS:   MUD FILTRATE SAMPLE SOURCE
 MCSS.               MEAS:   MUD CAKE SAMPLE SOURCE
 RMB .OHMM            .32:   RESISTIVITY MUD AT BHT
 BHT .F                82:   BOTTOM HOLE TEMPERATURE
 TCS .HRS            0400:   TIME CURCULATED STOPPED
 MRT .F                82:   MAXIMUM RECORDED TEMPERATURE
 LUN .               2958:   LOGGING UNIT NUMBER
 LUL .               CASP:   LOGGING UNIT LOCATION
 ENGI.           REYNOLDS:   RECORDING ENGINEER
 WITN.           MCGINLEY:   WITNESSED BY
 CLNT.            A2DTECH:   CLIENT CODE
 ORIG.           5" PRINT:   ORIGIN OF DATA
 UWI .       490251064800:   UNIQUE WELL ID
 DICO. A2D Technologies, Inc.:   DIGITIZING COMPANY
~OTHER INFORMATION
~A   DEPT      SPR         SN        ILD       CALD         GRD      CORR       DPHI        DEN   
# ...
  273.0000   -54.4235     6.3167     5.6377     7.3450   108.3799     0.0226     0.1556     2.4171
  273.5000   -54.8755     5.9338     5.4440     7.3320   107.4976     0.0168     0.1654     2.3978
  274.0000   -55.3274     5.5741     5.2208     7.2884   103.4810     0.0109     0.1669     2.3963
  274.5000   -55.6292     5.2363     4.9722     7.2307   101.4047     0.0066     0.1759     2.3795
  275.0000   -56.0811     4.8514     4.7029     7.1429   103.9552     0.0082     0.1917     2.3373
  275.5000   -56.3829     4.4331     4.4175     7.0849   104.8640     0.0128     0.2045     2.3158
  276.0000   -56.3844     3.9953     4.0848     7.0417   104.5432     0.0263     0.2150     2.2995
  276.5000   -56.3859     3.5759     3.7064     6.9985   103.3865     0.0488     0.2299     2.2569
  277.0000   -56.2373     3.1785     3.3236     6.9405    96.2503     0.0519     0.2533     2.2488
  277.5000   -56.2387     2.8646     2.8935     6.9419    95.5172     0.0520     0.2608     2.2481
  278.0000   -56.0901     2.5817     2.6806     6.9435    91.6499     0.0462     0.2632     2.2504
  278.5000   -56.0916     2.2168     2.6419     6.9452    89.8688     0.0269     0.2588     2.2684
  279.0000   -56.0821     1.9842     2.6054     6.9314    93.6166     0.0062     0.2442     2.3073
  279.5000   -55.7789     1.8768     2.6043     6.9630    98.4060     0.0212     0.2130     2.3694
  280.0000   -55.4754     1.8125     2.6419     6.8306   106.4789     0.0183     0.1744     2.3762
  280.5000   -54.6972     1.8755     2.7153     6.8019   111.1190     0.0065     0.1531     2.4211
  281.0000   -54.4474     2.2284     2.8413     6.8038   109.1920     0.0081     0.1528     2.4294
  281.5000   -54.2991     2.4893     3.2882     6.8052   107.5634     0.0097     0.1516     2.4355
  282.0000   -54.0003     3.1549     3.9066     6.8364   106.9796     0.0114     0.1387     2.4506
  282.5000   -53.7011     3.8442     4.2720     6.8974   106.8433     0.0117     0.1363     2.4535
  283.0000   -53.4023     3.9865     4.5129     6.9584   109.8419     0.0131     0.1318     2.4536
  283.5000   -53.4041     4.7400     4.8005     6.9599   112.2463     0.0132     0.1359     2.4515
  284.0000   -53.5558     5.1006     5.0363     6.9762   112.4060     0.0148     0.1386     2.4500
  284.5000   -53.5573     5.2427     5.1753     6.9926   110.7358     0.0164     0.1356     2.4493
  285.0000   -53.7089     5.3814     5.2815     7.0387   111.5400     0.0195     0.1359     2.4457
  285.5000   -53.7104     5.4539     5.3165     7.0848   114.6875     0.0271     0.1361     2.4375
  286.0000   -53.8620     5.4903     5.2772     7.1043   116.6377     0.0645     0.1557     2.4196
  286.5000   -53.8635     5.5643     5.1668     7.2516   114.1170     0.1063     0.1576     2.4122
  287.0000   -53.8650     5.6403     4.9893     7.1191   114.2795     0.0468     0.1633     2.4138
  287.5000   -53.8665     5.6379     4.8513     7.0759   116.8300     0.0067     0.1639     2.4482
  288.0000   -53.8680     5.2597     4.7498     7.1518   117.7355     0.0158     0.1330     2.4154
  288.5000   -54.0197     4.9069     4.6827     7.1235   109.3938     0.0263     0.1791     2.4207
  289.0000   -54.0211     4.6414     4.5847     7.1845   109.7055     0.0264     0.1512     2.4298
  289.5000   -54.1728     4.6083     4.4888     7.1860   110.7635     0.0280     0.1395     2.4463
  290.0000   -54.0238     4.6708     4.3647     7.1283   111.0720     0.0312     0.1276     2.4660
  290.5000   -53.8751     4.7011     4.4543     7.0702   110.1925     0.0344     0.1239     2.4749
  291.0000   -53.7264     4.8647     4.6409     7.1014   110.0567     0.0389     0.1233     2.4779
  291.5000   -53.2778     5.0689     4.9709     7.1029   110.5180     0.0405     0.1227     2.4787
  292.0000   -52.9790     5.2453     5.2512     7.1490   111.2895     0.0495     0.1221     2.4795
  292.5000   -52.6802     5.5033     5.5092     7.1356   112.6343     0.0735     0.1203     2.4758
  293.0000   -52.5316     5.7741     5.7005     7.1371   112.0863     0.0319     0.1286     2.4699
  293.5000   -52.3829     5.9338     5.8984     7.1385   109.3769     0.0141     0.1118     2.4762
  294.0000   -52.0841     6.0980     6.0612     7.1549   113.2740     0.0097     0.0995     2.5067
  294.5000   -51.9354     6.3540     6.2285     7.1873   108.2126     0.0188     0.1289     2.4694
  295.0000   -51.9369     6.6665     6.3126     7.6190   107.6288     0.0219     0.1260     2.4702
  295.5000   -52.0886     6.8516     6.3537     7.3229   106.1462     0.0280     0.1201     2.4703
  296.0000   -52.2543     7.0406     6.3951     7.3396   110.1926     0.0311     0.1243     2.4703
  296.5000   -52.3918     7.0382     6.3924     7.3559   111.1014     0.0312     0.1269     2.4704
  297.0000   -52.3934     7.0358     6.3830     7.4169   111.5624     0.0343     0.1212     2.4690
  297.5000   -52.3949     7.0333     6.3432     7.4779   111.5756     0.0374     0.1185     2.4556
  298.0000   -52.3967     6.9825     6.2530     7.5984   111.7381     0.0528     0.1335     2.4534
  298.5000   -52.2480     6.9321     6.2074     7.6144   111.7513     0.0728     0.1343     2.4497
  299.0000   -52.2495     6.8346     6.0357     7.3633   111.7646     0.1093     0.1415     2.4319
  299.5000   -52.2510     6.7852     5.9094     7.6326   111.7778     0.1333     0.1525     2.4303
  300.0000   -52.0494     6.6437     5.8669     7.7622   111.7910     0.1535     0.1482     2.4335
  300.5000   -51.4146     6.5375     5.9001     7.8589   111.8030     0.2351     0.1462     2.4252
  301.0000   -51.2094     6.4558     5.9307     7.4376   111.8149     0.2380     0.1579     2.4178
  301.5000   -51.2150     6.2812     5.9904     7.1735   111.8277     0.0750     0.1665     2.4142
  302.0000   -51.3697     6.2795     6.0323     7.0575   111.8396     0.0475     0.1333     2.4780
  302.5000   -51.8246     6.2777     6.1511     7.0305   111.8515     0.0480     0.1249     2.4831
  303.0000   -51.9792     6.3196     6.1925     7.0318   111.8634     0.0747     0.1144     2.4839
  303.5000   -52.1339     6.4945     6.1909     7.0356   112.0246     0.0792     0.1195     2.4857
  304.0000   -52.1383     6.7209     6.2329     7.0819   111.8843     0.0808     0.1012     2.5141
  304.5000   -52.1428     6.9553     6.1884     7.1403   111.8991     0.0773     0.0922     2.5178
  305.0000   -52.2974     7.0990     6.1871     6.9333   113.8513     0.0597     0.0902     2.5227
  305.5000   -52.3019     7.2960     6.1858     6.9495   119.6841     0.0461     0.0889     2.5284
  306.0000   -52.3064     7.4984     6.1846     6.9508   118.8005     0.0098     0.0942     2.5134
  306.5000   -52.3109     7.6011     6.1833     6.9522   117.6184     0.0010     0.1029     2.5068
  307.0000   -52.3154     7.3914     6.1395     6.9383   114.9437     0.0012     0.1110     2.5023
  307.5000   -52.3199     7.2378     6.0959     6.9697   110.6273     0.0043     0.1178     2.4710
  308.0000   -52.1742     7.1860     6.0527     6.9859   110.4895     0.0283     0.1268     2.4472
  308.5000   -52.1787     7.1840     6.0515     6.9724   110.0540     0.0269     0.1366     2.4412
  309.0000   -52.3333     7.2323     6.0502     6.9737   105.5883     0.0330     0.1417     2.4263
  309.5000   -52.4880     7.3818     6.0909     6.9750   104.8418     0.0465     0.1504     2.4264
  310.0000   -53.2433     7.4309     6.1322     6.9764   111.1345     0.1122     0.1548     2.4190
  310.5000   -53.7112     7.3773     6.0884     6.9777   111.3113     0.0587     0.1581     2.4160
  311.0000   -53.8528     7.3245     6.0453     6.9790   110.7105     0.0558     0.1608     2.4266
  311.5000   -53.8573     7.2220     6.0024     6.9804   111.1702     0.0560     0.1389     2.5014
  312.0000   -53.8619     7.1209     5.8376     7.0115   120.7344     0.0561     0.1395     2.4342
  312.5000   -53.8664     6.9729     5.5608     7.0277   122.3881     0.0533     0.1398     2.4342
  313.0000   -54.0210     6.7810     5.2607     7.0290   119.4047     0.0341     0.1398     2.4335
