~VERSION INFORMATION
 VERS.                2.0:   CWLS LOG ASCII STANDARD - VERSION 2.0
 WRAP.                 NO:   ONE LINE PER DEPTH STEP
~WELL INFORMATION
#MNEM.UNIT      DATA TYPE    INFORMATION
#----------   ------------   ------------------------------
 STRT.F           32.0000:   START DEPTH
 STOP.F          757.0000:   STOP DEPTH
 STEP.F            0.5000:   STEP LENGTH
 NULL.          -999.2500:   NO VALUE
 COMP. FENIX & SCISSON INC:   COMPANY
 WELL.     88 S 34 #88-34:   WELL
 FLD .             NPR #3:   FIELD
 LOC .      S34 T39N R78W:   LOCATION
 CNTY.            NATRONA:   COUNTY
 STAT.            WYOMING:   STATE
 CTRY. UNITED STATES OF AMERICA:   COUNTRY
 SRVC.              Welex:   SERVICE COMPANY
 DATE.        10-MAY-1977:   LOGDATE
 API .       490251035800:   API NUMBER
~CURVE INFORMATION
#MNEM.UNIT       API CODE    CURVE DESCRIPTION
#----------   ------------   ------------------------------
 DEPT.F                  :   
 GURD.OHMM   07 220 05 00:   SHALLOW GUARD RESISTIVITY
 ILD .OHMM   07 120 46 00:   INDUCTION LOG DEEP
 ILM .OHMM   07 120 44 00:   INDUCTION LOG MEDIUM
 SPR .MV     07 010 01 00:   SPONTANEOUS POTENTIAL FROM RES.
 CALD.IN     45 280 60 00:   CALIPER FROM DENSITY LOG
 CORR.G/C3   45 356 01 00:   DENSITY CORRECTION
 DPHI.DEC    45 890 12 00:   DENSITY POROSITY SANDSTONE
 GRD .GAPI   45 310 01 00:   GAMMA RAY FROM DENSITY LOG
 RHOB.G/C3   45 350 01 00:   BULK DENSITY
~PARAMETER INFORMATION
#MNEM.UNIT          VALUE    DESCRIPTION
#----------   ------------   ------------------------------
 PD  .                 GL:   PERMANENT DATUM
 EPD .F              5094:   ELEVATION PERMANENT DATUM
 LMF .                 GL:   LOG MEASURED FROM
 DMF .                 GL:   DRILLING MEASURED FROM
 EGL .F              5094:   GROUND LEVEL
 DATE.        10-MAY-1977:   RUN DATE
 RUN .                  1:   RUN NUMBER
 DD  .F               760:   DEPTH DRILLER
 DL  .F               759:   DEPTH LOGGER
 BLI .F               757:   BOTTOM LOG INTERVAL
 TLI .F                30:   TOP LOG INTERVAL
 CS  .IN            8.625:   CASING SIZE
 CBD .F                40:   CASING BOTTOM DRILLER
 CBL .F                45:   CASING BOTTOM LOGGER
 BS  .IN            7.875:   BIT SIZE
 BSD .F               760:   BIT SIZE AT DEPTH
 DFT .            KCL MUD:   DRILLING FLUID TYPE
 DFD .                9.0:   DRILLING FLUID DENSITY
 DFV .                 33:   DRILLING FLUID VISCOSITY
 DFPH.                7.5:   DRILLING FLUID PH
 DFL .                7.4:   DRILLING FLUID LOSS
 MSS .           FLOWLINE:   MUD SAMPLE SOURCE
 RMS .OHMM           0.33:   RESISTIVITY MUD SAMPLE
 MST .F                70:   MUD SAMPLE TEMPERATURE
 RMF .OHMM           0.28:   RESISTIVITY MUD FILTRATE SAMPLE
 MFST.F                70:   MUD FILTRATE SAMPLE TEMPERATURE
 RMC .OHMM           0.40:   RESISTIVITY MUD CAKE
 MCST.F                70:   MUD CAKE SAMPLE TEMPERATURE
 MFSS.           FANN KIT:   MUD FILTRATE SAMPLE SOURCE
 MCSS.           FANN KIT:   MUD CAKE SAMPLE SOURCE
 RMB .OHMM           0.26:   RESISTIVITY MUD AT BHT
 BHT .F                86:   BOTTOM HOLE TEMPERATURE
 TCS .HRS             1.5:   TIME CURCULATED STOPPED
 MRT .F                86:   MAXIMUM RECORDED TEMPERATURE
 LUN .               8611:   LOGGING UNIT NUMBER
 LUL .             CASPER:   LOGGING UNIT LOCATION
 ENGI.            C. DOAK:   RECORDING ENGINEER
 WITN.         D. RHOADES:   WITNESSED BY
 CLNT.            A2DTECH:   CLIENT CODE
 ORIG.           5" PRINT:   ORIGIN OF DATA
 UWI .       490251035800:   UNIQUE WELL ID
 DICO. A2D Technologies, Inc.:   DIGITIZING COMPANY
~OTHER INFORMATION
~A   DEPT     GURD        ILD        ILM        SPR         CALD      CORR      DPHI         GRD        RHOB 
# ...
  214.5000     8.9344     6.6336     7.9283   -32.7010     7.9084    -0.0106     0.1831   125.1188     2.3749
  215.0000     8.6926     6.7327     8.0397   -32.6974     7.8486    -0.0105     0.1843   124.6698     2.3713
  215.5000     8.5746     6.8707     8.1527   -32.6945     7.8337    -0.0089     0.1840   119.2658     2.3721
  216.0000     8.9398     7.0164     8.2103   -32.8407     7.8489    -0.0073     0.1816   118.5165     2.3736
  216.5000     9.3200     7.1159     8.2683   -32.8370     7.8790    -0.0028     0.1777   120.6204     2.3766
  217.0000     9.5832     7.1671     8.4426   -32.6851     7.8942     0.0004     0.1690   118.5197     2.3854
  217.5000     9.6520     7.2187     8.5613   -32.6822     7.9093     0.0049     0.1630   120.9235     2.4007
  218.0000     9.4559     7.2206     8.7418   -32.5303     7.9095     0.0065     0.1581   121.9760     2.4127
  218.5000     9.3280     7.2726     8.8649   -32.5274     7.9096     0.0080     0.1539   121.1427     2.4187
  219.0000     9.6578     7.2245     8.9894   -32.3755     7.9098     0.0096     0.1533   115.5227     2.4232
  219.5000    10.1384     7.1273     9.1157   -32.2183     7.9099     0.0097     0.1536   119.4281     2.4210
  220.0000    10.3529     7.1297     9.1802   -32.0710     7.9101     0.0098     0.1533   117.9280     2.4218
  220.5000    10.2785     7.0825     9.2450   -31.9190     7.9102     0.0083     0.1530   114.9204     2.4225
  221.0000    10.0053     7.0844     9.2463   -31.7671     7.9103     0.0069     0.1527   114.0269     2.4248
  221.5000     9.7350     7.0375     9.1206   -31.6152     7.9105     0.0055     0.1542   117.3320     2.4263
  222.0000     9.4063     6.9903     8.8735   -31.4633     7.9107     0.0056     0.1557   121.3875     2.4188
  222.5000     9.1517     6.9447     8.7526   -31.1623     7.8808     0.0071     0.1560   120.6382     2.4188
  223.0000     8.8427     6.8988     8.6935   -30.8614     7.8659     0.0102     0.1557   119.3844     2.4196
  223.5000     8.6631     6.9011     8.6348   -30.8584     7.8661     0.0118     0.1521   118.6891     2.4226
  224.0000     8.6680     6.9029     8.6362   -30.8549     7.8663     0.0149     0.1509   120.6428     2.4286
  224.5000     8.7270     6.9046     8.6972   -30.8520     7.8814     0.0164     0.1536   121.6953     2.4249
  225.0000     8.8503     6.9066     8.6984   -30.7750     7.8816     0.0180     0.1560   122.4474     2.4197
  225.5000     8.9752     6.9085     8.6996   -30.6505     7.8817     0.0211     0.1559   118.9958     2.4159
  226.0000     9.1019     6.9104     8.6408   -30.5453     7.8819     0.0242     0.1472   117.0452     2.4287
  226.5000     9.3589     6.9126     8.4067   -30.5424     7.8820     0.0242     0.1430   115.9956     2.4402
  227.0000     9.3676     6.9145     8.0664   -30.5395     7.8522     0.0258     0.1400   115.5466     2.4438
  227.5000     8.9804     6.9163     7.7935   -30.6857     7.7924     0.0259     0.1394   115.7132     2.4400
  228.0000     8.8609     6.8701     7.6346   -30.6820     7.7925     0.0214     0.1440   116.1504     2.4348
  228.5000     8.7410     6.8247     7.5309   -30.6796     7.8226     0.0155     0.1478   117.0527     2.4325
  229.0000     8.8649     6.7925     7.6438   -30.6763     7.8678     0.0096     0.1550   117.9550     2.4213
  229.5000     9.0524     6.7818     7.9613   -30.8231     7.9279     0.0067     0.1622   118.8574     2.4070
  230.0000     9.2438     6.7837     8.1855   -31.1183     7.9730     0.0037     0.1679   119.0089     2.3980
  230.5000     9.3743     6.7858     8.3005   -31.4128     7.9732     0.0008     0.1670   117.8095     2.4011
  231.0000     9.4412     6.7877     8.4168   -31.7079     7.9584     0.0039     0.1622   116.7599     2.4071
  231.5000     9.4432     6.7895     8.2452   -31.7043     7.9285     0.0100     0.1574   116.4610     2.4116
  232.0000     9.1880     6.7913     8.2466   -31.8512     7.8687     0.0130     0.1541   117.0631     2.4169
  232.5000     8.8778     6.7931     8.1909   -31.9973     7.8238     0.0116     0.1537   117.6654     2.4214
  233.0000     8.8180     6.8429     8.2565   -32.2918     7.7940     0.0072     0.1584   117.6668     2.4162
  233.5000     8.7590     6.8913     8.4230   -32.2889     7.7942     0.0043     0.1661   117.9686     2.4055
  234.0000     8.8831     6.9413     8.5413   -32.4352     7.8093     0.0045     0.1673   119.7838     2.3997
  234.5000     9.0085     6.9431     8.6017   -32.5812     7.8394     0.0074     0.1634   117.9714     2.4064
  235.0000     9.2629     6.9931     8.6127   -32.7422     7.8546     0.0105     0.1594   119.9251     2.4140
  235.5000     9.5248     6.9950     8.5448   -33.0218     7.8711     0.0136     0.1539   121.1278     2.4222
  236.0000     9.9299     6.9969     8.4871   -33.0189     7.8849     0.0166     0.1498   120.0781     2.4284
  236.5000    10.2103     6.9987     8.3141   -33.1658     7.8850     0.0137     0.1495   118.8604     2.4320
  237.0000     9.9339     7.0006     8.2011   -33.1622     7.9094     0.0108     0.1510   117.6789     2.4208
  237.5000     9.5985     6.9543     8.0339   -33.1593     7.9153     0.0064     0.1576   118.5813     2.4088
  238.0000     9.2744     6.9083     7.8701   -33.3055     7.9155     0.0049     0.1652   119.6337     2.4043
  238.5000     8.8858     6.7689     7.7632   -33.4516     7.9156     0.0050     0.1663   120.0856     2.4028
  239.0000     8.4815     6.6779     7.6052   -33.2146     7.9157     0.0051     0.1663   120.3877     2.4021
  239.5000     8.3088     6.5427     7.6819   -33.2960     7.9159     0.0052     0.1675   121.1399     2.3991
  240.0000     8.1964     6.4103     7.7665   -33.2932     7.9161     0.0052     0.1675   121.5914     2.4021
  240.5000     8.1984     6.3211     7.8287   -33.2903     7.8862     0.0068     0.1662   120.8424     2.4021
  241.0000     8.0871     6.2390     7.9316   -33.1384     7.8864     0.0084     0.1627   118.8739     2.4014
  241.5000     8.1159     6.1978     7.9877   -33.1355     7.8865     0.0085     0.1597   116.4912     2.4104
  242.0000     8.2034     6.1998     8.0441   -33.1326     7.9016     0.0100     0.1573   115.2915     2.4172
  242.5000     8.3196     6.1584     8.1007   -33.1297     7.9018     0.0116     0.1591   114.6919     2.4181
  243.0000     8.4370     6.1605     7.9909   -33.4249     7.8869     0.0102     0.1609   114.6937     2.4134
  243.5000     8.5561     6.1621     7.9369   -33.4213     7.9171     0.0103     0.1617   115.5090     2.4097
  244.0000     8.5579     6.1649     7.7751   -33.4184     7.9172     0.0103     0.1620   117.2495     2.4090
  244.5000     8.5006     6.2082     7.6694   -33.5645     7.9174     0.0073     0.1662   117.8512     2.4045
  245.0000     8.3857     6.2102     7.6176   -33.5616     7.9176     0.0015     0.1710   116.5012     2.3925
  245.5000     8.2070     6.2982     7.5144   -33.5587     7.8877     0.0001     0.1698   116.3528     2.3918
  246.0000     8.0483     6.3875     7.4634   -33.5559     7.8879     0.0002     0.1674   116.5048     2.3955
  246.5000     8.0504     6.3892     7.4645   -33.5529     7.8880     0.0002     0.1665   116.6563     2.3880
  247.0000     8.1078     6.4798     7.5697   -33.5494     7.8732     0.0003     0.1782   116.9581     2.3813
  247.5000     8.2223     6.5264     7.6760   -33.5465     7.8733     0.0022     0.1740   117.5601     2.3888
  248.0000     8.5130     6.5989     7.7839   -33.3946     7.8735     0.0035     0.1698   120.6307     2.3956
  248.5000     8.9366     6.7597     7.8932   -33.3917     7.8736     0.0050     0.1629   123.7195     2.4031
  249.0000     9.2527     6.8083     8.0041   -33.3888     7.8888     0.0051     0.1545   122.5197     2.4123
  249.5000     9.3191     6.8573     8.0607   -33.0878     7.8889     0.0067     0.1536   121.4700     2.4242
  250.0000     9.2397     6.9541     8.0846   -32.7869     7.8943     0.0073     0.1518   124.0238     2.4302
  250.5000     9.0333     6.9075     8.1802   -32.6812     7.9187     0.0112     0.1482   122.3707     2.4362
