~VERSION INFORMATION
 VERS.                2.0:   CWLS LOG ASCII STANDARD - VERSION 2.0
 WRAP.                 NO:   ONE LINE PER DEPTH STEP
~WELL INFORMATION
#MNEM.UNIT      DATA TYPE    INFORMATION
#----------   ------------   ------------------------------
 STRT.M           36.0000:   START DEPTH
 STOP.M          687.0000:   STOP DEPTH
 STEP.M            0.5000:   STEP LENGTH
 NULL.          -999.2500:   NO VALUE
 COMP. LAWRENCE/ALLISON INC:   COMPANY
 WELL.    53-1-STX #15-15:   WELL
 FLD .             TEAPOT:   FIELD
 LOC .      S15 T38N R78W:   LOCATION
 CNTY.            NATRONA:   COUNTY
 STAT.            WYOMING:   STATE
 CTRY. UNITED STATES OF AMERICA:   COUNTRY
 SRVC.           Gearhart:   SERVICE COMPANY
 DATE.        29-AUG-1987:   LOGDATE
 API .       490251118700:   API NUMBER
~CURVE INFORMATION
#MNEM.UNIT       API CODE    CURVE DESCRIPTION
#----------   ------------   ------------------------------
 DEPT.M                  :   
 GRR .GAPI   07 310 01 00:   GAMMA RAY
 ILD .OHMM   07 120 46 00:   INDUCTION LOG DEEP
 ILM .OHMM   07 120 44 00:   INDUCTION LOG MEDIUM
~PARAMETER INFORMATION
#MNEM.UNIT          VALUE    DESCRIPTION
#----------   ------------   ------------------------------
 PD  .                 GL:   PERMANENT DATUM
 EPD .F              5237:   ELEVATION PERMANENT DATUM
 LMF .                 KB:   LOG MEASURED FROM
 DAPD.F              10.5:   FEET ABOVE PERMANENT DATUM
 DMF .                 KB:   DRILLING MEASURED FROM
 EKB .F              5247:   KELLING BUSHING
 EDF .F            5246.5:   DRILLING FLOOR
 EGL .F              5237:   GROUND LEVEL
 DATE.        29-AUG-1987:   RUN DATE
 RUN .                  1:   RUN NUMBER
 DD  .F               695:   DEPTH DRILLER
 DL  .F               696:   DEPTH LOGGER
 BLI .F               688:   BOTTOM LOG INTERVAL
 TLI .F                37:   TOP LOG INTERVAL
 CS  .IN            9.625:   CASING SIZE
 CBD .F                48:   CASING BOTTOM DRILLER
 CBL .F                49:   CASING BOTTOM LOGGER
 BS  .IN             8.75:   BIT SIZE
 BSD .F               695:   BIT SIZE AT DEPTH
 DFT .                AIR:   DRILLING FLUID TYPE
 TCS .HRS            0400:   TIME CURCULATED STOPPED
 MRT .F                80:   MAXIMUM RECORDED TEMPERATURE
 LUN .               7597:   LOGGING UNIT NUMBER
 LUL .           GILLETTE:   LOGGING UNIT LOCATION
 ENGI.         WEATHERMON:   RECORDING ENGINEER
 WITN.             STRONG:   WITNESSED BY
 CLNT.            A2DTECH:   CLIENT CODE
 ORIG.       2", 5" PRINT:   ORIGIN OF DATA
 UWI .       490251118700:   UNIQUE WELL ID
 DICO. A2D Technologies, Inc.:   DIGITIZING COMPANY
~OTHER INFORMATION
~A   DEPT       GRR       ILD        ILM   
# ...
  127.0000   126.1601     7.9284     7.2381
  127.5000   124.9825     7.9873     7.2922
  128.0000   119.8714     7.8813     7.5522
  128.5000   112.9450     7.8297     7.7674
  129.0000   107.8339     7.8888     7.9337
  129.5000   106.3538     8.0025     7.9370
  130.0000   105.1762     7.9511     7.9402
  130.5000   103.9904     7.8456     7.8886
  131.0000   106.1492     7.8494     7.5707
  131.5000   109.8128     7.9085     7.6265
  132.0000   116.2239     7.9672     7.7977
  132.5000   119.6218     8.0264     8.0682
  133.0000   120.9097     8.0860     8.1841
  133.5000   122.3571     8.2595     8.2443
  134.0000   122.6924     8.3208     8.3050
  134.5000   123.0276     8.2664     8.2502
  135.0000   122.7578     8.2143     8.2545
  135.5000   122.4879     8.0494     8.0322
  136.0000   121.6128     7.7793     7.8160
  136.5000   118.3172     7.6231     7.6584
  137.0000   117.4340     7.3674     7.4522
  137.5000   119.5929     7.2195     7.2516
  138.0000   123.8616     7.0257     7.1547
  138.5000   126.9200     7.0292     7.1577
  139.0000   126.3318     7.0821     7.2104
  139.5000   124.7917     7.1347     7.2140
  140.0000   123.6897     7.2376     7.1664
  140.5000   125.5460     7.2410     7.0708
  141.0000   124.9736     7.2445     6.9771
  141.5000   124.0985     7.2479     6.9799
  142.0000   122.3158     7.0526     6.9346
  142.5000   122.3457     7.0073     6.8420
  143.0000   124.1939     6.8674     6.7034
  143.5000   126.3731     6.7754     6.7068
  144.0000   128.6051     7.0181     6.7095
  144.5000   124.6027     7.3700     6.7589
  145.0000   120.0968     7.5804     6.9516
  145.5000   118.9110     7.8005     7.2032
  146.0000   119.8596     7.9717     7.4048
  146.5000   122.6154     8.0800     7.4685
  147.0000   124.1609     8.1400     7.6726
  147.5000   125.4039     8.2574     7.8369
  148.0000   126.3443     8.3187     7.8401
  148.5000   125.4693     8.3804     7.8433
  149.0000   123.6865     8.4426     7.9010
  149.5000   126.4424     8.3874     8.0145
  150.0000   133.1336     8.3924     8.0735
  150.5000   130.4344     8.4547     8.1909
  151.0000   128.9454     8.3425     8.2529
  151.5000   126.5487     8.2316     8.2008
  152.0000   122.0340     7.9556     7.9829
  152.5000   122.3605     7.8500     7.8779
  153.0000   124.8049     7.6393     7.8272
  153.5000   127.2738     7.4792     7.4110
  154.0000   128.5123     7.6473     7.0647
  154.5000   129.4160     7.4937     7.0191
  155.0000   128.5373     7.4973     7.0245
  155.5000   127.3509     7.5009     7.0777
  156.0000   124.9542     7.6619     7.2307
  156.5000   121.9524     7.8263     7.5945
  157.0000   118.9506     8.0498     8.1440
  157.5000   117.7582     8.3372     8.2627
  158.0000   121.7215     8.3412     8.4453
  158.5000   126.5865     8.4627     8.6319
  159.0000   128.1233     8.5836     8.8116
  159.5000   127.8446     8.6473     8.8170
  160.0000   124.8427     8.7124     8.7602
  160.5000   122.4461     8.6555     8.5866
  161.0000   119.4442     8.4242     8.4724
  161.5000   119.4681     8.3691     8.3046
  162.0000   121.6100     8.1455     8.0826
  162.5000   121.0287     7.9819     7.8666
  163.0000   119.2053     7.7142     7.6564
  163.5000   117.3818     7.6118     7.4507
  164.0000   117.1670     7.5620     7.3538
  164.5000   122.3406     7.6190     7.3583
  165.0000   127.8107     7.5170     7.4140
  165.5000   131.1629     7.5737     7.5221
  166.0000   135.4228     7.6829     7.5791
  166.5000   127.8824     7.8478     7.8520
  167.0000   125.7883     8.0185     8.1336
  167.5000   124.5959     8.1884     8.1951
  168.0000   124.6258     8.1924     8.2002
  168.5000   123.1368     8.1971     8.2052
  169.0000   120.1290     8.2011     8.1523
  169.5000   121.0666     8.2619     8.1586
  170.0000   124.1162     8.5569     8.3349
  170.5000   125.9555     8.8012     8.5151
  171.0000   125.3742     8.9282     8.6392
  171.5000   123.2801     9.0569     8.7650
  172.0000   121.7872     9.1241     9.0167
  172.5000   119.9798     9.0655     9.0850
  173.0000   117.5673     9.0699     9.1538
  173.5000   116.3651     9.0114     9.1595
  174.0000   114.9275     9.0159     9.1663
  174.5000   116.4703     8.9580     9.1720
  175.0000   117.7044     8.9623     9.1776
  175.5000   116.8206     9.0289     9.1832
  176.0000   116.5359     8.9636     9.1254
  176.5000   119.2890     8.2969     8.9433
  177.0000   121.4308     8.0941     8.4665
  177.5000   122.3624     8.0990     8.0151
  178.0000   123.5966     8.1591     7.9097
  178.5000   123.6205     8.1630     7.8045
  179.0000   123.3359     7.9439     7.8105
  179.5000   122.7606     7.7835     7.7613
  180.0000   122.1793     7.7335     7.7125
  180.5000   122.5058     7.6838     7.7173
  181.0000   124.6477     7.6884     7.7221
  181.5000   127.1085     7.7455     7.7816
  182.0000   128.3510     7.8572     7.8950
  182.5000   129.2990     7.9155     7.9547
  183.0000   130.8522     7.9193     7.9596
  183.5000   131.1211     7.9781     8.0198
  184.0000   124.4944     8.0419     8.0247
  184.5000   120.8814     8.1613     8.1416
  185.0000   123.0293     8.5040     8.3176
  185.5000   126.0769     8.7468     8.4974
  186.0000   118.8391     8.8729     8.8634
  186.5000   110.9961     8.9388     8.9305
  187.0000   100.7325     9.0052     8.9359
  187.5000    96.8230     9.0095     9.0035
  188.0000   104.4438     9.0138     8.9469
  188.5000   108.7685     8.8931     8.8906
  189.0000   114.0332     8.7750     8.7750
  189.5000   119.3148     8.7187     8.5405
  190.0000   124.7850     8.7239     8.3123
  190.5000   129.0449     8.7887     8.2017
  191.0000   131.1868     8.7928     8.3803
  191.5000   128.4875     8.7970     8.6809
  192.0000   126.3934     8.7406     8.9302
  192.5000   125.2010     8.8056     8.9978
  193.0000   124.9224     8.8710     9.1289
  193.5000   126.4651     9.0623     9.2618
  194.0000   133.1456     9.1930     9.5278
  194.5000   136.4977     9.3903     9.5337
  195.0000   137.4293     9.5257     9.6726
  195.5000   135.6378     9.6631     9.8863
  196.0000   131.4257     9.8705    10.0256
  196.5000   130.8321     9.8752     9.4256
  197.0000   133.9062    10.0176    10.0395
  197.5000   137.2869    10.0920    10.2565
  198.0000   139.7640    10.3086    10.4059
  198.5000   140.3197    10.5298    10.6309
  199.0000   135.5084    10.8305    10.8607
  199.5000   127.3628    10.9867    10.9429
  200.0000   124.0584    11.2225    10.6495
  200.5000   121.0409    11.3852    10.8044
  201.0000   120.1748    11.7113    11.0365
  201.5000   121.1558    11.9636    11.1958
  202.0000   125.6816    12.2048    11.3573
  202.5000   128.7343    12.2921    11.6013
  203.0000   129.9714    12.3800    11.7687
  203.5000   128.4855    12.3825    11.9385
  204.0000   123.9738    12.3851    12.0272
  204.5000   121.2775    12.2174    12.1165
  205.0000   122.2121    12.1350    12.0387
  205.5000   123.7519    12.1381    11.9544
  206.0000   124.6798    12.1406    11.7087
  206.5000   123.7990    12.1431    11.5652
  207.0000   122.6156    11.9786    11.4909
  207.5000   122.9518    11.8158    11.3396
  208.0000   126.0044    11.6558    10.9589
  208.5000   128.4518    11.5783    10.4453
  209.0000   129.9916    11.5008    10.2354
  209.5000   126.9928    11.3451    10.0982
  210.0000   123.9939    11.2692    10.0333
  210.5000   121.5703    11.2716    10.1091
  211.0000   121.0220    11.1961    10.2549
  211.5000   122.3056    11.2762    10.4752
  212.0000   123.8057    11.2790    10.7746
  212.5000   125.9506    11.2814    11.0061
  213.0000   126.8852    11.3620    11.1650
  213.5000   123.8864    11.5227    11.1704
  214.0000   116.3490    11.6051    11.1768
  214.5000   112.1399    11.6881    11.2598
  215.0000   106.4179    11.4503    11.1861
  215.5000   107.0499    11.2947    10.8119
  216.0000   113.4308    11.2191    10.5215
  216.5000   120.1143    10.9914    10.3101
  217.0000   124.9824    10.8420    10.2426
  217.5000   125.3118    10.6957    10.1065
