~VERSION INFORMATION
 VERS.                2.0:   CWLS LOG ASCII STANDARD - VERSION 2.0
 WRAP.                 NO:   ONE LINE PER DEPTH STEP
~WELL INFORMATION
#MNEM.UNIT      DATA TYPE    INFORMATION
#----------   ------------   ------------------------------
 STRT.F          250.0000:   START DEPTH
 STOP.F         1798.0000:   STOP DEPTH
 STEP.F            0.5000:   STEP LENGTH
 NULL.          -999.2500:   NO VALUE
 COMP. BROWN JOHN E&C INC:   COMPANY
 WELL. NPR 3 STX-10 #57-10:   WELL
 FLD .  TEAPOT DOME NPR 3:   FIELD
 LOC .      S10 T38N R78W:   LOCATION
 CNTY.            NATRONA:   COUNTY
 STAT.            WYOMING:   STATE
 CTRY. UNITED STATES OF AMERICA:   COUNTRY
 SRVC.           BIRDWELL:   SERVICE COMPANY
 DATE.        24-FEB-1979:   LOGDATE
 API .       490251096900:   API NUMBER
~CURVE INFORMATION
#MNEM.UNIT       API CODE    CURVE DESCRIPTION
#----------   ------------   ------------------------------
 DEPT.F                  :   
 GRD .GAPI   45 310 01 00:   GAMMA RAY FROM DENSITY LOG
 CALD.IN     45 280 60 00:   CALIPER
 RHOB.G/C3   45 350 01 00:   BULK DENSITY
 DPHI.DEC    45 890 12 00:   DENSITY POROSITY SANDSTONE
 CORR.G/C3   45 356 01 00:   DENSITY CORRECTION
~PARAMETER INFORMATION
#MNEM.UNIT          VALUE    DESCRIPTION
#----------   ------------   ------------------------------
 PD  .                 GL:   PERMANENT DATUM
 EPD .F              5201:   ELEVATION PERMANENT DATUM
 LMF .                 KB:   LOG MEASURED FROM
 DAPD.F                10:   FEET ABOVE PERMANENT DATUM
 DMF .                 KB:   DRILLING MEASURED FROM
 EKB .F              5211:   KELLING BUSHING
 EGL .F              5201:   GROUND LEVEL
 RUN .                  1:   RUN NUMBER
 DD  .F              1802:   DEPTH DRILLER
 DL  .F              1793:   DEPTH LOGGER
 BLI .F              1793:   BOTTOM LOG INTERVAL
 TLI .F               250:   TOP LOG INTERVAL
 CS  .IN            9.625:   CASING SIZE
 CBD .F               500:   CASING BOTTOM DRILLER
 CBL .F               490:   CASING BOTTOM LOGGER
 BS  .IN             8.75:   BIT SIZE
 BSD .F              1802:   BIT SIZE AT DEPTH
 DFT .                OIL:   DRILLING FLUID TYPE
 BHT .F                90:   BOTTOM HOLE TEMPERATURE
 TCS .HRS               4:   TIME CURCULATED STOPPED
 MRT .F                90:   MAXIMUM RECORDED TEMPERATURE
 LUN .               3029:   LOGGING UNIT NUMBER
 LUL .             CASPER:   LOGGING UNIT LOCATION
 ENGI.            ROLLINS:   RECORDING ENGINEER
 WITN.              AMEND:   WITNESSED BY
 CLNT.            A2DTECH:   CLIENT CODE
 ORIG.       2", 5" PRINT:   ORIGIN OF DATA
 UWI .       490251096900:   UNIQUE WELL ID
 DICO. A2D Technologies, Inc.:   DIGITIZING COMPANY
~OTHER INFORMATION
~A   DEPT       GRD        CALD       RHOB       DPHI      CORR  
# ...
 1592.0000   129.9201     9.0759     2.5234     0.0109     0.0816
 1592.5000   126.7037     9.1165     2.5406     0.0060     0.0878
 1593.0000   125.3531     9.1542     2.5503     0.0063     0.0782
 1593.5000   129.5833     9.1532     2.5422     0.0058     0.0945
 1594.0000   132.8404     9.1486     2.5395     0.0030     0.1435
 1594.5000   136.1045     9.1442     2.5555     0.0003     0.1424
 1595.0000   139.3597     9.1397     2.5516     0.0012     0.1128
 1595.5000   141.0663     9.1348     2.5467     0.0062     0.0889
 1596.0000   140.9277     9.1633     2.5446     0.0092     0.0874
 1596.5000   140.7944     9.1746     2.5568    -0.0064     0.0957
 1597.0000   140.6474     9.1752     2.5622    -0.0057     0.1040
 1597.5000   140.4767     9.1922     2.5549    -0.0039     0.1124
 1598.0000   140.3284     9.2116     2.5496    -0.0020     0.1207
 1598.5000   142.8352     9.2312     2.5588     0.0000     0.1255
 1599.0000   149.4236     9.2507     2.5718     0.0004     0.1222
 1599.5000   165.3472     9.2703     2.5641     0.0009     0.1192
 1600.0000   181.1776     9.2898     2.5534     0.0014     0.1093
 1600.5000   197.0831     9.3094     2.5431     0.0019     0.0968
 1601.0000   199.1658     9.3290     2.5514     0.0016     0.0842
 1601.5000   199.4117     9.3280     2.5622     0.0012     0.0717
 1602.0000   188.3401     9.2891     2.5698     0.0021     0.0593
 1602.5000   174.7625     9.2507     2.5490     0.0030     0.0585
 1603.0000   161.2620     9.2122     2.5365     0.0036     0.0725
 1603.5000   150.5608     9.1738     2.5549     0.0036     0.0866
 1604.0000   145.9730     9.1354     2.5744     0.0036     0.0947
 1604.5000   141.3788     9.0970     2.5661     0.0052     0.0763
 1605.0000   138.1031     9.0586     2.5473     0.0137     0.0545
 1605.5000   137.0584     9.0201     2.5284     0.0267     0.0356
 1606.0000   136.8628     8.9818     2.5096     0.0428     0.0470
 1606.5000   136.6794     8.9433     2.4963     0.0315     0.0789
 1607.0000   136.4982     8.9037     2.5161     0.0161     0.1106
 1607.5000   136.3142     8.8935     2.5360     0.0050     0.1428
 1608.0000   136.1335     8.8934     2.5560    -0.0022     0.1509
 1608.5000   135.9678     8.8932     2.5729    -0.0073     0.1595
 1609.0000   135.7079     8.8888     2.5524    -0.0073     0.1684
 1609.5000   135.6948     9.0331     2.5716    -0.0020     0.1772
 1610.0000   136.2439     9.2078     2.5613     0.0057     0.1730
 1610.5000   138.5491     9.3843     2.5373     0.0160     0.1671
 1611.0000   140.8717     9.5606     2.5258     0.0138     0.1659
 1611.5000   143.1823     9.7367     2.5532     0.0087     0.1835
 1612.0000   145.5092     9.9125     2.5367     0.0038     0.2008
 1612.5000   146.3619    10.0892     2.4964     0.0008     0.2185
 1613.0000   145.5003    10.1442     2.4590     0.0794     0.2754
 1613.5000   143.7526     9.8777     2.4030     0.0832     0.3952
 1614.0000   142.0028     9.6539     2.3458     0.0870     0.4987
 1614.5000   140.2485     9.4299     2.2889     0.0926     0.4659
 1615.0000   138.4951     9.2059     2.2283     0.0857     0.2369
 1615.5000   136.7423     8.9821     2.3326     0.0543     0.2502
 1616.0000   134.9896     8.7584     2.4427     0.0072     0.2822
 1616.5000   133.2366     8.5343     2.5104     0.0310     0.2485
 1617.0000   131.4827     8.3079     2.5552     0.0517     0.2187
 1617.5000   129.7329     8.0773     2.5992    -0.0301     0.2783
 1618.0000   127.9890     8.0445     2.6079    -0.0163     0.2392
 1618.5000   126.4053     8.1133     2.5829     0.0022     0.1550
 1619.0000   126.0377     8.1881     2.5539     0.0266     0.0697
 1619.5000   126.8686     8.2620     2.5247     0.0243     0.0485
 1620.0000   127.8412     8.3361     2.5009     0.0196     0.0435
 1620.5000   128.8240     8.4101     2.5002     0.0223     0.0530
 1621.0000   129.8029     8.4840     2.5111     0.0257     0.0773
 1621.5000   130.7810     8.5581     2.5241     0.0162     0.1014
 1622.0000   131.7595     8.6293     2.5372    -0.0008     0.1256
 1622.5000   132.7361     8.6949     2.5503     0.0224     0.1498
 1623.0000   133.7109     8.7600     2.5634     0.0175     0.1740
 1623.5000   134.1143     8.8252     2.5732    -0.0120     0.2086
 1624.0000   134.0020     8.8905     2.5498    -0.0120     0.1839
 1624.5000   133.1665     8.9558     2.5175     0.0195     0.1022
 1625.0000   132.3219     9.0133     2.4889     0.0360     0.0868
 1625.5000   131.4675     9.0104     2.5122     0.0249     0.1111
 1626.0000   130.6088     9.0065     2.5396     0.0068     0.1446
 1626.5000   130.4866     9.0027     2.5480     0.0113     0.1348
 1627.0000   131.6690     8.9989     2.5317     0.0207     0.1152
 1627.5000   132.8933     8.9964     2.5184     0.0236     0.0954
 1628.0000   134.1193     9.0277     2.5121     0.0081     0.0867
 1628.5000   135.3428     9.1427     2.5457    -0.0045     0.1011
 1629.0000   136.5670     9.2524     2.5655    -0.0072     0.1097
 1629.5000   137.7835     9.3500     2.5594    -0.0024     0.1078
 1630.0000   138.9887     9.2642     2.5517     0.0024     0.1081
 1630.5000   139.4287     9.1366     2.5554    -0.0010     0.1223
 1631.0000   138.6586     9.0039     2.5634    -0.0057     0.1368
 1631.5000   137.8990     8.9475     2.5715    -0.0060     0.1510
 1632.0000   137.1324     8.9117     2.5796    -0.0180     0.1713
 1632.5000   136.3655     8.8767     2.5874    -0.0228     0.1590
 1633.0000   135.5995     8.8416     2.5753     0.0002     0.1344
 1633.5000   134.8335     8.8061     2.5514     0.0203     0.1128
 1634.0000   134.0675     8.7929     2.5274     0.0250     0.1192
 1634.5000   133.3015     8.7928     2.5019     0.0279     0.1227
 1635.0000   132.5353     8.7927     2.5098     0.0301     0.1158
 1635.5000   131.7668     8.7928     2.5205     0.0117     0.1092
 1636.0000   130.9931     8.7928     2.5312     0.0131     0.1037
 1636.5000   130.3244     8.7928     2.5399     0.0108     0.1020
 1637.0000   131.1591     8.7928     2.5415     0.0084     0.1003
 1637.5000   132.0015     8.7928     2.5386     0.0117     0.0985
 1638.0000   132.7372     8.7928     2.5356     0.0136     0.0968
 1638.5000   132.1004     8.7928     2.5327     0.0100     0.0950
 1639.0000   131.3201     8.7928     2.5315     0.0092     0.0933
 1639.5000   131.6071     8.7928     2.5368     0.0132     0.0934
 1640.0000   133.0092     8.7926     2.5460     0.0173     0.0971
 1640.5000   134.4213     8.7875     2.5553     0.0193     0.1008
 1641.0000   135.7045     8.7824     2.5583    -0.0024     0.1044
 1641.5000   134.8074     8.7774     2.5373     0.0032     0.1030
 1642.0000   133.1952     8.7724     2.5229     0.0142     0.0969
 1642.5000   131.5586     8.7674     2.5299     0.0180     0.1003
 1643.0000   129.9258     8.7623     2.5451     0.0058     0.1049
 1643.5000   128.2903     8.7572     2.5602    -0.0084     0.1097
 1644.0000   126.6364     8.7531     2.5696    -0.0026     0.1019
 1644.5000   125.1646     8.7688     2.5620     0.0048     0.0892
 1645.0000   127.8226     8.7848     2.5518     0.0056     0.0765
 1645.5000   130.6312     8.8006     2.5416     0.0066     0.0718
 1646.0000   133.4177     8.8165     2.5407     0.0046     0.0825
 1646.5000   135.8937     8.8323     2.5476     0.0010     0.0984
 1647.0000   135.9447     8.8481     2.5549    -0.0026     0.1144
 1647.5000   136.3280     8.8640     2.5620    -0.0064     0.1307
 1648.0000   136.1570     8.8798     2.5666    -0.0024     0.1268
 1648.5000   135.9033     8.8957     2.5570     0.0052     0.1137
 1649.0000   135.6493     8.9115     2.5469     0.0047     0.1006
 1649.5000   135.3927     8.9274     2.5367     0.0049     0.0874
 1650.0000   135.1330     8.9432     2.5282     0.0090     0.0738
 1650.5000   134.9417     8.9590     2.5613     0.0124     0.0767
 1651.0000   135.6682     8.9749     2.5675     0.0032     0.0886
 1651.5000   136.3794     8.9908     2.5583     0.0055     0.0892
 1652.0000   137.0818     9.0068     2.5374     0.0103     0.0665
 1652.5000   137.7826     9.0221     2.5225     0.0136     0.0481
