~VERSION INFORMATION
 VERS.                2.0:   CWLS LOG ASCII STANDARD - VERSION 2.0
 WRAP.                 NO:   ONE LINE PER DEPTH STEP
~WELL INFORMATION
#MNEM.UNIT      DATA TYPE    INFORMATION
#----------   ------------   ------------------------------
 STRT.F           17.0000:   START DEPTH
 STOP.F         1345.0000:   STOP DEPTH
 STEP.F            0.5000:   STEP LENGTH
 NULL.          -999.2500:   NO VALUE
 COMP. DEPARTMENT OF ENERGY:   COMPANY
 WELL. RES 3 TEAPOT DOME ##86S-11:   WELL
 FLD .             TEAPOT:   FIELD
 LOC .      S11 T38N R78W:   LOCATION
 CNTY.            NATRONA:   COUNTY
 STAT.            WYOMING:   STATE
 CTRY. UNITED STATES OF AMERICA:   COUNTRY
 SRVC.       Schlumberger:   SERVICE COMPANY
 DATE.        13-AUG-1959:   LOGDATE
 API .       490250633200:   API NUMBER
~CURVE INFORMATION
#MNEM.UNIT       API CODE    CURVE DESCRIPTION
#----------   ------------   ------------------------------
 DEPT.F                  :   
 SPR .MV     05 010 01 00:   SPONTANEOUS POTENTIAL FROM RES.
 CILD.MMHO   05 110 46 00:   CONDUCTIVITY INDUCTION LOG DEEP
 ILD .OHMM   05 120 46 00:   INDUCTION LOG DEEP
 ASN .OHMM   05 041 16 00:   AMPLIFIED SHORT NORMAL 16"
~PARAMETER INFORMATION
#MNEM.UNIT          VALUE    DESCRIPTION
#----------   ------------   ------------------------------
 PD  .                 GL:   PERMANENT DATUM
 EPD .F              5295:   ELEVATION PERMANENT DATUM
 LMF .                 KB:   LOG MEASURED FROM
 DAPD.F                 4:   FEET ABOVE PERMANENT DATUM
 DMF .                 KB:   DRILLING MEASURED FROM
 EKB .F              5299:   KELLING BUSHING
 EGL .F              5295:   GROUND LEVEL
 DATE.            8-13-59:   RUN DATE
 RUN .                  1:   RUN NUMBER
 DD  .F              1350:   DEPTH DRILLER
 DL  .F              1350:   DEPTH LOGGER
 BLI .F              1345:   BOTTOM LOG INTERVAL
 TLI .F                17:   TOP LOG INTERVAL
 CBD .F                17:   CASING BOTTOM DRILLER
 CBL .F                17:   CASING BOTTOM LOGGER
 BS  .IN             6.75:   BIT SIZE
 BSD .F              1350:   BIT SIZE AT DEPTH
 DFT .                GEL:   DRILLING FLUID TYPE
 DFD .                9.8:   DRILLING FLUID DENSITY
 DFV .                 65:   DRILLING FLUID VISCOSITY
 DFPH.                9.5:   DRILLING FLUID PH
 DFL .                5.4:   DRILLING FLUID LOSS
 RMS .OHMM           2.84:   RESISTIVITY MUD SAMPLE
 MST .F                69:   MUD SAMPLE TEMPERATURE
 RMF .OHMM            2.5:   RESISTIVITY MUD FILTRATE SAMPLE
 MFST.F                69:   MUD FILTRATE SAMPLE TEMPERATURE
 RMC .OHMM           2.46:   RESISTIVITY MUD CAKE
 MCST.F                69:   MUD CAKE SAMPLE TEMPERATURE
 MFSS.                  M:   MUD FILTRATE SAMPLE SOURCE
 MCSS.                  M:   MUD CAKE SAMPLE SOURCE
 TCS .HRS               1:   TIME CURCULATED STOPPED
 LUN .               2523:   LOGGING UNIT NUMBER
 LUL .               CSPR:   LOGGING UNIT LOCATION
 ENGI.             KNOBEL:   RECORDING ENGINEER
 WITN.             MARTIN:   WITNESSED BY
 CLNT.            A2DTECH:   CLIENT CODE
 ORIG.         2"5" PRINT:   ORIGIN OF DATA
 UWI .       490250633200:   UNIQUE WELL ID
 DICO. A2D Technologies, Inc.:   DIGITIZING COMPANY
~OTHER INFORMATION
~A   DEPT      SPR        CILD         ILD      ASN   
# ...
  747.0000   -10.5523   149.8167     7.0718     7.7221
  747.5000   -11.5605   153.3001     6.9647     8.0844
  748.0000   -12.3392   149.1004     7.2335     8.7197
  748.5000   -12.3778   140.5083     7.7882     9.3136
  749.0000   -12.1886   131.9161     8.3043     9.9497
  749.5000   -12.0121   123.3179     8.8365    10.3405
  750.0000   -11.8932   114.6653     9.3679    10.5155
  750.5000   -12.1177   106.0327     9.8544    10.6916
  751.0000   -12.5610   100.8435     9.9660    10.8718
  751.5000   -12.9726    99.0436    10.0294    11.0532
  752.0000   -13.3998    97.2598    10.1026    11.2329
  752.5000   -13.8195    95.4749    10.1709    11.4130
  753.0000   -14.2442    94.3096    10.2420    11.5936
  753.5000   -14.6665    93.6313    10.3115    11.6156
  754.0000   -15.0902    92.9530    10.3818    11.7163
  754.5000   -15.5117    92.2747    10.4518    11.7709
  755.0000   -15.9360    92.0463    10.5222    11.8308
  755.5000   -16.3560    92.2272    10.5926    11.8878
  756.0000   -16.7497    92.4081    10.6630    11.9464
  756.5000   -16.6188    92.5890    10.7334    12.0042
  757.0000   -16.2729    92.7560    10.8038    12.0624
  757.5000   -15.9717    92.8400    10.8743    12.1204
  758.0000   -15.6472    91.2000    10.9447    12.1784
  758.5000   -15.4249    89.6234    11.0151    12.2365
  759.0000   -15.3871    88.0469    11.0855    12.2944
  759.5000   -15.8789    86.5430    11.1559    12.3525
  760.0000   -16.4356    85.9868    11.2263    12.4103
  760.5000   -16.9575    85.4535    11.2965    12.4676
  761.0000   -17.5251    84.9191    11.3669    12.5566
  761.5000   -17.9616    84.3869    11.4368    12.6767
  762.0000   -18.1884    83.8595    11.5077    12.8720
  762.5000   -18.4377    83.3353    11.5767    13.0294
  763.0000   -18.7808    82.8120    11.6492    13.2941
  763.5000   -19.3837    82.2863    11.7144    13.6294
  764.0000   -20.3042    81.0798    11.8069    13.9415
  764.5000   -21.1775    79.3561    12.0877    14.2660
  765.0000   -22.0529    77.6136    12.3760    14.5846
  765.5000   -22.9607    75.8952    12.6617    14.9055
  766.0000   -23.7116    74.1767    12.9481    15.2217
  766.5000   -24.1272    72.4583    13.2353    15.5305
  767.0000   -23.8239    70.7399    13.5195    15.8126
  767.5000   -23.5458    69.0214    13.8101    16.0959
  768.0000   -24.4949    67.3030    14.0889    16.5894
  768.5000   -26.0694    65.5846    14.3877    17.0836
  769.0000   -28.1761    65.2081    14.4969    17.5576
  769.5000   -30.0439    65.7508    14.3810    18.0464
  770.0000   -32.1183    66.2934    14.2879    18.7355
  770.5000   -33.5424    66.8361    14.1814    18.6854
  771.0000   -32.2375    67.3788    14.0872    17.8736
  771.5000   -30.7772    67.9214    13.9845    17.1514
  772.0000   -29.3290    68.4641    13.8782    16.4105
  772.5000   -28.1005    69.0068    13.7773    15.7449
  773.0000   -28.3633    69.5494    13.6748    15.6521
  773.5000   -28.9760    70.0921    13.5726    15.6016
  774.0000   -29.5462    70.2991    13.4717    15.5596
  774.5000   -29.9462    70.4004    13.3675    15.5146
  775.0000   -29.4515    70.4909    13.2719    15.4680
  775.5000   -28.9226    70.5813    13.1575    15.4221
  776.0000   -28.4212    70.6718    13.1357    15.3746
  776.5000   -27.8735    70.7622    13.1407    15.3271
  777.0000   -27.7286    70.8526    13.1416    15.3067
  777.5000   -28.0168    70.9431    13.1375    15.2042
  778.0000   -28.3579    71.0335    13.1495    14.9647
  778.5000   -28.0946    71.1240    13.0768    14.7681
  779.0000   -27.4720    71.2013    12.9709    14.5585
  779.5000   -26.8449    77.0678    12.8109    14.3958
  780.0000   -26.4125    82.1929    12.2122    13.7734
  780.5000   -24.7833    86.7249    11.6374    13.0366
  781.0000   -22.2670    97.4642    11.0615    11.7028
  781.5000   -20.0879   103.1837    10.4865    10.5451
  782.0000   -17.7431   108.1403     9.9106     9.3874
  782.5000   -15.5139   117.5270     9.3355     8.6888
  783.0000   -13.2145   129.2329     8.7585     8.2257
  783.5000   -12.2289   140.9912     8.1864     7.8400
  784.0000   -12.1253   152.6706     7.6049     7.5987
  784.5000   -12.0780   162.3219     7.0404     7.3988
  785.0000   -12.1167   168.6823     6.4552     7.1880
  785.5000   -12.1189   171.3438     6.2862     7.1046
  786.0000   -12.1399   171.3438     6.3771     7.1044
  786.5000   -12.1518   168.9434     6.4170     7.1108
  787.0000   -12.1676   166.9084     6.4828     7.2550
  787.5000   -12.1807   164.8734     6.5328     7.3756
  788.0000   -12.1937   162.8384     6.5945     7.4734
  788.5000   -12.2068   160.8035     6.6309     7.4281
  789.0000   -12.2196   158.7685     6.5980     7.3302
  789.5000   -12.2332   156.7335     6.5660     7.2507
  790.0000   -12.2449   155.1045     6.5312     7.1592
  790.5000   -12.2602   158.0621     6.5011     7.1448
  791.0000   -12.2690   161.4198     6.4632     7.2369
  791.5000   -12.2888   163.2241     6.4921     7.3193
  792.0000   -12.2478   161.4306     6.5629     7.4019
  792.5000   -11.9820   158.8981     6.6177     7.4885
  793.0000   -11.7937   156.3657     6.6841     7.5506
  793.5000   -11.6185   153.8333     6.7204     7.5757
  794.0000   -11.4310   151.3009     6.6762     7.5800
  794.5000   -11.2705   152.1416     6.6337     7.5028
  795.0000   -11.0424   154.2897     6.5908     7.4342
  795.5000   -10.6383   156.4377     6.5482     7.3647
  796.0000   -10.2261   158.5858     6.5055     7.2938
  796.5000    -9.8578   160.7338     6.4626     7.2271
  797.0000    -9.5181   162.8819     6.4202     7.1500
  797.5000    -9.1676   165.0299     6.3778     7.1043
  798.0000    -9.3216   167.1779     6.3647     7.0793
  798.5000    -9.8580   168.4049     6.3664     7.0651
  799.0000   -10.2614   167.4412     6.3657     7.0534
  799.5000   -10.7478   165.8317     6.3656     7.1220
  800.0000   -10.6998   164.2223     6.3661     7.2715
  800.5000   -10.4145   162.6128     6.3679     7.3806
  801.0000   -10.1876   160.3251     6.4462     7.5286
  801.5000   -10.7341   156.0939     6.5613     7.6050
  802.0000   -11.6446   151.8626     6.6698     7.5718
  802.5000   -12.4640   148.7892     6.7815     7.5503
  803.0000   -12.0556   148.7892     6.8917     7.5355
  803.5000   -10.9233   148.7892     7.0023     7.6779
  804.0000   -11.0066   147.2341     7.1139     7.8743
  804.5000   -12.8800   145.2559     7.2227     8.0620
  805.0000   -14.6410   143.2776     7.3369     8.2697
  805.5000   -16.5783   141.2994     7.4407     8.3335
  806.0000   -17.1726   139.3212     7.5678     8.3466
  806.5000   -17.3100   137.8493     7.6196     8.3576
  807.0000   -17.3743   137.4866     7.5516     8.3737
  807.5000   -17.4607   137.0608     7.4984     8.3818
  808.0000   -17.5430   138.5584     7.4370     8.3326
  808.5000   -17.6263   140.3718     7.3801     8.2417
  809.0000   -17.7061   142.4739     7.3208     8.1499
  809.5000   -17.7941   143.9986     7.2627     8.0574
  810.0000   -17.8477   145.8120     7.2039     7.9658
  810.5000   -17.7999   147.6254     7.1456     7.8731
  811.0000   -17.7008   149.6914     7.0868     7.7822
  811.5000   -17.6027   150.0382     7.0292     7.6812
  812.0000   -17.5037   150.4412     6.9694     7.6064
  812.5000   -17.4051   150.8441     6.9135     7.5708
  813.0000   -17.3061   151.2471     6.8489     7.5758
  813.5000   -17.2073   151.6220     6.8161     7.5995
  814.0000   -17.1084   151.9517     6.8486     7.6197
  814.5000   -17.0099   152.2814     6.8818     7.6438
  815.0000   -16.9107   152.6111     6.9170     7.6620
  815.5000   -16.8121   152.9409     6.9510     7.7141
  816.0000   -16.7477   153.3001     6.9856     7.8046
  816.5000   -16.8039   151.8325     7.0199     7.8990
  817.0000   -17.0004   150.2206     7.0544     7.9692
  817.5000   -17.0982   148.6087     7.0888     7.9442
  818.0000   -17.2091   146.9968     7.1231     7.8924
  818.5000   -17.3134   146.2253     7.1574     7.8378
  819.0000   -17.4209   146.5550     7.1918     7.7893
  819.5000   -17.5278   146.8847     7.2264     7.7278
