~VERSION INFORMATION
 VERS.                2.0:   CWLS LOG ASCII STANDARD - VERSION 2.0
 WRAP.                 NO:   ONE LINE PER DEPTH STEP
~WELL INFORMATION
#MNEM.UNIT      DATA TYPE    INFORMATION
#----------   ------------   ------------------------------
 STRT.F            8.5000:   START DEPTH
 STOP.F         2140.0000:   STOP DEPTH
 STEP.F            0.5000:   STEP LENGTH
 NULL.          -999.2500:   NO VALUE
 COMP. LAWRENCE/ALLISON INC:   COMPANY
 WELL.   11-61 SHX #61-11:   WELL
 FLD .             TEAPOT:   FIELD
 LOC .      S11 T38N R78W:   LOCATION
 CNTY.            NATRONA:   COUNTY
 STAT.            WYOMING:   STATE
 CTRY. UNITED STATES OF AMERICA:   COUNTRY
 SRVC.      NL McCullough:   SERVICE COMPANY
 DATE.        04-MAY-1988:   LOGDATE
 API .       490251115600:   API NUMBER
~CURVE INFORMATION
#MNEM.UNIT       API CODE    CURVE DESCRIPTION
#----------   ------------   ------------------------------
 DEPT.F                  :   
 GRR .GAPI   81 310 01 00:   GAMMY RAY
 ROP .FT/HR  91 810 01 00:   RAT OF DRILLING PENETRATION
 TGAS.TC/CC  91 830 01 00:   TOTAL GAS UNIT
~PARAMETER INFORMATION
#MNEM.UNIT          VALUE    DESCRIPTION
#----------   ------------   ------------------------------
 PD  .                 GL:   PERMANENT DATUM
 EPD .F              5135:   ELEVATION PERMANENT DATUM
 LMF .                 KB:   LOG MEASURED FROM
 DAPD.F                 8:   FEET ABOVE PERMANENT DATUM
 DMF .                 KB:   DRILLING MEASURED FROM
 EKB .F              5143:   KELLING BUSHING
 EGL .F              5135:   GROUND LEVEL
 DATE.        04-MAY-1988:   RUN DATE
 RUN .                  1:   RUN NUMBER
 DD  .F              2140:   DEPTH DRILLER
 DL  .F               572:   DEPTH LOGGER
 BLI .F               568:   BOTTOM LOG INTERVAL
 CS  .IN              5.5:   CASING SIZE
 CBD .F               622:   CASING BOTTOM DRILLER
 BSD .F              2140:   BIT SIZE AT DEPTH
 DFT .         KCL/ WATER:   DRILLING FLUID TYPE
 TCS .HRS               1:   TIME CURCULATED STOPPED
 ENGI.               DALY:   RECORDING ENGINEER
 WITN.           MR. LOWL:   WITNESSED BY
 CLNT.            A2DTECH:   CLIENT CODE
 ORIG.           5" PRINT:   ORIGIN OF DATA
 UWI .       490251115600:   UNIQUE WELL ID
 DICO. A2D Technologies, Inc.:   DIGITIZING COMPANY
~OTHER INFORMATION
~A    DEPT      GRR       ROP       TGAS   
# ...
 1464.5000  -999.2500     0.4052     4.2291
 1465.0000  -999.2500     0.4056     4.2226
 1465.5000  -999.2500     0.4060     4.2162
 1466.0000  -999.2500     0.4064     4.2098
 1466.5000  -999.2500     0.4068     4.2034
 1467.0000  -999.2500     0.4072     4.1970
 1467.5000  -999.2500     0.4076     4.1906
 1468.0000  -999.2500     0.4080     4.1842
 1468.5000  -999.2500     0.4083     4.1777
 1469.0000  -999.2500     0.4087     4.1713
 1469.5000  -999.2500     0.4091     4.1649
 1470.0000  -999.2500     0.4095     4.1585
 1470.5000  -999.2500     0.4099     4.1521
 1471.0000  -999.2500     0.4103     4.1457
 1471.5000  -999.2500     0.4107     4.1392
 1472.0000  -999.2500     0.4015     4.1328
 1472.5000  -999.2500     0.3825     4.1264
 1473.0000  -999.2500     0.3824     4.1200
 1473.5000  -999.2500     0.3823     4.1136
 1474.0000  -999.2500     0.4011     4.1072
 1474.5000  -999.2500     0.4105     4.1008
 1475.0000  -999.2500     0.4104     4.0943
 1475.5000  -999.2500     0.4291     4.0879
 1476.0000  -999.2500     0.4479     4.0815
 1476.5000  -999.2500     0.4573     4.0751
 1477.0000  -999.2500     0.4761     4.0687
 1477.5000  -999.2500     0.4948     4.0623
 1478.0000  -999.2500     0.5042     4.0558
 1478.5000  -999.2500     0.5041     4.0494
 1479.0000  -999.2500     0.5134     4.0430
 1479.5000  -999.2500     0.5133     4.0366
 1480.0000  -999.2500     0.5132     4.0302
 1480.5000  -999.2500     0.5131     4.0238
 1481.0000  -999.2500     0.5130     4.0174
 1481.5000  -999.2500     0.5129     4.0109
 1482.0000  -999.2500     0.5128     4.0045
 1482.5000  -999.2500     0.5127     3.9981
 1483.0000  -999.2500     0.4938     3.9917
 1483.5000  -999.2500     0.4748     3.9853
 1484.0000  -999.2500     0.4464     3.9789
 1484.5000  -999.2500     0.4274     3.9725
 1485.0000  -999.2500     0.4273     3.9660
 1485.5000  -999.2500     0.4273     3.9596
 1486.0000  -999.2500     0.4272     3.9532
 1486.5000  -999.2500     0.4271     3.9468
 1487.0000  -999.2500     0.4270     3.9404
 1487.5000  -999.2500     0.4363     3.9340
 1488.0000  -999.2500     0.4362     3.9275
 1488.5000  -999.2500     0.4361     3.9211
 1489.0000  -999.2500     0.4360     3.9147
 1489.5000  -999.2500     0.4359     3.9083
 1490.0000  -999.2500     0.4358     3.9019
 1490.5000  -999.2500     0.4357     3.8955
 1491.0000  -999.2500     0.4356     3.8891
 1491.5000  -999.2500     0.4356     3.8826
 1492.0000  -999.2500     0.4355     3.8762
 1492.5000  -999.2500     0.4354     3.8698
 1493.0000  -999.2500     0.4353     3.8634
 1493.5000  -999.2500     0.4352     3.8570
 1494.0000  -999.2500     0.4257     3.8506
 1494.5000  -999.2500     0.4256     3.8442
 1495.0000  -999.2500     0.4255     3.8377
 1495.5000  -999.2500     0.4254     3.8313
 1496.0000  -999.2500     0.4253     3.8249
 1496.5000  -999.2500     0.4252     3.8185
 1497.0000  -999.2500     0.4345     3.8121
 1497.5000  -999.2500     0.4632     3.8057
 1498.0000  -999.2500     0.4920     3.7992
 1498.5000  -999.2500     0.5192     3.7928
 1499.0000  -999.2500     0.5190     3.7864
 1499.5000  -999.2500     0.5189     3.7800
 1500.0000  -999.2500     0.5189     3.7736
 1500.5000  -999.2500     0.5188     3.7468
 1501.0000  -999.2500     0.5187     3.7199
 1501.5000  -999.2500     0.5186     3.6931
 1502.0000  -999.2500     0.5185     3.6663
 1502.5000  -999.2500     0.5184     3.6394
 1503.0000  -999.2500     0.5183     3.6126
 1503.5000  -999.2500     0.5088     3.5858
 1504.0000  -999.2500     0.5087     3.5590
 1504.5000  -999.2500     0.4897     3.5321
 1505.0000  -999.2500     0.4708     3.5053
 1505.5000  -999.2500     0.4612     3.4785
 1506.0000  -999.2500     0.4328     3.4517
 1506.5000  -999.2500     0.4321     3.4248
 1507.0000  -999.2500     0.4235     3.3980
 1507.5000  -999.2500     0.4241     3.3712
 1508.0000  -999.2500     0.4246     3.3443
 1508.5000  -999.2500     0.4251     3.3175
 1509.0000  -999.2500     0.4257     3.2907
 1509.5000  -999.2500     0.4262     3.2639
 1510.0000  -999.2500     0.4267     2.1127
 1510.5000  -999.2500     0.4273     0.9732
 1511.0000  -999.2500     0.4278     0.5884
 1511.5000  -999.2500     0.4283     0.2220
 1512.0000  -999.2500     0.4289     0.2535
 1512.5000  -999.2500     0.4294     0.2850
 1513.0000  -999.2500     0.4300     0.3165
 1513.5000  -999.2500     0.4305     0.3480
 1514.0000  -999.2500     0.4310     0.3794
 1514.5000  -999.2500     0.4316     0.4109
 1515.0000  -999.2500     0.4321     0.4424
 1515.5000  -999.2500     0.4326     0.4739
 1516.0000  -999.2500     0.4332     0.5054
 1516.5000  -999.2500     0.4337     0.5369
 1517.0000  -999.2500     0.4533     0.5684
 1517.5000  -999.2500     0.4917     0.5999
 1518.0000  -999.2500     0.5094     0.6313
 1518.5000  -999.2500     0.5094     0.6628
 1519.0000  -999.2500     0.5094     0.6943
 1519.5000  -999.2500     0.5094     0.7258
 1520.0000  -999.2500     0.5094     0.7573
 1520.5000  -999.2500     0.5094     0.7888
 1521.0000  -999.2500     0.5094     0.8203
 1521.5000  -999.2500     0.5094     0.8517
 1522.0000  -999.2500     0.5094     0.8832
 1522.5000  -999.2500     0.5094     0.9147
 1523.0000  -999.2500     0.5094     0.9462
 1523.5000  -999.2500     0.5094     0.9777
 1524.0000  -999.2500     0.5094     1.0092
 1524.5000  -999.2500     0.5094     1.0407
 1525.0000  -999.2500     0.5094     1.0722
 1525.5000  -999.2500     0.5094     1.1036
 1526.0000  -999.2500     0.5094     1.1351
 1526.5000  -999.2500     0.5094     1.1666
 1527.0000  -999.2500     0.5094     1.1981
 1527.5000  -999.2500     0.5094     1.2296
 1528.0000  -999.2500     0.5094     1.2611
 1528.5000  -999.2500     0.5094     1.2926
 1529.0000  -999.2500     0.5094     1.3241
 1529.5000  -999.2500     0.5094     1.3555
 1530.0000  -999.2500     0.5094     1.3870
 1530.5000  -999.2500     0.5094     1.4185
 1531.0000  -999.2500     0.5094     1.4500
 1531.5000  -999.2500     0.5094     1.4815
 1532.0000  -999.2500     0.5094     1.5130
 1532.5000  -999.2500     0.5094     1.5445
 1533.0000  -999.2500     0.5094     1.5759
 1533.5000  -999.2500     0.5094     1.6074
 1534.0000  -999.2500     0.5094     1.6389
 1534.5000  -999.2500     0.5094     1.6704
 1535.0000  -999.2500     0.5094     1.7019
 1535.5000  -999.2500     0.5094     1.7334
 1536.0000  -999.2500     0.5094     1.7649
 1536.5000  -999.2500     0.5094     1.7964
 1537.0000  -999.2500     0.5094     1.8278
 1537.5000  -999.2500     0.5094     1.8593
 1538.0000  -999.2500     0.5094     1.8908
 1538.5000  -999.2500     0.5094     1.9223
 1539.0000  -999.2500     0.5094     1.9538
 1539.5000  -999.2500     0.5094     1.9853
 1540.0000  -999.2500     0.5094     2.0168
 1540.5000  -999.2500     0.5094     2.0483
 1541.0000  -999.2500     0.5094     2.0797
 1541.5000  -999.2500     0.5094     2.1112
 1542.0000  -999.2500     0.5094     2.1427
 1542.5000  -999.2500     0.5094     2.1742
 1543.0000  -999.2500     0.5094     2.2057
 1543.5000  -999.2500     0.5094     2.2372
 1544.0000  -999.2500     0.5094     2.2687
 1544.5000  -999.2500     0.5094     2.3001
 1545.0000  -999.2500     0.5094     2.3316
 1545.5000  -999.2500     0.5094     2.3631
 1546.0000  -999.2500     0.5094     2.3946
 1546.5000  -999.2500     0.5094     2.4261
 1547.0000  -999.2500     0.5094     2.4576
 1547.5000  -999.2500     0.5094     2.4891
 1548.0000  -999.2500     0.5094     2.5206
 1548.5000  -999.2500     0.5094     2.5520
 1549.0000  -999.2500     0.5094     2.5835
 1549.5000  -999.2500     0.5094     2.6150
 1550.0000  -999.2500     0.5094     2.6465
 1550.5000  -999.2500     0.5094     2.6780
 1551.0000  -999.2500     0.5094     2.7095
 1551.5000  -999.2500     0.5094     2.7410
 1552.0000  -999.2500     0.5094     2.7724
 1552.5000  -999.2500     0.5092     2.8039
 1553.0000  -999.2500     0.5088     2.8354
 1553.5000  -999.2500     0.5085     2.8669
 1554.0000  -999.2500     0.5081     2.8984
 1554.5000  -999.2500     0.5077     2.9299
 1555.0000  -999.2500     0.5073     2.9464
