~VERSION INFORMATION
 VERS.                2.0:   CWLS LOG ASCII STANDARD - VERSION 2.0
 WRAP.                 NO:   ONE LINE PER DEPTH STEP
~WELL INFORMATION
#MNEM.UNIT      DATA TYPE    INFORMATION
#----------   ------------   ------------------------------
 STRT.F           16.0000:   START DEPTH
 STOP.F         2438.0000:   STOP DEPTH
 STEP.F            0.5000:   STEP LENGTH
 NULL.          -999.2500:   NO VALUE
 COMP. FENIX & SCISSON INC:   COMPANY
 WELL.      15 SHX #27-27:   WELL
 FLD .             TEAPOT:   FIELD
 LOC .      S27 T39N R78W:   LOCATION
 CNTY.            NATRONA:   COUNTY
 STAT.            WYOMING:   STATE
 CTRY. UNITED STATES OF AMERICA:   COUNTRY
 SRVC.            Unknown:   SERVICE COMPANY
 DATE.        09-JUN-1978:   LOGDATE
 API .       490251064100:   API NUMBER
~CURVE INFORMATION
#MNEM.UNIT       API CODE    CURVE DESCRIPTION
#----------   ------------   ------------------------------
 DEPT.F                  :   
 CALD.IN     45 280 60 00:   CALIPER FROM DENSITY LOG
 GRD .GAPI   45 310 01 00:   GAMMA RAY FROM DENSITY LOG
 CORR.G/C3   45 356 01 00:   DENSITY CORRECTION
 RHOB.G/C3   45 350 01 00:   BULK DENSITY
 DPHI.DEC    45 890 10 00:   DENSITY POROSITY LIMESTONE
~PARAMETER INFORMATION
#MNEM.UNIT          VALUE    DESCRIPTION
#----------   ------------   ------------------------------
 PD  .                 GL:   PERMANENT DATUM
 EPD .F              5062:   ELEVATION PERMANENT DATUM
 LMF .                 KB:   LOG MEASURED FROM
 DAPD.F                10:   FEET ABOVE PERMANENT DATUM
 DMF .                 KB:   DRILLING MEASURED FROM
 EKB .F              5072:   KELLING BUSHING
 EGL .F              5062:   GROUND LEVEL
 DATE.        09-JUN-1978:   RUN DATE
 RUN .                  1:   RUN NUMBER
 DD  .F              2450:   DEPTH DRILLER
 DL  .F              2445:   DEPTH LOGGER
 BLI .F              2438:   BOTTOM LOG INTERVAL
 TLI .F                10:   TOP LOG INTERVAL
 CS  .IN            9.625:   CASING SIZE
 CBD .F               688:   CASING BOTTOM DRILLER
 CBL .F               694:   CASING BOTTOM LOGGER
 BS  .IN             8.75:   BIT SIZE
 BSD .F              2450:   BIT SIZE AT DEPTH
 DFT .           AIR MIST:   DRILLING FLUID TYPE
 TCS .HRS               1:   TIME CURCULATED STOPPED
 LUN .               2958:   LOGGING UNIT NUMBER
 LUL .                CPR:   LOGGING UNIT LOCATION
 ENGI.             MILLER:   RECORDING ENGINEER
 WITN.           MCGINLEY:   WITNESSED BY
 CLNT.            A2DTECH:   CLIENT CODE
 ORIG.           5" PRINT:   ORIGIN OF DATA
 UWI .       490251064100:   UNIQUE WELL ID
 DICO. A2D Technologies, Inc.:   DIGITIZING COMPANY
~OTHER INFORMATION
~A   DEPT     CALD         GRD      CORR       RHOB       DPHI   
# ...
 2273.0000     9.0052   108.1144    -0.0095     2.4975     0.0343
 2273.5000     9.0222   113.1254    -0.0079     2.4991     0.0337
 2274.0000     9.0849   113.2892    -0.0079     2.4945     0.0373
 2274.5000     9.1476   108.0834    -0.0047     2.4883     0.0432
 2275.0000     9.2100   102.5670    -0.0031     2.4837     0.0484
 2275.5000     9.0736    99.6585    -0.0030     2.4823     0.0430
 2276.0000     8.9523   101.9796    -0.0029     2.4816     0.0454
 2276.5000     8.9536   102.6076    -0.0029     2.4809     0.0437
 2277.0000     8.9856   102.6211    -0.0028     2.4817     0.0357
 2277.5000     9.0483   102.4808    -0.0042     2.4910     0.0375
 2278.0000     9.1417    97.8863    -0.0072     2.4972     0.0415
 2278.5000     9.2505    91.3857    -0.0087     2.4911     0.0399
 2279.0000     9.2518    88.9018    -0.0086     2.4873     0.0424
 2279.5000     9.1154    88.0959    -0.0085     2.4842     0.0448
 2280.0000     9.0858    88.1129    -0.0085     2.4804     0.0472
 2280.5000     9.0565    87.0511    -0.0084     2.4782     0.0503
 2281.0000     9.1348    82.7636    -0.0083     2.4782     0.0469
 2281.5000     9.1822    81.5449    -0.0067     2.4844     0.0329
 2282.0000     8.9995    78.4896     0.0242     2.5076     0.0293
 2282.5000     9.0469    74.6629     0.0166     2.5107     0.0447
 2283.0000     9.1556    70.3754    -0.0204     2.4984     0.0520
 2283.5000     9.1569    70.0814    -0.0233     2.4738     0.0677
 2284.0000     9.0816    81.6160    -0.0233     2.4523     0.0742
 2284.5000     9.0369    94.5208    -0.0201     2.4385     0.0754
 2285.0000     9.0562   107.7848    -0.0046     2.4362     0.0661
 2285.5000     9.0707   110.6889     0.0001     2.4603     0.0547
 2286.0000     9.0720   101.6428    -0.0029     2.4610     0.0639
 2286.5000     9.0887   101.3457    -0.0059     2.4541     0.0662
 2287.0000     9.1207   101.5163    -0.0074     2.4526     0.0636
 2287.5000     9.1834    99.9937    -0.0073     2.4572     0.0580
 2288.0000     9.2001    99.2358    -0.0072     2.4604     0.0552
 2288.5000     9.1248   101.8641    -0.0102     2.4581     0.0626
 2289.0000     9.1107   107.7149    -0.0102     2.4458     0.0721
 2289.5000     9.1888   109.8789    -0.0100     2.4420     0.0450
 2290.0000     9.2055   106.8203     0.0179     2.4683     0.0406
 2290.5000     9.1302    96.5294     0.0132     2.4822     0.0406
 2291.0000     9.1827    99.1156    -0.0068     2.4838     0.0554
 2291.5000     9.2249    99.7948    -0.0236     2.4580     0.0582
 2292.0000     9.0269    95.5107    -0.0097     2.4623     0.0544
 2292.5000     9.1206    95.2136    -0.0050     2.4654     0.0541
 2293.0000     9.1526    94.6161    -0.0065     2.4655     0.0553
 2293.5000     9.1233    89.2533    -0.0095     2.4617     0.0621
 2294.0000     9.0480    87.7308    -0.0094     2.4517     0.0642
 2294.5000     9.0030    87.2801    -0.0016     2.4509     0.0457
 2295.0000     9.0507    92.2125     0.0046     2.4782     0.0435
 2295.5000     9.1594   100.0602     0.0078     2.4796     0.0450
 2296.0000     9.2681   100.2273     0.0109     2.4873     0.0333
 2296.5000     9.2848    94.1622     0.0126     2.4958     0.0314
 2297.0000     9.0817    91.6014     0.0111     2.5020     0.0311
 2297.5000     8.9657    89.3651     0.0066     2.5082     0.0311
 2298.0000     9.0745    82.7734     0.0036     2.5114     0.0314
 2298.5000     9.0911    80.9402     0.0021     2.5106     0.0310
 2299.0000     9.0465    83.7221     0.0037     2.5052     0.0304
 2299.5000     8.8945    85.7326     0.0084     2.5023     0.0291
 2300.0000     8.8495    86.1000     0.0140     2.5100     0.0304
 2300.5000     9.0508    86.3732     0.0117     2.5154     0.0334
 2301.0000     9.1443    80.2475    -0.0052     2.5055     0.0359
 2301.5000     8.8084    75.1934    -0.0158     2.4947     0.0423
 2302.0000     8.9019    72.1362    -0.0065     2.4871     0.0442
 2302.5000     9.0875    69.8464     0.0059     2.4933     0.0346
 2303.0000     9.2270    72.1661     0.0063     2.5018     0.0312
 2303.5000     8.7193    76.3548     0.0000     2.5003     0.0333
 2304.0000     9.1980    78.5353     0.0001     2.4876     0.0518
 2304.5000     9.6149    79.7417     0.0071     2.4765     0.0351
 2305.0000     8.8346    79.9103     0.0512     2.5151     0.0212
 2305.5000     8.8051    77.6212     0.0651     2.5290     0.0228
 2306.0000     9.4511    68.2485     0.0329     2.5229     0.0286
 2306.5000     9.3912    61.6508     0.0207     2.5183     0.0292
 2307.0000     9.1013    57.5395     0.0208     2.5238     0.0292
 2307.5000     8.9188    57.3529     0.0209     2.5323     0.0298
 2308.0000     8.9356    62.9496     0.0148     2.5292     0.0316
 2308.5000     8.9999    70.8432     0.0026     2.5231     0.0328
 2309.0000     9.1421    72.6570    -0.0050     2.5140     0.0340
 2309.5000     9.2315    66.8385    -0.0110     2.5001     0.0373
 2310.0000     9.1414    62.3988    -0.0125     2.4878     0.0402
 2310.5000     9.0048    57.6519     0.0110     2.4887     0.0300
 2311.0000     8.9296    55.0555     0.0155     2.5064     0.0293
 2311.5000     8.9311    54.7595     0.0141     2.5134     0.0321
 2312.0000     8.9326    56.0071     0.0018     2.5080     0.0345
 2312.5000     8.9494    63.3954    -0.0088     2.5012     0.0357
 2313.0000     8.9663    68.7867    -0.0164     2.4974     0.0367
 2313.5000     8.9985    68.8017    -0.0256     2.4951     0.0391
 2314.0000     9.0153    65.9287    -0.0286     2.4919     0.0512
 2314.5000     9.0325    63.6127    -0.0254     2.4682     0.0582
 2315.0000     9.0647    59.0194    -0.0160     2.4613     0.0427
 2315.5000     9.0815    57.8018     0.0042     2.4699     0.0301
 2316.0000     9.0830    58.4349     0.0167     2.5007     0.0304
 2316.5000     9.1152    58.6035     0.0074     2.5008     0.0337
 2317.0000     9.1473    58.3113    -0.0217     2.4946     0.0485
 2317.5000     9.1488    57.8648    -0.0263     2.4670     0.0639
 2318.0000     9.1503    58.1877    -0.0154     2.4439     0.0685
 2318.5000     9.1518    60.8716     0.0002     2.4462     0.0549
 2319.0000     9.1073    68.2009     0.0234     2.4763     0.0355
 2319.5000     9.0935    76.3623     0.0265     2.4889     0.0425
 2320.0000     9.1107    79.7567     0.0158     2.4795     0.0487
 2320.5000     9.1429    80.8470     0.0175     2.4749     0.0453
 2321.0000     9.1597    77.9434     0.0068     2.4765     0.0635
 2321.5000     9.1458    73.9645    -0.0039     2.4519     0.0730
 2322.0000     9.1167    76.7445    -0.0068     2.4366     0.0816
 2322.5000     9.1028    80.1389    -0.0021     2.4258     0.0853
 2323.0000     9.1503    84.4549     0.0088     2.4197     0.0834
 2323.5000     9.1984    94.0931     0.0213     2.4213     0.0834
 2324.0000     9.2300   106.0785     0.0260     2.4244     0.0794
 2324.5000     9.1702   121.0628     0.0338     2.4260     0.0656
 2325.0000     9.1874   121.8458     0.0416     2.4522     0.0546
 2325.5000     9.2655   112.7978     0.0386     2.4746     0.0630
 2326.0000     9.4204    96.8374     0.0018     2.4431     0.0753
 2326.5000     9.2532    96.5414    -0.0028     2.4277     0.0778
 2327.0000     8.9786   103.6262     0.0020     2.4278     0.0777
 2327.5000     9.1182   104.4092     0.0052     2.4286     0.0746
 2328.0000     9.2117   105.6531     0.0068     2.4325     0.0629
 2328.5000     9.2132   112.4715     0.0008     2.4434     0.0669
 2329.0000     9.0112   123.0937    -0.0068     2.4503     0.0727
 2329.5000     8.9248   132.2763    -0.0129     2.4319     0.0797
 2330.0000     9.0493   140.2790    -0.0082     2.4150     0.0844
 2330.5000     9.1582   138.2971     0.0027     2.4158     0.0816
 2331.0000     9.1750   137.6938     0.0059     2.4150     0.0859
 2331.5000     9.1765   140.6312     0.0060     2.4143     0.0893
 2332.0000     9.0093   142.0286     0.0061     2.4144     0.0686
 2332.5000     8.9954   141.1220     0.0289     2.4298     0.0218
 2333.0000     8.9970   137.6039     0.0759     2.4915     0.0165
 2333.5000     8.9985   128.1947     0.0835     2.5347     0.0177
