~VERSION INFORMATION
 VERS.                2.0:   CWLS LOG ASCII STANDARD - VERSION 2.0
 WRAP.                 NO:   ONE LINE PER DEPTH STEP
~WELL INFORMATION
#MNEM.UNIT      DATA TYPE    INFORMATION
#----------   ------------   ------------------------------
 STRT.F           30.0000:   START DEPTH
 STOP.F          637.0000:   STOP DEPTH
 STEP.F            0.5000:   STEP LENGTH
 NULL.          -999.2500:   NO VALUE
 COMP.    FENIX & SCISSON:   COMPANY
 WELL.        NPR #82-S-3:   WELL
 FLD .             TEAPOT:   FIELD
 LOC .       S3 T38N R78W:   LOCATION
 CNTY.            NATRONA:   COUNTY
 STAT.            WYOMING:   STATE
 CTRY. UNITED STATES OF AMERICA:   COUNTRY
 SRVC.              Welex:   SERVICE COMPANY
 DATE.        08-MAY-1977:   LOGDATE
 API .       490251035100:   API NUMBER
~CURVE INFORMATION
#MNEM.UNIT       API CODE    CURVE DESCRIPTION
#----------   ------------   ------------------------------
 DEPT.F                  :   
 SPR .MV     07 010 01 00:   SPONTANEOUS POTENTIAL FROM RES.
 ILD .OHMM   07 120 46 00:   INDUCTION LOG DEEP
 ILM .OHMM   07 120 44 00:   INDUCTION LOG MEDIUM
 SGRD.OHMM   07 220 05 00:   SHALLOW GUARD RESISTIVITY
 GRD .GAPI   45 310 01 00:   GAMMA RAY FROM DENSITY LOG
 CALD.IN     45 280 60 00:   CALIPER FROM DENSITY LOG
 CORR.G/C3   45 356 01 00:   DENSITY CORRECTION
 RHOB.G/C3   45 350 01 00:   BULK DENSITY
 DPHI.DEC    45 890 12 00:   DENSITY POROSITY SANDSTONE
~PARAMETER INFORMATION
#MNEM.UNIT          VALUE    DESCRIPTION
#----------   ------------   ------------------------------
 PD  .                 GL:   PERMANENT DATUM
 EPD .F              5100:   ELEVATION PERMANENT DATUM
 LMF .                 GL:   LOG MEASURED FROM
 DMF .                 GL:   DRILLING MEASURED FROM
 EGL .F              5100:   GROUND LEVEL
 DATE.        08-MAY-1977:   RUN DATE
 RUN .                  1:   RUN NUMBER
 DD  .F               635:   DEPTH DRILLER
 DL  .F               640:   DEPTH LOGGER
 BLI .F               638:   BOTTOM LOG INTERVAL
 TLI .F                30:   TOP LOG INTERVAL
 CS  .IN            8.625:   CASING SIZE
 CBD .F                40:   CASING BOTTOM DRILLER
 CBL .F                38:   CASING BOTTOM LOGGER
 BS  .IN            7.875:   BIT SIZE
 BSD .F               635:   BIT SIZE AT DEPTH
 DFT .            KCL MUD:   DRILLING FLUID TYPE
 DFD .                8.8:   DRILLING FLUID DENSITY
 DFV .                 32:   DRILLING FLUID VISCOSITY
 DFPH.                7.5:   DRILLING FLUID PH
 MSS .           FLOWLINE:   MUD SAMPLE SOURCE
 RMS .OHMM            .25:   RESISTIVITY MUD SAMPLE
 MST .F                80:   MUD SAMPLE TEMPERATURE
 RMF .OHMM            .22:   RESISTIVITY MUD FILTRATE SAMPLE
 MFST.F                80:   MUD FILTRATE SAMPLE TEMPERATURE
 RMC .OHMM            .31:   RESISTIVITY MUD CAKE
 MCST.F                80:   MUD CAKE SAMPLE TEMPERATURE
 MFSS.               MEAS:   MUD FILTRATE SAMPLE SOURCE
 MCSS.               MEAS:   MUD CAKE SAMPLE SOURCE
 RMB .OHMM            .23:   RESISTIVITY MUD AT BHT
 BHT .F                87:   BOTTOM HOLE TEMPERATURE
 TCS .HRS            0130:   TIME CURCULATED STOPPED
 MRT .F                87:   MAXIMUM RECORDED TEMPERATURE
 LUN .               8611:   LOGGING UNIT NUMBER
 LUL .             CASPER:   LOGGING UNIT LOCATION
 ENGI.            C. DOAK:   RECORDING ENGINEER
 WITN.            R. LYON:   WITNESSED BY
 CLNT.            A2DTECH:   CLIENT CODE
 ORIG.           5" PRINT:   ORIGIN OF DATA
 UWI .       490251035100:   UNIQUE WELL ID
 DICO. A2D Technologies, Inc.:   DIGITIZING COMPANY
~OTHER INFORMATION
~A   DEPT      SPR        ILD        ILM       SGRD         GRD      CALD        CORR        RHOB     DPHI   
# ...
  541.0000   -30.4716    17.3908    18.0788    24.5684    89.5314     7.9200     0.0343     2.4006     0.1667
  541.5000   -30.7512    17.6412    17.7161    23.8103    93.4246     7.9215     0.0344     2.4051     0.1625
  542.0000   -31.1745    17.0587    17.3754    23.9916    95.5273     7.9230     0.0345     2.3992     0.1610
  542.5000   -31.4581    16.7214    17.6372    22.1020    97.0347     7.9093     0.0361     2.3956     0.1661
  543.0000   -31.7336    16.2782    18.9042    22.4249    99.4350     7.9111     0.0362     2.4068     0.1592
  543.5000   -32.0131    15.6299    19.1902    22.4399   100.0447     7.9126     0.0393     2.4151     0.1568
  544.0000   -32.1487    15.2156    17.3136    20.3894    97.0927     7.9141     0.0424     2.4189     0.1535
  544.5000   -32.3067    14.7106    16.6264    20.2633    95.1775     7.9156     0.0409     2.4220     0.1499
  545.0000   -32.7078    14.2224    15.6399    20.1245    92.0718     7.9171     0.0410     2.4347     0.1448
  545.5000   -32.9873    13.9411    14.6109    19.8760    89.8590     7.9185     0.0411     2.4408     0.1408
  546.0000   -33.1189    13.7599    14.3235    19.7425    88.9855     7.9200     0.0427     2.4446     0.1387
  546.5000   -33.2505    13.5787    16.1170    19.4870    88.1120     7.9364     0.0458     2.4484     0.1372
  547.0000   -33.3821    13.4045    15.1607    19.2347    88.7265     7.9378     0.0474     2.4522     0.1357
  547.5000   -33.3657    13.2279    14.6565    18.9857    90.0852     7.9393     0.0490     2.4537     0.1348
  548.0000   -33.4973    13.1462    14.1750    19.4241    91.4438     7.9408     0.0461     2.4538     0.1386
  548.5000   -33.6289    12.9775    13.8937    19.6853    93.2488     7.9423     0.0372     2.4472     0.1419
  549.0000   -33.7605    12.8951    13.7150    19.2931    95.6491     7.9438     0.0283     2.4405     0.1425
  549.5000   -33.7441    12.8177    13.6322    18.9138    96.2588     7.9304     0.0359     2.4383     0.1419
  550.0000   -33.7278    12.8084    13.9040    18.6677    90.9240     7.8828     0.0456     2.4667     0.1285
  550.5000   -33.7115    12.6179    14.3294    18.4919    94.3628     7.8290     0.0540     2.4863     0.1134
  551.0000   -33.6953    12.4105    14.4385    18.3134    98.6945     7.7263     0.0480     2.4714     0.1167
  551.5000   -33.6788    12.3323    14.5483    18.9754   101.6870     7.6394     0.0362     2.4565     0.1295
  552.0000   -33.6624    12.3440    14.6590    19.1225   100.9592     7.6273     0.0330     2.4492     0.1352
  552.5000   -33.6461    12.3534    14.5683    19.1384    95.0230     7.8967     0.0303     2.4425     0.1375
  553.0000   -33.9260    12.3628    14.8829    19.0188    93.1047     7.8820     0.0289     2.4381     0.1411
  553.5000   -34.2056    12.3722    15.7371    18.9038    90.7400     7.8708     0.0305     2.4404     0.1423
  554.0000   -34.3372    12.3816    15.8568    18.5361    89.2681     7.8877     0.0320     2.4480     0.1375
  554.5000   -34.4689    12.4767    15.3305    18.1680    88.0938     7.8896     0.0336     2.4547     0.1331
  555.0000   -34.6006    12.4861    14.7061    18.0582    89.1518     7.8771     0.0307     2.4586     0.1308
  555.5000   -34.5836    12.5820    15.9995    18.3279    91.1633     7.8641     0.0293     2.4564     0.1324
  556.0000   -34.7160    12.8545    14.6391    18.5978    94.5414     7.8660     0.0234     2.4445     0.1397
  556.5000   -34.6988    12.7760    14.8525    18.8717    93.3527     7.8680     0.0249     2.4521     0.1328
  557.0000   -34.8345    12.6955    15.3836    19.1496    92.7293     7.8545     0.0310     2.4544     0.1316
  557.5000   -34.9661    12.5337    16.0438    19.4316    90.5722     7.8569     0.0356     2.4552     0.1331
  558.0000   -34.9457    12.3692    15.6186    18.7888    95.9497     7.8589     0.0401     2.4597     0.1283
  558.5000   -34.9293    12.2116    16.2889    18.4195    96.8588     7.7865     0.0417     2.4658     0.1258
  559.0000   -35.0609    12.2208    16.7527    18.1786    94.6388     7.6101     0.0449     2.4629     0.1276
  559.5000   -35.0446    12.1439    16.4214    18.1975   100.7603     7.6418     0.0463     2.4600     0.1300
  560.0000   -35.1802    12.1554    17.2475    18.2126   103.0087     7.7923     0.0434     2.4586     0.1288
  560.5000   -35.4557    12.1646    17.3758    17.8546   102.1320     7.6753     0.0435     2.4647     0.1213
  561.0000   -35.7393    12.0880    17.0321    17.1454    99.3209     7.5286     0.0436     2.4753     0.1167
  561.5000   -36.0147    12.0995    17.4028    17.5182    96.8074     7.5603     0.0437     2.4866     0.1131
  562.0000   -36.1504    12.0255    17.6564    18.1477    98.6093     7.7257     0.0437     2.4964     0.1095
  562.5000   -36.2820    12.1179    17.4239    18.0380   100.1096     7.8019     0.0423     2.4939     0.1098
  563.0000   -36.4095    12.1271    16.9650    17.6834    98.0465     7.8335     0.0424     2.4844     0.1131
  563.5000   -36.3931    12.1363    16.6266    17.2167    97.4635     7.8354     0.0425     2.4919     0.1109
  564.0000   -36.5288    12.1455    16.7560    16.8748   100.7576     7.8522     0.0380     2.4905     0.1112
  564.5000   -36.6604    12.2388    17.1177    17.0279   101.3690     7.8541     0.0351     2.4846     0.1127
  565.0000   -36.7879    12.1617    17.2479    17.9032   101.8317     7.8561     0.0322     2.4757     0.1180
  565.5000   -36.7716    12.2574    16.5610    19.3252   100.9551     7.8580     0.0308     2.4706     0.1210
  566.0000   -36.7552    12.3515    15.6838    20.8211    97.2511     7.8599     0.0278     2.4669     0.1237
  566.5000   -36.7389    12.3609    15.8032    18.1260    97.2673     7.8618     0.0264     2.4670     0.1239
  567.0000   -36.7225    12.3703    15.9234    17.1831    99.0693     7.8637     0.0280     2.4738     0.1212
  567.5000   -36.7062    12.2947    15.5013    17.0907   101.0200     7.8657     0.0296     2.4694     0.1239
  568.0000   -36.6899    12.3040    14.9869    17.1051   108.9232     7.8676     0.0281     2.4433     0.1391
  568.5000   -36.6735    12.2265    14.7895    17.1193   109.9811     7.8695     0.0222     2.4464     0.1370
  569.0000   -36.6572    12.2381    14.8022    17.0156   109.8482     7.8714     0.0208     2.4509     0.1360
  569.5000   -36.7888    12.1611    14.2127    17.0297   108.2278     7.8580     0.0224     2.4555     0.1303
  570.0000   -36.7724    12.0061    13.2758    16.9268   104.5238     7.8604     0.0255     2.4653     0.1261
  570.5000   -36.7561    11.9304    12.4863    17.2949   100.9540     7.8772     0.0270     2.4661     0.1249
  571.0000   -36.7397    11.7761    13.1122    16.7227   101.6000     7.9088     0.0286     2.4662     0.1246
  571.5000   -37.0193    11.7042    12.5036    16.9690   102.9806     7.9256     0.0317     2.4700     0.1234
  572.0000   -37.3029    11.5550    11.8413    16.9907   103.9935     7.9127     0.0332     2.4775     0.1170
  572.5000   -37.7262    11.4055    11.6853    16.6493   103.8609     7.8998     0.0316     2.4788     0.1185
  573.0000   -38.0057    11.3337    12.0222    16.5484   105.3693     7.8720     0.0301     2.4687     0.1230
  573.5000   -38.2853    11.2644    11.4641    16.3356   103.1534     7.8739     0.0290     2.4725     0.1221
  574.0000   -38.4209    11.1187    11.0837    16.2364   101.6775     7.8758     0.0291     2.4771     0.1184
  574.5000   -38.5789    10.9749    11.0133    16.1382   104.5252     7.8777     0.0306     2.4771     0.1178
  575.0000   -38.8320    10.8210    11.1757    15.9310   106.1783     7.8796     0.0307     2.4847     0.1118
  575.5000   -38.9853    10.6929    11.4170    15.8341   106.4881     7.8816     0.0338     2.4945     0.1085
  576.0000   -39.2623    10.4718    11.1892    15.6308   103.0817     7.8835     0.0353     2.4984     0.1052
  576.5000   -39.5394    10.2050    11.7522    15.2183   108.0127     7.8854     0.0369     2.5029     0.1052
  577.0000   -39.8022    10.1340    11.2067    15.3363   109.0706     7.8873     0.0370     2.4997     0.1087
