~VERSION INFORMATION
 VERS.                2.0:   CWLS LOG ASCII STANDARD - VERSION 2.0
 WRAP.                 NO:   ONE LINE PER DEPTH STEP
~WELL INFORMATION
#MNEM.UNIT      DATA TYPE    INFORMATION
#----------   ------------   ------------------------------
 STRT.F           30.0000:   START DEPTH
 STOP.F          526.0000:   STOP DEPTH
 STEP.F            0.5000:   STEP LENGTH
 NULL.          -999.2500:   NO VALUE
 COMP. FENIX & SCISSON INC:   COMPANY
 WELL.       NPR #37-SX-3:   WELL
 FLD .             TEAPOT:   FIELD
 LOC .       S3 T38N R78W:   LOCATION
 CNTY.            NATRONA:   COUNTY
 STAT.            WYOMING:   STATE
 CTRY. UNITED STATES OF AMERICA:   COUNTRY
 SRVC.              Welex:   SERVICE COMPANY
 DATE.        10-MAR-1977:   LOGDATE
 API .       490251028600:   API NUMBER
~CURVE INFORMATION
#MNEM.UNIT       API CODE    CURVE DESCRIPTION
#----------   ------------   ------------------------------
 DEPT.F                  :   
 ILD .OHMM   07 120 46 00:   INDUCTION LOG DEEP
 ILM .OHMM   07 120 44 00:   INDUCTION LOG MEDIUM
 SPR .MV     07 010 01 00:   SPONTANEOUS POTENTIAL
 SGRD.OHMM   07 220 05 00:   SHALLOW RESISTIVITY
 GRD .GAPI   45 310 01 00:   GAMMA RAY FROM DENSITY LOG
 CALD.IN     45 280 60 00:   CALIPER
 CORR.G/C3   45 356 01 00:   DENSITY CORRECTION
 RHOB.G/C3   45 350 01 00:   BULK DENSITY
 DPOR.DEC    45 890 12 00:   DENSITY POROSITY SANDSTONE
~PARAMETER INFORMATION
#MNEM.UNIT          VALUE    DESCRIPTION
#----------   ------------   ------------------------------
 PD  .                 GL:   PERMANENT DATUM
 EPD .F              5232:   ELEVATION PERMANENT DATUM
 LMF .                 GL:   LOG MEASURED FROM
 DMF .                 GL:   DRILLING MEASURED FROM
 EGL .F              5232:   GROUND LEVEL
 DATE.            3-10-77:   RUN DATE
 RUN .                  1:   RUN NUMBER
 DD  .F               530:   DEPTH DRILLER
 DL  .F               528:   DEPTH LOGGER
 BLI .F               526:   BOTTOM LOG INTERVAL
 TLI .F                35:   TOP LOG INTERVAL
 CS  .IN            8.625:   CASING SIZE
 CBD .F                40:   CASING BOTTOM DRILLER
 CBL .F                42:   CASING BOTTOM LOGGER
 BS  .IN            7.875:   BIT SIZE
 BSD .F               530:   BIT SIZE AT DEPTH
 DFT .            KCL MUD:   DRILLING FLUID TYPE
 DFD .                8.8:   DRILLING FLUID DENSITY
 DFV .                 32:   DRILLING FLUID VISCOSITY
 DFPH.                  8:   DRILLING FLUID PH
 DFL .                7.7:   DRILLING FLUID LOSS
 MSS .            MUD PIT:   MUD SAMPLE SOURCE
 RMS .OHMM            .48:   RESISTIVITY MUD SAMPLE
 MST .F                47:   MUD SAMPLE TEMPERATURE
 RMF .OHMM            .43:   RESISTIVITY MUD FILTRATE SAMPLE
 MFST.F                47:   MUD FILTRATE SAMPLE TEMPERATURE
 RMC .OHMM            .52:   RESISTIVITY MUD CAKE
 MCST.F                47:   MUD CAKE SAMPLE TEMPERATURE
 MFSS.           FANN KIT:   MUD FILTRATE SAMPLE SOURCE
 MCSS.           FANN KIT:   MUD CAKE SAMPLE SOURCE
 RMB .OHMM            .41:   RESISTIVITY MUD AT BHT
 BHT .F                55:   BOTTOM HOLE TEMPERATURE
 TCS .HRS             1.5:   TIME CURCULATED STOPPED
 MRT .F                55:   MAXIMUM RECORDED TEMPERATURE
 LUN .               8611:   LOGGING UNIT NUMBER
 LUL .           GILLETTE:   LOGGING UNIT LOCATION
 ENGI.               DOAK:   RECORDING ENGINEER
 WITN.              BURKE:   WITNESSED BY
 CLNT.            A2DTECH:   CLIENT CODE
 ORIG.       2", 5" PRINT:   ORIGIN OF DATA
 UWI .       490251028600:   UNIQUE WELL ID
 DICO. A2D Technologies, Inc.:   DIGITIZING COMPANY
~OTHER INFORMATION
~A   DEPT      ILD        ILM        SPR       SGRD         GRD        CALD      CORR        RHOB     DPOR   
# ...
  395.0000    13.7848    14.3698   -40.2953    17.4883   103.1763     7.9640     0.0659     2.4415     0.9006
  395.5000    13.7858    14.5220   -40.3941    18.3377   103.2582     7.9631     0.0636     2.4341     0.8931
  396.0000    13.5174    14.6993   -40.4814    19.3668   100.3334     7.9622     0.0613     2.4325     0.8937
  396.5000    13.2036    13.9779   -40.5693    18.6026    99.3149     7.9626     0.0591     2.4416     0.9045
  397.0000    12.9261    13.2857   -40.6573    17.7408   100.2868     7.9631     0.0568     2.4503     0.9172
  397.5000    12.9813    14.2995   -40.7454    17.1855    98.9605     7.9636     0.0545     2.4444     0.9028
  398.0000    13.0324    14.1105   -40.8335    17.5134    95.2017     7.9641     0.0526     2.4280     0.8819
  398.5000    13.0841    13.7833   -40.9196    17.6631    92.8143     7.9647     0.0522     2.4112     0.8505
  399.0000    13.1359    13.8283   -40.9071    17.3169    95.7343     7.9652     0.0498     2.4041     0.8358
  399.5000    13.1880    13.9016   -40.7471    17.1882    99.9922     7.9657     0.0474     2.4036     0.8261
  400.0000    13.2402    13.9752   -40.5889    17.7860   103.2790     7.9663     0.0477     2.4068     0.8289
  400.5000    13.2956    14.0493   -40.4300    18.1562   102.5427     7.9668     0.0508     2.4085     0.8362
  401.0000    13.3705    14.1237   -40.2714    17.9431   100.6618     7.9673     0.0540     2.4062     0.8325
  401.5000    13.4457    14.3986   -40.1127    17.8291    98.2004     7.9678     0.0560     2.4041     0.8246
  402.0000    13.5214    14.9869   -39.9527    18.6721    95.7334     7.9684     0.0580     2.4020     0.8293
  402.5000    13.5975    15.6009   -39.7893    19.3668    93.1774     7.9689     0.0601     2.4044     0.8261
  403.0000    13.6740    16.4135   -39.7801    19.0745    92.4583     7.9694     0.0622     2.4113     0.8357
  403.5000    13.7833    16.2602   -39.7819    18.4968    94.4097     7.9700     0.0643     2.4184     0.8599
  404.0000    13.6331    16.0546   -39.7792    18.6555    93.1534     7.9705     0.0661     2.4193     0.8617
  404.5000    13.3788    15.8259   -39.9719    18.9314    93.9054     7.9710     0.0651     2.4181     0.8563
  405.0000    13.1292    16.3159   -40.2572    19.1896    95.0295     7.9715     0.0641     2.4193     0.8569
  405.5000    12.8842    16.7251   -40.5462    18.6230    96.1597     7.9721     0.0631     2.4273     0.8806
  406.0000    12.6439    16.4776   -40.8349    18.1119    96.8777     7.9726     0.0622     2.4354     0.8897
  406.5000    12.4080    16.2646   -41.1234    17.6148    95.1008     7.9731     0.0666     2.4369     0.8953
  407.0000    12.1759    16.0543   -41.4121    17.1313    93.4072     7.9737     0.0716     2.4420     0.9032
  407.5000    11.9709    15.8468   -41.7009    16.8724    97.0905     7.9742     0.0767     2.4531     0.9119
  408.0000    11.8289    15.6419   -41.9878    17.5043   100.9247     7.9747     0.0819     2.4569     0.9115
  408.5000    11.6887    15.3907   -42.1700    17.6458   102.1509     7.9752     0.0772     2.4372     0.8929
  409.0000    11.5487    15.6708   -42.1223    17.8024   101.4184     7.9758     0.0722     2.4253     0.8797
  409.5000    11.3654    16.0480   -41.7277    17.9604   100.6737     7.9763     0.0749     2.4302     0.8791
  410.0000    11.6136    16.4359   -41.4376    18.1186    99.9286     7.9768     0.0779     2.4334     0.8890
  410.5000    12.0269    16.8325   -41.0050    18.2800    99.1805     7.9774     0.0810     2.4296     0.8744
  411.0000    12.4513    17.2379   -40.5212    18.7958    98.4304     7.9779     0.0840     2.4172     0.8600
  411.5000    12.8870    17.6656   -40.0364    19.5744    97.6866     7.9784     0.0853     2.4005     0.8441
  412.0000    13.6799    18.6150   -39.5517    20.8446    93.5012     7.9790     0.0816     2.3782     0.7866
  412.5000    15.0621    19.6413   -39.0672    21.6841    88.1152     7.9795     0.0780     2.3540     0.7309
  413.0000    16.5902    20.7243   -38.5826    22.5472    82.6871     7.9800     0.0744     2.3284     0.6732
  413.5000    18.2721    21.9724   -38.0980    26.2285    79.7450     7.9805     0.0709     2.3099     0.6345
  414.0000    20.1237    23.3093   -37.6135    30.9276    80.5420     7.9811     0.0673     2.3110     0.6478
  414.5000    22.1634    24.7275   -37.1289    35.7453    81.9208     7.9816     0.0641     2.3305     0.6711
  415.0000    24.4087    26.2321   -36.6440    36.9113    80.3921     7.9821     0.0641     2.3491     0.7206
  415.5000    26.8822    27.8281   -36.1592    37.5399    78.3931     7.9821     0.0642     2.3725     0.7671
  416.0000    29.4975    29.5213   -35.6754    36.1451    77.3574     7.9821     0.0707     2.4011     0.8134
  416.5000    30.6879    31.3175   -35.4193    35.1997    79.1473     7.9821     0.0780     2.4299     0.8947
  417.0000    31.2625    33.2230   -35.4999    37.4058    79.9602     7.9821     0.0853     2.4602     0.9284
  417.5000    31.8479    36.6315   -35.5777    46.4335    79.1498     7.9821     0.0925     2.4428     0.8970
  418.0000    32.4049    39.6675   -35.6557    58.8968    79.1515     7.9821     0.0944     2.4061     0.8220
  418.5000    30.8086    36.7254   -35.7332    48.4718    82.5160     7.9821     0.0874     2.3630     0.7397
  419.0000    29.3615    33.6500   -35.8109    37.9061    85.8867     7.9821     0.0804     2.3416     0.6888
  419.5000    27.9761    30.8111   -35.8886    30.8846    87.2191     7.9821     0.0785     2.3268     0.6691
  420.0000    27.3742    28.2159   -35.9646    30.5185    84.4055     7.9821     0.0768     2.3246     0.6545
  420.5000    26.7781    25.8401   -35.9585    30.1075    83.3522     7.9821     0.0750     2.3255     0.6606
  421.0000    26.1949    23.0625   -35.8223    30.2629    85.1415     7.9821     0.0733     2.3286     0.6718
  421.5000    25.6245    23.5753   -35.6878    30.5191    83.4620     7.9821     0.0715     2.3257     0.6657
  422.0000    25.0515    24.2959   -35.5528    30.9379    84.6369     7.9821     0.0697     2.3227     0.6582
  422.5000    24.7215    25.2747   -35.4180    31.5235    87.1318     7.9821     0.0681     2.3258     0.6572
  423.0000    24.3868    24.7950   -35.2831    30.7000    89.1876     7.9821     0.0676     2.3334     0.6786
  423.5000    24.0567    24.2105   -35.1481    29.2886    87.2269     7.9821     0.0671     2.3499     0.7171
  424.0000    23.7073    23.7073   -35.0136    29.9821    89.9998     7.9821     0.0666     2.3555     0.7278
  424.5000    23.9290    24.6191   -34.8779    31.0111    93.7308     7.9821     0.0662     2.3584     0.7421
  425.0000    24.1705    25.4597   -34.8437    32.0925    92.0359     7.9821     0.0683     2.3723     0.7687
  425.5000    24.4145    26.4646   -34.8793    32.6949    88.9210     7.9821     0.0704     2.3886     0.7954
  426.0000    24.5911    25.1095   -34.9164    29.8385    90.3384     7.9821     0.0721     2.3946     0.8143
  426.5000    23.6066    23.5855   -34.9534    27.4782    91.4905     7.9821     0.0699     2.3849     0.7887
  427.0000    22.8563    22.1539   -34.9904    28.2892    88.5357     7.9821     0.0674     2.3737     0.7635
  427.5000    22.1276    21.8250   -35.0273    29.0206    86.9933     7.9821     0.0649     2.3623     0.7377
  428.0000    21.4228    22.3061   -35.0642    27.7170    88.2556     7.9821     0.0624     2.3607     0.7291
  428.5000    20.6539    22.8027   -35.1011    29.0069    87.1479     7.9821     0.0599     2.3782     0.7747
  429.0000    20.7208    23.3104   -35.1380    29.8320    88.3462     7.9821     0.0585     2.3922     0.8205
  429.5000    20.8199    23.8293   -35.1748    28.3639    89.0079     7.9821     0.0601     2.4104     0.8741
  430.0000    20.9195    24.3702   -35.2090    27.4634    84.3448     7.9821     0.0642     2.4413     0.9268
  430.5000    21.0195    23.8067   -35.3400    26.7126    80.6096     7.9821     0.0687     2.4712     0.9797
  431.0000    21.7858    23.2455   -35.4878    25.5170    76.7343     7.9821     0.0733     2.4992     1.0219
