~VERSION INFORMATION
 VERS.                2.0:   CWLS LOG ASCII STANDARD - VERSION 2.0
 WRAP.                 NO:   ONE LINE PER DEPTH STEP
~WELL INFORMATION
#MNEM.UNIT      DATA TYPE    INFORMATION
#----------   ------------   ------------------------------
 STRT.F           12.0000:   START DEPTH
 STOP.F          510.0000:   STOP DEPTH
 STEP.F            0.5000:   STEP LENGTH
 NULL.          -999.2500:   NO VALUE
 COMP. LAWRENCE-ALLISON &AS:   COMPANY
 WELL. NPR 3 #51-41SX10UP4:   WELL
 FLD .            NATRONA:   FIELD
 LOC .      S10 T38N R78W:   LOCATION
 CNTY.            NATRONA:   COUNTY
 STAT.            WYOMING:   STATE
 CTRY. UNITED STATES OF AMERICA:   COUNTRY
 SRVC.      Dresser Atlas:   SERVICE COMPANY
 DATE.        15-DEC-1984:   LOGDATE
 API .       490251100000:   API NUMBER
~CURVE INFORMATION
#MNEM.UNIT       API CODE    CURVE DESCRIPTION
#----------   ------------   ------------------------------
 DEPT.F                  :   
 RD  .OHMM   11 220 10 00:   RESISTIVITY DEEP
 RS  .OHMM   11 220 09 00:   RESISTIVITY SHALLOW
 SPR .MV     11 010 01 00:   SPONTANEOUS POTENTIAL FROM RES.
 DT  .US/F   60 520 00 00:   INTERVAL TRANSIT TIME
 CALD.IN     45 280 60 00:   CALIPER FROM DENSITY LOG
 CNC .DEC    42 890 00 00:   NEUTRON POROSITY
 CORR.G/C3   45 356 01 00:   DENSITY CORRECTION
 GRD .GAPI   45 310 01 00:   GAMMA RAY FROM DENSITY LOG
 PORD.DEC    45 890 00 00:   POROSITY DENSITY
 RHOB.G/C3   45 350 01 00:   BULK DENSITY
~PARAMETER INFORMATION
#MNEM.UNIT          VALUE    DESCRIPTION
#----------   ------------   ------------------------------
 PD  .                 GL:   PERMANENT DATUM
 EPD .F              5207:   ELEVATION PERMANENT DATUM
 LMF .                 GL:   LOG MEASURED FROM
 DMF .                 GL:   DRILLING MEASURED FROM
 EGL .F              5207:   GROUND LEVEL
 DATE.        15-DEC-1984:   RUN DATE
 RUN .                  1:   RUN NUMBER
 DD  .F               515:   DEPTH DRILLER
 DL  .F               511:   DEPTH LOGGER
 BLI .F               510:   BOTTOM LOG INTERVAL
 TLI .F                20:   TOP LOG INTERVAL
 CS  .IN            8.625:   CASING SIZE
 CBD .F                20:   CASING BOTTOM DRILLER
 CBL .F                20:   CASING BOTTOM LOGGER
 BS  .IN            7.875:   BIT SIZE
 BSD .F               515:   BIT SIZE AT DEPTH
 DFT .          KCL/WATER:   DRILLING FLUID TYPE
 MSS .           FLOWLINE:   MUD SAMPLE SOURCE
 RMS .OHMM           .129:   RESISTIVITY MUD SAMPLE
 MST .F                94:   MUD SAMPLE TEMPERATURE
 RMF .OHMM            .10:   RESISTIVITY MUD FILTRATE SAMPLE
 MFST.F                94:   MUD FILTRATE SAMPLE TEMPERATURE
 RMC .OHMM            .16:   RESISTIVITY MUD CAKE
 MCST.F                94:   MUD CAKE SAMPLE TEMPERATURE
 MFSS.               CALC:   MUD FILTRATE SAMPLE SOURCE
 MCSS.               CALC:   MUD CAKE SAMPLE SOURCE
 TCS .HRS               2:   TIME CURCULATED STOPPED
 MRT .F               100:   MAXIMUM RECORDED TEMPERATURE
 LUN .               6270:   LOGGING UNIT NUMBER
 LUL .                 FM:   LOGGING UNIT LOCATION
 ENGI.            LEBSOCK:   RECORDING ENGINEER
 WITN.          DAN LUERS:   WITNESSED BY
 CLNT.            A2DTECH:   CLIENT CODE
 ORIG.           5" PRINT:   ORIGIN OF DATA
 UWI .       490251100000:   UNIQUE WELL ID
 DICO. A2D Technologies, Inc.:   DIGITIZING COMPANY
~OTHER INFORMATION
~A   DEPT       RD         RS        SPR         DT       CALD          CNC     CORR         GRD      PORD       RHOB   
# ...
  347.0000    16.9807    14.5839   -57.4853    93.4050     7.8308     0.2305     0.0007    81.7764     0.1578     2.4149
  347.5000    16.9943    14.6996   -57.7669    93.4069     7.8321     0.2386     0.0084    81.7891     0.1545     2.4187
  348.0000    17.0079    14.8134   -57.7492    93.2566     7.8330     0.2427     0.0130    82.2443     0.1516     2.4210
  348.5000    17.1394    15.0342   -58.3267    93.4098     7.8340     0.2448     0.0071    83.7382     0.1541     2.4195
  349.0000    17.5121    15.2554   -58.3125    93.5630     7.8350     0.2435     0.0057    86.1222     0.1565     2.4166
  349.5000    17.8964    15.4799   -58.2982    93.7163     7.8360     0.2399     0.0134    86.1323     0.1583     2.4152
  350.0000    18.0348    15.7077   -58.2840    93.9454     7.8370     0.2429     0.0482    86.1424     0.1559     2.4213
  350.5000    18.5546    16.1604   -58.2692    94.0228     7.8381     0.2555     0.0619    86.5875     0.1516     2.4229
  351.0000    18.5694    16.1733   -58.2520    93.8728     7.8393     0.2579     0.0499    86.7359     0.1495     2.4237
  351.5000    18.5842    16.1866   -58.3858    93.7226     7.8403     0.2554     0.0260    85.5490     0.1505     2.4216
  352.0000    18.5990    16.2024   -58.2236    93.7241     7.8413     0.2410     0.0141    83.6084     0.1575     2.4157
  352.5000    18.6143    16.2153   -58.2094    93.7255     7.8423     0.2350     0.0082    81.3713     0.1599     2.4097
  353.0000    18.5006    16.2282   -57.7514    93.6508     7.8433     0.2325     0.0204    80.0593     0.1611     2.4068
  353.5000    18.1358    15.9082   -56.9970    93.5764     7.8443     0.2328     0.0175    80.2077     0.1623     2.4039
  354.0000    17.6558    15.5946   -56.3881    93.4265     7.8418     0.2289     0.0023    80.9496     0.1646     2.4033
  354.5000    17.1886    15.2774   -55.4863    93.2762     7.8425     0.2322    -0.0214    83.9606     0.1646     2.4034
  355.0000    16.7367    14.9856   -55.1762    93.1259     7.8430     0.2418    -0.0227    85.7499     0.1646     2.4057
  355.5000    16.2942    14.6931   -54.5703    92.9757     7.8436     0.2465    -0.0211    86.3539     0.1620     2.4125
  356.0000    15.8662    14.6007   -53.9644    92.8254     7.8442     0.2459     0.0088    84.1431     0.1525     2.4216
  356.5000    15.8788    14.6153   -53.3397    92.7510     7.8448     0.2276     0.0330    81.1916     0.1489     2.4300
  357.0000    15.6736    14.6270   -52.7489    92.7529     7.8453     0.2281     0.0452    82.2401     0.1459     2.4338
  357.5000    15.6861    14.6386   -52.1430    92.7544     7.8311     0.2323     0.0513    83.4963     0.1431     2.4354
  358.0000    15.6986    14.6507   -51.5371    92.8317     7.8318     0.2338     0.0439    85.8214     0.1440     2.4362
  358.5000    15.7111    14.6649   -51.0791    92.9850     7.8174     0.2310     0.0364    85.9782     0.1452     2.4363
  359.0000    15.9426    14.7783   -50.6723    93.2899     7.7885     0.2384     0.0215    85.2489     0.1440     2.4379
  359.5000    15.9582    15.0997   -50.3650    93.5949     7.7891     0.2491     0.0276    84.5225     0.1415     2.4402
  360.0000    16.4182    15.5349   -50.3535    93.7481     7.7896     0.2442     0.0292    85.4228     0.1391     2.4441
  360.5000    16.8914    16.4302   -49.7503    93.9795     7.7902     0.2352     0.0158    85.2861     0.1394     2.4434
  361.0000    17.8649    18.0809   -49.5909    94.2256     7.7909     0.2325     0.0174    82.0329     0.1454     2.4338
  361.5000    20.2451    20.5584   -49.1356    95.8015     7.7915     0.2345     0.0175    77.3119     0.1548     2.4136
  362.0000    22.5534    23.8365   -49.1241    97.4722     7.8217     0.2397     0.0161    78.2122     0.1714     2.3845
  362.5000    26.6359    26.2732   -49.1124    98.1565     7.7925     0.2549     0.0147    78.8162     0.1858     2.3516
  363.0000    28.9567    28.9590   -48.9504    98.8408     7.7932     0.2588     0.0163    75.8647     0.2014     2.3322
  363.5000    29.1763    28.5810   -48.6430   100.0563     7.7938     0.2627     0.0315    68.3206     0.2086     2.3263
  364.0000    28.9950    27.8164   -48.6316   101.8028     7.7944     0.2657     0.0346    67.5199     0.2095     2.3174
  364.5000    28.2241    27.8397   -48.4722   103.0183     7.8099     0.2774     0.0166    70.6016     0.2159     2.3010
  365.0000    28.2478    27.8649   -48.4607   103.4750     7.8105     0.2840     0.0136    72.9504     0.2277     2.2957
  365.5000    28.4625    28.7208   -48.4492   103.1920     7.8110     0.2830     0.0168    73.5545     0.2292     2.2921
  366.0000    29.4820    30.3104   -48.4377   102.5136     7.7966     0.2680     0.0134    75.9363     0.2289     2.2922
  366.5000    30.5380    31.1801   -48.4260   102.2135     7.8121     0.2580     0.0050    75.7996     0.2288     2.2938
  367.0000    31.1985    31.6348   -48.4119   101.9145     7.8127     0.2571    -0.0009    74.1814     0.2294     2.2947
  367.5000    31.2242    32.0961   -48.4004   101.5407     7.7985     0.2571     0.0007    73.0074     0.2287     2.2948
  368.0000    31.2452    32.1176   -48.3889   101.2416     7.7992     0.2571     0.0068    70.6488     0.2264     2.2956
  368.5000    31.2661    32.1392   -48.3774   100.8667     7.7998     0.2582     0.0099    73.0335     0.2275     2.2964
  369.0000    31.0666    32.3836   -48.9577   100.4160     7.8004     0.2582    -0.0020    75.4153     0.2275     2.2980
  369.5000    30.8787    32.6305   -49.0941   100.0411     7.8009     0.2570    -0.0125    75.4267     0.2239     2.3011
  370.0000    30.8994    32.8833   -49.5266    99.5144     7.8015     0.2603    -0.0184    70.6974     0.2181     2.3140
  370.5000    30.9201    32.9053   -49.9670    99.0574     7.8021     0.2630    -0.0107    71.0052     0.2142     2.3200
  371.0000    30.9411    32.9274   -50.0952    98.9164     7.8027     0.2605    -0.0001    72.4981     0.2130     2.3261
  371.5000    30.1182    32.2686   -50.5246    99.3772     7.8034     0.2509     0.0166    73.7066     0.2072     2.3330
  372.0000    29.3175    30.9851   -50.6639   100.1404     7.8039     0.2533     0.0303    75.6800     0.2021     2.3383
  372.5000    28.1514    29.7470   -50.6496   100.0678     7.8045     0.2701     0.0364    75.4954     0.2042     2.3311
  373.0000    27.0226    28.1628   -50.7860    99.9964     7.8051     0.2827     0.0350    72.8431     0.2105     2.3242
  373.5000    26.3041    26.6721   -50.9254    99.8491     7.8056     0.2844     0.0336    72.5554     0.2131     2.3235
  374.0000    26.3262    26.3240   -50.9110    98.7925     7.8062     0.2774     0.0338    73.7549     0.2092     2.3282
  374.5000    26.7101    26.7124   -50.8994    97.2795     7.8069     0.2582     0.0368    73.9145     0.2032     2.3372
  375.0000    27.0997    27.4788   -50.7396    96.3735     7.8223     0.2534     0.0460    73.7778     0.1929     2.3471
  375.5000    28.4849    29.0587   -50.7258    96.3779     7.8079     0.2498     0.0521    73.7482     0.1806     2.3647
  376.0000    29.4850    30.5180   -50.7143    96.0789     7.7938     0.2429     0.0552    71.2850     0.1701     2.3930
  376.5000    29.3018    30.7501   -50.7028    95.0719     7.7498     0.2413     0.0478    70.5529     0.1718     2.3916
  377.0000    28.7155    30.7707   -50.6913    93.8372     7.7505     0.2410     0.0463    71.0116     0.1718     2.3932
  377.5000    27.9520    29.9526   -50.6799    92.3756     7.7511     0.2347     0.0435    72.0601     0.1664     2.3985
  378.0000    27.4020    29.1562   -50.8166    92.0007     7.7814     0.2337     0.0285    75.3308     0.1625     2.4031
  378.5000    27.2310    28.1904   -50.8048    91.8523     7.7968     0.2397     0.0364    76.2312     0.1645     2.4009
  379.0000    26.5077    27.6264   -50.9635    93.2236     7.8122     0.2481     0.0483    76.2430     0.1681     2.3935
  379.5000    26.1333    26.8919   -51.0777    95.3525     7.8128     0.2589     0.0439    76.4051     0.1747     2.3816
  380.0000    25.4704    26.1769   -51.2113    96.7227     7.8134     0.2658     0.0380    77.4536     0.1820     2.3645
