~VERSION INFORMATION
 VERS.                2.0:   CWLS LOG ASCII STANDARD - VERSION 2.0
 WRAP.                 NO:   ONE LINE PER DEPTH STEP
~WELL INFORMATION
#MNEM.UNIT      DATA TYPE    INFORMATION
#----------   ------------   ------------------------------
 STRT.M         1049.9000:   START DEPTH
 STOP.M         2123.5000:   STOP DEPTH
 STEP.M            0.1000:   STEP LENGTH
 NULL.          -999.2500:   NO VALUE
 COMP. BROWN JOHN E&C INC:   COMPANY
 WELL. NAVAL PETROLEUM RESERVE 3 STX- #34-3:   WELL
 FLD .            WILDCAT:   FIELD
 LOC .       S3 T38N R78W:   LOCATION
 CNTY.            NATRONA:   COUNTY
 STAT.            WYOMING:   STATE
 CTRY. UNITED STATES OF AMERICA:   COUNTRY
 SRVC.            Unknown:   SERVICE COMPANY
 DATE.        04-SEP-1991:   LOGDATE
 API .       490251090400:   API NUMBER
~CURVE INFORMATION
#MNEM.UNIT       API CODE    CURVE DESCRIPTION
#----------   ------------   ------------------------------
 DEPT.M                  :   
 ROP .MIN/FT 91 810 01 00:   RAT OF DRILLING PENETRATION
 TGAS.UNITS  91 830 01 00:   TOTAL GAS FROM HOTWIRE
~PARAMETER INFORMATION
#MNEM.UNIT          VALUE    DESCRIPTION
#----------   ------------   ------------------------------
 EKB .F              5189:   KELLING BUSHING
 EGL .F              5179:   GROUND LEVEL
 DATE.             9-4-91:   RUN DATE
 DD  .F              2123:   DEPTH DRILLER
 CS  .IN            9.625:   CASING SIZE
 BS  .IN             8.75:   BIT SIZE
 BSD .F              2123:   BIT SIZE AT DEPTH
 ENGI.              TOWER:   RECORDING ENGINEER
 WITN.               HUSK:   WITNESSED BY
 CLNT.            A2DTECH:   CLIENT CODE
 ORIG.           5" PRINT:   ORIGIN OF DATA
 UWI .       490251090400:   UNIQUE WELL ID
 DICO. A2D Technologies, Inc.:   DIGITIZING COMPANY
~OTHER INFORMATION
~A  DEPT       ROP         TGAS 
# ...
 1122.8000     0.6580     4.6766
 1122.9000     0.6580     4.6783
 1123.0000     0.6580     4.7757
 1123.1000     0.6581     4.8960
 1123.2000     0.6581     4.8977
 1123.3000     0.6581     4.8994
 1123.4000     0.6581     4.9014
 1123.5000     0.6581     4.9029
 1123.6000     0.6582     4.9046
 1123.7000     0.6582     4.9063
 1123.8000     0.6582     4.9080
 1123.9000     0.6582     4.9097
 1124.0000     0.6582     4.9115
 1124.1000     0.6583     4.9131
 1124.2000     0.6583     4.9149
 1124.3000     0.6583     4.9166
 1124.4000     0.6583     4.9183
 1124.5000     0.6584     4.9200
 1124.6000     0.6584     4.9217
 1124.7000     0.6586     4.9235
 1124.8000     0.6675     4.9251
 1124.9000     0.6764     4.9269
 1125.0000     0.6852     4.9286
 1125.1000     0.6941     4.9303
 1125.2000     0.7026     4.9320
 1125.3000     0.7092     4.9337
 1125.4000     0.7159     4.9356
 1125.5000     0.7225     4.9371
 1125.6000     0.7292     4.9389
 1125.7000     0.7366     4.9406
 1125.8000     0.7454     4.9423
 1125.9000     0.7543     4.9440
 1126.0000     0.7632     4.9457
 1126.1000     0.7720     4.9477
 1126.2000     0.7809     4.7923
 1126.3000     0.7898     4.7366
 1126.4000     0.7986     4.7383
 1126.5000     0.8075     4.6779
 1126.6000     0.8164     4.5271
 1126.7000     0.8252     4.5292
 1126.8000     0.8341     4.3169
 1126.9000     0.8430     4.3183
 1127.0000     0.8518     4.2014
 1127.1000     0.8623     4.1074
 1127.2000     0.8678     4.0537
 1127.3000     0.8744     3.8963
 1127.4000     0.8811     3.8984
 1127.5000     0.8877     3.7251
 1127.6000     0.8946     3.5441
 1127.7000     0.9010     3.4749
 1127.8000     0.9077     3.3963
 1127.9000     0.9143     3.2640
 1128.0000     0.9210     3.2657
 1128.1000     0.9268     3.2676
 1128.2000     0.9172     3.1008
 1128.3000     0.9040     2.9198
 1128.4000     0.8907     2.7388
 1128.5000     0.8775     2.6314
 1128.6000     0.8627     2.5912
 1128.7000     0.8490     2.4205
 1128.8000     0.8336     2.4225
 1128.9000     0.8181     2.4240
 1129.0000     0.8027     2.2957
 1129.1000     0.7873     2.1148
 1129.2000     0.7741     2.0006
 1129.3000     0.7608     1.9669
 1129.4000     0.7476     1.7897
 1129.5000     0.7343     1.7917
 1129.6000     0.7206     1.7931
 1129.7000     0.7052     1.6715
 1129.8000     0.6897     1.5823
 1129.9000     0.6743     1.5840
 1130.0000     0.6588     1.5857
 1130.1000     0.6441     1.5875
 1130.2000     0.6309     1.5895
 1130.3000     0.6177     1.5909
 1130.4000     0.6044     1.4760
 1130.5000     0.5912     1.3800
 1130.6000     0.5802     1.3817
 1130.7000     0.5714     1.3834
 1130.8000     0.5625     1.3852
 1130.9000     0.5537     1.3869
 1131.0000     0.5449     1.3886
 1131.1000     0.5376     1.3903
 1131.2000     0.5309     1.3920
 1131.3000     0.5243     1.3937
 1131.4000     0.5177     1.3954
 1131.5000     0.5100     1.3973
 1131.6000     0.5045     1.3989
 1131.7000     0.4979     1.2658
 1131.8000     0.4913     1.1880
 1131.9000     0.4847     1.1897
 1132.0000     0.4779     1.1914
 1132.1000     0.4780     1.1931
 1132.2000     0.4780     1.1951
 1132.3000     0.4780     1.1966
 1132.4000     0.4780     1.1983
 1132.5000     0.4777     1.2000
 1132.6000     0.4755     1.1369
 1132.7000     0.4734     0.9888
 1132.8000     0.4712     0.9909
 1132.9000     0.4690     0.9929
 1133.0000     0.4668     0.9943
 1133.1000     0.4646     0.9960
 1133.2000     0.4624     0.9977
 1133.3000     0.4602     0.9994
 1133.4000     0.4580     1.0011
 1133.5000     0.4569     1.0029
 1133.6000     0.4569     1.0049
 1133.7000     0.4569     1.0063
 1133.8000     0.4569     1.0080
 1133.9000     0.4569     1.0097
 1134.0000     0.4570     1.0114
 1134.1000     0.4570     1.0131
 1134.2000     0.4570     1.0150
 1134.3000     0.4570     1.0166
 1134.4000     0.4570     1.0183
 1134.5000     0.4554     1.0200
 1134.6000     0.4532     1.0217
 1134.7000     0.4510     1.0234
 1134.8000     0.4488     1.0251
 1134.9000     0.4464     1.0270
 1135.0000     0.4465     1.0286
 1135.1000     0.4465     1.0303
 1135.2000     0.4465     1.0320
 1135.3000     0.4465     1.0337
 1135.4000     0.4466     1.0354
 1135.5000     0.4466     1.0371
 1135.6000     0.4466     1.0391
 1135.7000     0.4466     1.0406
 1135.8000     0.4466     1.0423
 1135.9000     0.4467     1.0440
 1136.0000     0.4467     1.0457
 1136.1000     0.4467     1.0474
 1136.2000     0.4467     1.0491
 1136.3000     0.4467     1.0512
 1136.4000     0.4459     1.0526
 1136.5000     0.4437     1.0543
 1136.6000     0.4415     1.0560
 1136.7000     0.4393     1.0014
 1136.8000     0.4371     0.8449
 1136.9000     0.4362     0.8469
 1137.0000     0.4362     0.8486
 1137.1000     0.4362     0.8503
 1137.2000     0.4362     0.8520
 1137.3000     0.4363     0.8537
 1137.4000     0.4363     0.8554
 1137.5000     0.4363     0.8571
 1137.6000     0.4363     0.8590
 1137.7000     0.4363     0.8606
 1137.8000     0.4364     0.8623
 1137.9000     0.4383     0.8640
 1138.0000     0.4405     0.8657
 1138.1000     0.4428     0.8674
 1138.2000     0.4450     0.8691
 1138.3000     0.4474     0.8710
 1138.4000     0.4540     0.8726
 1138.5000     0.4607     0.8871
 1138.6000     0.4673     0.9068
 1138.7000     0.4740     0.9265
 1138.8000     0.4802     0.9462
 1138.9000     0.4847     0.9659
 1139.0000     0.4891     0.9856
 1139.1000     0.4936     1.0053
 1139.2000     0.4980     1.0249
 1139.3000     0.5024     1.0446
 1139.4000     0.5069     1.0643
 1139.5000     0.5113     1.0840
 1139.6000     0.5158     1.1037
 1139.7000     0.5202     1.1234
 1139.8000     0.5224     1.1431
 1139.9000     0.5225     1.1628
 1140.0000     0.5225     1.1824
 1140.1000     0.5225     1.2021
 1140.2000     0.5225     1.2218
 1140.3000     0.5182     1.2415
 1140.4000     0.5116     1.2612
 1140.5000     0.5050     1.2809
 1140.6000     0.4983     1.3006
 1140.7000     0.4905     1.3202
 1140.8000     0.4833     1.3425
 1140.9000     0.4745     1.3440
 1141.0000     0.4657     1.3457
 1141.1000     0.4569     1.3474
 1141.2000     0.4478     1.2852
 1141.3000     0.4414     1.1363
 1141.4000     0.4347     1.1383
 1141.5000     0.4281     1.1403
 1141.6000     0.4215     1.1417
 1141.7000     0.4149     1.1434
 1141.8000     0.4083     1.1451
 1141.9000     0.4017     1.0895
 1142.0000     0.3951     0.9340
 1142.1000     0.3885     0.9361
 1142.2000     0.3812     0.9377
 1142.3000     0.3724     0.9394
 1142.4000     0.3624     0.9411
 1142.5000     0.3701     0.9429
 1142.6000     0.3790     0.9446
 1142.7000     0.3878     0.9463
 1142.8000     0.3967     0.9481
 1142.9000     0.4055     0.9497
 1143.0000     0.4122     0.9514
 1143.1000     0.4188     0.9531
 1143.2000     0.4255     0.9549
 1143.3000     0.4321     0.9566
 1143.4000     0.4392     0.9583
 1143.5000     0.4480     0.9602
 1143.6000     0.4569     0.7983
 1143.7000     0.4658     0.7491
 1143.8000     0.4746     0.7509
 1143.9000     0.4820     0.7526
 1144.0000     0.4864     0.7543
 1144.1000     0.4909     0.7560
 1144.2000     0.4953     0.7580
 1144.3000     0.4998     0.7594
 1144.4000     0.5042     0.8863
 1144.5000     0.5087     0.9771
 1144.6000     0.5131     0.9789
 1144.7000     0.5175     0.9806
 1144.8000     0.5220     0.9823
 1144.9000     0.5235     0.9843
 1145.0000     0.5236     0.9857
 1145.1000     0.5236     0.9874
 1145.2000     0.5236     0.9891
 1145.3000     0.5236     0.9909
 1145.4000     0.5236     0.9926
 1145.5000     0.5237     0.9944
 1145.6000     0.5237     0.9960
 1145.7000     0.5237     0.9977
 1145.8000     0.5237     0.9994
 1145.9000     0.5216     1.0011
 1146.0000     0.5194     1.0029
 1146.1000     0.5172     1.0046
 1146.2000     0.5150     1.0064
 1146.3000     0.5123     1.0080
 1146.4000     0.5057     1.0097
 1146.5000     0.4991     1.0114
 1146.6000     0.4925     1.0131
 1146.7000     0.4858     1.0149
 1146.8000     0.4792     1.0166
 1146.9000     0.4726     1.0185
 1147.0000     0.4660     1.0200
