~VERSION INFORMATION
 VERS.                2.0:   CWLS LOG ASCII STANDARD - VERSION 2.0
 WRAP.                 NO:   ONE LINE PER DEPTH STEP
~WELL INFORMATION
#MNEM.UNIT      DATA TYPE    INFORMATION
#----------   ------------   ------------------------------
 STRT.F            0.0000:   START DEPTH
 STOP.F         1110.0000:   STOP DEPTH
 STEP.F            0.5000:   STEP LENGTH
 NULL.          -999.2500:   NO VALUE
 COMP. FENIX & SCISSON INC:   COMPANY
 WELL. NAVAL PETROLEUM RESERVE 3 SX-1 #63-14:   WELL
 FLD .       TEA POT DOME:   FIELD
 LOC .      S14 T38N R78W:   LOCATION
 CNTY.            NATRONA:   COUNTY
 STAT.            WYOMING:   STATE
 CTRY. UNITED STATES OF AMERICA:   COUNTRY
 SRVC.            Unknown:   SERVICE COMPANY
 DATE.        15-APR-1978:   LOGDATE
 API .       490251061500:   API NUMBER
~CURVE INFORMATION
#MNEM.UNIT       API CODE    CURVE DESCRIPTION
#----------   ------------   ------------------------------
 DEPT.F                  :   
 NPHI.DEC    42 890 03 00:   NEUTRON POROSITY SANDSTONE
 GRD .GAPI   45 310 01 00:   GAMMA RAY FROM DENSITY LOG
 CALD.IN     45 280 60 00:   CALIPER FROM DENSITY LOG
 RHOB.G/C3   45 350 01 00:   BULK DENSITY
 DPHI.DEC    45 890 12 00:   DENSITY POROSITY SANDSTONE
 CORR.G/C3   45 356 01 00:   DENSITY CORRECTION
 SPR .MV     05 010 01 00:   SPONTANEOUS POTENTIAL FROM RES.
 SN  .OHMM   05 040 16 00:   SHORT NORMAL 16"
 ILD .OHMM   05 120 46 00:   INDUCTION LOG DEEP
~PARAMETER INFORMATION
#MNEM.UNIT          VALUE    DESCRIPTION
#----------   ------------   ------------------------------
 PD  .                 GL:   PERMANENT DATUM
 EPD .F              5253:   ELEVATION PERMANENT DATUM
 LMF .                 KB:   LOG MEASURED FROM
 DAPD.F                 4:   FEET ABOVE PERMANENT DATUM
 DMF .                 KB:   DRILLING MEASURED FROM
 EKB .F              5257:   KELLING BUSHING
 EGL .F              5253:   GROUND LEVEL
 DATE.          4-15-1978:   RUN DATE
 RUN .                  1:   RUN NUMBER
 DD  .F              1095:   DEPTH DRILLER
 DL  .F              1102:   DEPTH LOGGER
 BLI .F              1100:   BOTTOM LOG INTERVAL
 TLI .F               850:   TOP LOG INTERVAL
 CS  .IN            9.625:   CASING SIZE
 CBD .F                40:   CASING BOTTOM DRILLER
 CBL .F                40:   CASING BOTTOM LOGGER
 BS  .IN            7.875:   BIT SIZE
 BSD .F              1095:   BIT SIZE AT DEPTH
 DFT .                KCL:   DRILLING FLUID TYPE
 DFD .                8.6:   DRILLING FLUID DENSITY
 DFV .                 30:   DRILLING FLUID VISCOSITY
 DFPH.                 10:   DRILLING FLUID PH
 DFL .                  8:   DRILLING FLUID LOSS
 MSS .           FLOWLINE:   MUD SAMPLE SOURCE
 RMS .OHMM            .46:   RESISTIVITY MUD SAMPLE
 MST .F                58:   MUD SAMPLE TEMPERATURE
 RMF .OHMM             .5:   RESISTIVITY MUD FILTRATE SAMPLE
 MFST.F                60:   MUD FILTRATE SAMPLE TEMPERATURE
 RMC .OHMM             .5:   RESISTIVITY MUD CAKE
 MCST.F                60:   MUD CAKE SAMPLE TEMPERATURE
 MFSS.           MEASURED:   MUD FILTRATE SAMPLE SOURCE
 RMB .OHMM            .33:   RESISTIVITY MUD AT BHT
 BHT .F                80:   BOTTOM HOLE TEMPERATURE
 TCS .HRS               6:   TIME CURCULATED STOPPED
 MRT .F                80:   MAXIMUM RECORDED TEMPERATURE
 LUN .               2958:   LOGGING UNIT NUMBER
 LUL .               CASP:   LOGGING UNIT LOCATION
 ENGI.             MILLER:   RECORDING ENGINEER
 WITN.           MCGINLEY:   WITNESSED BY
 CLNT.            A2DTECH:   CLIENT CODE
 ORIG.      2" & 5" PRINT:   ORIGIN OF DATA
 UWI .       490251061500:   UNIQUE WELL ID
 DICO. A2D Technologies, Inc.:   DIGITIZING COMPANY
~OTHER INFORMATION
~A    DEPT    NPHI         GRD      CALD       RHOB       DPHI       CORR        SPR         SN        ILD   
# ...
  109.5000  -999.2500    95.9986     8.0160     2.4099     0.1340     0.0514   -52.0894     5.9226     5.7615
  110.0000  -999.2500    96.0964     8.0343     2.4069     0.1360     0.0518   -51.8284     5.9774     5.8145
  110.5000  -999.2500    91.4654     7.9665     2.4003     0.1384     0.0522   -51.5651     6.0326     5.8682
  111.0000  -999.2500    90.1443     7.9719     2.3937     0.1407     0.0526   -51.3019     6.0882     5.9223
  111.5000  -999.2500    90.4429     7.9868     2.3871     0.1432     0.0495   -51.0384     6.1443     5.9769
  112.0000  -999.2500    92.4139     7.9683     2.3805     0.1470     0.0461   -50.8005     6.2009     6.0319
  112.5000  -999.2500    94.5330     7.8718     2.3740     0.1511     0.0427   -50.7971     6.2581     6.0875
  113.0000  -999.2500   101.2884     7.7768     2.3753     0.1561     0.0435   -50.7982     6.3158     6.1436
  113.5000  -999.2500    96.1429     7.6893     2.3768     0.1530     0.0445   -50.7984     6.3740     6.2003
  114.0000  -999.2500    93.8429     7.6764     2.3783     0.1535     0.0455   -50.7984     6.4125     6.2378
  114.5000  -999.2500    94.8537     7.7232     2.3775     0.1526     0.0465   -50.7984     6.4042     6.1983
  115.0000  -999.2500    95.9252     7.6980     2.3755     0.1519     0.0475   -50.7984     6.3954     6.1571
  115.5000  -999.2500    95.5975     7.6416     2.3740     0.1547     0.0485   -50.7984     6.3866     6.1160
  116.0000  -999.2500    88.7639     7.6651     2.3745     0.1554     0.0495   -50.7984     6.3779     6.0753
  116.5000  -999.2500    86.5895     7.6555     2.3750     0.1551     0.0505   -50.7984     6.3695     5.9586
  117.0000  -999.2500    90.8641     7.6362     2.3754     0.1560     0.0515   -50.7984     6.3603     5.8273
  117.5000  -999.2500    91.1559     7.6965     2.3760     0.1569     0.0525   -50.7984     6.3127     5.6989
  118.0000  -999.2500    91.7551     7.6996     2.3828     0.1533     0.0535   -50.7984     6.1547     5.5733
  118.5000  -999.2500    96.6007     7.7088     2.3904     0.1486     0.0545   -50.7984     6.0007     5.5229
  119.0000  -999.2500    97.4217     7.7737     2.3979     0.1438     0.0538   -50.7984     5.8505     5.5068
  119.5000  -999.2500    96.6008     7.7465     2.4040     0.1380     0.0530   -50.7984     5.6368     5.4907
  120.0000  -999.2500    91.7161     7.6602     2.4034     0.1407     0.0499   -50.7984     5.6399     5.4832
  120.5000  -999.2500    88.3801     7.5715     2.4030     0.1428     0.0435   -50.7984     5.6493     5.4832
  121.0000  -999.2500    92.9904     7.5915     2.4026     0.1418     0.0429   -50.7984     5.6576     5.4831
  121.5000  -999.2500    94.9296     7.6551     2.4022     0.1415     0.0434   -50.7984     5.6659     5.4832
  122.0000  -999.2500    92.6545     7.8136     2.4022     0.1420     0.0439   -50.7984     5.6742     5.4832
  122.5000  -999.2500    90.7310     7.9708     2.4035     0.1407     0.0444   -50.7984     5.6825     5.4832
  123.0000  -999.2500    92.9853     8.0212     2.4047     0.1395     0.0469   -50.7984     5.6908     5.4832
  123.5000  -999.2500    97.3123     8.0675     2.4059     0.1386     0.0502   -50.7984     5.6992     5.4837
  124.0000  -999.2500    98.2180     8.0948     2.4069     0.1396     0.0534   -50.7984     5.7075     5.4647
  124.5000  -999.2500    97.2431     8.1168     2.4064     0.1407     0.0567   -50.7984     5.7159     5.4432
  125.0000  -999.2500    94.9846     8.1136     2.4058     0.1416     0.0600   -50.7984     5.7242     5.4218
  125.5000  -999.2500    90.2925     8.1092     2.4161     0.1331     0.0648   -50.7984     5.7326     5.4005
  126.0000  -999.2500    85.6742     8.1049     2.4250     0.1248     0.0763   -50.7984     5.7408     5.3793
  126.5000  -999.2500    83.0261     8.1007     2.4044     0.1405     0.0799   -50.7984     5.7059     5.3581
  127.0000  -999.2500    86.9173     8.0965     2.3994     0.1414     0.0666   -50.7984     5.6679     5.3370
  127.5000  -999.2500    92.1894     8.0923     2.3982     0.1423     0.0597   -50.7984     5.6301     5.3161
  128.0000  -999.2500    95.9513     8.0880     2.3991     0.1414     0.0555   -50.7984     5.5926     5.2952
  128.5000  -999.2500    94.5656     8.0838     2.4000     0.1408     0.0528   -50.7984     5.5553     5.2743
  129.0000  -999.2500    93.7565     8.0796     2.3915     0.1439     0.0538   -50.7984     5.5183     5.2536
  129.5000  -999.2500    92.9262     8.0667     2.3838     0.1471     0.0544   -50.7984     5.4816     5.2329
  130.0000  -999.2500    92.3274     8.0164     2.3839     0.1502     0.0535   -50.7984     5.4450     5.2124
  130.5000  -999.2500    92.9241     7.9441     2.3839     0.1500     0.0527   -50.7984     5.4088     5.1919
  131.0000  -999.2500    93.2767     7.8716     2.3840     0.1480     0.0549   -50.7984     5.3727     5.1714
  131.5000  -999.2500    89.5346     7.7996     2.3870     0.1513     0.0574   -50.7984     5.3369     5.1511
  132.0000  -999.2500    89.2085     7.7575     2.3900     0.1495     0.0598   -50.7984     5.3013     5.1308
  132.5000  -999.2500    88.8399     7.8316     2.3931     0.1479     0.0623   -50.7984     5.2662     5.1107
  133.0000  -999.2500    88.2215     7.9401     2.3962     0.1461     0.0616   -50.7984     5.2360     5.0934
  133.5000  -999.2500    87.6118     8.0518     2.3996     0.1427     0.0604   -50.7984     5.2362     5.0936
  134.0000  -999.2500    86.7168     8.0034     2.4055     0.1385     0.0593   -50.7984     5.2364     5.0930
  134.5000  -999.2500    84.0083     7.9406     2.4115     0.1343     0.0591   -50.7984     5.2610     5.0929
  135.0000  -999.2500    81.7848     7.9027     2.4175     0.1312     0.0619   -50.7984     5.3856     5.2151
  135.5000  -999.2500    82.1943     7.8657     2.4236     0.1290     0.0710   -50.7984     5.5130     5.3184
  136.0000  -999.2500    80.8267     7.8286     2.4297     0.1268     0.0772   -50.7984     5.6435     5.4238
  136.5000  -999.2500    77.0357     7.7901     2.4314     0.1172     0.0801   -50.7984     5.7771     5.5314
  137.0000  -999.2500    74.8859     7.7259     2.4218     0.1268     0.0793   -50.7984     5.9138     5.6412
  137.5000  -999.2500    73.6676     7.6018     2.4062     0.1347     0.0777   -50.7987     6.0538     5.7420
  138.0000  -999.2500    74.3048     7.6266     2.3908     0.1425     0.0747   -50.8036     6.1971     5.6849
  138.5000  -999.2500    78.3140     7.5989     2.3796     0.1504     0.0661   -50.8084     6.3538     5.6226
  139.0000  -999.2500    82.3072     7.5140     2.3783     0.1539     0.0578   -50.8133     6.1646     5.5610
  139.5000  -999.2500    86.3006     7.4383     2.3778     0.1533     0.0499   -50.8180     6.0023     5.5002
  140.0000  -999.2500    90.3026     7.4626     2.3772     0.1527     0.0467   -50.8228     5.8437     5.4399
  140.5000  -999.2500    89.6480     7.5340     2.3771     0.1526     0.0469   -50.8276     5.6895     5.3804
  141.0000  -999.2500    88.4889     7.6055     2.3785     0.1530     0.0472   -50.8324     5.5394     5.3215
  141.5000  -999.2500    91.6243     7.6331     2.3799     0.1533     0.0476   -50.8372     5.3933     5.2631
  142.0000  -999.2500    95.2204     7.6088     2.3813     0.1536     0.0480   -50.8420     5.2848     5.2056
  142.5000  -999.2500    94.7927     7.5571     2.3856     0.1511     0.0483   -50.8468     5.2848     5.1408
  143.0000  -999.2500    95.3847     7.5970     2.3889     0.1472     0.0477   -50.8516     5.3760     5.2221
  143.5000  -999.2500    96.3019     7.6839     2.3888     0.1489     0.0458   -50.8564     5.4838     5.3180
  144.0000  -999.2500    92.5845     7.7727     2.3904     0.1505     0.0439   -50.8611     5.5938     5.4156
  144.5000  -999.2500    87.8997     7.8611     2.3987     0.1383     0.0432   -50.8659     5.7059     5.5151
  145.0000  -999.2500    87.8495     7.9301     2.4062     0.1366     0.0461   -50.8707     5.8203     5.6163
  145.5000  -999.2500    87.3878     7.8391     2.4041     0.1357     0.0488   -50.8755     5.9370     5.7194
