~VERSION INFORMATION
 VERS.                2.0:   CWLS LOG ASCII STANDARD - VERSION 2.0
 WRAP.                 NO:   ONE LINE PER DEPTH STEP
~WELL INFORMATION
#MNEM.UNIT      DATA TYPE    INFORMATION
#----------   ------------   ------------------------------
 STRT.F            0.0000:   START DEPTH
 STOP.F          700.0000:   STOP DEPTH
 STEP.F            0.5000:   STEP LENGTH
 NULL.          -999.2500:   NO VALUE
 COMP. FENIX & SCISSON INC:   COMPANY
 WELL. 37-11 SX 11 WP #11-11:   WELL
 FLD .             TEAPOT:   FIELD
 LOC .      S11 T38N R78W:   LOCATION
 CNTY.            NATRONA:   COUNTY
 STAT.            WYOMING:   STATE
 CTRY. UNITED STATES OF AMERICA:   COUNTRY
 SRVC.      Dresser Atlas:   SERVICE COMPANY
 DATE.        21-AUG-1980:   LOGDATE
 API .       490251084200:   API NUMBER
~CURVE INFORMATION
#MNEM.UNIT       API CODE    CURVE DESCRIPTION
#----------   ------------   ------------------------------
 DEPT.F                  :   
 SPR .MV     07 010 01 00:   SPONTANEOUS POTENTIAL
 RFOC.OHMM   07 220 04 00:   RESISTIVITY FOCUSED LOG
 RILD.OHMM   07 120 46 00:   INDUCTION LOG DEEP RESISTIVITY
 RILM.OHMM   07 120 44 00:   INDUCTION LOG MEDIUM RESISTIVITY
 GRD .GAPI   45 310 01 00:   GAMMA RAY FROM DENSITY LOG
 CALD.IN     45 280 60 00:   CALIPER
 RHOB.G/C3   45 350 01 00:   BULK DENSITY
 CORR.G/C3   45 356 01 00:   DENSITY CORRECTION
 CNC .DEC    42 890 03 00:   NEUTRON POROSITY SANDSTONE
 PORD.DEC    45 890 12 00:   POROSITY DENSITY SANDSTONE
~PARAMETER INFORMATION
#MNEM.UNIT          VALUE    DESCRIPTION
#----------   ------------   ------------------------------
 PD  .                 GL:   PERMANENT DATUM
 EPD .F              5194:   ELEVATION PERMANENT DATUM
 LMF .                 KB:   LOG MEASURED FROM
 DAPD.F                 5:   FEET ABOVE PERMANENT DATUM
 DMF .                 KB:   DRILLING MEASURED FROM
 EKB .F              5199:   KELLING BUSHING
 EDF .F              5198:   DRILLING FLOOR
 EGL .F              5194:   GROUND LEVEL
 DATE.            8-21-80:   RUN DATE
 RUN .                  1:   RUN NUMBER
 DD  .F               695:   DEPTH DRILLER
 DL  .F               700:   DEPTH LOGGER
 BLI .F               699:   BOTTOM LOG INTERVAL
 BS  .IN            7.875:   BIT SIZE
 BSD .F               695:   BIT SIZE AT DEPTH
 DFT .      DISPERSED KCL:   DRILLING FLUID TYPE
 DFD .               2.68:   DRILLING FLUID DENSITY
 DFV .                 50:   DRILLING FLUID VISCOSITY
 DFPH.                 14:   DRILLING FLUID PH
 DFL .                 18:   DRILLING FLUID LOSS
 MSS .           FLOWLINE:   MUD SAMPLE SOURCE
 RMS .OHMM           .256:   RESISTIVITY MUD SAMPLE
 MST .F                70:   MUD SAMPLE TEMPERATURE
 RMF .OHMM           .393:   RESISTIVITY MUD FILTRATE SAMPLE
 MFST.F                66:   MUD FILTRATE SAMPLE TEMPERATURE
 RMC .OHMM           .858:   RESISTIVITY MUD CAKE
 MCST.F                66:   MUD CAKE SAMPLE TEMPERATURE
 MFSS.               MEAS:   MUD FILTRATE SAMPLE SOURCE
 MCSS.               MEAS:   MUD CAKE SAMPLE SOURCE
 RMB .OHMM            .53:   RESISTIVITY MUD AT BHT
 BHT .F                99:   BOTTOM HOLE TEMPERATURE
 TCS .HRS               3:   TIME CURCULATED STOPPED
 MRT .F                99:   MAXIMUM RECORDED TEMPERATURE
 LUN .               9369:   LOGGING UNIT NUMBER
 LUL .       ROCK SPRINGS:   LOGGING UNIT LOCATION
 ENGI.            PAULSON:   RECORDING ENGINEER
 WITN.              SCOTT:   WITNESSED BY
 CLNT.            A2DTECH:   CLIENT CODE
 ORIG.       2", 5" PRINT:   ORIGIN OF DATA
 UWI .       490251084200:   UNIQUE WELL ID
 DICO. A2D Technologies, Inc.:   DIGITIZING COMPANY
~OTHER INFORMATION
~A    DEPT     SPR       RFOC       RILD       RILM        GRD       CALD       RHOB       CORR        CNC         PORD 
# ...
  301.5000    -2.9843     7.9843     7.2077     7.4138    95.1861     8.0262     2.5130     0.0058     0.2912     0.0779
  302.0000    -3.2812     7.9843     7.2418     7.4132    96.9321     8.0267     2.5169     0.0082     0.2762     0.0713
  302.5000    -3.5776     7.9843     7.2769     7.4133    99.8241     8.0283     2.5266     0.0106     0.2762     0.0733
  303.0000    -3.9534     8.1163     7.2675     7.4133   101.0891     8.0299     2.5419     0.0141     0.2797     0.0696
  303.5000    -4.4709     8.2861     7.2572     7.4133   101.4042     8.0315     2.5605     0.0181     0.2853     0.0568
  304.0000    -4.9862     8.1924     7.2470     7.4106   101.9645     8.0331     2.5542     0.0227     0.2861     0.0593
  304.5000    -5.4986     8.0356     7.2368     7.3949   102.6553     8.0347     2.5588     0.0277     0.2719     0.0816
  305.0000    -5.7510     7.8818     7.2267     7.3795   101.6541     8.0363     2.5772     0.0394     0.2655     0.0940
  305.5000    -5.6434     7.7652     7.2165     7.3641   100.8871     8.0379     2.5831     0.0434     0.2747     0.0907
  306.0000    -5.4866     7.8916     7.2064     7.3488   100.4491     8.0394     2.5427     0.0323     0.2946     0.0895
  306.5000    -5.2601     7.9843     7.1964     7.3334    98.6718     8.0410     2.5218     0.0192     0.2897     0.0875
  307.0000    -4.6481     7.8511     7.1863     7.3182    98.1876     8.0426     2.5248     0.0114     0.2902     0.0821
  307.5000    -3.2263     7.7459     7.1762     7.3030    99.1952     8.0442     2.5268     0.0163     0.3070     0.0770
  308.0000    -1.6680     7.6940     7.1662     7.2878    99.9799     8.0458     2.5270     0.0213     0.3270     0.0911
  308.5000    -1.3175     7.8376     7.1561     7.2771   100.6966     8.0433     2.5386     0.0263     0.3300     0.1232
  309.0000    -1.5346     7.7823     7.1460     7.3352   101.8382     8.0385     2.5472     0.0190     0.3085     0.1335
  309.5000    -1.8734     7.7217     7.1441     7.3884   102.2749     8.0336     2.5336     0.0007     0.2862     0.1264
  310.0000    -2.2874     7.6930     7.1433     7.4809   101.7970     8.0288     2.4932    -0.0176     0.2621     0.1145
  310.5000    -2.7047     7.8272     7.2539     7.6090   101.3327     8.0262     2.4539    -0.0361     0.2455     0.1026
  311.0000    -3.3722     7.9725     7.4611     7.7395   101.2589     8.0262     2.4532    -0.0343     0.2540     0.0970
  311.5000    -4.4445     8.1205     7.6741     7.8721   101.9819     8.0262     2.4779    -0.0213     0.2673     0.0950
  312.0000    -5.5108     8.2710     7.8407     8.0070   102.9295     8.0262     2.5022    -0.0083     0.2773     0.0930
  312.5000    -6.5792     8.3905     7.9724     8.1442   101.0826     8.0262     2.5128    -0.0010     0.2772     0.0924
  313.0000    -7.6497     8.5295     8.1063     8.2838    98.9715     8.0262     2.5164    -0.0002     0.2771     0.0967
  313.5000    -8.7262     8.6708     8.2424     8.4258    98.5528     8.0262     2.5199     0.0037     0.2770     0.1032
  314.0000    -8.9169     8.8144     8.3809     8.5702    97.9114     8.0262     2.5234     0.0070     0.2769     0.1032
  314.5000    -6.3874     8.9481     8.5216     8.7171    96.9030     8.0248     2.5208     0.0057     0.2812     0.0985
  315.0000    -4.6459     9.0455     8.6453     8.8665    95.8436     8.0233     2.5104     0.0044     0.2768     0.0957
  315.5000    -1.7229     9.1440     8.7473     9.0075    95.9591     8.0218     2.5047     0.0032     0.2711     0.0891
  316.0000     1.4497     9.3064     8.8506     9.2786    96.4464     8.0204     2.5110     0.0113     0.2688     0.0785
  316.5000     2.3202     9.5026     9.0105     9.5390    97.7865     8.0189     2.5147     0.0178     0.2801     0.0681
  317.0000     2.0113     9.7029     9.3115     9.8067    97.7042     8.0174     2.5250     0.0193     0.2710     0.0654
  317.5000     1.0340     9.9136     9.5230    10.0819    95.4719     8.0159     2.5444     0.0207     0.2562     0.0603
  318.0000     1.4928    10.1755     9.5647    10.3650    93.2062     8.0144     2.5590     0.0299     0.2426     0.0544
  318.5000     2.2044    10.4443     9.8908    10.6560    92.3453     8.0129     2.5659     0.0409     0.2427     0.0672
  319.0000     2.9340    10.7201    10.2280    10.9581    92.4420     8.0114     2.5740     0.0518     0.2514     0.0911
  319.5000     3.6635    10.8454    10.4523    11.1495    92.7641     8.0099     2.5862     0.0595     0.2572     0.1182
  320.0000     3.8812    10.6869    10.3745    10.8508    92.5004     8.0084     2.5885     0.0528     0.2631     0.1182
  320.5000     3.4140    10.5265    10.2425    10.6369    90.6579     8.0069     2.5427     0.0285     0.2688     0.1090
  321.0000     2.9650    10.3686    10.1131    10.4272    88.5186     8.0060     2.4997     0.0117     0.2624     0.1021
  321.5000     2.5231    10.2134     9.9856    10.2215    87.3041     8.0061     2.4797     0.0159     0.2458     0.0999
  322.0000     2.1395    10.0605     9.8597    10.0199    86.7902     8.0061     2.4912     0.0217     0.2382     0.1038
  322.5000     2.2975     9.9750     9.7354     9.8226    87.0216     8.0061     2.5028     0.0396     0.2494     0.1065
  323.0000     2.4453     9.9750     9.6127     9.7488    86.8142     8.0061     2.5109     0.0365     0.2540     0.1047
  323.5000     2.4514     9.9758     9.4987     9.6981    84.8366     8.0061     2.5048     0.0336     0.2547     0.1047
  324.0000     1.8277     9.9774     9.4063     9.6477    84.1813     8.0061     2.4985     0.0308     0.2645     0.1048
  324.5000     1.2226     9.9779     9.3148     9.5975    87.4264     8.0061     2.5001     0.0274     0.2796     0.0950
  325.0000     0.7264     9.6564     9.2242     9.5476    91.6996     8.0061     2.5015     0.0238     0.2893     0.0887
  325.5000     0.2517     9.4155     9.1350     9.4979    92.7357     8.0061     2.5031     0.0262     0.2863     0.0911
  326.0000    -0.2181     9.3480     9.0905     9.3480    92.4312     8.0061     2.5139     0.0300     0.2845     0.0988
  326.5000    -0.7581     9.3480     9.0914     9.3625    94.1724     8.0061     2.5288     0.0330     0.2917     0.1077
  327.0000    -1.3039     9.3480     9.0914     9.3902    96.1399     8.0061     2.5294     0.0240     0.2982     0.1110
  327.5000    -1.8489     9.3480     9.0914     9.4180    96.6178     8.0060     2.5130     0.0148     0.2912     0.1129
  328.0000    -2.1292     9.3480     9.0915     9.4348    94.7732     8.0066     2.5003     0.0057     0.2724     0.1125
  328.5000    -1.8317     9.3480     9.0911     9.3484    92.7870     8.0073     2.4922    -0.0035     0.2501     0.0960
  329.0000    -1.2112     9.4119     9.0905     9.4079    90.8000     8.0081     2.4888    -0.0129     0.2530     0.0795
  329.5000    -1.0057     9.7491     9.1664     9.4839    88.7897     8.0088     2.4901    -0.0118     0.2551     0.0661
  330.0000    -1.2789    10.1631     9.2946     9.5612    87.8088     8.0096     2.5047    -0.0007     0.2495     0.0718
  330.5000    -1.5505    10.1608     9.4238     9.6388    88.2034     8.0103     2.5391     0.0101     0.2303     0.0875
  331.0000    -1.6558    10.1576     9.5230     9.7171    89.7939     8.0111     2.5661     0.0152     0.2245     0.0922
  331.5000    -1.1633    10.9525     9.4340     9.7917    89.6448     8.0118     2.5672     0.0014     0.2388     0.1000
  332.0000    -0.6757    10.6361     9.2956     9.6200    87.3894     8.0126     2.5376    -0.0037     0.2573     0.1186
  332.5000    -0.1763    10.0059     9.1615     9.4601    84.5215     8.0133     2.5251     0.0047     0.2740     0.1327
  333.0000    -0.3832     9.4094     9.0101     9.3029    83.5017     8.0141     2.5143     0.0008     0.2838     0.1257
  333.5000    -0.5356     9.1577     8.8450     9.1482    82.8099     8.0148     2.4879    -0.0036     0.2979     0.1072
  334.0000    -0.6145     9.0914     8.6830     8.9962    82.3799     8.0156     2.4553    -0.0088     0.2977     0.0980
  334.5000    -0.6840     9.1475     8.5239     8.8621    82.5342     8.0163     2.4497    -0.0096     0.2850     0.1229
