~VERSION INFORMATION
 VERS.                2.0:   CWLS LOG ASCII STANDARD - VERSION 2.0
 WRAP.                 NO:   ONE LINE PER DEPTH STEP
~WELL INFORMATION
#MNEM.UNIT      DATA TYPE    INFORMATION
#----------   ------------   ------------------------------
 STRT.F            4.0000:   START DEPTH
 STOP.F          470.0000:   STOP DEPTH
 STEP.F            0.5000:   STEP LENGTH
 NULL.          -999.2500:   NO VALUE
 COMP. BROWN JOHN E&C INC:   COMPANY
 WELL. NPR 3 SX-10 #74-1-10:   WELL
 FLD .             TEAPOT:   FIELD
 LOC .      S10 T38N R78W:   LOCATION
 CNTY.            NATRONA:   COUNTY
 STAT.            WYOMING:   STATE
 CTRY. UNITED STATES OF AMERICA:   COUNTRY
 SRVC.     Atlas Wireline:   SERVICE COMPANY
 DATE.        21-SEP-1983:   LOGDATE
 API .       490251094000:   API NUMBER
~CURVE INFORMATION
#MNEM.UNIT       API CODE    CURVE DESCRIPTION
#----------   ------------   ------------------------------
 DEPT.F                  :   
 GRR .GAPI   07 310 01 00:   GAMMA RAY FROM RES. LOG.
 RILD.OHMM   07 120 46 00:   INDUCTION LOG DEEP RESISTIVITY
 RILM.OHMM   07 120 44 00:   INDUCTION LOG MEDIUM RESISTIVITY
~PARAMETER INFORMATION
#MNEM.UNIT          VALUE    DESCRIPTION
#----------   ------------   ------------------------------
 PD  .                 GL:   PERMANENT DATUM
 EPD .F              5183:   ELEVATION PERMANENT DATUM
 LMF .                 KB:   LOG MEASURED FROM
 DAPD.F                10:   FEET ABOVE PERMANENT DATUM
 DMF .                 KB:   DRILLING MEASURED FROM
 EKB .F              5193:   KELLING BUSHING
 EGL .F              5183:   GROUND LEVEL
 DATE.        21-SEP-1991:   RUN DATE
 RUN .                  1:   RUN NUMBER
 DD  .F               480:   DEPTH DRILLER
 DL  .F               478:   DEPTH LOGGER
 BLI .F               470:   BOTTOM LOG INTERVAL
 CS  .IN                7:   CASING SIZE
 CBD .F                90:   CASING BOTTOM DRILLER
 CBL .F                90:   CASING BOTTOM LOGGER
 BS  .IN             6.25:   BIT SIZE
 BSD .F               480:   BIT SIZE AT DEPTH
 DFT .                AIR:   DRILLING FLUID TYPE
 TCS .HRS               1:   TIME CURCULATED STOPPED
 MRT .F                80:   MAXIMUM RECORDED TEMPERATURE
 LUN .             HL6307:   LOGGING UNIT NUMBER
 LUL .             CASPER:   LOGGING UNIT LOCATION
 ENGI.             RAUTIO:   RECORDING ENGINEER
 WITN.             STRONG:   WITNESSED BY
 CLNT.            A2DTECH:   CLIENT CODE
 ORIG.     1", 2.5" PRINT:   ORIGIN OF DATA
 UWI .       490251094000:   UNIQUE WELL ID
 DICO. A2D Technologies, Inc.:   DIGITIZING COMPANY
~OTHER INFORMATION
~A    DEPT       GRR     RILD       RILM   
# ...
   95.0000   122.2528     8.1420     7.0964
   95.5000   122.3204     7.4556     7.1815
   96.0000   121.5531     6.5866     7.2542
   96.5000   120.4073     6.7105     7.3275
   97.0000   119.3022     6.9249     7.7316
   97.5000   120.8166     7.1461     8.5502
   98.0000   122.0674     7.6724     9.1223
   98.5000   122.9316     8.4315     8.7844
   99.0000   124.6651     9.2658     8.4591
   99.5000   127.3176     9.7417     8.1926
  100.0000   128.5078     9.2589     8.0433
  100.5000   128.4655     8.4492     7.8968
  101.0000   131.1979     7.7104     7.7576
  101.5000   134.0751     7.0964     7.6341
  102.0000   135.2967     7.0964     7.5126
  102.5000   133.3566     7.0964     7.3752
  103.0000   131.7201     7.0964     7.3927
  103.5000   130.0263     7.0964     7.4282
  104.0000   128.1370     7.0964     7.4639
  104.5000   127.6513     7.0964     7.5038
  105.0000   129.8162     7.1536     7.5038
  105.5000   131.8800     7.2184     7.5044
  106.0000   132.5264     7.2838     7.5044
  106.5000   132.2216     7.3498     7.5044
  107.0000   131.9866     7.4163     7.5198
  107.5000   131.7797     7.4835     7.5838
  108.0000   131.4176     7.5252     7.6485
  108.5000   132.2367     7.5554     7.7136
  109.0000   133.9706     7.5858     7.7794
  109.5000   135.5402     7.6162     7.8458
  110.0000   135.9223     7.6456     7.9128
  110.5000   131.8451     7.7095     7.9435
  111.0000   128.0369     7.7716     7.9707
  111.5000   128.3126     7.8341     7.9976
  112.0000   130.0281     7.9360     8.0244
  112.5000   130.5809     7.9138     8.0515
  113.0000   129.8071     7.8569     8.0848
  113.5000   130.3322     7.8005     8.0201
  114.0000   135.0562     7.7444     7.9437
  114.5000   140.9338     7.6888     7.8681
  115.0000   143.2850     7.6335     7.7933
  115.5000   141.6452     7.5786     7.7191
  116.0000   140.4987     7.5044     7.6470
  116.5000   139.9202     7.5658     7.7606
  117.0000   138.1229     7.6635     7.8720
  117.5000   136.2670     7.7624     7.9864
  118.0000   135.6396     7.8626     8.0853
  118.5000   135.7654     7.9640     8.0853
  119.0000   136.8875     8.0853     8.0853
  119.5000   137.8269     8.0216     8.0853
  120.0000   139.1933     7.9448     8.0782
  120.5000   137.5166     7.8688     8.0524
  121.0000   133.8707     7.7935     8.0266
  121.5000   131.8227     7.7189     8.0009
  122.0000   132.0540     7.6456     7.9753
  122.5000   131.8778     7.5589     7.9498
  123.0000   130.0507     7.4739     7.8958
  123.5000   128.5434     7.3898     7.8087
  124.0000   129.7336     7.3067     7.7225
  124.5000   130.7890     7.2245     7.6373
  125.0000   130.8734     7.1426     7.5530
  125.5000   132.8409     7.0241     7.4144
  126.0000   135.2309     6.8567     7.2035
  126.5000   132.9912     6.6934     7.0148
  127.0000   127.8973     6.5344     6.8482
  127.5000   124.4853     6.3794     6.6855
  128.0000   126.5563     6.2283     6.5267
  128.5000   131.2852     6.1134     6.3456
  129.0000   136.4828     6.1134     6.3773
  129.5000   136.6652     6.1134     6.4158
  130.0000   134.5945     6.1134     6.4544
  130.5000   132.4710     6.1134     6.5920
  131.0000   132.8237     6.1134     6.7705
  131.5000   133.9790     6.3066     6.9538
  132.0000   134.1602     6.5596     7.1073
  132.5000   133.2639     6.8228     7.1530
  133.0000   132.4474     7.2299     7.1990
  133.5000   131.7416     7.2070     7.2453
  134.0000   130.8705     7.1638     7.2919
  134.5000   131.9085     7.1209     7.3659
  135.0000   133.2447     7.0782     7.3458
  135.5000   134.0594     7.0358     7.2988
  136.0000   134.2625     6.9936     7.2522
  136.5000   135.3163     6.9522     7.2058
  137.0000   136.8634     6.9104     7.1598
  137.5000   137.1130     6.8689     7.1140
  138.0000   137.3934     6.7582     7.0547
  138.5000   137.3298     6.4198     6.9872
  139.0000   135.7504     6.0980     6.5887
  139.5000   133.7347     5.7924     6.0674
  140.0000   131.6330     5.5022     5.5695
  140.5000   134.8405     5.2296     5.4181
  141.0000   136.8624     5.0406     5.2559
  141.5000   136.1696     4.9605     5.0771
  142.0000   135.5677     4.8816     5.0611
  142.5000   133.1255     4.7980     5.0293
  143.0000   128.2814     4.7980     4.9801
  143.5000   122.7077     4.7980     5.0237
  144.0000   125.7476     4.7980     5.1683
  144.5000   131.1224     4.9506     5.4693
  145.0000   133.5305     5.3209     5.8597
  145.5000   131.9505     5.7188     6.2313
  146.0000   129.8471     6.0866     6.5737
  146.5000   127.1953     6.3524     6.8980
  147.0000   127.0714     6.6298     7.1411
  147.5000   129.9809     6.9653     7.2419
  148.0000   134.3618     7.0392     7.3438
  148.5000   135.9313     7.1300     7.4472
  149.0000   136.4480     7.2225     7.5523
  149.5000   136.9779     7.3164     7.6594
  150.0000   137.3552     7.4114     7.7682
  150.5000   134.4994     7.5036     7.8377
  151.0000   133.8714     7.4497     7.8979
  151.5000   134.0801     7.3981     7.9587
  152.0000   136.7407     7.2782     8.0197
  152.5000   139.6782     7.0306     8.0813
  153.0000   138.4232     6.7105     8.1433
  153.5000   136.5904     6.7460     8.2059
  154.0000   135.6779     6.8007     8.2374
  154.5000   136.7530     6.9206     8.2374
  155.0000   137.3696     7.1689     8.2374
  155.5000   136.1511     7.4260     8.2374
  156.0000   134.2026     7.6924     8.2367
  156.5000   131.4192     7.9360     8.2510
  157.0000   130.0210     7.9360     8.2803
  157.5000   129.1478     7.9360     8.3097
  158.0000   130.4931     7.9360     8.3381
  158.5000   131.6423     7.9360     8.3655
  159.0000   132.9628     7.9133     8.3900
  159.5000   134.1575     7.8878     8.3171
  160.0000   135.5645     7.8624     8.2502
  160.5000   136.0712     7.8370     8.1838
  161.0000   136.7015     7.8117     8.1180
  161.5000   136.4587     7.7894     7.9493
  162.0000   135.4111     7.4464     7.6842
  162.5000   134.3326     7.1517     7.4279
  163.0000   133.9720     6.8686     7.1802
  163.5000   134.9954     6.5968     6.8183
  164.0000   136.7862     6.2041     6.4054
  164.5000   138.5061     5.7135     6.0030
  165.0000   137.5020     5.2617     5.3776
  165.5000   136.5909     4.8456     4.7967
  166.0000   139.2784     4.2631     4.2788
  166.5000   141.5476     3.6609     3.8170
  167.0000   139.9986     3.1253     3.4050
  167.5000   138.2262     2.8695     3.0895
  168.0000   138.3889     2.6256     2.8477
  168.5000   135.4397     2.4981     2.6584
  169.0000   131.0744     2.4269     2.5281
  169.5000   126.4296     2.4693     2.6072
  170.0000   123.3826     2.5562     2.7601
  170.5000   125.3348     2.6427     2.9062
  171.0000   129.9142     2.9225     3.4234
  171.5000   134.7763     3.1885     3.9032
  172.0000   138.2626     3.6381     4.3528
  172.5000   139.6662     4.0942     4.8542
  173.0000   140.8583     4.6078     5.2644
  173.5000   141.4515     4.9402     5.4961
  174.0000   142.3841     5.1628     5.7380
  174.5000   143.5526     5.3963     6.0005
  175.0000   144.7271     5.6359     6.0708
  175.5000   144.7829     5.8525     6.1448
  176.0000   144.8640     6.1134     6.2284
  176.5000   144.7664     5.9878     6.0964
  177.0000   145.8268     5.7442     5.9504
  177.5000   147.3464     5.5105     5.7274
  178.0000   148.2094     5.2863     5.4564
  178.5000   152.7442     5.0712     5.1983
  179.0000   156.4666     4.8877     4.9802
  179.5000   160.6880     4.7829     4.9356
  180.0000   159.3504     4.6909     4.8883
  180.5000   151.4239     4.5571     4.9203
  181.0000   146.6902     4.5839     4.9602
  181.5000   142.2348     4.7652     5.0869
  182.0000   142.2123     4.9536     5.3073
  182.5000   143.9001     5.1495     5.5371
  183.0000   145.3978     5.3530     5.7782
  183.5000   146.2860     5.5647     6.0307
  184.0000   146.2151     5.8258     6.2936
  184.5000   145.1488     6.1426     6.5676
  185.0000   144.1408     6.4766     6.8532
  185.5000   143.2153     6.8289     7.1514
