~VERSION INFORMATION
 VERS.                2.0:   CWLS LOG ASCII STANDARD - VERSION 2.0
 WRAP.                 NO:   ONE LINE PER DEPTH STEP
~WELL INFORMATION
#MNEM.UNIT      DATA TYPE    INFORMATION
#----------   ------------   ------------------------------
 STRT.F           24.5000:   START DEPTH
 STOP.F          750.0000:   STOP DEPTH
 STEP.F            0.5000:   STEP LENGTH
 NULL.          -999.2500:   NO VALUE
 COMP. FENIX & SCISSON INC:   COMPANY
 WELL.    NPR 3 SX #35-11:   WELL
 FLD .          N.P.R. #3:   FIELD
 LOC .      S11 T38N R78W:   LOCATION
 CNTY.            NATRONA:   COUNTY
 STAT.            WYOMING:   STATE
 CTRY. UNITED STATES OF AMERICA:   COUNTRY
 SRVC.            Unknown:   SERVICE COMPANY
 DATE.        23-FEB-1978:   LOGDATE
 API .       490251027200:   API NUMBER
~CURVE INFORMATION
#MNEM.UNIT       API CODE    CURVE DESCRIPTION
#----------   ------------   ------------------------------
 DEPT.F                  :   
 ILM .OHMM   07 120 44 00:   INDUCTION LOG MEDIUM
 ILD .OHMM   07 120 46 00:   INDUCTION LOG DEEP
 LL8 .OHMM   07 220 08 00:   LATEROLOG-8 RES.
 SPR .MV     07 010 01 00:   SPONTANEOUS POTENTIAL
 CALD.IN     45 280 60 00:   CALIPER FROM DENSITY LOG
 CORR.G/C3   45 356 01 00:   DENSITY CORRECTION
 DPHI.DEC    45 890 12 00:   DENSITY POROSITY SANDSTONE
 GRD .GAPI   45 310 01 00:   GAMMA RAY FROM DENSITY LOG
 RHOB.G/C3   45 350 01 00:   BULK DENSITY
 IL  .OHMM   05 120 40 00:   INDUCTION RESISTIVITY
 SN  .OHMM   05 040 16 00:   SHORT NORMAL 16"
 SPR1.MV     05 010 01 00:   SPONTANEOUS POTENTIAL INDUCTION ELECTRICAL LOG
~PARAMETER INFORMATION
#MNEM.UNIT          VALUE    DESCRIPTION
#----------   ------------   ------------------------------
 PD  .                 GL:   PERMANENT DATUM
 EPD .F              5204:   ELEVATION PERMANENT DATUM
 LMF .                 KB:   LOG MEASURED FROM
 DAPD.F                 4:   FEET ABOVE PERMANENT DATUM
 DMF .                 KB:   DRILLING MEASURED FROM
 EKB .F              5208:   KELLING BUSHING
 EGL .F              5204:   GROUND LEVEL
 DATE.        23-FEB-1978:   RUN DATE
 RUN .                  1:   RUN NUMBER
 DD  .F               755:   DEPTH DRILLER
 DL  .F               751:   DEPTH LOGGER
 BLI .F               745:   BOTTOM LOG INTERVAL
 TLI .F                45:   TOP LOG INTERVAL
 CS  .IN            8.625:   CASING SIZE
 CBD .F                40:   CASING BOTTOM DRILLER
 CBL .F                40:   CASING BOTTOM LOGGER
 BS  .IN            7.875:   BIT SIZE
 BSD .F               755:   BIT SIZE AT DEPTH
 DFT .         LIGNO SULF:   DRILLING FLUID TYPE
 DFD .                8.7:   DRILLING FLUID DENSITY
 DFV .                 33:   DRILLING FLUID VISCOSITY
 DFPH.                 10:   DRILLING FLUID PH
 DFL .                  4:   DRILLING FLUID LOSS
 MSS .           FLOWLINE:   MUD SAMPLE SOURCE
 RMS .OHMM            2.0:   RESISTIVITY MUD SAMPLE
 MST .F                60:   MUD SAMPLE TEMPERATURE
 RMF .OHMM            1.9:   RESISTIVITY MUD FILTRATE SAMPLE
 MFST.F                62:   MUD FILTRATE SAMPLE TEMPERATURE
 RMC .OHMM            3.5:   RESISTIVITY MUD CAKE
 MCST.F                60:   MUD CAKE SAMPLE TEMPERATURE
 MFSS.               MEAS:   MUD FILTRATE SAMPLE SOURCE
 RMB .OHMM           1.69:   RESISTIVITY MUD AT BHT
 BHT .F                71:   BOTTOM HOLE TEMPERATURE
 TCS .HRS               3:   TIME CURCULATED STOPPED
 MRT .F                71:   MAXIMUM RECORDED TEMPERATURE
 CLNT.            A2DTECH:   CLIENT CODE
 ORIG.           5" PRINT:   ORIGIN OF DATA
 UWI .       490251027200:   UNIQUE WELL ID
 DICO. A2D Technologies, Inc.:   DIGITIZING COMPANY
~OTHER INFORMATION
~A   DEPT      ILM        ILD        LL8        SPR       CALD       CORR       DPHI         GRD      RHOB         IL         SN       SPR1   
# ...
  108.5000     6.4626     6.5436     7.0420   -30.5527     8.3080     0.0250     0.1512   104.3481     2.4021     6.1684     7.0237   -36.1482
  109.0000     6.3786     6.5497     7.0909   -30.3827     8.3097     0.0282     0.1503   106.3020     2.4000     6.1282     7.0280   -36.2011
  109.5000     6.4306     6.5556     6.8718   -30.2133     8.3113     0.0373     0.1454   108.1072     2.4046     6.0989     7.0307   -36.2710
  110.0000     6.5262     6.5615     6.7366   -29.8953     8.3130     0.0344     0.1502   109.7587     2.4077     6.0908     7.0347   -36.2575
  110.5000     6.5778     6.5674     6.7421   -29.7259     8.3146     0.0360     0.1445   107.9972     2.4055     6.0511     7.0868   -36.2441
  111.0000     6.5373     6.4832     6.7477   -30.1508     8.3013     0.0399     0.1360   106.5286     2.4139     6.0542     7.0902   -36.2305
  111.5000     6.4095     6.3547     6.7069   -30.2793     8.3030     0.0377     0.1438   106.0967     2.4253     6.0142     7.0937   -36.1357
  112.0000     6.3278     6.2314     6.6663   -30.2577     8.3046     0.0280     0.1496   106.2698     2.4028     5.9757     7.0971   -36.0539
  112.5000     6.2904     6.1516     6.5337   -30.2369     8.3063     0.0227     0.1507   106.1356     2.4006     5.9781     7.1006   -35.9531
  113.0000     6.2531     6.1571     6.5405   -30.0674     8.3079     0.0198     0.1516   106.0062     2.4007     5.9803     7.1044   -35.8772
  113.5000     6.2161     6.1626     6.5459   -29.8980     8.3095     0.0153     0.1530   106.9233     2.4000     5.9827     7.1188   -35.8638
  114.0000     6.2237     6.2539     6.5514   -29.5800     8.3112     0.0185     0.1518   108.1332     2.4000     5.9855     7.1600   -35.8503
  114.5000     6.2728     6.3905     6.5568   -29.4106     8.3277     0.0170     0.1555   107.2598     2.3977     6.0294     7.1138   -35.8368
  115.0000     6.3224     6.4405     6.5622   -29.0926     8.3294     0.0156     0.1596   105.9399     2.3918     6.0319     7.0687   -35.9257
  115.5000     6.4609     6.4463     6.7051   -28.9231     8.3310     0.0142     0.1620   104.7689     2.3874     6.0345     7.0721   -35.9596
  116.0000     6.6481     6.5418     7.0915   -28.7548     8.3177     0.0211     0.1598   104.0443     2.3847     6.0370     7.0755   -35.9462
  116.5000     6.7006     6.6387     7.1960   -28.7329     8.3194     0.0189     0.1591   103.4636     2.3879     6.0395     7.0789   -36.0439
  117.0000     6.8474     6.7370     7.3021   -28.8658     8.3210     0.0220     0.1534   104.2271     2.3940     6.0420     7.0332   -36.0688
  117.5000     7.0459     6.9318     7.3587   -28.8398     8.3227     0.0249     0.1525   103.3585     2.3962     6.0680     7.0366   -36.0554
  118.0000     7.3003     7.2313     7.3648   -28.8190     8.3094     0.0352     0.1407   101.8898     2.4011     6.0897     7.0466   -36.0393
  118.5000     7.4602     7.3384     7.4220   -28.9519     8.2962     0.0385     0.1343    99.6771     2.4222     6.1346     7.0927   -36.0261
  119.0000     7.4674     7.3450     7.4281   -28.9259     8.2829     0.0500     0.1298    98.5061     2.4403     6.1798     7.0968   -36.0129
  119.5000     7.4232     7.2994     7.4343   -28.9050     8.2697     0.0422     0.1312    98.2230     2.4380     6.3124     7.1498   -35.9997
  120.0000     7.4290     7.2074     7.3172   -28.8842     8.2563     0.0523     0.1339    98.6937     2.4321     6.4033     7.2032   -35.8368
  120.5000     7.3847     7.0661     6.9876   -28.8634     8.2223     0.0484     0.1345    99.7548     2.4261     6.4505     7.3077   -35.6739
  121.0000     7.4433     6.9740     6.8591   -28.6939     8.2001     0.0440     0.1420   102.1552     2.4180     6.4532     7.3113   -35.6607
  121.5000     7.4505     6.9818     6.8741   -28.6731     8.1864     0.0509     0.1431   101.4306     2.4128     6.4558     7.3148   -35.4978
  122.0000     7.2956     6.9881     6.9662   -28.8061     8.1732     0.0548     0.1374   100.2595     2.4234     6.5034     7.3694   -35.4845
  122.5000     6.9978     6.8970     6.9717   -29.2258     8.1599     0.0556     0.1350    98.6420     2.4182     6.5061     7.3209   -35.4713
  123.0000     6.8698     6.5339     6.4518   -29.9479     8.1769     0.0527     0.1452    98.9591     2.4100     6.5541     7.3254   -35.6078
  123.5000     6.2639     5.8966     6.0830   -30.2242     8.1934     0.0596     0.1394    99.7226     2.4184     6.6484     7.2772   -35.4446
  124.0000     5.2345     5.2850     6.1305   -30.3572     8.2100     0.0332     0.1614    99.5298     2.3952     6.7442     7.2302   -35.4306
  124.5000     4.4353     4.2416     6.1355   -30.3311     8.2265     0.0257     0.1746    98.0114     2.3636     6.7985     7.1834   -35.4082
  125.0000     3.7625     3.6474     6.0426   -30.3103     8.2431     0.0205     0.1887    96.4782     2.3419     6.8441     7.1878   -35.2420
  125.5000     3.1732     2.9273     5.0508   -29.9923     8.2745     0.0175     0.2031    96.5670     2.3284     6.7064     7.1912   -35.0913
  126.0000     2.3029     2.2232     3.7089   -29.6743     8.2016     0.0252     0.2438   101.0457     2.2796     5.9624     7.0460   -35.0594
  126.5000     2.1873     2.1203     2.7253   -29.0591     8.1139     0.0290     0.2997   112.6920     2.1818     5.0848     6.5753   -34.8932
  127.0000     2.1743     2.1222     2.2870   -28.5925     8.0853     0.0246     0.3000   119.3036     2.1284     4.4584     5.8363   -34.7271
  127.5000     2.1086     2.1241     2.2358   -28.1259     8.0575     0.0232     0.3000   122.0833     2.0916     3.7758     4.9622   -34.5608
  128.0000     1.8570     1.8266     2.3347   -27.5107     7.9549     0.0377     0.3003   120.8353     2.0691     3.0250     4.1078   -34.4251
  128.5000     1.9204     1.9320     2.2820   -26.5983     7.8522     0.0309     0.3002   118.4911     2.0661     2.7461     3.3433   -34.3782
  129.0000     2.1465     2.0155     2.1955   -26.2803     7.7793     0.0265     0.3002   116.8859     2.0738     2.4414     2.8589   -34.2121
  129.5000     2.5054     2.3158     2.3540   -26.1109     7.7213     0.0433     0.3001   114.8170     2.1228     2.0534     2.7054   -34.0459
  130.0000     3.0003     2.7543     2.9710   -26.5358     7.8720     0.0630     0.2980   108.1548     2.2057     1.8900     2.5959   -33.8797
  130.5000     3.5128     3.5100     7.5590   -26.8121     7.9780     0.0949     0.2001   102.9659     2.3399     1.9040     2.5083   -33.7590
  131.0000     4.0193     4.2327     8.8789   -27.0937     8.0691     0.0980     0.1473    91.9734     2.3844     1.9859     2.4745   -33.7455
  131.5000     5.1803     5.7000     8.2367   -27.5134     8.1601     0.0936     0.1398    90.0583     2.4146     2.1340     2.6178   -33.8349
  132.0000     8.1808     8.4546     8.3077   -27.7898     8.2061     0.1036     0.1440    90.9706     2.4237     2.5799     2.8672   -34.0724
  132.5000     9.5961     9.7819     9.4608   -28.2147     8.1034     0.0741     0.1536    91.8828     2.4065     2.9127     3.0541   -34.2116
  133.0000    11.3526    10.9337    10.8418   -28.4910     8.1203     0.0651     0.1550    90.7118     2.3998     3.4182     3.5612   -34.2904
  133.5000    12.0240    11.9706    11.7683   -28.9160     8.1816     0.0432     0.1517    87.4574     2.3984     4.2405     4.6419   -34.3403
  134.0000    11.4516    10.9533    12.1726   -29.3461     8.2578     0.0327     0.1471    85.0959     2.4045     5.4464     6.7635   -34.5459
  134.5000    10.3786    10.0919    11.7614   -29.9196     8.2743     0.0267     0.1498    84.0736     2.4098     7.5503     8.2232   -34.6991
  135.0000     9.2011     8.8597    11.4431   -30.0474     8.3058     0.0208     0.1537    83.9186     2.4002     8.4993     8.7591   -34.6856
  135.5000     8.2831     7.8861    10.2934   -30.1751     8.3074     0.0163     0.1525    86.1958     2.3957     9.0509     9.5269   -34.6722
  136.0000     6.7883     6.4172     9.3195   -30.4514     8.3091     0.0217     0.1597    92.6141     2.3981     9.3743    10.2900   -34.6587
