~VERSION INFORMATION
 VERS.                2.0:   CWLS LOG ASCII STANDARD - VERSION 2.0
 WRAP.                 NO:   ONE LINE PER DEPTH STEP
~WELL INFORMATION
#MNEM.UNIT      DATA TYPE    INFORMATION
#----------   ------------   ------------------------------
 STRT.F           80.0000:   START DEPTH
 STOP.F          930.0000:   STOP DEPTH
 STEP.F            0.5000:   STEP LENGTH
 NULL.          -999.2500:   NO VALUE
 COMP. U S NAVY-INTEX OIL:   COMPANY
 WELL. RES 3 TEAPOT DOM #56-S-2:   WELL
 FLD .             TEAPOT:   FIELD
 LOC .       S2 T38N R78W:   LOCATION
 CNTY.            NATRONA:   COUNTY
 STAT.            WYOMING:   STATE
 CTRY. UNITED STATES OF AMERICA:   COUNTRY
 SRVC.       Schlumberger:   SERVICE COMPANY
 DATE.        24-JUN-1962:   LOGDATE
 API .       490250641900:   API NUMBER
~CURVE INFORMATION
#MNEM.UNIT       API CODE    CURVE DESCRIPTION
#----------   ------------   ------------------------------
 DEPT.F                  :   
 ASN .OHMM   05 041 16 00:   AMPLIFIED SHORT NORMAL 16"
 ILD .OHMM   05 120 46 00:   INDUCTION LOG DEEP
 CILD.MMHO   05 110 46 00:   CONDUCTIVITY INDUCTION LOG DEEP
 SPR .MV     05 010 01 00:   SPONTANEOUS POTENTIAL FROM RES.
 GR  .GAPI   30 310 01 00:   GAMMA RAY
~PARAMETER INFORMATION
#MNEM.UNIT          VALUE    DESCRIPTION
#----------   ------------   ------------------------------
 PD  .                 KB:   PERMANENT DATUM
 LMF .                 KB:   LOG MEASURED FROM
 DMF .                 KB:   DRILLING MEASURED FROM
 EKB .F              5179:   KELLING BUSHING
 EGL .F              5174:   GROUND LEVEL
 DATE.        24-JUN-1962:   RUN DATE
 RUN .                  1:   RUN NUMBER
 DD  .F               942:   DEPTH DRILLER
 DL  .F               931:   DEPTH LOGGER
 BLI .F               930:   BOTTOM LOG INTERVAL
 TLI .F                80:   TOP LOG INTERVAL
 BS  .IN             6.75:   BIT SIZE
 BSD .F               942:   BIT SIZE AT DEPTH
 DFT .       OIL EMULSION:   DRILLING FLUID TYPE
 DFD .                9.9:   DRILLING FLUID DENSITY
 DFV .                 55:   DRILLING FLUID VISCOSITY
 DFL .                3.7:   DRILLING FLUID LOSS
 RMS .OHMM            4.2:   RESISTIVITY MUD SAMPLE
 MST .F                79:   MUD SAMPLE TEMPERATURE
 RMF .OHMM            3.7:   RESISTIVITY MUD FILTRATE SAMPLE
 MFST.F                79:   MUD FILTRATE SAMPLE TEMPERATURE
 RMC .OHMM            4.0:   RESISTIVITY MUD CAKE
 MCST.F                79:   MUD CAKE SAMPLE TEMPERATURE
 TCS .HRS               1:   TIME CURCULATED STOPPED
 LUN .               2503:   LOGGING UNIT NUMBER
 LUL .               CSPR:   LOGGING UNIT LOCATION
 ENGI.             DANNER:   RECORDING ENGINEER
 WITN.          JORGENSEN:   WITNESSED BY
 CLNT.            A2DTECH:   CLIENT CODE
 ORIG.           5" PRINT:   ORIGIN OF DATA
 UWI .       490250641900:   UNIQUE WELL ID
 DICO. A2D Technologies, Inc.:   DIGITIZING COMPANY
~OTHER INFORMATION
~A   DEPT        ASN        ILD      CILD       SPR         GR   
# ...
  446.0000     6.9471     7.4144   149.3544   -58.1347  -999.2500
  446.5000     7.0074     7.4167   148.5824   -58.1362  -999.2500
  447.0000     6.9778     7.4940   147.8104   -58.1377  -999.2500
  447.5000     6.9335     7.4963   147.7880   -58.2883  -999.2500
  448.0000     6.8293     7.4985   147.0161   -58.1403  -999.2500
  448.5000     6.7848     7.5008   146.9937   -58.1421  -999.2500
  449.0000     6.7854     7.5030   146.9713   -58.1436  -999.2500
  449.5000     6.7858     7.5053   146.9489   -58.1451  -999.2500
  450.0000     6.8543     7.5075   146.1769   -58.1462  -999.2500
  450.5000     6.9950     7.5424   143.4796   -58.1380  -999.2500
  451.0000     7.1163     7.5773   140.9132   -58.1310  -999.2500
  451.5000     7.2066     7.5871   140.9057   -58.1228  -999.2500
  452.0000     7.2819     7.5135   142.3993   -58.1153  -999.2500
  452.5000     7.2227     7.4386   146.1380   -58.1079  -999.2500
  453.0000     7.1187     7.3649   149.8786   -58.1004  -999.2500
  453.5000     6.8353     7.2142   151.3704   -58.2424  -999.2500
  454.0000     6.6117     6.9169   153.6117   -58.3863  -999.2500
  454.5000     6.4478     6.7703   159.6012   -58.3769  -999.2500
  455.0000     6.3737     6.7718   162.7437   -58.2200  -999.2500
  455.5000     6.2846     6.7733   164.0858   -58.2125  -999.2500
  456.0000     6.2703     6.6997   164.8279   -58.2050  -999.2500
  456.5000     6.2858     6.7012   165.5700   -58.0481  -999.2500
  457.0000     6.3163     6.7778   166.3121   -58.0406  -999.2500
  457.5000     6.3169     6.7042   167.0542   -58.0331  -999.2500
  458.0000     6.3175     6.6306   167.7963   -58.0257  -999.2500
  458.5000     6.3181     6.5570   168.5384   -58.0182  -999.2500
  459.0000     6.3038     6.5585   168.5307   -58.0107  -999.2500
  459.5000     6.2745     6.6351   168.5831   -57.8538  -999.2500
  460.0000     6.2302     6.6366   169.3155   -57.6968  -999.2500
  460.5000     6.1710     6.6381   170.7572   -57.9902  -999.2500
  461.0000     6.0969     6.5645   170.0000   -57.9808  -999.2500
  461.5000     6.0824     6.5660   168.4933   -57.8239  -999.2500
  462.0000     6.0981     6.6426   166.9865   -57.8164  -999.2500
  462.5000     6.2631     6.7192   163.9805   -57.9603  -999.2500
  463.0000     6.3833     6.8773   160.9745   -57.9509  -999.2500
  463.5000     6.5035     7.0225   157.9685   -58.0948  -999.2500
  464.0000     6.6087     7.1062   154.9624   -58.0854  -999.2500
  464.5000     6.6990     7.3258   151.2068   -58.0780  -999.2500
  465.0000     6.7444     7.4024   148.9504   -58.8179  -999.2500
  465.5000     6.7899     7.4039   146.6940   -58.6609  -999.2500
  466.0000     6.8503     7.4054   147.4361   -58.5040  -999.2500
  466.5000     6.9406     7.3318   148.1784   -58.4965  -999.2500
  467.0000     6.9412     7.3333   148.1707   -58.4890  -999.2500
  467.5000     6.8969     7.3348   148.1632   -58.4816  -999.2500
  468.0000     6.7779     7.3363   148.9056   -57.7267  -999.2500
  468.5000     6.8234     7.3378   149.6477   -57.5698  -999.2500
  469.0000     6.8987     7.2642   150.3898   -57.5623  -999.2500
  469.5000     6.8842     7.1906   152.6308   -57.7062  -999.2500
  470.0000     6.8401     7.0420   159.3699   -57.5473  -999.2500
  470.5000     6.6014     6.9582   160.8636   -57.0914  -999.2500
  471.0000     6.5872     6.8948   161.6057   -57.0840  -999.2500
  471.5000     6.5729     6.8964   161.5963   -57.2278  -999.2500
  472.0000     6.4838     6.8228   160.8391   -57.3698  -999.2500
  472.5000     6.4394     6.8994   158.5827   -57.8108  -999.2500
  473.0000     6.4250     6.9760   156.3263   -57.8014  -999.2500
  473.5000     6.4258     7.0643   154.0699   -57.7940  -999.2500
  474.0000     6.4862     7.2042   151.8135   -57.7865  -999.2500
  474.5000     6.6526     7.2930   149.5571   -57.7790  -999.2500
  475.0000     6.8510     7.5075   144.3022   -57.7715  -999.2500
  475.5000     7.0180     7.7343   140.5466   -57.9154  -999.2500
  476.0000     7.1954     7.8238   136.0413   -57.9061  -999.2500
  476.5000     7.3452     8.1259   134.5345   -57.8986  -999.2500
  477.0000     7.4651     8.1892   134.5270   -57.8911  -999.2500
  477.5000     7.5832     8.1018   136.0187   -57.8837  -999.2500
  478.0000     7.5970     7.9530   138.2601   -58.0275  -999.2500
  478.5000     7.5200     7.8040   141.2511   -58.0182  -999.2500
  479.0000     7.3701     7.6552   143.4943   -58.3097  -999.2500
  479.5000     7.1757     7.4312   147.2330   -58.6011  -999.2500
  480.0000     6.9696     7.2221   150.9736   -58.5937  -999.2500
  480.5000     6.8343     6.9988   154.7142   -58.5862  -999.2500
  481.0000     6.6418     6.7751   159.9541   -58.5787  -999.2500
  481.5000     6.4779     6.7766   164.4443   -58.5712  -999.2500
  482.0000     6.3761     6.7781   166.6876   -58.5638  -999.2500
  482.5000     6.3767     6.7796   165.9285   -58.7058  -999.2500
  483.0000     6.3773     6.8561   165.1714   -58.8478  -999.2500
  483.5000     6.3779     6.9327   162.1654   -58.9917  -999.2500
  484.0000     6.4532     7.1594   158.4097   -58.8328  -999.2500
  484.5000     6.6332     7.3862   152.4052   -58.5264  -999.2500
  485.0000     6.8879     7.4627   149.3992   -58.6703  -999.2500
  485.5000     7.0386     7.4643   147.1428   -58.6609  -999.2500
  486.0000     6.9638     7.4658   146.3856   -58.6535  -999.2500
  486.5000     6.9495     7.5423   144.1292   -58.6460  -999.2500
  487.0000     7.1295     7.6189   141.8728   -58.7880  -999.2500
  487.5000     7.1326     7.6955   139.6164   -58.7805  -999.2500
  488.0000     7.1008     7.6970   139.6089   -58.9244  -999.2500
  488.5000     7.1163     7.6985   139.6014   -59.0664  -999.2500
  489.0000     7.2066     7.7000   140.3454   -59.2065  -999.2500
  489.5000     7.3716     8.0018   135.8382   -59.1991  -999.2500
  490.0000     7.4769     8.0784   132.8322   -59.1916  -999.2500
  490.5000     7.5223     8.0048   132.0769   -59.1841  -999.2500
  491.0000     7.6275     8.0063   133.5687   -58.8777  -999.2500
  491.5000     7.5343     7.9327   135.0604   -58.8702  -999.2500
  492.0000     7.2699     8.0093   136.5521   -58.8627  -999.2500
  492.5000     7.3902     8.0108   138.0439   -59.0066  -999.2500
  493.0000     7.6599     7.8621   139.5356   -58.6983  -999.2500
  493.5000     7.4811     7.7131   141.1572   -58.8403  -999.2500
  494.0000     7.1080     7.3396   144.2582   -58.8328  -999.2500
  494.5000     6.9591     7.1906   148.6182   -58.8254  -999.2500
  495.0000     6.8700     7.1925   151.4995   -58.9692  -999.2500
  495.5000     6.8405     7.1940   152.9912   -58.8104  -999.2500
  496.0000     6.8413     7.1955   153.0635   -58.8029  -999.2500
  496.5000     6.8268     7.1970   153.7955   -58.7955  -999.2500
  497.0000     6.8126     7.1985   154.4679   -58.6385  -999.2500
  497.5000     6.8132     7.2000   153.7107   -58.3321  -999.2500
  498.0000     6.8138     7.2015   153.6630   -58.3246  -999.2500
  498.5000     6.8144     7.2030   152.9460   -58.4685  -999.2500
  499.0000     6.8299     7.2795   152.9386   -58.4591  -999.2500
  499.5000     6.8455     7.2810   152.1814   -58.4517  -999.2500
  500.0000     6.8854     7.2825   151.4243   -58.4442  -999.2500
  500.5000     6.9430     7.2844   151.4168   -58.4611  -999.2500
  501.0000     6.9963     7.2868   150.1454   -58.7325  -999.2500
  501.5000     7.0116     7.2890   149.1066   -59.0255  -999.2500
  502.0000     6.9970     7.2162   147.5851   -59.6114  -999.2500
  502.5000     6.7732     7.2185   147.5628   -59.7535  -999.2500
  503.0000     6.8932     7.2312   147.5405   -59.5964  -999.2500
  503.5000     7.0430     7.3731   147.5182   -59.5890  -999.2500
  504.0000     6.9685     7.3754   147.4959   -59.5815  -999.2500
  504.5000     6.9840     7.3781   148.2234   -59.5742  -999.2500
  505.0000     7.0292     7.3803   148.2009   -59.7162  -999.2500
  505.5000     7.1491     7.4576   147.4288   -59.8582  -999.2500
  506.0000     7.2392     7.5349   146.6065   -59.8325  -999.2500
  506.5000     7.2844     7.6123   145.1349   -59.2257  -999.2500
