~VERSION INFORMATION
 VERS.                2.0:   CWLS LOG ASCII STANDARD - VERSION 2.0
 WRAP.                 NO:   ONE LINE PER DEPTH STEP
~WELL INFORMATION
#MNEM.UNIT      DATA TYPE    INFORMATION
#----------   ------------   ------------------------------
 STRT.F           35.0000:   START DEPTH
 STOP.F          601.0000:   STOP DEPTH
 STEP.F            0.5000:   STEP LENGTH
 NULL.          -999.2500:   NO VALUE
 COMP. FENIX & SCISSON INC:   COMPANY
 WELL. NPR #3 71SX #71-15:   WELL
 FLD .             TEAPOT:   FIELD
 LOC .      S15 T38N R78W:   LOCATION
 CNTY.            NATRONA:   COUNTY
 STAT.            WYOMING:   STATE
 CTRY. UNITED STATES OF AMERICA:   COUNTRY
 SRVC.              Welex:   SERVICE COMPANY
 DATE.        10-MAR-1977:   LOGDATE
 API .       490251031200:   API NUMBER
~CURVE INFORMATION
#MNEM.UNIT       API CODE    CURVE DESCRIPTION
#----------   ------------   ------------------------------
 DEPT.F                  :   
 SPR .MV     07 010 01 00:   SPONTANEOUS POTENTIAL
 SGRD.OHMM   07 220 05 00:   SHALLOW RESISTIVITY
 DRES.OHMM   07 120 46 00:   INDUCTION LOG DEEP
 MRES.OHMM   07 120 44 00:   INDUCTION LOG MEDIUM
 GRD .GAPI   45 310 01 00:   GAMMA RAY FROM DENSITY LOG
 CALD.IN     45 280 60 00:   CALIPER
 RHOB.G/C3   45 350 01 00:   BULK DENSITY
 DPHI.DEC    45 890 12 00:   DENSITY POROSITY
 CORR.G/C3   45 356 01 00:   DENSITY CORRECTION
~PARAMETER INFORMATION
#MNEM.UNIT          VALUE    DESCRIPTION
#----------   ------------   ------------------------------
 PD  .                 GL:   PERMANENT DATUM
 EPD .F              5241:   ELEVATION PERMANENT DATUM
 LMF .                 GL:   LOG MEASURED FROM
 DMF .                 GL:   DRILLING MEASURED FROM
 EGL .F              5241:   GROUND LEVEL
 DATE.            3-10-77:   RUN DATE
 RUN .                  1:   RUN NUMBER
 DD  .F               600:   DEPTH DRILLER
 DL  .F               603:   DEPTH LOGGER
 BLI .F               601:   BOTTOM LOG INTERVAL
 TLI .F                35:   TOP LOG INTERVAL
 CS  .IN            8.625:   CASING SIZE
 CBD .F                40:   CASING BOTTOM DRILLER
 CBL .F                40:   CASING BOTTOM LOGGER
 BS  .IN            7.875:   BIT SIZE
 BSD .F               600:   BIT SIZE AT DEPTH
 DFT .            KCL MUD:   DRILLING FLUID TYPE
 DFD .                8.6:   DRILLING FLUID DENSITY
 DFV .                 10:   DRILLING FLUID VISCOSITY
 DFPH.                7.2:   DRILLING FLUID PH
 DFL .                  8:   DRILLING FLUID LOSS
 MSS .            MUD PIT:   MUD SAMPLE SOURCE
 RMS .OHMM            .36:   RESISTIVITY MUD SAMPLE
 MST .F                47:   MUD SAMPLE TEMPERATURE
 RMF .OHMM            .35:   RESISTIVITY MUD FILTRATE SAMPLE
 MFST.F                47:   MUD FILTRATE SAMPLE TEMPERATURE
 RMC .OHMM            .40:   RESISTIVITY MUD CAKE
 MCST.F                47:   MUD CAKE SAMPLE TEMPERATURE
 MFSS.           FANN KIT:   MUD FILTRATE SAMPLE SOURCE
 MCSS.           FANN KIT:   MUD CAKE SAMPLE SOURCE
 RMB .OHMM            .31:   RESISTIVITY MUD AT BHT
 BHT .F                53:   BOTTOM HOLE TEMPERATURE
 TCS .HRS             1.5:   TIME CURCULATED STOPPED
 MRT .F                53:   MAXIMUM RECORDED TEMPERATURE
 LUN .               8611:   LOGGING UNIT NUMBER
 LUL .           GILLETTE:   LOGGING UNIT LOCATION
 ENGI.               DOAK:   RECORDING ENGINEER
 WITN.         STUEBINGER:   WITNESSED BY
 CLNT.            A2DTECH:   CLIENT CODE
 ORIG.       2", 5" PRINT:   ORIGIN OF DATA
 UWI .       490251031200:   UNIQUE WELL ID
 DICO. A2D Technologies, Inc.:   DIGITIZING COMPANY
~OTHER INFORMATION
~A   DEPT      SPR       SGRD       DRES       MRES         GRD      CALD       RHOB       DPHI       CORR   
# ...
  436.5000   -22.5303    20.8547    14.9909    18.3776    82.7423     7.8685     2.4175     0.1372     0.0683
  437.0000   -22.5107    20.9619    15.0543    18.1519    81.7721     7.8695     2.4178     0.1369     0.0683
  437.5000   -22.4910    21.0694    15.1177    17.9286    81.5323     7.8704     2.4181     0.1367     0.0679
  438.0000   -22.4716    21.1777    15.1812    17.7079    83.2731     7.8713     2.4169     0.1388     0.0661
  438.5000   -22.4711    21.2864    15.2450    17.4902    85.4002     7.8723     2.4104     0.1407     0.0643
  439.0000   -22.5823    21.3957    15.2997    17.2756    85.9199     7.8733     2.4098     0.1416     0.0627
  439.5000   -22.6940    21.5056    15.2454    17.0933    86.0018     7.8742     2.4106     0.1418     0.0582
  440.0000   -22.8054    21.6160    15.1882    17.7659    86.0636     7.8751     2.4034     0.1464     0.0532
  440.5000   -22.9168    21.7339    15.1311    18.4044    86.9044     7.8761     2.3986     0.1516     0.0507
  441.0000   -23.0282    21.4230    15.0742    17.7530    88.4188     7.8770     2.3989     0.1502     0.0518
  441.5000   -23.1395    21.0963    15.0176    17.0844    89.9398     7.8780     2.3993     0.1488     0.0529
  442.0000   -23.2509    20.7746    14.9612    16.7792    90.6464     7.8789     2.3997     0.1487     0.0541
  442.5000   -23.3622    20.4578    14.9050    17.0397    90.2626     7.8799     2.4001     0.1498     0.0552
  443.0000   -23.4736    20.1459    14.8490    17.2376    89.7177     7.8808     2.4017     0.1503     0.0563
  443.5000   -23.5849    19.8387    14.7933    17.4120    88.0167     7.8818     2.4095     0.1437     0.0575
  444.0000   -23.6963    19.5362    14.7446    16.7638    85.3165     7.8827     2.4170     0.1370     0.0586
  444.5000   -23.8076    19.2383    14.6750    16.0908    82.6105     7.8837     2.4137     0.1375     0.0597
  445.0000   -23.9190    18.9216    14.6000    15.4448    81.0040     7.8847     2.4101     0.1403     0.0608
  445.5000   -24.0303    18.9216    14.5254    15.0196    81.6898     7.8855     2.4195     0.1352     0.0619
  446.0000   -24.1417    19.1770    14.4512    15.2229    82.8459     7.8815     2.4358     0.1239     0.0631
  446.5000   -24.2531    19.6807    14.3774    15.4071    84.0854     7.8644     2.4558     0.1126     0.0642
  447.0000   -24.3644    20.1977    14.3039    15.5934    85.3634     7.8478     2.4759     0.1013     0.0653
  447.5000   -24.4758    20.5620    14.2309    15.8756    85.8664     7.8303     2.4887     0.0946     0.0657
  448.0000   -24.5871    19.5131    14.0266    15.5916    85.3832     7.8414     2.4724     0.1059     0.0614
  448.5000   -24.6985    18.7489    13.6738    15.0484    85.6339     7.8621     2.4550     0.1161     0.0591
  449.0000   -24.8098    18.2352    13.3299    14.4747    85.9670     7.8833     2.4543     0.1102     0.0622
  449.5000   -24.9212    18.2730    12.9946    14.6664    86.0407     7.9052     2.4533     0.1161     0.0628
  450.0000   -25.0325    18.3021    12.6677    14.8814    84.5004     7.8987     2.4421     0.1245     0.0568
  450.5000   -25.1439    18.3311    12.3491    15.0997    81.6738     7.8832     2.4235     0.1328     0.0511
  451.0000   -25.2553    18.3600    12.0385    15.3211    80.4492     7.8680     2.4041     0.1412     0.0453
  451.5000   -25.3666    18.4035    11.7039    15.5457    79.6979     7.8662     2.3970     0.1487     0.0404
  452.0000   -25.4780    18.2687    11.7754    15.7737    80.0499     7.8662     2.3944     0.1451     0.0440
  452.5000   -25.5893    17.9991    11.8790    16.0050    80.7967     7.8663     2.4047     0.1380     0.0475
  453.0000   -25.7007    17.7327    11.9843    16.1716    81.5381     7.8663     2.4165     0.1302     0.0510
  453.5000   -25.8121    17.4702    12.1457    15.9175    82.6080     7.8663     2.4390     0.1224     0.0544
  454.0000   -25.9239    17.2116    12.0861    15.7230    82.8293     7.8663     2.4472     0.1138     0.0578
  454.5000   -26.0344    16.9568    11.8778    15.5309    82.7200     7.8663     2.4485     0.1176     0.0600
  455.0000   -26.0375    16.4732    11.6742    15.3412    83.5839     7.8663     2.4452     0.1212     0.0586
  455.5000   -26.0253    16.5415    11.4742    15.1537    84.8955     7.8663     2.4368     0.1249     0.0574
  456.0000   -26.0130    16.6851    11.2775    14.9686    86.7049     7.8663     2.4291     0.1274     0.0563
  456.5000   -26.0007    16.8299    11.0842    14.7857    88.6201     7.8663     2.4337     0.1238     0.0565
  457.0000   -25.9886    16.9361    10.8790    14.6051    89.2531     7.8663     2.4412     0.1204     0.0568
  457.5000   -25.9765    16.7267    10.9339    14.4266    88.9804     7.8663     2.4487     0.1171     0.0571
  458.0000   -25.9643    16.5639    11.0074    14.2504    87.6619     7.8663     2.4554     0.1137     0.0573
  458.5000   -25.9522    16.4027    11.0814    14.0763    86.3462     7.8662     2.4552     0.1110     0.0576
  459.0000   -25.9400    16.2431    11.1560    13.9042    86.2014     7.8583     2.4541     0.1155     0.0578
  459.5000   -25.9279    16.0851    11.2311    13.7340    86.6936     7.8395     2.4379     0.1245     0.0581
  460.0000   -25.9157    15.8756    11.3067    13.5659    86.5252     7.8211     2.4276     0.1309     0.0577
  460.5000   -25.9036    15.9239    11.3827    13.4388    86.3442     7.8095     2.4203     0.1347     0.0554
  461.0000   -25.8914    15.9975    11.4593    13.4206    87.7382     7.8277     2.4134     0.1385     0.0532
  461.5000   -25.8792    16.3078    11.5364    13.4024    89.0329     7.8453     2.4097     0.1419     0.0508
  462.0000   -25.8672    16.7522    11.6140    13.3842    88.7999     7.8630     2.4157     0.1384     0.0523
  462.5000   -25.8556    17.0933    11.6922    13.3661    87.3384     7.8663     2.4213     0.1352     0.0551
  463.0000   -25.8979    16.7950    11.8126    13.3480    85.8918     7.8663     2.4269     0.1320     0.0580
  463.5000   -26.0088    16.5158    11.6487    13.3299    84.4712     7.8663     2.4326     0.1278     0.0608
  464.0000   -26.1193    16.4732    11.4001    13.2658    83.4096     7.8663     2.4360     0.1298     0.0602
  464.5000   -26.2304    16.4732    11.1567    13.0468    84.2599     7.8663     2.4219     0.1338     0.0560
  465.0000   -26.3425    16.3266    10.9185    12.8314    86.2460     7.8663     2.4222     0.1348     0.0521
  465.5000   -26.4402    16.1006    10.6855    12.6196    88.4832     7.8663     2.4274     0.1329     0.0489
  466.0000   -26.2924    15.8778    10.4574    12.4111    91.2527     7.8663     2.4330     0.1310     0.0465
  466.5000   -26.1398    15.6581    10.2341    12.2065    94.7224     7.8663     2.4353     0.1295     0.0517
  467.0000   -25.9887    15.4414    10.0157    12.0057    95.0705     7.8663     2.4470     0.1228     0.0568
  467.5000   -25.8381    15.2276     9.8019    11.8139    91.7090     7.8663     2.4612     0.1138     0.0618
  468.0000   -25.6870    15.0172     9.6400    12.0350    91.5045     7.8663     2.4538     0.1038     0.0645
  468.5000   -25.5353    14.8107     9.7549    12.2549    90.8416     7.8663     2.4735     0.1034     0.0650
  469.0000   -25.1857    14.6113     9.8680    12.4789    88.1112     7.8663     2.4661     0.1084     0.0655
  469.5000   -24.5554    15.0885     9.9824    12.7069    86.0380     7.8663     2.4572     0.1149     0.0660
  470.0000   -23.9286    15.5686    10.0949    12.9391    84.3222     7.8663     2.4485     0.1215     0.0669
  470.5000   -23.3015    16.0657    10.3866    13.3843    79.6487     7.8663     2.4395     0.1252     0.0693
  471.0000   -22.6745    16.5786    11.3595    14.1501    77.4886     7.8663     2.4269     0.1315     0.0718
  471.5000   -22.0521    17.6993    12.4236    14.9596    75.3822     7.8663     2.4031     0.1434     0.0695
  472.0000   -21.4367    19.3015    13.5867    15.8155    73.2487     7.8663     2.3798     0.1618     0.0655
  472.5000   -20.8295    21.0497    14.8573    16.7203    71.2551     7.8663     2.3551     0.1755     0.0615
