~VERSION INFORMATION
 VERS.                2.0:   CWLS LOG ASCII STANDARD - VERSION 2.0
 WRAP.                 NO:   ONE LINE PER DEPTH STEP
~WELL INFORMATION
#MNEM.UNIT      DATA TYPE    INFORMATION
#----------   ------------   ------------------------------
 STRT.F           11.0000:   START DEPTH
 STOP.F          807.0000:   STOP DEPTH
 STEP.F            0.5000:   STEP LENGTH
 NULL.          -999.2500:   NO VALUE
 COMP. BROWN JOHN E&C INC:   COMPANY
 WELL. NPR 3 SHX-34 #77-1-34:   WELL
 FLD .             TEAPOT:   FIELD
 LOC .      S34 T39N R79W:   LOCATION
 CNTY.            NATRONA:   COUNTY
 STAT.            WYOMING:   STATE
 CTRY. UNITED STATES OF AMERICA:   COUNTRY
 SRVC.     Atlas Wireline:   SERVICE COMPANY
 DATE.        07-DEC-1991:   LOGDATE
 API .       490252248000:   API NUMBER
~CURVE INFORMATION
#MNEM.UNIT       API CODE    CURVE DESCRIPTION
#----------   ------------   ------------------------------
 DEPT.F                  :   
 CALD.IN     45 280 60 00:   CALIPER FROM DENSITY LOG
 CORR.G/C3   45 356 01 00:   DENSITY CORRECTION
 DEN .G/C3   45 350 01 00:   COMPENSATED BULK DENSTIY
 GRD .GAPI   45 310 01 00:   GAMMA RAY FROM DENSITY LOG
 PORD.DEC    45 890 12 00:   POROSITY DENSITY SANDSTONE
 GRR .GAPI   07 310 01 00:   GAMMA RAY FROM RESISTIVITY
 RILD.OHMM   07 120 46 00:   RESISTIVITY INDUCTION LOG DEEP
 RILM.OHMM   07 120 44 00:   RESITIVITY INDUCTION LOG MEDIUM
~PARAMETER INFORMATION
#MNEM.UNIT          VALUE    DESCRIPTION
#----------   ------------   ------------------------------
 PD  .                 GL:   PERMANENT DATUM
 EPD .F              5098:   ELEVATION PERMANENT DATUM
 LMF .                 KB:   LOG MEASURED FROM
 DAPD.F                10:   FEET ABOVE PERMANENT DATUM
 DMF .                 KB:   DRILLING MEASURED FROM
 EKB .F              5108:   KELLING BUSHING
 EDF .F              5107:   DRILLING FLOOR
 EGL .F              5098:   GROUND LEVEL
 DATE.        07-DEC-1991:   RUN DATE
 RUN .                  1:   RUN NUMBER
 DD  .F               810:   DEPTH DRILLER
 DL  .F               810:   DEPTH LOGGER
 BLI .F               808:   BOTTOM LOG INTERVAL
 CS  .IN            9.625:   CASING SIZE
 CBD .F                85:   CASING BOTTOM DRILLER
 CBL .F                97:   CASING BOTTOM LOGGER
 BS  .IN             8.75:   BIT SIZE
 BSD .F               810:   BIT SIZE AT DEPTH
 DFT .                AIR:   DRILLING FLUID TYPE
 BHT .F                90:   BOTTOM HOLE TEMPERATURE
 MRT .F                90:   MAXIMUM RECORDED TEMPERATURE
 LUN .            HL 6274:   LOGGING UNIT NUMBER
 LUL .             CASPER:   LOGGING UNIT LOCATION
 ENGI.       P. RASMUSSEN:   RECORDING ENGINEER
 WITN.        GARY STRONG:   WITNESSED BY
 CLNT.            A2DTECH:   CLIENT CODE
 ORIG.           5" PRINT:   ORIGIN OF DATA
 UWI .       490252248000:   UNIQUE WELL ID
 DICO. A2D Technologies, Inc.:   DIGITIZING COMPANY
~OTHER INFORMATION
~A   DEPT     CALD       CORR        DEN        GRD       PORD         GRR      RILD       RILM   
# ...
  497.0000     9.1793     0.0081     2.3853   154.0896     0.1598   109.6757     5.2420     5.0908
  497.5000     9.1791     0.0080     2.3823   155.5854     0.1604   107.3923     4.8506     4.6848
  498.0000     9.1790     0.0080     2.3763   157.1370     0.1640   103.6381     4.5653     4.4938
  498.5000     9.1788     0.0080     2.3477   159.4779     0.1732   105.1310     4.5336     4.4623
  499.0000     9.1787     0.0095     2.3356   157.3687     0.1882   107.2245     4.5647     4.5238
  499.5000     9.1786     0.0109     2.3296   150.4561     0.1912   108.1189     4.7247     4.7583
  500.0000     9.1784     0.0109     2.3514   146.5465     0.1927   108.7087     4.9242     5.0866
  500.5000     9.1782     0.0094     2.3785   145.6385     0.1704   109.0004     5.2394     5.4125
  501.0000     9.1931     0.0092     2.3958   143.8311     0.1551   109.2920     5.5750     5.6801
  501.5000     9.1930     0.0078     2.4063   142.0236     0.1478   109.8840     5.8912     6.0441
  502.0000     9.1928     0.0048     2.4131   141.7176     0.1451   111.6750     6.2684     6.3441
  502.5000     9.1776     0.0047     2.4131   142.0122     0.1436   114.3691     6.5784     6.7026
  503.0000     9.1775     0.0047     2.4093   142.0051     0.1436   117.6877     6.9066     6.9856
  503.5000     9.1624     0.0077     2.4033   141.6991     0.1478   120.0575     7.1456     7.1806
  504.0000     9.1472     0.0077     2.3980   141.3931     0.1508   115.8425     7.2947     7.3810
  504.5000     9.1471     0.0076     2.4010   140.4745     0.1517   111.6297     7.4468     7.4828
  505.0000     9.1469     0.0076     2.4032   139.5785     0.1490   109.8214     7.6022     7.5895
  505.5000     9.1768     0.0076     2.4047   138.3716     0.1469   112.8136     7.7608     7.8515
  506.0000     9.1916     0.0045     2.4032   136.2639     0.1472   111.1832     7.9842     8.0153
  506.5000     9.2065     0.0015     2.4002   134.1561     0.1503   112.1936     8.2003     8.2387
  507.0000     9.2063     0.0030     2.3964   132.9478     0.1515   114.2870     8.3713     8.4103
  507.5000     9.2061     0.0074     2.3927   135.3445     0.1524   110.9751     8.4872     8.5854
  508.0000     9.2060     0.0199     2.3813   135.9408     0.1609   107.3629     8.4866     8.7038
  508.5000     9.2058     0.0315     2.3686   133.5313     0.1666   106.1530     8.4859     8.8238
  509.0000     9.1907     0.0405     2.3738   131.7237     0.1678   107.9820     8.4270     8.9455
  509.5000     9.1905     0.0419     2.3881   132.3173     0.1648   110.9384     8.3109     8.9441
  510.0000     9.2354     0.0359     2.4024   133.5128     0.1491   113.3322     8.1963     8.8812
  510.5000     9.2652     0.0283     2.4190   135.9096     0.1346   115.7260     8.0834     8.6978
  511.0000     9.2650     0.0223     2.4302   139.5075     0.1280   118.7203     7.8627     8.4551
  511.5000     9.2649     0.0192     2.4408   148.5094     0.1250   121.1141     7.5921     8.1142
  512.0000     9.2498     0.0162     2.4468   150.6072     0.1232   122.0064     7.2364     7.7834
  512.5000     9.2346     0.0132     2.4436   147.5971     0.1251   121.0947     6.9423     7.2625
  513.0000     9.2345     0.0101     2.4355   144.8887     0.1286   120.4854     6.5688     6.5915
  513.5000     9.2343     0.0071     2.4287   139.3951     0.1338   119.2756     5.8814     5.9825
  514.0000     9.2042     0.0056     2.4242   138.7861     0.1389   118.0658     5.3392     5.3484
  514.5000     9.2040     0.0040     2.4181   141.7807     0.1446   114.4216     4.6548     4.9692
  515.0000     9.2144     0.0025     2.4031   144.7753     0.1504   110.3298     3.8246     4.0601
  515.5000     9.2291     0.0009     2.3880   145.3675     0.1558   107.3210     3.2852     3.6344
  516.0000     9.2288    -0.0011     2.3557   145.0567     0.1612   108.5164     2.9009     3.0211
  516.5000     9.2285    -0.0026     2.3293   148.5035     0.1727   112.7866     2.6494     2.6617
  517.0000     9.2282    -0.0011     2.2927   151.9447     0.2292   116.3126     2.5435     2.5008
  517.5000     9.2278     0.0019     2.2355   145.9303     0.2554   114.2033     2.5256     2.5178
  518.0000     9.2276     0.0079     2.2011   134.5105     0.2747   106.9903     2.5605     2.5525
  518.5000     9.2273     0.0124     2.1941   130.8964     0.2765   103.6812     2.6318     2.6238
  519.0000     9.2119     0.0124     2.2212   132.6898     0.2548   105.1769     2.8785     2.8355
  519.5000     9.1967     0.0154     2.2679   138.6874     0.2337   110.8769     3.2632     3.2054
  520.0000     9.1964     0.0229     2.3070   143.3033     0.2078   116.3563     3.9808     3.7835
  520.5000     9.1961     0.0350     2.3190   145.2772     0.1963   117.4719     4.5696     4.5281
  521.0000     9.1958     0.0561     2.3341   142.2636     0.1852   115.3626     5.0676     5.2714
  521.5000     9.1955     0.0275     2.3785   139.2522     0.1656   114.7562     5.7772     5.8065
  522.0000     9.2102     0.0139     2.4372   139.8423     0.1234   115.3510     6.1893     6.3114
  522.5000     9.2098     0.0062     2.4500   142.8369     0.1155   120.1500     6.6324     6.7585
  523.0000     9.2096     0.0019     2.4567   145.2309     0.1131   123.4475     7.1037     7.1419
  523.5000     9.2093     0.0019     2.4612   147.3664     0.1131   122.8397     7.4031     7.3412
  524.0000     9.2090     0.0034     2.4620   149.4162     0.1149   122.8339     7.5053     7.4427
  524.5000     9.2237     0.0019     2.4560   150.6090     0.1174   126.1314     7.5041     7.4415
  525.0000     9.2234     0.0019     2.4319   149.6997     0.1225   127.9274     7.4002     7.4405
  525.5000     9.2231     0.0049     2.4153   147.8874     0.1351   128.5237     7.2977     7.3373
  526.0000     9.2227     0.0184     2.4093   146.9781     0.1433   124.6126     7.1967     7.2353
  526.5000     9.2225     0.0290     2.4078   146.0688     0.1457   119.0490     7.0480     7.1350
  527.0000     9.2222     0.0260     2.4101   146.0583     0.1451   115.8909     6.8551     7.0849
  527.5000     9.2219     0.0169     2.4153   146.3502     0.1417   115.5862     6.5761     6.9385
  528.0000     9.2215     0.0199     2.4244   146.0414     0.1365   119.7832     6.2650     6.7483
  528.5000     9.2213     0.0199     2.4334   143.9289     0.1306   120.9786     6.0516     6.4180
  529.0000     9.2210     0.0169     2.4387   143.3219     0.1258   122.1740     5.6753     5.8345
  529.5000     9.2206     0.0079     2.4409   147.5156     0.1222   125.5555     5.3798     5.4065
  530.0000     9.2204     0.0004     2.4297   153.5132     0.1246   135.9748     5.0900     5.1148
  530.5000     9.2201     0.0019     2.3988   158.6078     0.1408   137.1717     4.8492     4.9746
  531.0000     9.2198     0.0079     2.3807   160.1009     0.1487   132.3596     4.6841     4.8383
  531.5000     9.2195     0.0139     2.3770   160.3949     0.1638   128.1497     4.6192     4.8376
  532.0000     9.2342     0.0199     2.3800   156.7611     0.1650   125.7415     4.6906     4.9042
  532.5000     9.2339     0.0260     2.3988   150.1637     0.1574   124.5345     4.9479     4.9718
  533.0000     9.2335     0.0094     2.4048   143.8490     0.1493   122.6545     5.1565     5.1106
  533.5000     9.2333     0.0199     2.4080   142.3391     0.1457   120.3173     5.3369     5.3264
  534.0000     9.2180     0.0260     2.4153   146.2325     0.1420   125.4166     5.5619     5.5898
  534.5000     9.2177     0.0094     2.4244   154.0319     0.1372   130.5159     5.8366     5.9102
  535.0000     9.2173    -0.0011     2.4289   159.4289     0.1327   133.2128     6.1800     6.3727
  535.5000     9.2171     0.0019     2.4342   161.5226     0.1291   130.5043     6.7919     6.7342
  536.0000     9.2168     0.0049     2.4424   160.0106     0.1246   125.9699     7.1767     7.0673
  536.5000     9.2165     0.0079     2.4575   159.1013     0.1181   124.4853     7.4278     7.4168
  537.0000     9.2162     0.0110     2.4729   160.5943     0.1131   126.2813     7.6877     7.7836
