~VERSION INFORMATION
 VERS.                2.0:   CWLS LOG ASCII STANDARD - VERSION 2.0
 WRAP.                 NO:   ONE LINE PER DEPTH STEP
~WELL INFORMATION
#MNEM.UNIT      DATA TYPE    INFORMATION
#----------   ------------   ------------------------------
 STRT.F           16.0000:   START DEPTH
 STOP.F          661.0000:   STOP DEPTH
 STEP.F            0.5000:   STEP LENGTH
 NULL.          -999.2500:   NO VALUE
 COMP. FENIX & SCISSON INC:   COMPANY
 WELL.  26-66 SX 11 #I-11:   WELL
 FLD .             TEAPOT:   FIELD
 LOC .      S11 T38N R78W:   LOCATION
 CNTY.            NATRONA:   COUNTY
 STAT.            WYOMING:   STATE
 CTRY. UNITED STATES OF AMERICA:   COUNTRY
 SRVC.      Dresser Atlas:   SERVICE COMPANY
 DATE.        22-JUL-1980:   LOGDATE
 API .       490251083200:   API NUMBER
~CURVE INFORMATION
#MNEM.UNIT       API CODE    CURVE DESCRIPTION
#----------   ------------   ------------------------------
 DEPT.F                  :   
 SFL .OHMM   07 220 01 00:   SHALLOW FOCUSED LOG RESISTIVITY
 ILD .OHMM   07 120 46 00:   INDUCTION LOG DEEP
 ILM .OHMM   07 120 44 00:   INDUCTION LOG MEDIUM
 SPR .MV     07 010 01 00:   SPONTANEOUS POTENTIAL
 CALD.IN     45 280 60 00:   CALIPER
 GRD .GAPI   45 310 01 00:   GAMMA RAY FROM DENSITY LOG
 RHOB.G/C3   45 350 01 00:   BULK DENSITY
 CORR.G/C3   45 356 01 00:   DENSITY CORRECTION
 DPHI.DEC    45 890 12 00:   DENSITY POROSITY SANDSTONE
 NPHI.DEC    42 890 03 00:   NEUTRON POROSITY SANDSTONE
~PARAMETER INFORMATION
#MNEM.UNIT          VALUE    DESCRIPTION
#----------   ------------   ------------------------------
 PD  .                 GL:   PERMANENT DATUM
 EPD .F              5193:   ELEVATION PERMANENT DATUM
 LMF .                 KB:   LOG MEASURED FROM
 DAPD.F                 5:   FEET ABOVE PERMANENT DATUM
 DMF .                 KB:   DRILLING MEASURED FROM
 EKB .F              5198:   KELLING BUSHING
 EDF .F              5196:   DRILLING FLOOR
 EGL .F              5193:   GROUND LEVEL
 DATE.            7-22-80:   RUN DATE
 RUN .                  1:   RUN NUMBER
 DD  .F               655:   DEPTH DRILLER
 DL  .F               655:   DEPTH LOGGER
 BLI .F               653:   BOTTOM LOG INTERVAL
 TLI .F                20:   TOP LOG INTERVAL
 BS  .IN            7.875:   BIT SIZE
 BSD .F               655:   BIT SIZE AT DEPTH
 DFT .                KCL:   DRILLING FLUID TYPE
 DFD .                9.1:   DRILLING FLUID DENSITY
 DFV .                 46:   DRILLING FLUID VISCOSITY
 DFPH.                 11:   DRILLING FLUID PH
 DFL .                  6:   DRILLING FLUID LOSS
 MSS .           FLOWLINE:   MUD SAMPLE SOURCE
 RMS .OHMM            .17:   RESISTIVITY MUD SAMPLE
 MST .F                75:   MUD SAMPLE TEMPERATURE
 RMF .OHMM            .13:   RESISTIVITY MUD FILTRATE SAMPLE
 MFST.F                75:   MUD FILTRATE SAMPLE TEMPERATURE
 RMC .OHMM            .26:   RESISTIVITY MUD CAKE
 MCST.F                75:   MUD CAKE SAMPLE TEMPERATURE
 MFSS.                  C:   MUD FILTRATE SAMPLE SOURCE
 MCSS.                  C:   MUD CAKE SAMPLE SOURCE
 TCS .HRS               1:   TIME CURCULATED STOPPED
 LUN .               6240:   LOGGING UNIT NUMBER
 LUL .               RVTN:   LOGGING UNIT LOCATION
 ENGI.   K. RALL/J. GETTY:   RECORDING ENGINEER
 WITN.            RHOADES:   WITNESSED BY
 CLNT.            A2DTECH:   CLIENT CODE
 ORIG.        2" 5" PRINT:   ORIGIN OF DATA
 UWI .       490251083200:   UNIQUE WELL ID
 DICO. A2D Technologies, Inc.:   DIGITIZING COMPANY
~OTHER INFORMATION
~A   DEPT      SFL        ILD        ILM        SPR       CALD        GRD       RHOB       CORR         DPHI     NPHI   
# ...
   83.0000     5.5006     4.7668     5.5433   -34.3593     7.9723    93.8379     2.3421     0.0430     0.1971     0.3255
   83.5000     6.5563     5.6705     6.0447   -33.3906     7.9766    93.8348     2.3645     0.0385     0.1858     0.2990
   84.0000     8.2230     6.7530     6.5933   -32.4222     7.9810    94.2557     2.3843     0.0380     0.1749     0.2870
   84.5000     8.0447     8.1401     7.1903   -31.4861     7.9819    91.5729     2.3875     0.0309     0.1808     0.2932
   85.0000     7.8000     8.6015     7.9136   -30.8124     7.9819    85.9115     2.3693     0.0204     0.1836     0.3205
   85.5000     7.6389     9.1596     8.4140   -30.2001     7.9819    81.2006     2.3841     0.0290     0.1741     0.3273
   86.0000     7.7096     9.7956     8.9536   -29.7377     7.9819    80.4607     2.4079     0.0404     0.1634     0.3179
   86.5000     7.9620     9.9847     9.3994   -29.2725     7.9819    80.0953     2.3817     0.0337     0.1781     0.3062
   87.0000     8.2329    10.1714     9.7317   -28.8068     7.9819    79.8477     2.3705     0.0251     0.1836     0.3013
   87.5000     8.5131    10.3617    10.0758   -28.3410     7.9819    82.9354     2.3790     0.0333     0.1777     0.2923
   88.0000     8.8027    10.5555    10.1632   -27.9110     7.9819    87.0938     2.3940     0.0442     0.1697     0.2793
   88.5000     9.0163    10.7529    10.0838   -27.7707     7.9819    90.6947     2.3952     0.0374     0.1759     0.2792
   89.0000     8.9865    10.9540    10.0700   -27.6343     7.9838    90.9902     2.3703     0.0259     0.1832     0.2771
   89.5000     8.9430    11.1589    10.2774   -27.4969     7.9887    91.3363     2.3681     0.0165     0.1864     0.2683
   90.0000     8.9005    11.2468    10.4962   -27.3537     7.9935    89.5631     2.3829     0.0240     0.1780     0.2449
   90.5000     8.8505    11.1246    10.7195   -27.5314     7.9983    87.4230     2.3945     0.0399     0.1689     0.2787
   91.0000     8.9338    11.0415    10.9476   -27.8321     7.9997    87.0845     2.3971     0.0558     0.1701     0.2871
   91.5000     9.3116    11.0981    11.0415   -28.1352     7.9875    86.9814     2.4044     0.0583     0.1629     0.2840
   92.0000     9.8433    11.1552    11.1437   -28.4432     7.9755    84.7477     2.4377     0.0563     0.1482     0.2749
   92.5000    10.3996    11.2092    11.0408   -28.4487     7.9635    83.6034     2.4750     0.0540     0.1295     0.2680
   93.0000    10.7406    11.1437    10.9680   -28.3388     7.9618    86.0686     2.4814     0.0468     0.1191     0.2616
   93.5000    10.2801    11.4091    10.9403   -28.2265     7.9617    88.8250     2.4542     0.0400     0.1334     0.2487
   94.0000     9.8908    11.6764    11.1590   -28.1005     7.9618    91.0481     2.4295     0.0333     0.1516     0.2699
   94.5000     9.5286    11.8858    11.3414   -27.8616     7.9618    92.9653     2.3590     0.0058     0.1826     0.2879
   95.0000     9.7250    11.8858    11.5268   -27.6213     7.9618    93.9171     2.3164    -0.0218     0.2137     0.2953
   95.5000    10.0420    11.9177    11.7769   -27.3823     7.9618    93.4393     2.2911    -0.0349     0.2274     0.2913
   96.0000    10.3521    11.9900    11.7769   -27.1392     7.9618    93.1377     2.3151    -0.0114     0.2316     0.2892
   96.5000    10.3521    12.0626    11.7108   -26.6282     7.9618    93.7106     2.3489     0.0294     0.1989     0.2840
   97.0000    10.2260    12.1357    11.6484   -26.0870     7.9618    91.4024     2.3664     0.0370     0.1864     0.2750
   97.5000    10.1632    12.2222    11.5863   -25.7625     7.9618    88.7334     2.3512     0.0287     0.1915     0.2830
   98.0000    10.1889    12.2121    11.5246   -25.9149     7.9618    87.0506     2.3361     0.0197     0.2011     0.2947
   98.5000    10.2181    12.4517    11.4631   -27.5076     7.9618    89.8449     2.3320     0.0139     0.2082     0.3123
   99.0000    10.2608    12.6425    11.4559   -29.2903     7.9618    91.2571     2.3236     0.0104     0.2099     0.3084
   99.5000    10.2472    12.8313    11.6974   -30.8002     7.9618    90.5721     2.3137     0.0069     0.2163     0.3020
  100.0000    10.7555    13.0230    11.8886   -31.5919     7.9618    90.0836     2.3031     0.0034     0.2221     0.2698
  100.5000    11.1778    13.2175    12.0829   -32.3203     7.9618    89.9103     2.3056    -0.0006     0.2246     0.2656
  101.0000    11.5672    13.5217    12.2188   -32.3625     7.9618    88.8882     2.3218     0.0054     0.2159     0.2634
  101.5000    11.5662    13.7043    12.3768   -32.3572     7.9618    86.9090     2.3401     0.0176     0.2063     0.2817
  102.0000    11.4281    14.0661    12.6894   -32.1227     7.9618    85.9008     2.3494     0.0300     0.1995     0.3104
  102.5000    11.3496    14.4375    13.0100   -31.9552     7.9618    86.8124     2.3591     0.0421     0.1934     0.3173
  103.0000    11.3498    14.8262    13.3386   -31.9586     7.9618    88.4710     2.3735     0.0425     0.1852     0.3199
  103.5000    11.4333    15.2855    13.6819   -32.2984     7.9618    90.4120     2.3638     0.0367     0.1832     0.3223
  104.0000    11.6689    15.6003    14.0387   -32.6694     7.9618    91.2857     2.3500     0.0246     0.1963     0.3090
  104.5000    12.6473    15.9215    14.0216   -33.2899     7.9618    88.8005     2.3690     0.0181     0.1854     0.2903
  105.0000    13.7710    16.2494    14.3691   -33.9906     7.9618    84.2138     2.3953     0.0127     0.1742     0.2810
  105.5000    14.4278    16.5803    14.4526   -34.6443     7.9618    83.2105     2.3940     0.0083     0.1706     0.2701
  106.0000    13.4950    17.0352    14.5365   -34.9716     7.9618    84.4118     2.3728     0.0135     0.1855     0.2887
  106.5000    12.6774    16.8653    14.5556   -35.3115     7.9618    84.6640     2.3518     0.0235     0.1978     0.3049
  107.0000    12.6774    16.4707    14.4257   -35.6136     7.9618    83.1062     2.3402     0.0271     0.2027     0.2841
  107.5000    12.6774    16.0807    14.2046   -35.9096     7.9618    82.2641     2.3415     0.0326     0.1864     0.2672
  108.0000    12.6774    15.7000    13.9870   -36.2043     7.9618    85.1376     2.4003     0.0638     0.1616     0.2636
  108.5000    12.3883    15.3282    13.7726   -36.4965     7.9618    91.1185     2.4420     0.0747     0.1434     0.2758
  109.0000    12.1046    14.9653    13.5217   -36.8158     7.9618    92.2567     2.4281     0.0595     0.1529     0.2764
  109.5000    11.8274    14.6903    13.3359   -37.7439     7.9618    90.4656     2.4026     0.0437     0.1670     0.2745
  110.0000    11.6689    14.4293    13.1540   -38.6928     7.9618    86.8145     2.3903     0.0405     0.1733     0.2814
  110.5000    11.5632    14.2759    12.9747   -39.6297     7.9618    83.6740     2.3909     0.0415     0.1741     0.2927
  111.0000    11.3952    14.1241    12.7978   -40.6052     7.9618    83.9243     2.3826     0.0443     0.1778     0.2993
  111.5000    11.2297    13.9739    12.6234   -41.5712     7.9618    86.9214     2.3708     0.0481     0.1844     0.3004
  112.0000    11.0666    13.8252    12.5612   -42.5358     7.9618    91.3808     2.3589     0.0421     0.1910     0.3045
  112.5000    11.0415    13.7731    12.6721   -43.5004     7.9618    95.9136     2.3512     0.0321     0.1979     0.3105
  113.0000    11.3861    13.7975    12.7793   -44.4651     7.9618    97.5596     2.3439     0.0221     0.2039     0.3129
  113.5000    11.6031    13.8352    12.8874   -45.4297     7.9618    95.3530     2.3290     0.0121     0.2101     0.3059
  114.0000    11.8241    13.8729    13.0379   -46.3944     7.9618    90.1143     2.3238     0.0078     0.2127     0.2845
  114.5000    12.0494    13.8989    12.8323   -47.3590     7.9618    89.2664     2.3449     0.0198     0.1989     0.2707
  115.0000    12.2790    13.9071    12.5291   -48.3237     7.9618    88.0267     2.3674     0.0286     0.1886     0.2916
  115.5000    12.4460    12.6263    11.9855   -49.2883     7.9618    86.7523     2.3832     0.0367     0.1784     0.3075
  116.0000    12.2767    11.5599    10.7675   -50.2529     7.9618    85.8074     2.3662     0.0304     0.1885     0.3092
