~VERSION INFORMATION
 VERS.                2.0:   CWLS LOG ASCII STANDARD - VERSION 2.0
 WRAP.                 NO:   ONE LINE PER DEPTH STEP
~WELL INFORMATION
#MNEM.UNIT      DATA TYPE    INFORMATION
#----------   ------------   ------------------------------
 STRT.F           18.0000:   START DEPTH
 STOP.F          449.0000:   STOP DEPTH
 STEP.F            0.5000:   STEP LENGTH
 NULL.          -999.2500:   NO VALUE
 COMP.   LAWRENCE-ALLISON:   COMPANY
 WELL. NPR 3 #52-51SX10OB5:   WELL
 FLD .             TEAPOT:   FIELD
 LOC .      S10 T38N R78W:   LOCATION
 CNTY.            NATRONA:   COUNTY
 STAT.            WYOMING:   STATE
 CTRY. UNITED STATES OF AMERICA:   COUNTRY
 SRVC.      Dresser Atlas:   SERVICE COMPANY
 DATE.        20-DEC-1984:   LOGDATE
 API .       490251101000:   API NUMBER
~CURVE INFORMATION
#MNEM.UNIT       API CODE    CURVE DESCRIPTION
#----------   ------------   ------------------------------
 DEPT.F                  :   
 CALD.IN     45 280 60 00:   CALIPER FROM DENSITY LOG
 CNC .DEC    42 890 03 00:   NEUTRON POROSITY SANDSTONE
 CORR.G/C3   45 356 01 00:   DENSITY CORRECTION
 DEN .G/C3   45 350 01 00:   COMPENSATED BULK DENSTIY
 GRD .GAPI   45 310 01 00:   GAMMA RAY FROM DENSITY LOG
 PORD.DEC    45 890 12 00:   POROSITY DENSITY SANDSTONE
 DT  .US/F   60 520 00 00:   INTERVAL TRANSIT TIME
~PARAMETER INFORMATION
#MNEM.UNIT          VALUE    DESCRIPTION
#----------   ------------   ------------------------------
 PD  .                 GL:   PERMANENT DATUM
 EPD .F              5159:   ELEVATION PERMANENT DATUM
 LMF .                 GL:   LOG MEASURED FROM
 DMF .                 GL:   DRILLING MEASURED FROM
 EGL .F              5159:   GROUND LEVEL
 DATE.        20-DEC-1984:   RUN DATE
 RUN .                  1:   RUN NUMBER
 DD  .F               451:   DEPTH DRILLER
 DL  .F               451:   DEPTH LOGGER
 BLI .F               449:   BOTTOM LOG INTERVAL
 TLI .F                20:   TOP LOG INTERVAL
 CS  .IN            8.625:   CASING SIZE
 CBD .F                20:   CASING BOTTOM DRILLER
 CBL .F                20:   CASING BOTTOM LOGGER
 BS  .IN             6.25:   BIT SIZE
 BSD .F               451:   BIT SIZE AT DEPTH
 DFT .          KCL/WATER:   DRILLING FLUID TYPE
 MSS .            MUDTANK:   MUD SAMPLE SOURCE
 RMS .OHMM           .141:   RESISTIVITY MUD SAMPLE
 MST .F                54:   MUD SAMPLE TEMPERATURE
 RMF .OHMM           .106:   RESISTIVITY MUD FILTRATE SAMPLE
 MFST.F                54:   MUD FILTRATE SAMPLE TEMPERATURE
 RMC .OHMM           .176:   RESISTIVITY MUD CAKE
 MCST.F                54:   MUD CAKE SAMPLE TEMPERATURE
 MFSS.               CALC:   MUD FILTRATE SAMPLE SOURCE
 MCSS.               CALC:   MUD CAKE SAMPLE SOURCE
 TCS .HRS               2:   TIME CURCULATED STOPPED
 MRT .F               100:   MAXIMUM RECORDED TEMPERATURE
 LUN .               6270:   LOGGING UNIT NUMBER
 LUL .                 FM:   LOGGING UNIT LOCATION
 ENGI.        TOM GAUGHAN:   RECORDING ENGINEER
 WITN.              LUERS:   WITNESSED BY
 CLNT.            A2DTECH:   CLIENT CODE
 ORIG.           5" PRINT:   ORIGIN OF DATA
 UWI .       490251101000:   UNIQUE WELL ID
 DICO. A2D Technologies, Inc.:   DIGITIZING COMPANY
~OTHER INFORMATION
~A   DEPT     CALD         CNC      CORR        DEN         GRD      PORD         DT   
# ...
  200.0000     6.2593     0.3293     0.0486     2.5037   118.9965     0.1061   108.3109
  200.5000     6.2600     0.3376     0.0787     2.4859   121.3776     0.1169   111.0743
  201.0000     6.2609     0.3455     0.0758     2.4650   118.5812     0.1288   112.7757
  201.5000     6.2616     0.3594     0.0664     2.4643   116.6689     0.1300   113.6661
  202.0000     6.2622     0.3561     0.0492     2.4832   118.1660     0.1199   112.4594
  202.5000     6.2630     0.3319     0.0226     2.4862   117.8550     0.1168   111.2549
  203.0000     6.2637     0.3205     0.0197     2.4833   114.3504     0.1186   110.1999
  203.5000     6.2644     0.3296     0.0140     2.4797   113.7693     0.1221   109.9639
  204.0000     6.2653     0.3476     0.0037     2.4551   114.9705     0.1347   112.2491
  204.5000     6.2660     0.3482    -0.0036     2.4177   113.9763     0.1559   116.9800
  205.0000     6.2668     0.3422     0.0027     2.3661   110.8605     0.1843   122.1208
  205.5000     6.2939     0.3314     0.0297     2.3340   108.6522     0.2061   123.7564
  206.0000     6.2943     0.3025     0.0253     2.3303   110.8889     0.2076   121.1320
  206.5000     6.2798     0.2932     0.0091     2.3963   117.5599     0.1657   116.5643
  207.0000     6.2654     0.2917    -0.0027     2.4360   118.0179     0.1393   111.1745
  207.5000     6.2659     0.2926     0.0034     2.4593   114.7880     0.1309   107.8774
  208.0000     6.2664     0.2929     0.0096     2.4684   112.7209     0.1276   107.5695
  208.5000     6.2373     0.2998     0.0068     2.4707   113.1824     0.1249   107.5590
  209.0000     6.2377     0.3000     0.0040     2.4708   112.7493     0.1230   107.2514
  209.5000     6.2232     0.3003    -0.0003     2.4709   110.9919     0.1224   106.3459
  210.0000     6.2088     0.3138     0.0103     2.4710   108.6393     0.1248   103.6467
  210.5000     6.2093     0.3311     0.0404     2.4710   108.0618     0.1260   102.5917
  211.0000     6.2394     0.3385     0.0406     2.4711   108.0796     0.1248   102.4335
  211.5000     6.2102     0.3382     0.0288     2.4712   108.2417     0.1247   102.7965
  212.0000     6.2107     0.3134    -0.0039     2.4598   110.4748     0.1322   105.8521
  212.5000     6.2112     0.3110    -0.0247     2.4152   115.3707     0.1610   108.7583
  213.0000     6.2116     0.3134    -0.0125     2.3846   115.8287     0.1731   110.2444
  213.5000     6.2120     0.3124     0.0176     2.3855   115.2512     0.1749   110.4621
  214.0000     6.2124     0.3029     0.0237     2.4065   114.6737     0.1629   109.3303
  214.5000     6.2130     0.3003     0.0179     2.4492   119.7211     0.1342   106.8465
  215.0000     6.2134     0.3007     0.0181     2.4613   121.2146     0.1317   106.6224
  215.5000     6.2138     0.2948     0.0123     2.4532   118.2702     0.1341   106.8380
  216.0000     6.2142     0.2870    -0.0099     2.4487   111.1838     0.1365   106.0798
  216.5000     6.2147     0.2852    -0.0116     2.4728   109.4229     0.1239   105.0248
  217.0000     6.2151     0.2887     0.0075     2.4841   111.5117     0.1143   103.9698
  217.5000     6.2156     0.2983     0.0310     2.4939   112.1176     0.1095   103.2113
  218.0000     6.2012     0.2934     0.0491     2.4992   113.0194     0.1089   102.9041
  218.5000     6.2165     0.2923     0.0463     2.4941   115.4004     0.1112   102.5217
  219.0000     6.2169     0.2982     0.0225     2.4911   114.8229     0.1136   102.2889
  219.5000     6.2173     0.2997     0.0137     2.4890   110.3777     0.1142   101.9813
  220.0000     6.2178     0.2988     0.0045     2.4906   105.8312     0.1141   101.9727
  220.5000     6.2183     0.2898    -0.0008     2.4907   105.9934     0.1141   101.9640
  221.0000     6.2187     0.2838     0.0053     2.4885   106.5993     0.1138   101.9552
  221.5000     6.2191     0.2802     0.0145     2.4901   107.0573     0.1135   101.9446
  222.0000     6.2196     0.2904     0.0086     2.4947   106.7757     0.1122   101.9360
  222.5000     6.2200     0.3008     0.0028     2.4932   103.9744     0.1116   101.7031
  223.0000     6.2204     0.2933    -0.0002     2.4918   102.5177     0.1134   101.6197
  223.5000     6.2210     0.2814    -0.0028     2.4919   103.5674     0.1128   101.3121
  224.0000     6.2214     0.2819     0.0079     2.4983   106.6881     0.1086   100.7015
  224.5000     6.2218     0.3094     0.0215     2.5040   109.6609     0.1043   100.1716
  225.0000     6.2222     0.3097     0.0306     2.5011   112.0420     0.1061   100.0882
  225.5000     6.2227     0.3010     0.0278     2.4982   113.2397     0.1122   100.3807
  226.0000     6.2232     0.2912     0.0191     2.4923   112.5681     0.1136   100.9700
  226.5000     6.2236     0.2696     0.0148     2.4954   105.5793     0.1108   101.5571
  227.0000     6.2241     0.2717     0.0164     2.5015   102.4870     0.1036   101.3990
  227.5000     6.2245     0.2803     0.0286     2.5135   103.2409     0.0940   101.2257
  228.0000     6.2249     0.2908     0.0287     2.5278   106.6575     0.0910    99.4364
  228.5000     6.2253     0.2872     0.0229     2.5264   109.7850     0.0916    98.0824
  229.0000     6.2109     0.2824     0.0201     2.5250   109.2007     0.0940    96.0559
  229.5000     6.1966     0.2824     0.0293     2.5197   108.9226     0.0987    95.0756
  230.0000     6.1970     0.3230     0.0235     2.5020   108.6374     0.1071    95.0573
  230.5000     6.1975     0.3345     0.0176     2.4841   114.8682     0.1223    98.2138
  231.0000     6.1979     0.3403     0.0119     2.4363   119.9120     0.1489   105.3614
  231.5000     6.1836     0.3367     0.0241     2.3765   119.6303     0.1944   111.7056
  232.0000     6.1841     0.3116     0.0302     2.3241   117.3431     0.2111   114.9107
  232.5000     6.1696     0.3007     0.0184     2.3622   106.3487     0.1812   112.2115
  233.0000     6.1701     0.2930     0.0126     2.4216    98.8185     0.1393   107.1206
  233.5000     6.1705     0.2870     0.0068     2.4838    98.0896     0.0985   100.5350
  234.0000     6.1710     0.2846     0.0309     2.5236   100.3262     0.0934    94.9258
  234.5000     6.1714     0.2786     0.0386     2.5237   102.1156     0.0934    94.2375
  235.0000     6.1571     0.2714     0.0402     2.5237   102.1302     0.0934    94.5279
  235.5000     6.1426     0.2693     0.0374     2.5238   102.2955     0.0958    94.8203
  236.0000     6.1432     0.2715     0.0256     2.5089   102.3097     0.1029    95.4822
  236.5000     6.1380     0.2789     0.0138     2.5082   101.7287     0.1035    95.9970
  237.0000     6.1292     0.2845     0.0230     2.5091   102.3382     0.1029    96.5890
  237.5000     6.1148     0.2869     0.0386     2.5182   103.5358     0.0996    97.3493
  238.0000     6.1302     0.2887     0.0622     2.5392   108.3077     0.0816    98.3603
  238.5000     6.1306     0.2606     0.0385     2.5460   105.9346     0.0804    98.5033
  239.0000     6.1458     0.2510     0.0357     2.5304   101.2151     0.0851    97.1472
  239.5000     6.1462     0.2498     0.0388     2.5073    91.1702     0.1102    95.9427
  240.0000     6.1467     0.2450     0.0510     2.4579    74.0246     0.1317    95.6951
  240.5000     6.1471     0.2396     0.0631     2.4109    62.7962     0.1652    99.8959
  241.0000     6.1773     0.2408     0.0738     2.3840    60.1477     0.1784   106.3780
  241.5000     6.1629     0.2617     0.0650     2.3638    62.8282     0.1872   111.2274
  242.0000     6.1484     0.2844     0.0397     2.3542    64.6176     0.1963   113.6104
  242.5000     6.1489     0.2859     0.0339     2.3483    65.8152     0.1974   112.6301
  243.0000     6.1493     0.2868     0.0325     2.3492    67.6046     0.1950   111.2015
  243.5000     6.1498     0.2855     0.0550     2.3605    71.7608     0.1890   110.0708
  244.0000     6.1503     0.2760     0.0704     2.3837    74.1420     0.1770   109.6143
  244.5000     6.1655     0.2759     0.0646     2.3846    71.7928     0.1776   109.6039
  245.0000     6.1660     0.2909     0.0289     2.3667    68.2567     0.1811   111.0900
