~VERSION INFORMATION
 VERS.                2.0:   CWLS LOG ASCII STANDARD - VERSION 2.0
 WRAP.                 NO:   ONE LINE PER DEPTH STEP
~WELL INFORMATION
#MNEM.UNIT      DATA TYPE    INFORMATION
#----------   ------------   ------------------------------
 STRT.F           15.0000:   START DEPTH
 STOP.F          557.0000:   STOP DEPTH
 STEP.F            0.5000:   STEP LENGTH
 NULL.          -999.2500:   NO VALUE
 COMP. FENIX & SICISSOR INC.:   COMPANY
 WELL.       NPR #85-S-10:   WELL
 FLD .             TEAPOT:   FIELD
 LOC .      S10 T38N R78W:   LOCATION
 CNTY.            NATRONA:   COUNTY
 STAT.            WYOMING:   STATE
 CTRY. UNITED STATES OF AMERICA:   COUNTRY
 SRVC.           BIRDWELL:   SERVICE COMPANY
 DATE.        27-NOV-1978:   LOGDATE
 API .       490251075300:   API NUMBER
~CURVE INFORMATION
#MNEM.UNIT       API CODE    CURVE DESCRIPTION
#----------   ------------   ------------------------------
 DEPT.F                  :   
 CALD.IN     45 280 60 00:   CALIPER FROM DENSITY LOG
 DPHI.DEC    45 890 12 00:   DENSITY POROSITY SANDSTONE
 GRD .GAPI   45 310 01 00:   GAMMA RAY FROM DENSITY LOG
 RHOB.G/C3   45 350 01 00:   BULK DENSITY
 CORR.G/C3   45 356 01 00:   DENSITY CORRECTION
 ILD .OHMM   05 120 46 00:   INDUCTION LOG DEEP
 SN  .OHMM   05 040 00 00:   SHORT NORMAL
 SPR .MV     05 010 01 00:   SPONTANEOUS POTENTIAL
~PARAMETER INFORMATION
#MNEM.UNIT          VALUE    DESCRIPTION
#----------   ------------   ------------------------------
 PD  .                 GL:   PERMANENT DATUM
 EPD .F              5196:   ELEVATION PERMANENT DATUM
 LMF .                 KB:   LOG MEASURED FROM
 DAPD.F                 4:   FEET ABOVE PERMANENT DATUM
 DMF .                 KB:   DRILLING MEASURED FROM
 EKB .F              5200:   KELLING BUSHING
 EGL .F              5196:   GROUND LEVEL
 DATE.        27-NOV-1978:   RUN DATE
 RUN .                  1:   RUN NUMBER
 DD  .F               557:   DEPTH DRILLER
 DL  .F               551:   DEPTH LOGGER
 BLI .F               545:   BOTTOM LOG INTERVAL
 TLI .F                48:   TOP LOG INTERVAL
 CS  .IN            8.625:   CASING SIZE
 CBD .F                40:   CASING BOTTOM DRILLER
 CBL .F                35:   CASING BOTTOM LOGGER
 BS  .IN            7.875:   BIT SIZE
 BSD .F               557:   BIT SIZE AT DEPTH
 DFT .                KCL:   DRILLING FLUID TYPE
 DFD .                8.8:   DRILLING FLUID DENSITY
 DFV .                 38:   DRILLING FLUID VISCOSITY
 DFPH.               11.1:   DRILLING FLUID PH
 DFL .                 14:   DRILLING FLUID LOSS
 MSS .           FLOWLINE:   MUD SAMPLE SOURCE
 RMS .OHMM           0.32:   RESISTIVITY MUD SAMPLE
 MST .F                58:   MUD SAMPLE TEMPERATURE
 RMF .OHMM           0.31:   RESISTIVITY MUD FILTRATE SAMPLE
 MFST.F                74:   MUD FILTRATE SAMPLE TEMPERATURE
 RMC .OHMM           0.53:   RESISTIVITY MUD CAKE
 MCST.F                75:   MUD CAKE SAMPLE TEMPERATURE
 MFSS.               MEAS:   MUD FILTRATE SAMPLE SOURCE
 MCSS.               MEAS:   MUD CAKE SAMPLE SOURCE
 RMB .OHMM           0.31:   RESISTIVITY MUD AT BHT
 BHT .F                59:   BOTTOM HOLE TEMPERATURE
 TCS .HRS               2:   TIME CURCULATED STOPPED
 MRT .F                59:   MAXIMUM RECORDED TEMPERATURE
 LUN .               2958:   LOGGING UNIT NUMBER
 LUL .             CASPER:   LOGGING UNIT LOCATION
 ENGI.             MILLER:   RECORDING ENGINEER
 WITN.           DINSMORE:   WITNESSED BY
 CLNT.            A2DTECH:   CLIENT CODE
 ORIG.         2.5" PRINT:   ORIGIN OF DATA
 UWI .       490251075300:   UNIQUE WELL ID
 DICO. A2D Technologies, Inc.:   DIGITIZING COMPANY
~OTHER INFORMATION
~A   DEPT     CALD       DPHI         GRD      RHOB       CORR        ILD         SN        SPR   
# ...
  136.5000     8.1860     0.1507   116.3773     2.4304    -0.0049     8.3387     9.1173    -0.5802
  137.0000     8.2173     0.1495   117.0514     2.4334    -0.0005     8.4581     9.1198    -0.5759
  137.5000     8.2485     0.1483   114.5373     2.4349     0.0011     8.4598     9.2510    -0.8765
  138.0000     8.3105     0.1476   112.0741     2.4335     0.0011     8.5811     9.2535    -0.8720
  138.5000     8.3417     0.1476   110.5113     2.4320    -0.0019     8.5829     9.2560    -0.8674
  139.0000     8.3730     0.1479   110.2341     2.4320    -0.0079     8.5738     9.2585    -1.1680
  139.5000     8.3736     0.1493   110.3179     2.4287    -0.0109     8.5361     9.3918    -1.1631
  140.0000     8.3742     0.1559   110.5556     2.4252    -0.0139     8.4985     9.4121    -1.1585
  140.5000     8.3748     0.1651   110.2531     2.4188    -0.0169     8.4608     9.5298    -1.1540
  141.0000     8.3755     0.1700   109.7963     2.4044    -0.0163     8.4232     9.5324    -1.1494
  141.5000     8.3761     0.1730   109.3909     2.3973    -0.0098     8.3855     9.5351    -1.1439
  142.0000     8.3605     0.1723   111.5072     2.3959    -0.0033     8.3478     9.5378    -1.1395
  142.5000     8.3466     0.1687   113.3649     2.3989     0.0023     8.3102     9.5404    -1.1351
  143.0000     8.3473     0.1644   114.6054     2.4111     0.0073     8.2725     9.5436    -1.1307
  143.5000     8.3479     0.1581   114.6114     2.4156     0.0088     8.2467     9.5462    -0.8215
  144.0000     8.3792     0.1511   113.3827     2.4172     0.0134     8.2487     9.5488    -0.8171
  144.5000     8.3798     0.1451   113.3889     2.4204     0.0134     8.2504     9.5514    -0.8125
  145.0000     8.3804     0.1417   113.3951     2.4273     0.0134     8.2520     9.5540    -0.8079
  145.5000     8.4117     0.1406   113.4012     2.4418     0.0134     8.2537     9.5565    -0.8034
  146.0000     8.4429     0.1396   113.4074     2.4445     0.0104     8.2554     9.5592    -0.7988
  146.5000     8.4436     0.1445   113.1564     2.4434     0.0074     8.2571     9.5619    -0.9212
  147.0000     8.4442     0.1493   112.0309     2.4342     0.0044     8.2589     9.5646    -1.0945
  147.5000     8.4448     0.1541   110.5967     2.4241     0.0014     8.2606     9.5672    -1.0890
  148.0000     8.4147     0.1553   108.1862     2.4220     0.0009     8.2623     9.5699    -1.0846
  148.5000     8.4155     0.1559   106.0316     2.4220    -0.0023     8.2641     9.5726    -1.3857
  149.0000     8.4160     0.1529   104.4943     2.4227    -0.0046     8.2658     9.5753    -1.3807
  149.5000     8.4166     0.1392   104.8089     2.4326    -0.0033     8.1528     9.5785    -1.3763
  150.0000     8.3865     0.1248   106.3580     2.4569     0.0015     8.1545     9.5811    -1.3720
  150.5000     8.3871     0.1205   106.6986     2.4739     0.0033     8.1561     9.5837    -1.3674
  151.0000     8.3877     0.1208   107.0391     2.4817     0.0015     8.1577     9.5863    -1.3120
  151.5000     8.3883     0.1408   107.4568     2.4726    -0.0045     8.1594     9.5889    -1.0534
  152.0000     8.3890     0.1528   108.7490     2.4387    -0.0075     8.1610     9.5914    -1.0488
  152.5000     8.3896     0.1504   112.2274     2.4248    -0.0105     8.1628     9.4605    -1.1712
  153.0000     8.3902     0.1516   115.0370     2.4261    -0.0074     8.1645     9.3313    -1.3445
  153.5000     8.3908     0.1582   115.3519     2.4329    -0.0073     8.1662     9.3341    -1.3399
  154.0000     8.3914     0.1522   115.6677     2.4269    -0.0044     8.0540     9.3003    -1.6402
  154.5000     8.3920     0.1498   115.9822     2.4235    -0.0044     8.0559     9.1636    -1.6351
  155.0000     8.3620     0.1518   119.3832     2.4300    -0.0052     8.0576     9.0836    -1.6307
  155.5000     8.3627     0.1528   122.1669     2.4300    -0.0044     8.0593     9.0862    -1.6263
  156.0000     8.3632     0.1519   123.7160     2.4270     0.0000     8.0613     9.0892    -1.6220
  156.5000     8.3331     0.1444   124.6479     2.4255     0.0063     8.0629     9.0917    -1.6174
  157.0000     8.3337     0.1334   121.0536     2.4375     0.0168     8.0645     9.0942    -1.6128
  157.5000     8.3344     0.1328   117.0988     2.4552     0.0138     8.0662     9.0966    -1.6082
  158.0000     8.3350     0.1398   115.2017     2.4610     0.0078     8.0678     9.0991    -1.6037
  158.5000     8.3356     0.1553   114.7963     2.4575     0.0078     8.0695     9.1015    -1.4721
  159.0000     8.3362     0.1588   114.8025     2.4448     0.0018     8.0712     9.1040    -1.2896
  159.5000     8.3368     0.1439   115.7088     2.4136     0.0018     8.0729     9.1066    -0.9802
  160.0000     8.3231     0.1266   119.1368     2.4363     0.0241     8.0745     9.1091    -0.9749
  160.5000     8.2905     0.1188   120.9946     2.4772     0.0548     8.0762     9.1117    -0.6656
  161.0000     8.2773     0.1140   122.2351     2.4878     0.0761     8.0779     9.1143    -0.3563
  161.5000     8.2167     0.1157   120.3891     2.4939     0.0901     8.0796     9.1168    -0.3520
  162.0000     8.1866     0.1182   119.1605     2.4934     0.0828     8.0817     9.1846    -0.3476
  162.5000     8.1872     0.1219   119.1667     2.4826     0.0552     8.0833     9.3269    -0.3430
  163.0000     8.1877     0.1248   119.0700     2.4762     0.0302     8.0850     9.3844    -0.2876
  163.5000     8.1895     0.1315   116.3241     2.4662     0.0079     8.0866     9.5194    -0.0290
  164.0000     8.2196     0.1429   112.7027     2.4536     0.0052     8.0882     9.5220    -0.0244
  164.5000     8.2202     0.1437   113.1471     2.4433     0.0260     8.0899     9.5246    -0.0198
  165.0000     8.2209     0.1393   115.9568     2.4306     0.0321     8.0915     9.5271    -0.3201
  165.5000     8.2215     0.1351   120.1811     2.4472     0.0321     8.0932     9.5298    -0.3155
  166.0000     8.2221     0.1376   120.4454     2.4518     0.0261     8.0949     9.5486    -0.3102
  166.5000     8.2534     0.1405   120.4514     2.4518     0.0261     8.0967     9.6697    -0.3059
  167.0000     8.2848     0.1342   116.7536     2.4519     0.0256     8.0984     9.6724    -0.3015
  167.5000     8.2854     0.1291   112.4385     2.4597     0.0224     8.1001     9.6751    -0.2971
  168.0000     8.3166     0.1260   110.9012     2.4670     0.0182     8.1018     9.6778    -0.2927
  168.5000     8.3479     0.1365   113.7881     2.4495     0.0099     8.1038     9.6806    -0.6184
  169.0000     8.3485     0.1610   116.2119     2.4264     0.0006     7.9926     9.6833    -1.2490
  169.5000     8.3491     0.1604   116.1659     2.4040    -0.0073     7.8829     9.6864    -1.4990
  170.0000     8.3497     0.1549   115.5546     2.4013    -0.0080     7.8845     9.6891    -1.7995
  170.5000     8.3503     0.1525   115.5617     2.4139     0.0021     7.8861     9.5568    -1.7942
  171.0000     8.3509     0.1537   115.5679     2.4234     0.0052     7.8877     9.2950    -1.7896
  171.5000     8.3621     0.1537   115.5741     2.4234     0.0082     7.8894     9.0405    -1.7851
  172.0000     8.3828     0.1536   115.2726     2.4234     0.0082     7.8910     8.7881    -1.7798
  172.5000     8.4141     0.1496   115.8958     2.4256     0.0081     7.8927     8.6728    -1.7754
  173.0000     8.3842     0.1453   119.9141     2.4280     0.0049     7.7842     8.5544    -2.0759
  173.5000     8.3847     0.1412   122.3891     2.4328     0.0022     7.7861     8.5570    -2.0715
  174.0000     8.3519     0.1389   124.2469     2.4389     0.0022     7.7877     8.5594    -2.0671
  174.5000     8.2835     0.1376   124.5615     2.4447     0.0022     7.7897     8.5618    -2.3676
  175.0000     8.1948     0.1364   123.6415     2.4493    -0.0020     7.7913     8.5642    -2.4136
  175.5000     8.1723     0.1379   120.0988     2.4493    -0.0037     7.7928     8.6876    -2.6637
  176.0000     8.2164     0.1409   113.3663     2.4494    -0.0037     7.7944     8.6904    -2.6585
  176.5000     8.2960     0.1427   112.1893     2.4467    -0.0037     7.7960     8.6928    -2.6540
