~VERSION INFORMATION
 VERS.                2.0:   CWLS LOG ASCII STANDARD - VERSION 2.0
 WRAP.                 NO:   ONE LINE PER DEPTH STEP
~WELL INFORMATION
#MNEM.UNIT      DATA TYPE    INFORMATION
#----------   ------------   ------------------------------
 STRT.F           30.0000:   START DEPTH
 STOP.F          468.0000:   STOP DEPTH
 STEP.F            0.1000:   STEP LENGTH
 NULL.          -999.2500:   NO VALUE
 COMP. LAWRENCE/ALLISON INC:   COMPANY
 WELL.    72-12 SX #10-10:   WELL
 FLD .             TEAPOT:   FIELD
 LOC .      S10 T38N R78W:   LOCATION
 CNTY.            NATRONA:   COUNTY
 STAT.            WYOMING:   STATE
 CTRY. UNITED STATES OF AMERICA:   COUNTRY
 SRVC.           Gearhart:   SERVICE COMPANY
 DATE.        17-MAY-1988:   LOGDATE
 API .       490251122400:   API NUMBER
~CURVE INFORMATION
#MNEM.UNIT       API CODE    CURVE DESCRIPTION
#----------   ------------   ------------------------------
 DEPT.F                  :   
 GRR .GAPI   07 310 01 00:   GAMMA RAY
 RILD.OHMM   07 120 46 00:   INDUCTION LOG DEEP RESISTIVITY
 RILM.OHMM   07 120 44 00:   INDUCTION LOG MEDIUM RESISTIVITY
~PARAMETER INFORMATION
#MNEM.UNIT          VALUE    DESCRIPTION
#----------   ------------   ------------------------------
 PD  .                 GL:   PERMANENT DATUM
 EPD .F              5166:   ELEVATION PERMANENT DATUM
 LMF .                 KB:   LOG MEASURED FROM
 DAPD.F              10.2:   FEET ABOVE PERMANENT DATUM
 DMF .                 KB:   DRILLING MEASURED FROM
 EKB .F            5176.2:   KELLING BUSHING
 EGL .F              5166:   GROUND LEVEL
 DATE.        17-MAY-1988:   RUN DATE
 RUN .                  1:   RUN NUMBER
 DD  .F               480:   DEPTH DRILLER
 DL  .F               476:   DEPTH LOGGER
 BLI .F               468:   BOTTOM LOG INTERVAL
 TLI .F                47:   TOP LOG INTERVAL
 CS  .IN            9.625:   CASING SIZE
 CBD .F                43:   CASING BOTTOM DRILLER
 CBL .F                47:   CASING BOTTOM LOGGER
 BS  .IN             8.75:   BIT SIZE
 BSD .F               480:   BIT SIZE AT DEPTH
 DFT .                AIR:   DRILLING FLUID TYPE
 TCS .HRS            0630:   TIME CURCULATED STOPPED
 TLAB.HRS            0930:   TIME LOGGER AT BOTTOM
 LUN .               7597:   LOGGING UNIT NUMBER
 LUL .           GILLETTE:   LOGGING UNIT LOCATION
 ENGI.             SLATKY:   RECORDING ENGINEER
 WITN.             STRONG:   WITNESSED BY
 CLNT.            A2DTECH:   CLIENT CODE
 ORIG.           5" PRINT:   ORIGIN OF DATA
 UWI .       490251122400:   UNIQUE WELL ID
 DICO. A2D Technologies, Inc.:   DIGITIZING COMPANY
~OTHER INFORMATION
~A   DEPT      GRR       RILD       RILM   
# ...
  157.4000   113.7712     7.8416     7.7515
  157.5000   113.9798     7.8814     7.7705
  157.6000   114.3733     7.9252     7.7981
  157.7000   114.8628     7.9693     7.8824
  157.8000   115.3818     8.0053     7.9338
  157.9000   116.2045     8.0048     7.9709
  158.0000   116.6343     8.0468     7.9888
  158.1000   117.1238     8.0598     8.0045
  158.2000   117.5176     8.0802     8.0493
  158.3000   117.7632     8.1251     8.1001
  158.4000   118.0317     8.1713     8.1397
  158.5000   118.2545     8.1709     8.1563
  158.6000   118.3382     8.2042     8.1740
  158.7000   118.3400     8.2270     8.2128
  158.8000   118.3418     8.2382     8.2125
  158.9000   118.3438     8.2835     8.2544
  159.0000   118.3455     8.2830     8.2695
  159.1000   118.3473     8.2826     8.2892
  159.2000   118.2392     8.3066     8.3356
  159.3000   117.9972     8.3395     8.3847
  159.4000   117.7467     8.3410     8.3845
  159.5000   117.7485     8.3967     8.3842
  159.6000   117.7503     8.3963     8.4060
  159.7000   117.6351     8.3958     8.4423
  159.8000   117.3354     8.4104     8.4421
  159.9000   116.8467     8.4535     8.4419
  160.0000   116.6061     8.4529     8.4770
  160.1000   116.3640     8.4525     8.5004
  160.2000   116.1220     8.4802     8.5127
  160.3000   115.8152     8.5106     8.5593
  160.4000   115.3406     8.5101     8.5590
  160.5000   115.3424     8.5096     8.5965
  160.6000   115.1539     8.5507     8.6184
  160.7000   114.9119     8.5983     8.6181
  160.8000   114.7418     8.6274     8.6208
  160.9000   114.7309     8.6339     8.6778
  161.0000   114.4428     8.6867     8.6776
  161.1000   114.4442     8.6862     8.6774
  161.2000   114.3079     8.7179     8.6771
  161.3000   114.1448     8.7459     8.6816
  161.4000   114.1467     8.7454     8.7372
  161.5000   114.1488     8.7449     8.7370
  161.6000   114.1503     8.7903     8.7368
  161.7000   114.2974     8.8050     8.7549
  161.8000   114.4570     8.8268     8.7973
  161.9000   114.4588     8.8654     8.7970
  162.0000   114.4608     8.8649     8.7968
  162.1000   114.6739     8.8645     8.8289
  162.2000   114.9196     8.9001     8.8578
  162.3000   115.2584     8.9253     8.8575
  162.4000   115.7479     8.9249     8.8573
  162.5000   116.2881     8.9244     8.9034
  162.6000   116.9455     8.9740     8.9187
  162.7000   117.3600     8.9857     8.9184
  162.8000   117.6057     8.9852     8.9182
  162.9000   117.8103     8.9847     8.9179
  163.0000   117.8123     8.9842     8.9663
  163.1000   118.0396     8.9837     8.9797
  163.2000   118.2852     9.0231     8.9795
  163.3000   118.5309     9.0454     8.9916
  163.4000   118.7285     9.0449     9.0417
  163.5000   118.7304     9.0477     9.0414
  163.6000   118.9649     9.1069     9.0412
  163.7000   119.2105     9.1065     9.0409
  163.8000   119.4562     9.1060     9.0551
  163.9000   119.7018     9.1055     9.1036
  164.0000   119.9515     9.1100     9.1033
  164.1000   120.1931     9.1679     9.1031
  164.2000   120.4388     9.1675     9.1028
  164.3000   120.5630     9.1670     9.1190
  164.4000   120.6271     9.1665     9.1659
  164.5000   120.8697     9.1660     9.1656
  164.6000   120.8715     9.1654     9.1654
  164.7000   121.0610     9.2108     9.1652
  164.8000   121.0497     9.2284     9.1649
  164.9000   120.8077     9.2279     9.1646
  165.0000   120.5657     9.2274     9.1644
  165.1000   120.3236     9.2268     9.1641
  165.2000   119.8868     9.2264     9.1967
  165.3000   119.4010     9.2258     9.2276
  165.4000   118.7624     9.2253     9.2274
  165.5000   117.8060     9.2351     9.2271
  165.6000   116.9506     9.2887     9.2269
  165.7000   116.3466     9.2882     9.2266
  165.8000   115.9022     9.2877     9.2264
  165.9000   115.6602     9.2871     9.2261
  166.0000   115.4182     9.2866     9.2258
  166.1000   115.1415     9.2861     9.2256
  166.2000   114.9341     9.2856     9.2253
  166.3000   114.6921     9.2851     9.2251
  166.4000   114.4501     9.2583     9.2248
  166.5000   114.2392     9.2197     9.2246
  166.6000   114.2414     9.2192     9.2243
  166.7000   114.2430     9.2187     9.2240
  166.8000   114.4016     9.2181     9.2238
  166.9000   114.5497     9.1899     9.2235
  167.0000   114.5899     9.1532     9.2233
  167.1000   114.8565     9.1527     9.2230
  167.2000   114.8582     9.1521     9.2228
  167.3000   115.0238     9.1517     9.2225
  167.4000   115.1648     9.1219     9.2222
  167.5000   115.1667     9.0872     9.2188
  167.6000   115.1686     9.0867     9.1577
  167.7000   115.1703     9.0861     9.1575
  167.8000   114.6594     9.0427     9.1572
  167.9000   113.8180     9.0222     9.1570
  168.0000   113.0020     9.0217     9.1567
  168.1000   112.7534     9.0212     9.1564
  168.2000   112.5180     9.0207     9.1123
  168.3000   112.4539     8.9759     9.0924
  168.4000   112.5745     8.9572     9.0922
  168.5000   112.7606     8.9567     9.0850
  168.6000   112.7628     8.9562     9.0286
  168.7000   113.0085     8.9557     9.0284
  168.8000   113.0691     8.9552     9.0281
  168.9000   113.0709     8.9547     9.0069
  169.0000   113.0727     8.9542     8.9650
  169.1000   113.0745     8.9537     8.9647
  169.2000   113.0764     8.9532     8.9177
  169.3000   113.0782     8.9054     8.9020
  169.4000   113.0800     8.8902     8.9018
  169.5000   113.0818     8.8897     8.9015
  169.6000   113.0982     8.8892     8.9013
  169.7000   113.3888     8.8887     8.8528
  169.8000   113.7887     8.8882     8.8391
  169.9000   114.1382     8.8877     8.8146
  170.0000   114.3838     8.8625     8.7772
  170.1000   114.6511     8.8251     8.7766
  170.2000   115.2160     8.8246     8.7273
  170.3000   115.6301     8.8241     8.7156
  170.4000   116.1196     8.7856     8.6897
  170.5000   116.5212     8.7360     8.6547
  170.6000   116.7955     8.7007     8.6544
  170.7000   117.3463     8.7002     8.6541
  170.8000   117.7745     8.6997     8.6150
  170.9000   118.1099     8.6602     8.5937
  171.0000   118.5454     8.6385     8.5934
  171.1000   119.2430     8.6225     8.5893
  171.2000   119.7796     8.5777     8.5333
  171.3000   120.2220     8.5771     8.5331
  171.4000   120.5503     8.5366     8.5329
  171.5000   120.7960     8.4884     8.5155
  171.6000   120.9985     8.4573     8.4676
  171.7000   120.3947     8.4568     8.4142
  171.8000   119.9414     8.4563     8.4139
  171.9000   119.1190     8.4147     8.4137
  172.0000   118.2545     8.3673     8.3948
  172.1000   117.5248     8.3381     8.3549
  172.2000   116.7673     8.3308     8.3546
  172.3000   116.3000     8.2793     8.3116
  172.4000   115.9895     8.2789     8.2962
  172.5000   115.7475     8.2478     8.2759
  172.6000   115.5054     8.2206     8.2293
  172.7000   115.2612     8.2119     8.1808
  172.8000   115.0214     8.1627     8.1806
  172.9000   114.7794     8.1195     8.1478
  173.0000   114.5374     8.1052     8.1020
  173.1000   114.2953     8.0842     8.0461
  173.2000   114.0581     8.0386     7.9550
  173.3000   114.0600     7.9919     7.9108
  173.4000   114.2513     7.9482     7.8663
  173.5000   114.6273     7.9033     7.7999
  173.6000   115.1168     7.8587     7.7126
  173.7000   115.6062     7.8144     7.6262
  173.8000   116.1907     7.7703     7.5410
  173.9000   116.5853     7.7265     7.4896
  174.0000   117.2121     7.6179     7.4023
  174.1000   117.8673     7.5340     7.3032
  174.2000   118.3757     7.4684     7.2595
  174.3000   119.2300     7.3462     7.1640
  174.4000   119.4352     7.3048     7.0981
  174.5000   119.5364     7.1996     7.0187
  174.6000   119.5382     7.0576     6.9534
  174.7000   119.5400     6.9125     6.9104
  174.8000   119.5421     6.7941     6.8223
  174.9000   119.5436     6.6174     6.7893
  175.0000   119.3939     6.4663     6.7278
  175.1000   119.3366     6.2874     6.6525
  175.2000   119.5491     6.1364     6.5831
  175.3000   119.5511     6.0269     6.5423
  175.4000   119.5527     5.8370     6.4443
  175.5000   119.7131     5.6983     6.3598
