~VERSION INFORMATION
 VERS.                2.0:   CWLS LOG ASCII STANDARD - VERSION 2.0
 WRAP.                 NO:   ONE LINE PER DEPTH STEP
~WELL INFORMATION
#MNEM.UNIT      DATA TYPE    INFORMATION
#----------   ------------   ------------------------------
 STRT.F            8.0000:   START DEPTH
 STOP.F          916.0000:   STOP DEPTH
 STEP.F            0.5000:   STEP LENGTH
 NULL.          -999.2500:   NO VALUE
 COMP. LAWRENCE/ALLISON INC:   COMPANY
 WELL.    41-66 SX #11-11:   WELL
 FLD .             NPR #3:   FIELD
 LOC .      S11 T38N R78W:   LOCATION
 CNTY.            NATRONA:   COUNTY
 STAT.            WYOMING:   STATE
 CTRY. UNITED STATES OF AMERICA:   COUNTRY
 SRVC.           Gearhart:   SERVICE COMPANY
 DATE.        13-MAY-1987:   LOGDATE
 API .       490251112600:   API NUMBER
~CURVE INFORMATION
#MNEM.UNIT       API CODE    CURVE DESCRIPTION
#----------   ------------   ------------------------------
 DEPT.F                  :   
 GRR .GAPI   07 310 01 00:   GAMMA RAY FROM RES. LOG.
 RILM.OHMM   07 120 44 00:   INDUCTION LOG MEDIUM RESISTIVITY
 RILD.OHMM   07 120 46 00:   INDUCTION LOG DEEP RESISTIVITY
~PARAMETER INFORMATION
#MNEM.UNIT          VALUE    DESCRIPTION
#----------   ------------   ------------------------------
 PD  .                 GL:   PERMANENT DATUM
 EPD .F              5166:   ELEVATION PERMANENT DATUM
 LMF .                 KB:   LOG MEASURED FROM
 DAPD.F                 8:   FEET ABOVE PERMANENT DATUM
 DMF .                 KB:   DRILLING MEASURED FROM
 EKB .F              5174:   KELLING BUSHING
 EDF .F              5174:   DRILLING FLOOR
 EGL .F              5166:   GROUND LEVEL
 DATE.            5-13-87:   RUN DATE
 RUN .                  1:   RUN NUMBER
 DD  .F               945:   DEPTH DRILLER
 DL  .F               930:   DEPTH LOGGER
 BLI .F               921:   BOTTOM LOG INTERVAL
 TLI .F                49:   TOP LOG INTERVAL
 CS  .IN            8.625:   CASING SIZE
 CBD .F                47:   CASING BOTTOM DRILLER
 CBL .F                49:   CASING BOTTOM LOGGER
 BS  .IN            7.875:   BIT SIZE
 BSD .F               945:   BIT SIZE AT DEPTH
 DFT .           AIR FOAM:   DRILLING FLUID TYPE
 TCS .HRS            2230:   TIME CURCULATED STOPPED
 TLAB.HRS            1105:   TIME LOGGER AT BOTTOM
 MRT .F                80:   MAXIMUM RECORDED TEMPERATURE
 LUN .               7597:   LOGGING UNIT NUMBER
 LUL .                GLT:   LOGGING UNIT LOCATION
 ENGI.            WANGLER:   RECORDING ENGINEER
 WITN.             STRONG:   WITNESSED BY
 CLNT.            A2DTECH:   CLIENT CODE
 ORIG.       2", 5" PRINT:   ORIGIN OF DATA
 UWI .       490251112600:   UNIQUE WELL ID
 DICO. A2D Technologies, Inc.:   DIGITIZING COMPANY
~OTHER INFORMATION
~A    DEPT      GRR      RILM       RILD   
    8.0000    33.9366  -999.2500  -999.2500
    8.5000    39.5594  -999.2500  -999.2500
    9.0000    49.9769  -999.2500  -999.2500
    9.5000    58.3326  -999.2500  -999.2500
   10.0000    68.7851  -999.2500  -999.2500
   10.5000    78.5701  -999.2500  -999.2500
   11.0000    80.2302  -999.2500  -999.2500
   11.5000    80.6716  -999.2500  -999.2500
   12.0000    82.9206  -999.2500  -999.2500
   12.5000    85.4591  -999.2500  -999.2500
   13.0000    85.7886  -999.2500  -999.2500
   13.5000    83.9771  -999.2500  -999.2500
   14.0000    81.8938  -999.2500  -999.2500
   14.5000    81.1571  -999.2500  -999.2500
   15.0000    80.3572  -999.2500  -999.2500
   15.5000    78.4945  -999.2500  -999.2500
   16.0000    76.6639  -999.2500  -999.2500
   16.5000    77.2623  -999.2500  -999.2500
   17.0000    78.8238  -999.2500  -999.2500
   17.5000    78.5902  -999.2500  -999.2500
   18.0000    77.7506  -999.2500  -999.2500
   18.5000    77.6951  -999.2500  -999.2500
   19.0000    79.1004  -999.2500  -999.2500
   19.5000    77.4765  -999.2500  -999.2500
   20.0000    73.3088  -999.2500  -999.2500
   20.5000    70.6006  -999.2500  -999.2500
   21.0000    70.2445  -999.2500  -999.2500
   21.5000    71.3042  -999.2500  -999.2500
   22.0000    72.9385  -999.2500  -999.2500
   22.5000    74.5856  -999.2500  -999.2500
   23.0000    76.2061  -999.2500  -999.2500
   23.5000    76.6211  -999.2500  -999.2500
   24.0000    75.1881  -999.2500  -999.2500
   24.5000    73.7822  -999.2500  -999.2500
   25.0000    73.6901  -999.2500  -999.2500
   25.5000    75.4598  -999.2500  -999.2500
   26.0000    77.3385  -999.2500  -999.2500
   26.5000    79.2308  -999.2500  -999.2500
   27.0000    81.2010  -999.2500  -999.2500
   27.5000    80.7472  -999.2500  -999.2500
   28.0000    80.1458  -999.2500  -999.2500
   28.5000    79.5390  -999.2500  -999.2500
   29.0000    79.2519  -999.2500  -999.2500
   29.5000    79.8034  -999.2500  -999.2500
   30.0000    80.3411  -999.2500  -999.2500
   30.5000    80.8702  -999.2500  -999.2500
   31.0000    81.1653  -999.2500  -999.2500
   31.5000    80.6682  -999.2500  -999.2500
   32.0000    80.1927  -999.2500  -999.2500
   32.5000    79.7141  -999.2500  -999.2500
   33.0000    79.8151  -999.2500  -999.2500
   33.5000    80.6903  -999.2500  -999.2500
   34.0000    82.8802  -999.2500  -999.2500
   34.5000    85.1645  -999.2500  -999.2500
   35.0000    87.1384  -999.2500  -999.2500
   35.5000    82.2475  -999.2500  -999.2500
   36.0000    78.9105  -999.2500  -999.2500
   36.5000    78.2245  -999.2500  -999.2500
   37.0000    77.5534  -999.2500  -999.2500
   37.5000    76.8695  -999.2500  -999.2500
   38.0000    75.8976  -999.2500  -999.2500
   38.5000    72.6784  -999.2500  -999.2500
   39.0000    69.1431  -999.2500  -999.2500
   39.5000    67.2810  -999.2500  -999.2500
   40.0000    67.5051  -999.2500  -999.2500
   40.5000    68.7019  -999.2500  -999.2500
   41.0000    70.6256  -999.2500  -999.2500
   41.5000    71.9058  -999.2500  -999.2500
   42.0000    72.7523  -999.2500  -999.2500
   42.5000    74.5431  -999.2500  -999.2500
   43.0000    73.7355  -999.2500  -999.2500
   43.5000    70.7879  -999.2500  -999.2500
   44.0000    67.8787  -999.2500  -999.2500
   44.5000    66.6611  -999.2500  -999.2500
   45.0000    64.8122  -999.2500  -999.2500
   45.5000    62.6919  -999.2500  -999.2500
   46.0000    60.5606  -999.2500  -999.2500
   46.5000    60.0625  -999.2500  -999.2500
   47.0000    59.6285  -999.2500  -999.2500
   47.5000    59.3902  -999.2500  -999.2500
   48.0000    62.2025  -999.2500  -999.2500
   48.5000    67.9608  -999.2500  -999.2500
   49.0000    71.8247    34.5294     3.4023
   49.5000    72.5181     6.3699     2.1026
   50.0000    73.6046     3.7568     1.7278
   50.5000    75.2490     1.8055     1.8003
   51.0000    78.9218     1.5684     2.1461
   51.5000    82.6498     1.6972     2.5583
   52.0000    83.2616     1.8767     2.8224
   52.5000    81.1035     2.0752     2.7959
   53.0000    79.0202     2.2948     2.6683
   53.5000    77.7348     2.5375     2.5202
   54.0000    76.3701     2.8224     2.5620
   54.5000    74.5374     2.9035     2.6171
   55.0000    72.6736     2.7179     2.6733
   55.5000    70.7294     2.5889     2.7179
   56.0000    69.8915     2.4966     2.9215
   56.5000    70.9773     2.4966     3.0907
   57.0000    70.6874     2.5593     3.1608
   57.5000    69.4686     2.6929     3.1515
   58.0000    70.3735     2.8336     3.1388
   58.5000    74.5878     2.9816     3.1311
   59.0000    78.7635     3.1311     3.3261
   59.5000    80.1255     3.3084     3.4602
   60.0000    80.7829     3.4886     3.5926
   60.5000    81.6411     3.5938     3.7301
   61.0000    83.3877     3.6930     3.8728
   61.5000    85.0927     3.7948     3.9994
   62.0000    86.8008     3.8995     4.0938
   62.5000    88.5003     4.0018     4.1904
   63.0000    89.8542     4.0943     4.2897
   63.5000    89.7980     4.2052     4.3900
   64.0000    91.3830     4.3197     4.4507
   64.5000    93.7509     4.4391     4.4696
   65.0000    96.2758     4.4114     4.4895
   65.5000    96.7655     4.3813     4.5091
   66.0000    96.0026     4.3520     4.5238
   66.5000    95.4718     4.3230     4.4497
   67.0000    96.8994     4.2941     4.3979
   67.5000    98.4060     4.2668     4.3806
   68.0000    98.3799     4.2425     4.3620
   68.5000    97.2958     4.2183     4.3434
   69.0000    98.0309     4.1943     4.3250
   69.5000    98.4783     4.1704     4.3066
   70.0000    95.5220     4.1467     4.2882
   70.5000    89.1253     4.1229     4.2700
   71.0000    82.9846     4.0872     4.2518
   71.5000    84.5539     4.0334     4.2337
   72.0000    87.8826     3.9802     4.2157
   72.5000    91.3019     3.9274     4.1978
   73.0000    92.5191     3.8894     4.1952
   73.5000    93.6273     3.9336     4.2414
   74.0000    94.3032     3.9960     4.2751
   74.5000    94.2973     4.0593     4.3832
   75.0000    94.3000     4.1236     4.5009
   75.5000    94.3126     4.1890     4.6218
   76.0000    93.5823     4.2554     4.7465
   76.5000    90.8901     4.3228     4.8397
   77.0000    87.5654     4.4570     4.9190
   77.5000    84.5609     4.6627     4.9993
   78.0000    84.7805     4.8780     5.0810
   78.5000    89.4338     5.0190     5.1640
   79.0000    94.0789     5.1632     5.2615
   79.5000    98.8408     5.2152     5.2115
   80.0000    98.6386     5.2156     5.1530
   80.5000    96.4372     5.0535     5.0951
   81.0000    94.2388     4.9569     5.0378
   81.5000    92.0385     4.8615     4.9812
   82.0000    89.8323     4.7679     4.9252
   82.5000    88.7426     4.6761     4.8698
   83.0000    92.9471     4.5861     4.8151
   83.5000    97.1730     4.4978     4.7877
   84.0000    99.5971     4.3979     4.7994
   84.5000    98.2429     4.3979     4.8101
   85.0000    95.2796     4.4817     4.8207
   85.5000    92.2848     4.5232     4.8313
   86.0000    89.3720     4.6242     4.9022
   86.5000    87.3760     4.7275     4.9863
   87.0000    86.5724     4.8331     5.0719
   87.5000    86.5499     4.9252     5.1632
   88.0000    86.8718     4.9252     5.1256
   88.5000    87.4125     4.8789     5.0596
   89.0000    89.0792     4.8814     4.9945
   89.5000    93.2370     4.7833     4.9302
   90.0000    96.7377     4.7173     4.8667
   90.5000    95.4465     4.6522     4.8040
   91.0000    93.7839     4.5880     4.7872
   91.5000    92.2457     4.5242     4.7876
   92.0000    91.5759     4.5242     4.7877
   92.5000    90.6775     4.5242     4.7877
   93.0000    88.2660     4.5242     4.7877
   93.5000    86.9659     4.5242     4.7877
   94.0000    87.7220     4.5244     4.7877
   94.5000    92.0143     4.5250     4.7882
   95.0000    96.9067     4.4818     4.7688
   95.5000    97.6104     4.4396     4.7444
   96.0000    96.2318     4.4231     4.7202
   96.5000    94.5219     4.4073     4.6961
   97.0000    94.8841     4.3914     4.6721
   97.5000    95.9987     4.3756     4.6483
   98.0000    97.2757     4.3566     4.6246
   98.5000    98.2657     4.3745     4.6104
