~VERSION INFORMATION
 VERS.                2.0:   CWLS LOG ASCII STANDARD - VERSION 2.0
 WRAP.                 NO:   ONE LINE PER DEPTH STEP
~WELL INFORMATION
#MNEM.UNIT      DATA TYPE    INFORMATION
#----------   ------------   ------------------------------
 STRT.F           29.0000:   START DEPTH
 STOP.F          882.0000:   STOP DEPTH
 STEP.F            0.5000:   STEP LENGTH
 NULL.          -999.2500:   NO VALUE
 COMP. FENIX & SCISSON INC:   COMPANY
 WELL. NAVAL PETROLEUM RESERVE 3 S-14 #42-14:   WELL
 FLD .             TEAPOT:   FIELD
 LOC .      S14 T38N R78W:   LOCATION
 CNTY.            NATRONA:   COUNTY
 STAT.            WYOMING:   STATE
 CTRY. UNITED STATES OF AMERICA:   COUNTRY
 SRVC.              Welex:   SERVICE COMPANY
 DATE.        03-MAY-1977:   LOGDATE
 API .       490251035400:   API NUMBER
~CURVE INFORMATION
#MNEM.UNIT       API CODE    CURVE DESCRIPTION
#----------   ------------   ------------------------------
 DEPT.F                  :   
 CALD.IN     45 280 60 00:   CALIPER FROM DENSITY LOG
 GRD .GAPI   45 310 01 00:   GAMMA RAY FROM DENSITY LOG
 CORR.G/C3   45 356 01 00:   DENSITY CORRECTION
 DPHI.DEC    45 890 12 00:   DENSITY POROSITY SANDSTONE
 RHOB.G/C3   45 350 01 00:   BULK DENSITY
 SPR .MV     07 010 01 00:   SPONTANEOUS POTENTIAL
 ILD .OHMM   07 120 46 00:   INDUCTION LOG DEEP
 ILM .OHMM   07 120 44 00:   INDUCTION LOG MEDIUM
 SGRD.OHMM   07 221 05 00:   SHALLOW SHORT GUARD RESISTIVITY
~PARAMETER INFORMATION
#MNEM.UNIT          VALUE    DESCRIPTION
#----------   ------------   ------------------------------
 PD  .                 GL:   PERMANENT DATUM
 EPD .F              5206:   ELEVATION PERMANENT DATUM
 LMF .                 GL:   LOG MEASURED FROM
 DMF .                 GL:   DRILLING MEASURED FROM
 EGL .F              5206:   GROUND LEVEL
 DATE.        03-MAY-1977:   RUN DATE
 RUN .                  1:   RUN NUMBER
 DD  .F               855:   DEPTH DRILLER
 DL  .F               884:   DEPTH LOGGER
 BLI .F               882:   BOTTOM LOG INTERVAL
 TLI .F                28:   TOP LOG INTERVAL
 CS  .IN            8.625:   CASING SIZE
 BS  .IN               12:   BIT SIZE
 BSD .F               855:   BIT SIZE AT DEPTH
 DFT .            KCL MUD:   DRILLING FLUID TYPE
 DFD .                8.7:   DRILLING FLUID DENSITY
 BHT .F                75:   BOTTOM HOLE TEMPERATURE
 TCS .HRS            0130:   TIME CURCULATED STOPPED
 MRT .F                75:   MAXIMUM RECORDED TEMPERATURE
 ENGI.            C. DOAK:   RECORDING ENGINEER
 WITN.            R. LYON:   WITNESSED BY
 CLNT.            A2DTECH:   CLIENT CODE
 ORIG.           5" PRINT:   ORIGIN OF DATA
 UWI .       490251035400:   UNIQUE WELL ID
 DICO. A2D Technologies, Inc.:   DIGITIZING COMPANY
~OTHER INFORMATION
~A   DEPT       CALD      GRD       CORR       DPHI         RHOB      SPR        ILD        ILM       SGRD   
# ...
   65.5000     8.0488   120.5190     0.0515     0.1668     2.3954  -999.2500     5.3916     5.4276     4.8590
   66.0000     8.0334   119.4668     0.0529     0.1675     2.3946  -999.2500     5.4645     5.5022     4.9602
   66.5000     8.0480   117.9655     0.0529     0.1636     2.4028  -999.2500     5.6168     5.5783     5.0286
   67.0000     8.0924   116.9133     0.0529     0.1627     2.4021  -999.2500     5.6943     5.6163     4.9932
   67.5000     8.1218   122.8960     0.0590     0.1605     2.4050  -999.2500     5.7728     5.6937     4.8901
   68.0000     8.1513   125.7360     0.0618     0.1567     2.4132  -999.2500     5.7720     5.6928     4.9234
   68.5000     8.1358   128.1269     0.0603     0.1606     2.4028  -999.2500     5.6889     5.6477     4.9911
   69.0000     8.1055   128.5717     0.0662     0.1633     2.3983  -999.2500     5.4977     5.4977     5.0252
   69.5000     8.0602   130.3818     0.0692     0.1594     2.4102  -999.2500     5.4591     5.4591     4.9898
   70.0000     8.0149   133.8015     0.0692     0.1582     2.4027  -999.2500     5.4583     5.4964     4.9547
   70.5000     7.9846   135.1445     0.0676     0.1610     2.4027  -999.2500     5.4576     5.5336     4.8860
   71.0000     7.9542   134.9905     0.0661     0.1622     2.4026  -999.2500     5.4569     5.5329     4.8517
   71.5000     7.9388   130.7946     0.0646     0.1634     2.3981  -999.2500     5.4141     5.5016     4.8175
   72.0000     7.9384   127.7963     0.0631     0.1673     2.3914  -999.2500     5.3064     5.4553     4.7836
   72.5000     7.9380   125.5164     0.0615     0.1679     2.3914  -999.2500     5.2692     5.3797     4.6848
   73.0000     7.9536   123.1459     0.0631     0.1661     2.3913  -999.2500     5.1248     5.2322     4.6199
   73.5000     7.9969   124.9380     0.0689     0.1667     2.3966  -999.2500     4.9843     5.0867     4.5244
   74.0000     8.0264   125.2342     0.0704     0.1616     2.4048  -999.2500     4.8813     4.8812     4.4309
   74.5000     8.0557   125.0791     0.0704     0.1598     2.4047  -999.2500     4.7423     4.7474     4.4302
   75.0000     8.0553   127.3204     0.0674     0.1646     2.3972  -999.2500     4.7469     4.7142     4.3991
   75.5000     8.0698   128.2143     0.0568     0.1694     2.3875  -999.2500     4.8792     4.8124     4.3985
   76.0000     8.0843   126.4125     0.0523     0.1718     2.3852  -999.2500     4.9810     4.9124     4.3979
   76.5000     8.0987   124.3124     0.0538     0.1718     2.3852  -999.2500     5.0846     5.0147     4.4278
   77.0000     8.1108   123.8601     0.0523     0.1712     2.3852  -999.2500     5.1556     5.0883     4.4273
   77.5000     8.1108   125.0674     0.0507     0.1677     2.3874  -999.2500     5.2258     5.1540     4.4935
   78.0000     8.1407   123.5029     0.0462     0.1641     2.4008  -999.2500     5.2612     5.1532     4.5502
   78.5000     8.1707   121.8989     0.0417     0.1596     2.4031  -999.2500     5.3337     5.3337     4.6130
   79.0000     8.2156   120.6970     0.0492     0.1583     2.4060  -999.2500     5.4826     5.5206     4.6766
   79.5000     8.2630   119.6448     0.0476     0.1527     2.4150  -999.2500     5.5968     5.5968     4.7738
   80.0000     8.3503   124.2812     0.0431     0.1533     2.4217  -999.2500     5.5960     5.5960     4.8396
   80.5000     8.3054   128.4685     0.0371     0.1590     2.4067  -999.2500     5.6730     5.5951     4.9745
   81.0000     8.2305   133.4218     0.0341     0.1614     2.4007  -999.2500     5.7514     5.7116     5.1489
   81.5000     8.1395   134.5977     0.0370     0.1537     2.4179  -999.2500     5.9117     5.8305     5.2926
   82.0000     8.0659   131.7480     0.0385     0.1516     2.4216  -999.2500     6.0348     5.9519     5.3657
   82.5000     8.0060   129.1988     0.0385     0.1552     2.4193  -999.2500     6.1181     6.0759     5.4773
   83.0000     7.9910   127.5478     0.0369     0.1603     2.4088  -999.2500     6.2070     6.2027     5.5528
   83.5000     7.9760   127.2441     0.0369     0.1615     2.4043  -999.2500     6.2878     6.2951     5.6294
   84.0000     8.0060   131.4303     0.0384     0.1621     2.4006  -999.2500     6.3747     6.4189     5.7068
   84.5000     8.0210   132.4750     0.0413     0.1621     2.4005  -999.2500     6.4624     6.5072     5.7857
   85.0000     8.0210   131.5714     0.0443     0.1581     2.4087  -999.2500     6.5515     6.5517     5.8655
   85.5000     8.0210   130.5192     0.0473     0.1573     2.4095  -999.2500     6.5961     6.5506     5.9875
   86.0000     8.0060   133.3592     0.0443     0.1585     2.4057  -999.2500     6.5885     6.5497     5.9867
   86.5000     7.9910   133.3339     0.0442     0.1588     2.4064  -999.2500     6.5036     6.4991     5.9035
   87.0000     7.9910   133.0502     0.0442     0.1541     2.4146  -999.2500     6.4134     6.4134     5.7815
   87.5000     7.9760   135.4411     0.0487     0.1520     2.4198  -999.2500     6.4126     6.3244     5.6230
   88.0000     7.9910   134.8380     0.0486     0.1487     2.4228    -0.1192     6.3675     6.2367     5.4689
   88.5000     7.9910   133.6361     0.0471     0.1517     2.4228   -11.0659     6.3228     6.1503     5.3559
   89.0000     8.0060   133.6438     0.0471     0.1523     2.4220   -23.0854     6.2349     6.1494     5.2817
   89.5000     8.0210   135.7222     0.0455     0.1532     2.4190   -28.6068     6.1485     6.1505     5.3174
   90.0000     8.0210   133.9215     0.0410     0.1565     2.4108   -33.2340     6.2335     6.3200     5.4282
   90.5000     8.0060   129.5759     0.0365     0.1589     2.4078   -41.5374     6.4965     6.5415     5.5412
   91.0000     7.9910   128.8231     0.0350     0.1589     2.4100   -43.3843     6.7708     6.7707     5.6566
   91.5000     8.0060   127.4715     0.0334     0.1622     2.4025   -44.1367     6.9143     6.9596     5.7346
   92.0000     8.0210   124.7961     0.0289     0.1643     2.3935   -44.2929     7.0071     7.0072     5.8137
   92.5000     8.0210   121.0247     0.0274     0.1655     2.3927   -44.3002     6.9097     6.9578     5.9007
   93.0000     8.0359   116.2300     0.0289     0.1655     2.3949   -44.3074     6.8614     6.9568     5.9340
   93.5000     8.0509   111.4353     0.0333     0.1604     2.4009   -44.0165     6.9558     6.9557     5.9744
   94.0000     8.0210   108.7364     0.0363     0.1584     2.4091   -43.7257     7.0031     7.0516     5.9734
   94.5000     8.0060   107.3848     0.0363     0.1572     2.4083   -43.1386     7.0508     7.0996     6.0142
   95.0000     7.9910   110.8225     0.0347     0.1593     2.4038   -42.6987     7.0988     7.1482     6.0550
   95.5000     8.0060   115.4589     0.0347     0.1617     2.4068   -42.2588     7.1471     7.2465     6.3983
   96.0000     8.0359   116.9516     0.0362     0.1572     2.4135   -41.6699     7.1459     7.3464     6.8082
   96.5000     8.0509   116.9473     0.0376     0.1514     2.4224   -41.0810     7.1948     7.3284     7.1449
   97.0000     8.0509   119.9370     0.0406     0.1471     2.4291   -40.7899     7.2435     7.2702     7.3443
   97.5000     8.0808   120.0824     0.0437     0.1426     2.4388   -40.3502     7.1926     7.2423     7.4458
   98.0000     8.0958   117.9813     0.0450     0.1384     2.4418   -40.2084     7.1419     7.1419     7.4446
   98.5000     8.1108   116.4800     0.0465     0.1390     2.4418   -40.2174     6.9943     7.0429     7.2403
   99.0000     8.0958   115.7272     0.0465     0.1369     2.4440   -40.2246     6.8026     6.8498     6.8498
   99.5000     8.0808   115.2738     0.0449     0.1335     2.4522   -40.2318     6.4257     6.5706     6.3913
  100.0000     8.0659   116.0180     0.0449     0.1292     2.4606   -40.5371     5.6931     6.0049     5.9635
  100.5000     8.0509   120.3526     0.0443     0.1268     2.4626   -40.6934     5.1073     5.3610     5.8804
  101.0000     8.0509   121.0968     0.0437     0.1277     2.4596   -40.8496     5.3006     4.9809     5.8790
  101.5000     8.0359   117.4967     0.0433     0.1328     2.4454   -41.0159     5.7584     5.4485     6.1693
