~VERSION INFORMATION
 VERS.                2.0:   CWLS LOG ASCII STANDARD - VERSION 2.0
 WRAP.                 NO:   ONE LINE PER DEPTH STEP
~WELL INFORMATION
#MNEM.UNIT      DATA TYPE    INFORMATION
#----------   ------------   ------------------------------
 STRT.F           34.0000:   START DEPTH
 STOP.F          445.0000:   STOP DEPTH
 STEP.F            0.5000:   STEP LENGTH
 NULL.          -999.2500:   NO VALUE
 COMP. FENIX & SCISSON U.S. NAVY:   COMPANY
 WELL.       NPR #64-S-10:   WELL
 FLD .             TEAPOT:   FIELD
 LOC .      S10 T38N R78W:   LOCATION
 CNTY.            NATRONA:   COUNTY
 STAT.            WYOMING:   STATE
 CTRY. UNITED STATES OF AMERICA:   COUNTRY
 SRVC.              Welex:   SERVICE COMPANY
 DATE.        08-APR-1977:   LOGDATE
 API .       490251033400:   API NUMBER
~CURVE INFORMATION
#MNEM.UNIT       API CODE    CURVE DESCRIPTION
#----------   ------------   ------------------------------
 DEPT.F                  :   
 SPR .MV     07 010 01 00:   SPONTANEOUS POTENTIAL
 ILD .OHMM   07 120 46 00:   INDUCTION LOG DEEP
 ILM .OHMM   07 120 44 00:   INDUCTION LOG MEDIUM
 SGRD.OHMM   07 221 05 00:   SHALLOW SHORT GUARD RESISTIVITY
 CALD.IN     45 280 60 00:   CALIPER FROM DENSITY LOG
 GRD .GAPI   45 310 01 00:   GAMMA RAY FROM DENSITY LOG
 CORR.G/C3   45 356 01 00:   DENSITY CORRECTION
 RHOB.G/C3   45 350 01 00:   BULK DENSITY
 DPHI.DEC    45 890 12 00:   DENSITY POROSITY SANDSTONE
~PARAMETER INFORMATION
#MNEM.UNIT          VALUE    DESCRIPTION
#----------   ------------   ------------------------------
 PD  .                 GL:   PERMANENT DATUM
 EPD .F              5183:   ELEVATION PERMANENT DATUM
 LMF .                 GL:   LOG MEASURED FROM
 DMF .                 GL:   DRILLING MEASURED FROM
 EGL .F              5183:   GROUND LEVEL
 DATE.        08-APR-1977:   RUN DATE
 RUN .                  1:   RUN NUMBER
 DD  .F               455:   DEPTH DRILLER
 DL  .F               447:   DEPTH LOGGER
 BLI .F               445:   BOTTOM LOG INTERVAL
 TLI .F                34:   TOP LOG INTERVAL
 CS  .IN            8.625:   CASING SIZE
 BS  .IN            7.875:   BIT SIZE
 BSD .F               455:   BIT SIZE AT DEPTH
 DFT .           KCL- GEL:   DRILLING FLUID TYPE
 DFD .                8.3:   DRILLING FLUID DENSITY
 TCS .HRS            0100:   TIME CURCULATED STOPPED
 MRT .F                62:   MAXIMUM RECORDED TEMPERATURE
 ENGI.        E. CALLAHAN:   RECORDING ENGINEER
 WITN.            R. LYON:   WITNESSED BY
 CLNT.            A2DTECH:   CLIENT CODE
 ORIG.           5" PRINT:   ORIGIN OF DATA
 UWI .       490251033400:   UNIQUE WELL ID
 DICO. A2D Technologies, Inc.:   DIGITIZING COMPANY
~OTHER INFORMATION
~A   DEPT      SPR        ILD        ILM       SGRD       CALD        GRD        CORR        RHOB     DPHI   
# ...
  107.0000   -25.2352     8.1749     7.9606     5.3530     7.8895   114.3370     0.0461     2.4194     0.1364
  107.5000   -27.7834     8.1711     7.9566     4.5400     7.8611   114.6508     0.0522     2.4248     0.1370
  108.0000   -28.9936     8.1674     8.0088     4.1475     7.8476   113.6193     0.0568     2.4293     0.1321
  108.5000   -28.0985     8.0511     7.8400     4.9892     7.8042   111.5414     0.0615     2.4362     0.1276
  109.0000   -27.0530     7.8808     7.7290     3.3596     7.7608   109.0152     0.0676     2.4468     0.1224
  109.5000   -26.6090     7.7687     7.6195     2.8836     7.7175   108.7273     0.0722     2.4506     0.1206
  110.0000   -27.8841     7.6052     7.4596     9.2345     7.7041   109.4933     0.0754     2.4499     0.1203
  110.5000   -29.3302     7.3937     7.2519     9.2964     7.7055   108.6112     0.0740     2.4432     0.1218
  111.0000   -28.2866     7.2885     7.1492     9.6202     7.7220   107.8750     0.0696     2.4305     0.1283
  111.5000   -27.8408     7.0850     7.0479     9.8198     7.7235   109.3883     0.0622     2.4328     0.1283
  112.0000   -28.1506     6.9359     6.9481     9.3509     7.7557   110.3000     0.0563     2.4404     0.1280
  112.5000   -28.4693     6.8372     6.8497     8.1851     7.7862   109.7169     0.0519     2.4367     0.1288
  113.0000   -28.9186     6.7399     6.7520     8.4213     7.8193   107.9380     0.0490     2.4218     0.1357
  113.5000   -29.5273     6.6902     6.7026     7.6932     7.8490   107.8954     0.0491     2.4143     0.1417
  114.0000   -29.9856     6.6864     6.7466     8.1856     7.8505   109.7614     0.0568     2.4196     0.1378
  114.5000   -30.1432     6.7766     6.7439     9.0793     7.8523   110.9721     0.0599     2.4257     0.1350
  115.0000   -30.4511     6.8681     6.8354     9.6604     7.8538   112.1827     0.0525     2.4265     0.1344
  115.5000   -30.7609     6.9608     6.9352     9.5243     7.8553   111.5997     0.0436     2.4191     0.1392
  116.0000   -31.0688     7.0548     7.0710    10.0223     7.8119   110.2692     0.0392     2.4161     0.1413
  116.5000   -31.2264     7.1990     7.1669    11.3175     7.7686   110.2840     0.0408     2.4154     0.1415
  117.0000   -31.5343     7.3470     7.2642    11.6327     7.7398   112.1047     0.0500     2.4185     0.1379
  117.5000   -31.6919     7.3955     7.4132    12.5418     7.7562   113.4679     0.0576     2.4239     0.1310
  118.0000   -32.0000     7.5467     7.4618    12.2810     7.7730   114.5262     0.0623     2.4397     0.1267
  118.5000   -32.0088     7.6477     7.5631    11.5359     7.8044   115.2930     0.0669     2.4450     0.1204
  119.0000   -32.1663     7.6441     7.6127    10.8354     7.8208   115.4404     0.0700     2.4526     0.1176
  119.5000   -32.3239     7.6956     7.6626    11.2150     7.8373   113.9103     0.0731     2.4572     0.1170
  120.0000   -32.6318     7.6371     7.6059    11.6886     7.8537   114.1285     0.0733     2.4512     0.1203
  120.5000   -32.7895     7.5808     7.5496    11.6054     7.8402   115.9371     0.0704     2.4498     0.1194
  121.0000   -32.9488     7.4204     7.4426    11.2850     7.8118   117.4467     0.0674     2.4536     0.1181
  121.5000   -33.1063     7.3657     7.3372    10.8983     7.8133   118.2089     0.0631     2.4492     0.1205
  122.0000   -33.2639     7.2609     7.1833    10.3800     7.7995   116.7290     0.0617     2.4342     0.1268
  122.5000   -33.2711     7.1081     7.0326     9.9550     7.7565   115.2490     0.0618     2.4411     0.1271
  123.0000   -33.4286     6.9586     6.8368     9.9620     7.7430   113.6196     0.0604     2.4441     0.1261
  123.5000   -33.4597     6.7643     6.6471    10.1597     7.7292   111.9902     0.0591     2.4262     0.1270
  124.0000   -33.5952     6.6680     6.5076    10.0868     7.7310   113.4998     0.0577     2.4180     0.1369
  124.5000   -33.7527     6.4378     6.3271     9.5407     7.7325   114.5610     0.0563     2.4098     0.1447
  125.0000   -33.9103     6.1725     6.0668     9.0242     7.7489   115.0243     0.0504     2.4016     0.1461
  125.5000   -34.0678     5.8773     5.7764     9.0845     7.7803   115.6370     0.0430     2.3904     0.1530
  126.0000   -34.2384     5.4803     5.4625     9.1462     7.8266   115.9508     0.0356     2.3769     0.1650
  126.5000   -34.5351     5.2911     5.2016     8.4140     7.8580   116.2646     0.0327     2.3650     0.1734
  127.0000   -34.5423     5.1804     5.3088     5.7849     7.8595   116.7279     0.0298     2.3605     0.1749
  127.5000   -34.6999     5.3601     5.4940     4.7976     7.8311   116.5932     0.0299     2.3621     0.1733
  128.0000   -34.8574     5.5083     5.7246     9.2648     7.8326   116.4586     0.0346     2.3742     0.1673
  128.5000   -34.8646     5.7797     6.0070     9.5236     7.8191   115.5766     0.0392     2.4088     0.1435
  129.0000   -35.0240     6.0225     6.2597     9.2564     7.8046   114.6945     0.0453     2.4209     0.1372
  129.5000   -35.0312     6.3191     6.5231     9.1313     7.7772   114.8588     0.0485     2.4150     0.1408
  130.0000   -35.1887     6.6297     6.7976     9.6492     7.7618   116.2190     0.0546     2.4188     0.1401
  130.5000   -35.1959     6.8461     7.1322    10.1970     7.7204   118.9244     0.0592     2.4256     0.1347
  131.0000   -35.2031     7.0079     7.3810    10.4846     7.7220   120.2845     0.0639     2.4272     0.1289
  131.5000   -35.2105     7.1696     7.5856    10.6254     7.7537   118.8046     0.0640     2.4302     0.1262
  132.0000   -35.3697     7.3313     7.7959    10.4039     7.7701   118.8194     0.0641     2.4423     0.1241
  132.5000   -35.5272     7.4930     7.9566     9.9091     7.8015   120.1796     0.0627     2.4469     0.1246
  133.0000   -35.5344     7.6548     8.1199    10.1214     7.8328   120.1973     0.0583     2.4409     0.1261
  133.5000   -35.5416     7.7500     8.2300    10.8386     7.8493   119.6053     0.0554     2.4351     0.1249
  134.0000   -35.5489     7.8546     8.2849    10.6865     7.8508   117.9581     0.0525     2.4283     0.1270
  134.5000   -35.5578     7.9056     8.3972    10.7590     7.8369   114.9761     0.0542     2.4284     0.1303
  135.0000   -35.5649     7.9570     8.5103    11.0584     7.7936   113.8262     0.0543     2.4386     0.1262
  135.5000   -35.7225     8.0082     8.5661    11.3668     7.7506   117.4873     0.0544     2.4409     0.1271
  136.0000   -35.8801     8.0597     8.5619    11.4434     7.7222   118.6392     0.0545     2.4317     0.1282
  136.5000   -35.8872     8.1121     8.6189    11.2048     7.7236   117.0747     0.0546     2.4354     0.1268
  137.0000   -35.8962     8.1648     8.6147    10.9719     7.7401   114.0388     0.0563     2.4475     0.1214
  137.5000   -36.0538     8.1610     8.6712    11.3557     7.7565   111.0641     0.0579     2.4536     0.1219
  138.0000   -36.0610     8.1563     8.6669    11.5123     7.7879   108.5378     0.0580     2.4627     0.1162
  138.5000   -36.0682     8.2093     8.7246    10.9641     7.8043   108.2500     0.0581     2.4695     0.1117
  139.0000   -36.0753     8.2626     8.7810    11.0380     7.8058   111.7065     0.0598     2.4756     0.1095
  139.5000   -36.0827     8.2588     8.8386    11.2674     7.7920   115.3088     0.0599     2.4712     0.1104
  140.0000   -36.2498     8.3119     8.8351    11.3433     7.7785   118.9110     0.0600     2.4622     0.1137
  140.5000   -36.3922     8.3076     8.8307    11.4985     7.7355   120.5701     0.0586     2.4563     0.1182
  141.0000   -36.5346     8.3038     8.8895    11.5759     7.6772   121.3324     0.0557     2.4503     0.1208
  141.5000   -36.6770     8.3000     8.8851    11.7343     7.6338   121.6461     0.0528     2.4466     0.1229
  142.0000   -36.8194     8.2962     8.8816    11.8955     7.6054   120.7641     0.0514     2.4460     0.1217
  142.5000   -36.9617     8.2346     8.8781    12.0596     7.6069   118.9852     0.0501     2.4565     0.1192
  143.0000   -37.1041     8.2303     8.8124    11.8082     7.6234   118.1032     0.0502     2.4634     0.1204
