~VERSION INFORMATION
 VERS.                2.0:   CWLS LOG ASCII STANDARD - VERSION 2.0
 WRAP.                 NO:   ONE LINE PER DEPTH STEP
~WELL INFORMATION
#MNEM.UNIT      DATA TYPE    INFORMATION
#----------   ------------   ------------------------------
 STRT.F           40.0000:   START DEPTH
 STOP.F          876.5000:   STOP DEPTH
 STEP.F            0.5000:   STEP LENGTH
 NULL.          -999.2500:   NO VALUE
 COMP. FENIX & SCISSON INC:   COMPANY
 WELL.     NPR 3 #41-S-14:   WELL
 FLD .             TEAPOT:   FIELD
 LOC .      S14 T38N R78W:   LOCATION
 CNTY.            NATRONA:   COUNTY
 STAT.            WYOMING:   STATE
 CTRY. UNITED STATES OF AMERICA:   COUNTRY
 SRVC.            Unknown:   SERVICE COMPANY
 DATE.        12-MAR-1978:   LOGDATE
 API .       490251060200:   API NUMBER
~CURVE INFORMATION
#MNEM.UNIT       API CODE    CURVE DESCRIPTION
#----------   ------------   ------------------------------
 DEPT.F                  :   
 CALD.IN     45 280 60 00:   CALIPER FROM DENSITY LOG
 GRD .GAPI   45 310 01 00:   GAMMA RAY FROM DENSITY LOG
 RHOB.G/C3   45 350 01 00:   BULK DENSITY
 DPHI.DEC    45 890 12 00:   DENSITY POROSITY SANDSTONE
 CORR.G/C3   45 356 01 00:   DENSITY CORRECTION
 SPR .MV     05 010 01 00:   SPONTANEOUS POTENTIAL FROM RES.
 IL  .OHMM   05 120 00 00:   INDUCTION LOG
 SN  .OHMM   05 040 16 00:   SHORT NORMAL 16"
~PARAMETER INFORMATION
#MNEM.UNIT          VALUE    DESCRIPTION
#----------   ------------   ------------------------------
 PD  .                 GL:   PERMANENT DATUM
 EPD .F              5211:   ELEVATION PERMANENT DATUM
 LMF .                 KB:   LOG MEASURED FROM
 DMF .                 KB:   DRILLING MEASURED FROM
 EKB .F              5215:   KELLING BUSHING
 EGL .F              5211:   GROUND LEVEL
 DATE.            3-12-78:   RUN DATE
 RUN .                  1:   RUN NUMBER
 DD  .F               870:   DEPTH DRILLER
 DL  .F               872:   DEPTH LOGGER
 BLI .F               866:   BOTTOM LOG INTERVAL
 TLI .F                50:   TOP LOG INTERVAL
 CS  .IN            8.625:   CASING SIZE
 CBD .F                40:   CASING BOTTOM DRILLER
 CBL .F                40:   CASING BOTTOM LOGGER
 BS  .IN            7.875:   BIT SIZE
 BSD .F               870:   BIT SIZE AT DEPTH
 DFT .                KCL:   DRILLING FLUID TYPE
 DFD .                8.6:   DRILLING FLUID DENSITY
 DFV .                 33:   DRILLING FLUID VISCOSITY
 DFPH.                 10:   DRILLING FLUID PH
 DFL .               12.1:   DRILLING FLUID LOSS
 MSS .           FLOWLINE:   MUD SAMPLE SOURCE
 RMS .OHMM            .32:   RESISTIVITY MUD SAMPLE
 MST .F                54:   MUD SAMPLE TEMPERATURE
 RMF .OHMM            .36:   RESISTIVITY MUD FILTRATE SAMPLE
 MFST.F                55:   MUD FILTRATE SAMPLE TEMPERATURE
 RMC .OHMM             .5:   RESISTIVITY MUD CAKE
 MCST.F                56:   MUD CAKE SAMPLE TEMPERATURE
 MFSS.           MEASURED:   MUD FILTRATE SAMPLE SOURCE
 MCSS.           MEASURED:   MUD CAKE SAMPLE SOURCE
 RMB .OHMM            .24:   RESISTIVITY MUD AT BHT
 BHT .F                72:   BOTTOM HOLE TEMPERATURE
 TCS .HRS               4:   TIME CURCULATED STOPPED
 MRT .F                72:   MAXIMUM RECORDED TEMPERATURE
 LUN .               2958:   LOGGING UNIT NUMBER
 LUL .               CASP:   LOGGING UNIT LOCATION
 ENGI.             MILLER:   RECORDING ENGINEER
 WITN.         HARRINGTON:   WITNESSED BY
 CLNT.            A2DTECH:   CLIENT CODE
 ORIG.        2" 5" PRINT:   ORIGIN OF DATA
 UWI .       490251060200:   UNIQUE WELL ID
 DICO. A2D Technologies, Inc.:   DIGITIZING COMPANY
~OTHER INFORMATION
~A   DEPT     CALD         GRD      RHOB       DPHI       CORR        SPR         IL         SN   
# ...
  809.5000     8.3511    75.5269     2.4110     0.1324     0.0050   -50.3695    10.5076    10.3000
  810.0000     8.3517    75.0523     2.4135     0.1291     0.0065   -50.1792    10.4873    10.2944
  810.5000     8.3523    77.6633     2.4245     0.1240     0.0060   -49.8402    10.4670    10.2893
  811.0000     8.3528    81.5775     2.4257     0.1220     0.0054   -50.0067    10.4468    10.2837
  811.5000     8.3534    82.7095     2.4235     0.1224     0.0048   -50.2690    10.4266    10.3926
  812.0000     8.3540    82.9339     2.4211     0.1241     0.0047   -50.5457    10.4064    10.5050
  812.5000     8.3546    81.6099     2.4212     0.1262     0.0050   -50.3602    10.3863    10.6191
  813.0000     8.3551    81.2458     2.4251     0.1280     0.0054   -50.2778    10.3662    10.6712
  813.5000     8.3557    82.4823     2.4259     0.1220     0.0057   -50.5105    10.3461    10.6712
  814.0000     8.3563    84.3102     2.4260     0.1220     0.0060   -50.7471    10.3261    10.6712
  814.5000     8.3569    86.4714     2.4301     0.1205     0.0063   -50.6038    10.3061    10.6712
  815.0000     8.3574    86.9728     2.4348     0.1178     0.0049   -50.3795    10.2862    10.6712
  815.5000     8.3580    87.6423     2.4361     0.1180     0.0018   -50.2053    10.2663    10.6711
  816.0000     8.3586    89.0501     2.4265     0.1242    -0.0014   -50.3553    10.2465    10.6692
  816.5000     8.3591    89.6065     2.4161     0.1267     0.0001   -50.5051    10.2266    10.6621
  817.0000     8.3597    82.9588     2.4259     0.1219     0.0018   -50.9387    10.2069    10.6552
  817.5000     8.3603    78.7526     2.4327     0.1180     0.0036   -51.8447    10.1871    10.6483
  818.0000     8.3609    81.2627     2.4273     0.1224     0.0044   -51.9977    10.1674    10.6415
  818.5000     8.3615    81.6815     2.4318     0.1201     0.0040   -52.1711    10.1477    10.6346
  819.0000     8.3620    87.0039     2.4361     0.1179     0.0037   -51.9770    10.1281    10.6277
  819.5000     8.3626    88.8983     2.4336     0.1180     0.0033   -51.9231    10.1085    10.6208
  820.0000     8.3631    89.1126     2.4286     0.1209     0.0030   -52.5755    10.0890    10.6140
  820.5000     8.3636    88.1099     2.4281     0.1220     0.0026   -52.4584    10.0695    10.6071
  821.0000     8.3639    82.2915     2.4314     0.1212     0.0020   -52.4211    10.0500    10.6003
  821.5000     8.3643    77.1901     2.4356     0.1179     0.0011   -52.5608    10.0305    10.5934
  822.0000     8.3647    78.0925     2.4282     0.1180     0.0008   -52.6930    10.0111    10.5866
  822.5000     8.3651    77.9250     2.4271     0.1200     0.0024   -52.8255     9.9918    10.5800
  823.0000     8.3655    78.2508     2.4310     0.1192     0.0039   -52.9584     9.9725    10.5717
  823.5000     8.3659    78.7841     2.4383     0.1139     0.0055   -53.0888     9.9532    10.5223
  824.0000     8.3663    78.8590     2.4498     0.1066     0.0070   -53.1444     9.9342    10.4732
  824.5000     8.3667    78.9437     2.4558     0.1052     0.0084   -52.9963     9.9147    10.4243
  825.0000     8.3671    79.4981     2.4500     0.1088     0.0079   -52.8549     9.8646    10.3756
  825.5000     8.3675    80.7745     2.4443     0.1140     0.0073   -52.8388     9.8074    10.3271
  826.0000     8.3679    83.9077     2.4429     0.1132     0.0066   -52.9486     9.7505    10.2788
  826.5000     8.3683    85.1100     2.4450     0.1112     0.0068   -53.0584     9.6939    10.2308
  827.0000     8.3687    87.4207     2.4447     0.1092     0.0071   -53.1684     9.6376    10.1829
  827.5000     8.3691    89.1566     2.4491     0.1100     0.0074   -53.2484     9.5817    10.1353
  828.0000     8.3695    84.9139     2.4482     0.1106     0.0077   -53.3278     9.5261    10.0880
  828.5000     8.3699    83.7416     2.4460     0.1112     0.0081   -53.4885     9.4708    10.0408
  829.0000     8.3703    85.2988     2.4456     0.1115     0.0084   -53.9228     9.4159     9.9939
  829.5000     8.3707    88.1910     2.4499     0.1108     0.0096   -54.3466     9.3612     9.9472
  830.0000     8.3711    90.9358     2.4541     0.1066     0.0116   -54.6112     9.3069     9.9007
  830.5000     8.3715    92.2194     2.4564     0.1040     0.0136   -54.6867     9.2529     9.8544
  831.0000     8.3719    88.4076     2.4544     0.1036     0.0146   -54.7625     9.1992     9.8083
  831.5000     8.3722    84.7104     2.4588     0.1036     0.0142   -54.8369     9.1458     9.7625
  832.0000     8.3726    84.3935     2.4594     0.1024     0.0121   -54.9112     9.0612     9.7169
  832.5000     8.3730    87.7037     2.4620     0.1009     0.0112   -54.9857     8.9484     9.6714
  833.0000     8.3734    90.2432     2.4623     0.0993     0.0105   -55.0603     8.8371     9.5935
  833.5000     8.3738    89.1650     2.4633     0.1004     0.0097   -55.1350     8.7271     9.4428
  834.0000     8.3742    86.4845     2.4701     0.0960     0.0090   -55.2780     8.6185     9.2945
  834.5000     8.3746    85.0470     2.4590     0.1008     0.0082   -55.5157     8.5112     9.1485
  835.0000     8.3750    87.8447     2.4550     0.1048     0.0075   -55.7522     8.4053     9.0048
  835.5000     8.3754    90.4036     2.4589     0.1026     0.0067   -55.9888     8.3284     8.8633
  836.0000     8.3758    91.5513     2.4588     0.1032     0.0065   -56.2494     8.2558     8.6990
  836.5000     8.3762    92.2074     2.4573     0.1034     0.0065   -56.5921     8.1840     8.5100
  837.0000     8.3766    92.7604     2.4558     0.1036     0.0065   -56.9363     8.1127     8.3252
  837.5000     8.3770    93.0606     2.4544     0.1084     0.0064   -57.2801     7.8489     8.1444
  838.0000     8.3774    93.9892     2.4484     0.1112     0.0114   -57.6224     7.4967     7.9675
  838.5000     8.3778    95.1308     2.4419     0.1136     0.0189   -57.9786     6.7892     7.5732
  839.0000     8.3782    96.2826     2.4358     0.1160     0.0263   -58.6770     6.0878     7.1729
  839.5000     8.3786    97.6422     2.4416     0.1160     0.0266   -59.0197     5.4589     6.7650
  840.0000     8.3790   100.1623     2.4337     0.1188     0.0266   -59.1116     5.2302     6.3920
  840.5000     8.3794   109.3229     2.4176     0.1274     0.0265   -59.1692     5.2084     6.0396
  841.0000     8.3798   121.0173     2.4011     0.1359     0.0244   -59.1763     5.1867     5.9080
  841.5000     8.3801   116.4012     2.3951     0.1397     0.0083   -59.3800     5.1651     5.9396
  842.0000     8.3805   104.6662     2.4016     0.1329     0.0155   -59.4117     5.1435     6.0975
  842.5000     8.3809    97.2564     2.4192     0.1106     0.0225   -58.4170     5.4367     6.8396
  843.0000     8.3813    92.1571     2.4855     0.0880     0.0186   -57.5275     5.8372     7.8494
  843.5000     8.3817    87.9759     2.4774     0.0894     0.0243   -57.4762     6.6772     8.3703
  844.0000     8.3821    87.3598     2.4829     0.0881     0.0216   -57.4095     7.6382     8.7415
  844.5000     8.3825    86.9367     2.4862     0.0872     0.0187   -56.7574     8.4002     9.1282
  845.0000     8.3829    90.7647     2.4818     0.0872     0.0196   -56.5799     8.5491     9.5536
  845.5000     8.3829    90.0944     2.4765     0.0916     0.0207   -56.5741     8.4763     9.5503
  846.0000     8.3829    90.2397     2.4776     0.0919     0.0219   -56.5703     8.4024     9.7417
  846.5000     8.3829    92.1424     2.4838     0.0888     0.0230   -56.4493     8.4703     9.8660
  847.0000     8.3829    93.9750     2.4872     0.0857     0.0242   -56.0082     8.6926     9.9915
  847.5000     8.3829    94.4269     2.4861     0.0832     0.0253   -55.5827     8.9359    10.1188
  848.0000     8.3829    92.8387     2.4894     0.0832     0.0264   -55.3790     9.2049    10.2477
  848.5000     8.3829    91.6314     2.4914     0.0825     0.0213   -55.3779     9.2833    10.4560
  849.0000     8.3829    92.7871     2.4951     0.0808     0.0156   -55.3760     9.3689    10.6988
  849.5000     8.3829    94.0072     2.4912     0.0833     0.0106   -55.3756     9.4639    10.9008
