~VERSION INFORMATION
 VERS.                2.0:   CWLS LOG ASCII STANDARD - VERSION 2.0
 WRAP.                 NO:   ONE LINE PER DEPTH STEP
~WELL INFORMATION
#MNEM.UNIT      DATA TYPE    INFORMATION
#----------   ------------   ------------------------------
 STRT.F           34.0000:   START DEPTH
 STOP.F          496.0000:   STOP DEPTH
 STEP.F            0.5000:   STEP LENGTH
 NULL.          -999.2500:   NO VALUE
 COMP. LAWRENCE/ALLISON INC:   COMPANY
 WELL.   55-55 SX FI #3-3:   WELL
 FLD .             TEAPOT:   FIELD
 LOC .       S3 T38N R78W:   LOCATION
 CNTY.            NATRONA:   COUNTY
 STAT.            WYOMING:   STATE
 CTRY. UNITED STATES OF AMERICA:   COUNTRY
 SRVC.       Schlumberger:   SERVICE COMPANY
 DATE.        18-JUL-1982:   LOGDATE
 API .       490251089500:   API NUMBER
~CURVE INFORMATION
#MNEM.UNIT       API CODE    CURVE DESCRIPTION
#----------   ------------   ------------------------------
 DEPT.F                  :   
 CALD.IN     45 280 60 00:   CALIPER FROM DENSITY LOG
 GRD .GAPI   45 310 01 00:   GAMMA RAY FROM DENSITY LOG
 CORR.G/C3   45 356 01 00:   DENSITY CORRECTION
 RHOB.G/C3   45 350 01 00:   BULK DENSITY
 DPHI.DEC    45 890 12 00:   DENSITY POROSITY SANDSTONE
 SPR .MV     07 010 01 00:   SPONTANEOUS POTENTIAL
 ILD .OHMM   07 120 46 00:   INDUCTION LOG DEEP
 ILM .OHMM   07 120 44 00:   INDUCTION LOG MEDIUM
 SFL .OHMM   07 220 01 00:   SHALLOW FOCUSED LOG RESISTIVITY
~PARAMETER INFORMATION
#MNEM.UNIT          VALUE    DESCRIPTION
#----------   ------------   ------------------------------
 PD  .                 GL:   PERMANENT DATUM
 EPD .F              5167:   ELEVATION PERMANENT DATUM
 LMF .                 KB:   LOG MEASURED FROM
 DAPD.F                 9:   FEET ABOVE PERMANENT DATUM
 DMF .                 KB:   DRILLING MEASURED FROM
 EKB .F              5176:   KELLING BUSHING
 EDF .F                  :   DRILLING FLOOR
 EGL .F              5167:   GROUND LEVEL
 DATE.        18-JUL-1982:   RUN DATE
 RUN .                  1:   RUN NUMBER
 DD  .F               500:   DEPTH DRILLER
 DL  .F               499:   DEPTH LOGGER
 BLI .F               436:   BOTTOM LOG INTERVAL
 TLI .F                50:   TOP LOG INTERVAL
 CS  .IN           13.375:   CASING SIZE
 CBD .F                50:   CASING BOTTOM DRILLER
 CBL .F                50:   CASING BOTTOM LOGGER
 BS  .IN            12.25:   BIT SIZE
 BSD .F               500:   BIT SIZE AT DEPTH
 DFT .         KCL FILLED:   DRILLING FLUID TYPE
 DFD .                   :   DRILLING FLUID DENSITY
 DFV .                   :   DRILLING FLUID VISCOSITY
 DFPH.                   :   DRILLING FLUID PH
 DFL .                   :   DRILLING FLUID LOSS
 MSS .           WELLHEAD:   MUD SAMPLE SOURCE
 RMS .OHMM           2.82:   RESISTIVITY MUD SAMPLE
 MST .F                80:   MUD SAMPLE TEMPERATURE
 RMF .OHMM               :   RESISTIVITY MUD FILTRATE SAMPLE
 MFST.F                  :   MUD FILTRATE SAMPLE TEMPERATURE
 RMC .OHMM               :   RESISTIVITY MUD CAKE
 MCST.F                  :   MUD CAKE SAMPLE TEMPERATURE
 MFSS.                   :   MUD FILTRATE SAMPLE SOURCE
 MCSS.                   :   MUD CAKE SAMPLE SOURCE
 RMB .OHMM           2.62:   RESISTIVITY MUD AT BHT
 BHT .F                86:   BOTTOM HOLE TEMPERATURE
 TCS .HRS            1530:   TIME CURCULATED STOPPED
 TLAB.HRS            1800:   TIME LOGGER AT BOTTOM
 MRT .F                86:   MAXIMUM RECORDED TEMPERATURE
 LUN .               8035:   LOGGING UNIT NUMBER
 LUL .             CASPER:   LOGGING UNIT LOCATION
 ENGI.              PENNY:   RECORDING ENGINEER
 WITN.             TAYLOR:   WITNESSED BY
 CLNT.            A2DTECH:   CLIENT CODE
 ORIG.           5" PRINT:   ORIGIN OF DATA
 UWI .       490251089500:   UNIQUE WELL ID
 DICO. A2D Technologies, Inc.:   DIGITIZING COMPANY
 OS  .                   :   OTHER SERVICES
 PWI .                   :   PRIMARY WELL IDENTIFIER
 R1  . POROSITY WITH SANDSTONE:   REMARKS 1
 R2  .                   :   REMARKS 2
 LSRV.                   :   LOG MNEMONIC
~OTHER INFORMATION
~A   DEPT     CALD         GRD      CORR       RHOB       DPHI        SPR        ILD        ILM        SFL   
# ...
  253.0000    12.2755    95.3049     0.0062     2.4336     0.1448   -50.0716     5.4930     5.4416     5.5581
  253.5000    12.3194    94.1593     0.0084     2.4465     0.1396   -50.2328     5.7221     5.7078     5.9526
  254.0000    12.3328    93.0106     0.0075     2.4571     0.1330   -50.5433     5.9607     5.9869     6.2442
  254.5000    12.3307    91.8549     0.0127     2.4639     0.1263   -51.0030     6.1665     6.2364     6.5955
  255.0000    12.3291    90.9247     0.0164     2.4684     0.1251   -51.3134     6.2918     6.4516     6.9666
  255.5000    12.2973    90.0271     0.0156     2.4757     0.1224   -51.4965     6.4640     6.6741     7.3078
  256.0000    12.2957    89.7413     0.0208     2.4878     0.1106   -51.6597     6.6408     6.8094     7.4566
  256.5000    12.3095    89.0853     0.0381     2.4984     0.0951   -51.7970     6.7756     6.8996     7.5037
  257.0000    12.3075    89.0674     0.0494     2.5120     0.0972   -51.8368     6.9130     6.9928     7.4990
  257.5000    12.3058    89.7263     0.0379     2.5043     0.1077   -51.9725     7.0047     7.0867     7.5464
  258.0000    12.3042    90.6107     0.0226     2.4783     0.1223   -51.9844     7.0975     7.1818     7.5417
  258.5000    12.2879    91.7251     0.0173     2.4684     0.1269   -51.8441     7.1419     7.2221     7.5370
  259.0000    12.3013    92.6095     0.0171     2.4721     0.1245   -51.8590     7.3665     7.3169     7.5323
  259.5000    12.2692    91.2338     0.0133     2.4743     0.1231   -51.8709     7.4135     7.3622     7.5823
  260.0000    12.2525    88.9603     0.0094     2.4688     0.1238   -51.7306     7.4063     7.4077     7.6808
  260.5000    12.2358    88.2702     0.0040     2.4649     0.1275   -51.4439     7.4005     7.4005     7.7339
  261.0000    12.2497    89.1502    -0.0007     2.4626     0.1308   -51.3066     7.4463     7.4477     7.8322
  261.5000    12.2927    89.5879    -0.0023     2.4613     0.1321   -51.1692     7.3889     7.3890     7.8885
  262.0000    12.3062    87.9867     0.0007     2.4715     0.1297   -51.1841     7.3832     7.3832     7.9315
  262.5000    12.2894    86.6154     0.0066     2.4768     0.1255   -51.1960     7.3263     7.3264     7.9817
  263.0000    12.2878    87.0487     0.0126     2.4782     0.1203   -51.0557     7.3206     7.2700     7.9113
  263.5000    12.2862    87.9338     0.0193     2.4758     0.1191   -51.0706     7.3658     7.2644     7.6464
  264.0000    12.2845    88.1413     0.0109     2.4710     0.1222   -50.7840     7.4114     7.2587     7.3818
  264.5000    12.2518    88.7997     0.0032     2.4601     0.1311   -50.6466     7.4587     7.3050     7.1758
  265.0000    12.2361    88.7818    -0.0045     2.4550     0.1345   -50.3600     7.5556     7.3502     7.1219
  265.5000    12.2345    88.3084     0.0022     2.4617     0.1321   -50.2197     7.6023     7.4472     7.1175
  266.0000    12.2780    85.9910     0.0112     2.4738     0.1252   -49.9331     7.6508     7.5440     7.3635
  266.5000    12.2914    82.3246     0.0164     2.4783     0.1203   -49.5002     7.5379     7.6451     7.7778
  267.0000    12.3194    80.3008     0.0133     2.4767     0.1207   -49.6613     7.1746     7.7460     8.3299
  267.5000    12.3482    81.3309     0.0162     2.4652     0.1234   -50.1210     6.6879     7.6849     8.6777
  268.0000    12.3763    84.1590     0.0328     2.4521     0.1323   -50.5807     6.1911     7.0648     8.8556
  268.5000    12.4047    87.5246     0.0918     2.4079     0.1494   -50.8911     5.7312     5.9340     8.1436
  269.0000    12.3880    90.2135     0.1008     2.3118     0.1897   -50.9030     5.4172     5.1963     6.6588
  269.5000    12.5969    88.3911     0.0550     2.2356     0.2511   -50.7656     5.3013     4.4875     4.8740
  270.0000    12.8062    86.7943    -0.0037     2.2629     0.2656   -50.3297     5.3341     4.8065     3.6174
  270.5000    12.4132    86.5554    -0.0178     2.3253     0.2109   -49.8939     5.4421     5.2203     3.5660
  271.0000    12.1409    86.9842    -0.0135     2.3983     0.1693   -49.4580     5.6693     5.6304     4.9670
  271.5000    12.0941    86.7408     0.0010     2.4629     0.1287   -49.0222     6.4641     6.1576     7.1138
  272.0000    12.1380    84.6928     0.0055     2.4781     0.1194   -48.8818     7.0694     6.8761     8.6893
  272.5000    12.1059    83.5472     0.0062     2.4833     0.1159   -48.7445     7.6247     7.5200     9.4373
  273.0000    12.0892    83.7549     0.0045     2.4832     0.1151   -48.7594     8.2237     8.1108     9.4300
  273.5000    12.0876    83.0603     0.0052     2.4831     0.1163   -48.9205     8.5670     8.4493     9.3592
  274.0000    12.0859    82.1402     0.0074     2.4839     0.1173   -49.0817     8.7405     8.6806     9.3534
  274.5000    12.0993    80.3179     0.0111     2.4845     0.1164   -49.0936     8.7963     8.6738     9.2831
  275.0000    12.1278    79.1722     0.0155     2.4853     0.1143   -49.2547     8.8507     8.6671     9.2134
  275.5000    12.1412    80.2822     0.0170     2.4873     0.1122   -49.2666     9.0300     8.7224     9.1442
  276.0000    12.1245    82.0688     0.0168     2.5017     0.1108   -49.4278     9.2254     8.9594     9.1385
  276.5000    12.0777    81.1487     0.0160     2.4597     0.1178   -49.4397     9.5567     9.3984     9.1328
  277.0000    12.0159    77.2832     0.0174     2.4513     0.1310   -49.1531    10.0943    10.1368     9.3833
  277.5000    11.9541    70.1840     0.0196     2.4504     0.1386   -48.5680    10.8400    11.0093     9.8860
  278.0000    11.9834    61.9584     0.0240     2.4503     0.1393   -47.6843    11.9055    12.0403    11.2191
  278.5000    12.0110    52.8910     0.0285     2.4464     0.1439   -46.9500    12.7835    13.0767    12.9657
  279.0000    12.0413    47.2869     0.0329     2.4128     0.1516   -47.4096    14.2732    14.3013    17.8144
  279.5000    12.0679    45.1769     0.0306     2.3891     0.1769   -47.7200    15.8072    15.7495    23.4807
  280.0000    12.0813    47.4103     0.0244     2.3555     0.1995   -48.1797    17.1664    17.2244    29.8969
  280.5000    12.1093    50.3292     0.0190     2.3250     0.2142   -48.3409    18.3851    18.5776    25.3064
  281.0000    12.1077    48.2768     0.0120     2.3165     0.2216   -48.5020    19.5323    19.7606    20.8360
  281.5000    12.0914    44.1988     0.0050     2.2996     0.2332   -48.5139    20.4448    20.4430    19.2969
  282.0000    12.1198    38.9930    -0.0019     2.2584     0.2527   -48.5258    20.1255    20.2856    20.2421
  282.5000    12.1178    37.4007    -0.0034     2.2393     0.2607   -48.3885    19.7155    19.7144    23.5560
  283.0000    12.1162    40.3107    -0.0004     2.2438     0.2611   -48.4004    19.5638    19.1593    26.6641
  283.5000    12.1145    43.9018     0.0032     2.2514     0.2574   -48.2627    19.6853    18.7495    27.7773
  284.0000    12.1129    47.2674     0.0047     2.2620     0.2519   -48.2749    19.8248    18.8692    25.7067
  284.5000    12.1112    49.0541     0.0015     2.2616     0.2475   -48.2868    20.0683    19.5170    23.6531
  285.0000    12.1096    49.4918     0.0037     2.2594     0.2497   -48.1493    20.2095    19.9163    23.1602
  285.5000    12.1080    50.1507     0.0059     2.2601     0.2503   -47.8627    20.4756    19.2177    23.1460
  286.0000    12.1218    51.2562     0.0043     2.2661     0.2467   -47.4270    20.8898    19.0735    24.1298
  286.5000    12.1197    51.0128     0.0026     2.2751     0.2421   -46.9911    21.3124    20.4256    24.2647
  287.0000    12.1030    50.3182     0.0048     2.2864     0.2364   -46.4060    21.8791    21.2782    24.2497
  287.5000    12.1014    50.0748     0.0123     2.2917     0.2322   -45.6716    22.3380    22.0130    25.1749
  288.0000    12.0998    50.9592     0.0153     2.2672     0.2365   -44.9353    22.6322    22.4590    27.3489
  288.5000    12.0981    51.8436     0.0121     2.2603     0.2463   -44.1990    22.7567    22.7554    29.3751
  289.0000    12.0965    52.9745     0.0143     2.2724     0.2469   -43.6119    22.7385    22.7377    30.1855
