~VERSION INFORMATION
 VERS.                2.0:   CWLS LOG ASCII STANDARD - VERSION 2.0
 WRAP.                 NO:   ONE LINE PER DEPTH STEP
~WELL INFORMATION
#MNEM.UNIT      DATA TYPE    INFORMATION
#----------   ------------   ------------------------------
 STRT.F           34.0000:   START DEPTH
 STOP.F          638.0000:   STOP DEPTH
 STEP.F            0.5000:   STEP LENGTH
 NULL.          -999.2500:   NO VALUE
 COMP. FENIX & SCISSON INC:   COMPANY
 WELL. S N.P.R. #3 #33-34:   WELL
 FLD .             TEAPOT:   FIELD
 LOC .      S34 T39N R78W:   LOCATION
 CNTY.            NATRONA:   COUNTY
 STAT.            WYOMING:   STATE
 CTRY. UNITED STATES OF AMERICA:   COUNTRY
 SRVC.       Schlumberger:   SERVICE COMPANY
 DATE.        18-MAR-1977:   LOGDATE
 API .       490251030400:   API NUMBER
~CURVE INFORMATION
#MNEM.UNIT       API CODE    CURVE DESCRIPTION
#----------   ------------   ------------------------------
 DEPT.F                  :   
 LL8 .OHMM   07 220 08 00:   LATEROLOG-8 RES.
 ILD .OHMM   07 120 46 00:   INDUCTION LOG DEEP
 ILM .OHMM   07 120 44 00:   INDUCTION LOG MEDIUM
 SPR .MV     07 010 01 00:   SPONTANEOUS POTENTIAL
 GRD .GAPI   45 310 01 00:   GAMMA RAY FROM DENSITY LOG
 CALD.IN     45 280 60 00:   CALIPER FROM DENSITY LOG
 RHOB.G/C3   45 350 01 00:   BULK DENSITY
 CORR.G/C3   45 356 01 00:   DENSITY CORRECTION
 DPHI.DEC    45 890 12 00:   DENSITY POROSITY SANDSTONE
~PARAMETER INFORMATION
#MNEM.UNIT          VALUE    DESCRIPTION
#----------   ------------   ------------------------------
 PD  .                 GL:   PERMANENT DATUM
 EPD .F              5081:   ELEVATION PERMANENT DATUM
 LMF .                 KB:   LOG MEASURED FROM
 DAPD.F                 5:   FEET ABOVE PERMANENT DATUM
 DMF .                 KB:   DRILLING MEASURED FROM
 EKB .F              5086:   KELLING BUSHING
 EGL .F              5081:   GROUND LEVEL
 DATE.            3-18-77:   RUN DATE
 RUN .                  1:   RUN NUMBER
 DD  .F               631:   DEPTH DRILLER
 DL  .F               637:   DEPTH LOGGER
 BLI .F               631:   BOTTOM LOG INTERVAL
 TLI .F                45:   TOP LOG INTERVAL
 CS  .IN            8.625:   CASING SIZE
 CBD .F                40:   CASING BOTTOM DRILLER
 CBL .F                45:   CASING BOTTOM LOGGER
 BS  .IN            7.875:   BIT SIZE
 BSD .F               631:   BIT SIZE AT DEPTH
 DFT .            KCL MUD:   DRILLING FLUID TYPE
 DFD .                8.7:   DRILLING FLUID DENSITY
 DFV .                 31:   DRILLING FLUID VISCOSITY
 DFPH.                  8:   DRILLING FLUID PH
 DFL .                8.2:   DRILLING FLUID LOSS
 MSS .                PIT:   MUD SAMPLE SOURCE
 RMS .OHMM            .27:   RESISTIVITY MUD SAMPLE
 MST .F                60:   MUD SAMPLE TEMPERATURE
 RMF .OHMM            .25:   RESISTIVITY MUD FILTRATE SAMPLE
 MFST.F                60:   MUD FILTRATE SAMPLE TEMPERATURE
 MFSS.                  M:   MUD FILTRATE SAMPLE SOURCE
 TCS .HRS            0400:   TIME CURCULATED STOPPED
 TLAB.HRS            0530:   TIME LOGGER AT BOTTOM
 LUN .               7711:   LOGGING UNIT NUMBER
 LUL .               CSPR:   LOGGING UNIT LOCATION
 ENGI.             SAYLER:   RECORDING ENGINEER
 WITN.         STUEBINGER:   WITNESSED BY
 CLNT.            A2DTECH:   CLIENT CODE
 ORIG.        2" 5" PRINT:   ORIGIN OF DATA
 UWI .       490251030400:   UNIQUE WELL ID
 DICO. A2D Technologies, Inc.:   DIGITIZING COMPANY
~OTHER INFORMATION
~A   DEPT      LL8        ILD        ILM        SPR         GRD      CALD       RHOB       CORR       DPHI   
# ...
  508.5000    15.0857    17.5495    15.5928   -36.8510    71.9924     8.5188     2.4169     0.0205     0.1434
  509.0000    15.0066    17.3873    15.5059   -36.8549    72.6688     8.5320     2.4132     0.0217     0.1447
  509.5000    14.9280    17.2266    15.4196   -37.0429    72.9782     8.5388     2.4117     0.0190     0.1466
  510.0000    14.8498    17.0674    15.3336   -37.3870    72.0826     8.5441     2.4120     0.0164     0.1449
  510.5000    14.7720    16.9096    15.2482   -37.7321    70.9404     8.5494     2.4123     0.0137     0.1438
  511.0000    14.6947    16.7533    15.1632   -38.0787    69.7814     8.5547     2.4130     0.0121     0.1447
  511.5000    14.5434    16.5985    15.0788   -38.4250    69.4744     8.5600     2.4160     0.0167     0.1433
  512.0000    14.3624    16.4451    14.9948   -38.7713    69.8991     8.5653     2.4125     0.0155     0.1421
  512.5000    14.1835    16.2931    14.9112   -39.1179    71.1306     8.5706     2.4074     0.0125     0.1460
  513.0000    14.0069    16.1425    14.8281   -39.4642    72.3486     8.5763     2.4046     0.0126     0.1486
  513.5000    13.8326    15.9933    14.7455   -39.8086    73.5858     8.5836     2.4102     0.0164     0.1446
  514.0000    13.6602    15.8455    14.6715   -40.0370    73.9712     8.5908     2.4173     0.0189     0.1445
  514.5000    13.5070    15.6990    14.6715   -40.0365    73.2701     8.5980     2.4264     0.0196     0.1387
  515.0000    13.6061    15.5539    14.5959   -39.9066    72.6852     8.6052     2.4353     0.0205     0.1308
  515.5000    13.7173    15.4101    14.5124   -39.7431    72.4529     8.6124     2.4374     0.0231     0.1270
  516.0000    13.8285    15.2677    14.4292   -39.6782    72.2109     8.6196     2.4338     0.0266     0.1250
  516.5000    13.8846    15.1266    14.3466   -39.8056    71.9822     8.6269     2.4303     0.0211     0.1304
  517.0000    13.5569    14.9868    14.2645   -39.9300    72.2084     8.6337     2.4269     0.0148     0.1356
  517.5000    13.3100    14.8483    14.1828   -40.0535    72.4576     8.6253     2.4241     0.0173     0.1390
  518.0000    13.0677    14.8070    14.1016   -40.1783    73.1012     8.6158     2.4300     0.0213     0.1339
  518.5000    12.9007    14.9437    14.0128   -40.1171    73.9743     8.6207     2.4387     0.0255     0.1269
  519.0000    12.9709    14.9437    14.1247   -39.9239    75.4034     8.6286     2.4445     0.0235     0.1238
  519.5000    13.0252    15.0585    14.2500   -39.7292    75.6908     8.6366     2.4379     0.0145     0.1279
  520.0000    13.0797    15.1637    14.3765   -39.5333    75.1465     8.6446     2.4311     0.0059     0.1333
  520.5000    13.1399    15.2696    14.5045   -39.3377    75.7225     8.6526     2.4241     0.0076     0.1375
  521.0000    13.2929    15.3763    14.6334   -39.1422    77.3645     8.6606     2.4172     0.0099     0.1413
  521.5000    13.4650    15.4837    14.7213   -38.9467    78.5991     8.6685     2.4107     0.0122     0.1448
  522.0000    13.6393    15.5918    14.7927   -38.7513    78.5009     8.6749     2.4116     0.0144     0.1434
  522.5000    13.8159    15.6462    14.8644   -38.5562    77.4912     8.6342     2.4133     0.0167     0.1439
  523.0000    14.0128    15.2208    14.9364   -38.3604    76.3556     8.5795     2.4151     0.0209     0.1418
  523.5000    14.0128    15.3555    15.0088   -38.1628    75.1891     8.5244     2.4169     0.0291     0.1426
  524.0000    13.8210    15.5537    15.0816   -37.7761    74.8663     8.4698     2.4186     0.0363     0.1413
  524.5000    13.5071    15.7542    15.1547   -37.0798    74.7523     8.4282     2.4205     0.0361     0.1402
  525.0000    13.5310    15.9366    15.2208   -36.3881    74.6405     8.4101     2.4225     0.0355     0.1390
  525.5000    13.5789    15.7567    15.0319   -35.6926    74.3758     8.3868     2.4217     0.0348     0.1378
  526.0000    13.6318    15.5595    14.8637   -34.9898    73.4347     8.3410     2.4188     0.0357     0.1393
  526.5000    13.4923    15.3647    14.6970   -34.9029    72.4854     8.2957     2.4166     0.0419     0.1422
  527.0000    13.2954    15.1724    14.5319   -35.2798    73.3922     8.2505     2.4279     0.0503     0.1394
  527.5000    13.1013    14.9824    14.3687   -35.6567    74.9477     8.2054     2.4403     0.0586     0.1263
  528.0000    12.9102    14.7949    14.2072   -36.0223    76.3609     8.1602     2.4467     0.0658     0.1234
  528.5000    12.7218    14.6097    14.0477   -36.3674    75.9124     8.1410     2.4382     0.0583     0.1309
  529.0000    12.6222    14.4268    13.8899   -37.1686    75.5466     8.1491     2.4278     0.0448     0.1373
  529.5000    12.5598    14.2462    13.7338   -38.0347    76.6147     8.1559     2.4245     0.0430     0.1402
  530.0000    12.4984    14.0679    13.5796   -38.9077    77.7865     8.0993     2.4261     0.0621     0.1373
  530.5000    12.4371    13.8921    13.4270   -39.7857    78.5273     8.0400     2.4303     0.0735     0.1338
  531.0000    12.3761    13.7185    13.2612   -40.6348    78.1722     7.9879     2.4374     0.0692     0.1269
  531.5000    12.3214    13.6318    13.2612   -40.4521    77.1506     8.0307     2.4559     0.0629     0.1201
  532.0000    12.3498    13.6318    13.2612   -40.0870    76.6057     8.1207     2.4669     0.0432     0.1167
  532.5000    12.3813    13.6318    13.2612   -39.6931    76.3616     8.2348     2.4455     0.0222     0.1285
  533.0000    12.4130    13.6318    13.2612   -39.0718    76.1256     8.3433     2.4367     0.0141     0.1247
  533.5000    12.5499    13.7498    13.4684   -37.7222    75.9726     8.3539     2.4298     0.0077     0.1242
  534.0000    12.9402    14.0128    13.7230   -36.3411    76.1324     8.3504     2.4288     0.0038     0.1384
  534.5000    13.3427    14.3450    14.0315   -34.0393    76.3117     8.3465     2.4280     0.0123     0.1342
  535.0000    13.8796    14.7233    14.3469   -31.7575    75.2295     8.3426     2.4234     0.0130     0.1358
  535.5000    12.7810    15.1116    14.6694   -29.4780    73.6178     8.3387     2.4106     0.0109     0.1388
  536.0000    11.3423    15.5102    14.9991   -27.1953    71.9884     8.3361     2.3942     0.0140     0.1513
  536.5000    10.4485    15.9193    15.3363   -24.9166    70.3491     8.2840     2.3707     0.0186     0.1638
  537.0000    11.2287    16.3817    15.6462   -22.7633    69.0610     8.1833     2.3473     0.0226     0.1776
  537.5000    11.8729    16.5329    15.6462   -21.7178    68.0649     8.0823     2.3240     0.0257     0.1923
  538.0000    12.3214    16.8395    15.2909   -21.1715    67.3794     7.9816     2.3066     0.0297     0.2103
  538.5000    12.4352    17.1518    15.0231   -21.1566    66.8443     7.8962     2.3233     0.0347     0.2066
  539.0000    12.3214    17.3101    14.9437   -21.0541    67.1651     7.8920     2.3272     0.0310     0.1986
  539.5000    11.2628    18.9107    16.7590   -20.6035    66.5527     7.8857     2.3169     0.0214     0.2031
  540.0000    10.6369    20.4938    18.4453   -20.1616    65.8929     7.8792     2.3156     0.0310     0.2042
  540.5000    12.4352    22.2094    20.3013   -19.7023    65.2386     7.8727     2.3363     0.0426     0.1791
  541.0000    20.0585    23.8836    22.3440   -19.5621    64.5981     7.8660     2.3570     0.0457     0.1776
  541.5000    38.4993    24.9376    23.8759   -20.1718    63.9410     7.8584     2.3797     0.0426     0.1681
  542.0000    32.0367    25.9333    24.0963   -21.0664    62.9630     7.9052     2.4027     0.0207     0.1578
  542.5000    22.1839    26.9203    18.7258   -21.4910    61.5977     7.9594     2.4257     0.0088     0.1399
  543.0000    16.8838    26.9050    16.4746   -21.2381    62.1627     8.0150     2.4407     0.0098     0.1270
  543.5000    16.0202    26.5368    15.4478   -20.9913    64.0581     8.0116     2.4165     0.0199     0.1281
  544.0000    14.8070    24.3617    14.3970   -20.7445    66.0674     8.0041     2.3754     0.0303     0.1573
  544.5000    14.9971    21.9888    14.0061   -20.5599    68.0670     8.0142     2.3346     0.0465     0.1886
