~VERSION INFORMATION
 VERS.                2.0:   CWLS LOG ASCII STANDARD - VERSION 2.0
 WRAP.                 NO:   ONE LINE PER DEPTH STEP
~WELL INFORMATION
#MNEM.UNIT      DATA TYPE    INFORMATION
#----------   ------------   ------------------------------
 STRT.F           66.0000:   START DEPTH
 STOP.F          892.0000:   STOP DEPTH
 STEP.F            0.5000:   STEP LENGTH
 NULL.          -999.2500:   NO VALUE
 COMP. LAWRENCE/ALLISON INC:   COMPANY
 WELL. NPR #3 #31-11 SX 2:   WELL
 FLD .             TEAPOT:   FIELD
 LOC .       S2 T38N R78W:   LOCATION
 CNTY.            NATRONA:   COUNTY
 STAT.            WYOMING:   STATE
 CTRY. UNITED STATES OF AMERICA:   COUNTRY
 SRVC.      Dresser Atlas:   SERVICE COMPANY
 DATE.        10-AUG-1985:   LOGDATE
 API .       490251103900:   API NUMBER
~CURVE INFORMATION
#MNEM.UNIT       API CODE    CURVE DESCRIPTION
#----------   ------------   ------------------------------
 DEPT.F                  :   
 PORD.DEC    45 890 12 00:   POROSITY DENSITY SANDSTONE
 CNC .DEC    42 890 03 00:   NEUTRON POROSITY SANDSTONE
 CORR.G/C3   45 356 01 00:   DENSITY CORRECTION
 DEN .G/C3   45 350 01 00:   COMPENSATED BULK DENSTIY
 CALD.IN     45 280 60 00:   CALIPER FROM DENSITY LOG
 SPR .MV     07 010 01 00:   SPONTANEOUS POTENTIAL
 RILD.OHMM   07 120 46 00:   INDUCTION LOG DEEP RESISTIVITY
 RILM.OHMM   07 120 44 00:   INDUCTION LOG MEDIUM RESISTIVITY
 RFOC.OHMM   07 220 04 00:   RESISTIVITY FOCUSED LOG
~PARAMETER INFORMATION
#MNEM.UNIT          VALUE    DESCRIPTION
#----------   ------------   ------------------------------
 PD  .                 GL:   PERMANENT DATUM
 EPD .F              5110:   ELEVATION PERMANENT DATUM
 LMF .                 GL:   LOG MEASURED FROM
 DMF .                 GL:   DRILLING MEASURED FROM
 EKB .F              5115:   KELLING BUSHING
 EGL .F              5110:   GROUND LEVEL
 DATE.        10-AUG-1985:   RUN DATE
 RUN .                  1:   RUN NUMBER
 DD  .F               899:   DEPTH DRILLER
 DL  .F               895:   DEPTH LOGGER
 BLI .F               892:   BOTTOM LOG INTERVAL
 CS  .IN            8.625:   CASING SIZE
 CBD .F                75:   CASING BOTTOM DRILLER
 CBL .F                78:   CASING BOTTOM LOGGER
 BS  .IN            7.875:   BIT SIZE
 BSD .F               899:   BIT SIZE AT DEPTH
 DFT .                KCL:   DRILLING FLUID TYPE
 MSS .           FLOWLINE:   MUD SAMPLE SOURCE
 RMS .OHMM            .21:   RESISTIVITY MUD SAMPLE
 MST .F                75:   MUD SAMPLE TEMPERATURE
 TCS .HRS            0200:   TIME CURCULATED STOPPED
 MRT .F               100:   MAXIMUM RECORDED TEMPERATURE
 LUN .               6274:   LOGGING UNIT NUMBER
 LUL .               GLTE:   LOGGING UNIT LOCATION
 ENGI.             RAUTIO:   RECORDING ENGINEER
 WITN.        LINDA FIVAS:   WITNESSED BY
 CLNT.            A2DTECH:   CLIENT CODE
 ORIG.           5" PRINT:   ORIGIN OF DATA
 UWI .       490251103900:   UNIQUE WELL ID
 DICO. A2D Technologies, Inc.:   DIGITIZING COMPANY
~OTHER INFORMATION
~A   DEPT     PORD        CNC       CORR        DEN       CALD        SPR       RILD       RILM       RFOC   
# ...
  394.5000     0.1394     0.2952    -0.0217     2.4501     8.1550   -71.0386     7.3027     7.3282     7.3593
  395.0000     0.1391     0.3015    -0.0247     2.4448     8.1692   -71.1958     7.4570     7.5358     7.6738
  395.5000     0.1364     0.3220    -0.0082     2.4471     8.1681   -71.8069     7.4598     7.2764     7.8363
  396.0000     0.1343     0.3278     0.0068     2.4538     8.1673   -71.8129     7.2506     7.1282     7.8915
  396.5000     0.1331     0.3227     0.0127     2.4561     8.1664   -71.3649     7.2574     7.2467     7.8921
  397.0000     0.1313     0.2979     0.0082     2.4598     8.1655   -71.2194     7.5092     7.5380     7.8926
  397.5000     0.1279     0.2928     0.0141     2.4651     8.1647   -72.1332     7.7216     7.7515     7.8932
  398.0000     0.1273     0.2900     0.0307     2.4650     8.1485   -73.0510     7.9400     7.9711     7.9504
  398.5000     0.1294     0.3009     0.0261     2.4620     8.1476   -73.8235     8.0515     8.0274     8.3464
  399.0000     0.1303     0.3211     0.0080     2.4620     8.1316   -74.1180     8.1645     8.1406     8.5931
  399.5000     0.1303     0.3290     0.0019     2.4620     8.1308   -74.1252     8.1645     8.1981     8.8258
  400.0000     0.1297     0.3281     0.0113     2.4643     8.1148   -73.9554     8.1533     8.1817     8.7406
  400.5000     0.1258     0.2994     0.0135     2.4689     8.1257   -73.6746     8.0846     8.0845     8.4420
  401.0000     0.1252     0.2861     0.0154     2.4695     8.1366   -73.3937     8.0160     8.0278     8.2868
  401.5000     0.1264     0.2804     0.0169     2.4687     8.1410   -73.2451     7.9955     7.9715     8.1773
  402.0000     0.1258     0.2801     0.0244     2.4702     8.1394   -73.2345     8.0515     7.9710     8.1211
  402.5000     0.1249     0.2834     0.0304     2.4724     8.1535   -73.1084     8.0515     7.9705     8.0653
  403.0000     0.1253     0.2889     0.0289     2.4724     8.1673   -73.4199     8.1078     8.0255     8.0100
  403.5000     0.1261     0.3021     0.0228     2.4708     8.1808   -73.7297     8.2216     8.1945     8.0169
  404.0000     0.1255     0.3024     0.0168     2.4693     8.1943   -73.7369     8.3954     8.3091     8.2374
  404.5000     0.1258     0.2949     0.0108     2.4700     8.1930   -73.7443     8.5729     8.4839     8.5893
  405.0000     0.1270     0.2916     0.0047     2.4707     8.1917   -73.7532     8.6933     8.6705     8.7104
  405.5000     0.1270     0.3024     0.0047     2.4677     8.1904   -73.7604     8.8153     8.9067     8.7718
  406.0000     0.1249     0.3218     0.0125     2.4699     8.1891   -73.9189     9.0017     9.0311     8.8954
  406.5000     0.1222     0.3160     0.0182     2.4745     8.1875   -74.3799     9.0646     9.0303     9.1472
  407.0000     0.1186     0.2971     0.0273     2.4781     8.1862   -75.1569     9.0646     9.0297     9.2118
  407.5000     0.1146     0.2859     0.0423     2.4849     8.1848   -76.0603     9.0646     9.0922     9.3416
  408.0000     0.1104     0.2953     0.1010     2.4916     8.1836   -76.3701     9.3210     9.2835     9.5394
  408.5000     0.1047     0.3034     0.1055     2.4991     8.1823   -76.5286     9.7872     9.5452     9.7414
  409.0000     0.1008     0.3079     0.0377     2.5074     8.1810   -76.5358     9.9246     9.8143    10.0208
  409.5000     0.1038     0.3145     0.0027     2.5081     8.1794   -76.3917     9.9941    10.0210    10.3728
  410.0000     0.1098     0.3230     0.0166     2.4960     8.1781   -76.5520     9.9941    10.0201    10.5189
  410.5000     0.1162     0.3206     0.0407     2.4869     8.1617   -76.5592    10.1344     9.9499    10.5931
  411.0000     0.1258     0.3109     0.0527     2.4801     8.1755   -76.4151    10.1344     9.9492    10.3748
  411.5000     0.1282     0.2986     0.0377     2.4703     8.1742   -76.2708    10.0579     9.9486    10.2259
  412.0000     0.1285     0.2994     0.0391     2.4673     8.1726   -75.9677     9.9246     9.8788    10.0214
  412.5000     0.1282     0.3049     0.0421     2.4658     8.1713   -75.3778     9.7192     9.6737     9.7469
  413.0000     0.1279     0.3073     0.0387     2.4666     8.1700   -75.0824     9.5846     9.4730     9.5459
  413.5000     0.1266     0.2995     0.0301     2.4687     8.1687   -74.9383     9.3862     9.2765     9.3493
  414.0000     0.1234     0.2837     0.0240     2.4709     8.1674   -75.2499     9.3210     9.1475     9.2851
  414.5000     0.1210     0.2829     0.0135     2.4747     8.1658   -75.4085     9.1919     9.1467     9.1573
  415.0000     0.1222     0.3004    -0.0061     2.4769     8.1645   -75.5687     9.2562     9.2102     9.1581
  415.5000     0.1234     0.3088    -0.0197     2.4746     8.1632   -75.7272     9.3210     9.3387     9.1587
  416.0000     0.1230     0.3009    -0.0196     2.4747     8.1619   -75.8857     9.5180     9.5353     9.4179
  416.5000     0.1210     0.2862     0.0164     2.4768     8.1606   -75.1347     9.5846     9.7360     9.5506
  417.0000     0.1192     0.2847     0.0450     2.4775     8.1590   -74.5385     9.5846     9.6677     9.5514
  417.5000     0.1177     0.2862     0.0615     2.4805     8.1577   -74.2432     9.5846     9.5332     9.4200
  418.0000     0.1162     0.2953     0.0751     2.4827     8.1564   -74.4035     9.5846     9.4007     9.2903
  418.5000     0.1149     0.3049     0.0781     2.4880     8.1551   -74.5620     9.4519     9.3348     9.2265
  419.0000     0.1098     0.3200     0.0781     2.4925     8.1538   -74.5692     9.2562     9.1982     9.1631
  419.5000     0.1053     0.3152     0.0699     2.4999     8.1522   -75.0308     9.1919     9.1404     9.1638
  420.0000     0.1086     0.2974     0.0103     2.5044     8.1511   -75.4931     9.3862     9.2038     9.3579
  420.5000     0.1204     0.2908    -0.0063     2.4863     8.1496   -75.5003     9.4519     9.3322     9.8258
  421.0000     0.1297     0.2986    -0.0078     2.4653     8.1482   -75.3544     9.3862     9.3968     9.8265
  421.5000     0.1343     0.3188    -0.0063     2.4562     8.1469   -75.5148     9.3210     9.3961     9.6242
  422.0000     0.1340     0.3062    -0.0033     2.4577     8.1455   -75.6732     9.1919     9.2654     9.4917
  422.5000     0.1334     0.2983    -0.0018     2.4561     8.1442   -75.6823     9.0646     9.1366     9.2317
  423.0000     0.1352     0.2953    -0.0003     2.4546     8.1428   -75.3869     9.0017     9.0096     9.1045
  423.5000     0.1379     0.2908     0.0042     2.4516     8.1415   -75.2410     8.9391     8.9464     8.9793
  424.0000     0.1398     0.2839     0.0072     2.4470     8.1402   -74.9475     9.0646     9.0714     9.0428
  424.5000     0.1406     0.2721     0.0042     2.4447     8.1388   -74.1982     9.1919     9.1342     9.1702
  425.0000     0.1397     0.2673    -0.0034     2.4447     8.1372   -73.9047     9.3210     9.1334     9.2349
  425.5000     0.1379     0.2670    -0.0154     2.4455     8.1359   -73.9119     9.2562     9.1328     9.1714
  426.0000     0.1355     0.2706    -0.0200     2.4484     8.1347   -73.9191     9.1230     9.1263     9.1034
  426.5000     0.1327     0.2782     0.0020     2.4529     8.1334   -73.9263     8.9391     8.9426     9.0458
  427.0000     0.1315     0.3002     0.0402     2.4581     8.1320   -73.9335     8.8153     8.8799     9.0466
  427.5000     0.1294     0.3125     0.0522     2.4603     8.1304   -73.9410     8.6933     8.6957     9.0472
  428.0000     0.1285     0.3189     0.0597     2.4626     8.1293   -73.9497     8.5729     8.5748     9.0478
  428.5000     0.1291     0.3170     0.0627     2.4648     8.1278   -73.6526     8.4475     8.3967     9.0484
  429.0000     0.1334     0.3092     0.0507     2.4580     8.1264   -73.5085     8.2792     8.1654     9.3046
  429.5000     0.1394     0.3005     0.0221     2.4474     8.1252   -73.0637     8.1645     8.0519     9.0496
  430.0000     0.1403     0.3080    -0.0009     2.4451     8.1236   -72.5971     8.0515     7.8848     8.8016
  430.5000     0.1403     0.3228    -0.0081     2.4436     8.1223   -72.3216     7.9400     7.7205     8.4422
