~VERSION INFORMATION
 VERS.                2.0:   CWLS LOG ASCII STANDARD - VERSION 2.0
 WRAP.                 NO:   ONE LINE PER DEPTH STEP
~WELL INFORMATION
#MNEM.UNIT      DATA TYPE    INFORMATION
#----------   ------------   ------------------------------
 STRT.F           36.0000:   START DEPTH
 STOP.F          686.0000:   STOP DEPTH
 STEP.F            0.5000:   STEP LENGTH
 NULL.          -999.2500:   NO VALUE
 COMP.    FENIX & SCISSON:   COMPANY
 WELL.        NPR #15-S-2:   WELL
 FLD .             TEAPOT:   FIELD
 LOC .       S2 T38N R78W:   LOCATION
 CNTY.            NATRONA:   COUNTY
 STAT.            WYOMING:   STATE
 CTRY. UNITED STATES OF AMERICA:   COUNTRY
 SRVC.       Schlumberger:   SERVICE COMPANY
 DATE.        16-MAR-1977:   LOGDATE
 API .       490251029900:   API NUMBER
~CURVE INFORMATION
#MNEM.UNIT       API CODE    CURVE DESCRIPTION
#----------   ------------   ------------------------------
 DEPT.F                  :   
 SPR .MV     07 010 01 00:   SPONTANEOUS POTENTIAL FROM RES.
 ILD .OHMM   07 120 46 00:   INDUCTION LOG DEEP
 ILM .OHMM   07 120 44 00:   INDUCTION LOG MEDIUM
 LL8 .OHMM   07 220 08 00:   LATEROLOG-8 RES.
 GRD .GAPI   45 310 01 00:   GAMMA RAY FROM DENSITY LOG
 CALD.IN     45 280 60 00:   CALIPER FROM DENSITY LOG
 CORR.G/C3   45 356 01 00:   DENSITY CORRECTION
 RHOB.G/C3   45 350 01 00:   BULK DENSITY
 DPHI.DEC    45 890 12 00:   DENSITY POROSITY SANDSTONE
~PARAMETER INFORMATION
#MNEM.UNIT          VALUE    DESCRIPTION
#----------   ------------   ------------------------------
 PD  .                 GL:   PERMANENT DATUM
 EPD .F              5129:   ELEVATION PERMANENT DATUM
 LMF .                 KB:   LOG MEASURED FROM
 DAPD.F                 4:   FEET ABOVE PERMANENT DATUM
 DMF .                 KB:   DRILLING MEASURED FROM
 EKB .F              5133:   KELLING BUSHING
 EGL .F              5129:   GROUND LEVEL
 DATE.        15-MAR-1977:   RUN DATE
 RUN .                  1:   RUN NUMBER
 DD  .F               680:   DEPTH DRILLER
 DL  .F               680:   DEPTH LOGGER
 BLI .F               683:   BOTTOM LOG INTERVAL
 TLI .F                48:   TOP LOG INTERVAL
 CS  .IN            8.625:   CASING SIZE
 CBD .F                40:   CASING BOTTOM DRILLER
 CBL .F                49:   CASING BOTTOM LOGGER
 BS  .IN            7.875:   BIT SIZE
 BSD .F               680:   BIT SIZE AT DEPTH
 DFT .            KCL MUD:   DRILLING FLUID TYPE
 DFD .                8.8:   DRILLING FLUID DENSITY
 DFV .                 33:   DRILLING FLUID VISCOSITY
 DFPH.                9.6:   DRILLING FLUID PH
 DFL .                9.0:   DRILLING FLUID LOSS
 MSS .                PIT:   MUD SAMPLE SOURCE
 RMS .OHMM           0.22:   RESISTIVITY MUD SAMPLE
 MST .F                50:   MUD SAMPLE TEMPERATURE
 RMF .OHMM           0.21:   RESISTIVITY MUD FILTRATE SAMPLE
 MFST.F                50:   MUD FILTRATE SAMPLE TEMPERATURE
 MFSS.               MEAS:   MUD FILTRATE SAMPLE SOURCE
 TCS .HRS            1800:   TIME CURCULATED STOPPED
 TLAB.HRS            2130:   TIME LOGGER AT BOTTOM
 LUN .               7711:   LOGGING UNIT NUMBER
 LUL .               CSPR:   LOGGING UNIT LOCATION
 ENGI.             TAYLER:   RECORDING ENGINEER
 CLNT.            A2DTECH:   CLIENT CODE
 ORIG.           5" PRINT:   ORIGIN OF DATA
 UWI .       490251029900:   UNIQUE WELL ID
 DICO. A2D Technologies, Inc.:   DIGITIZING COMPANY
~OTHER INFORMATION
~A   DEPT      SPR        ILD        ILM        LL8         GRD      CALD       CORR       RHOB       DPHI   
# ...
  620.0000   -62.7745    10.9008     9.0187    11.2180   111.4665     8.0595     0.0017     2.5108     0.0816
  620.5000   -62.7580    10.7638     8.7225    11.2336   111.7773     8.0605     0.0145     2.5214     0.0756
  621.0000   -62.7416    10.7766     8.4361    11.4027   115.2085     8.0615     0.0161     2.5283     0.0735
  621.5000   -63.1729    10.7149     8.5637    11.4946   118.0453     8.0475     0.0094     2.5186     0.0789
  622.0000   -63.9027    10.7275     8.8142    11.2680   119.3963     8.0339     0.0027     2.5149     0.0803
  622.5000   -64.4832    10.6660     9.0721    11.0520   117.9240     8.0350     0.0102     2.5218     0.0728
  623.0000   -64.6201    10.4594     9.1459    10.9850   115.5603     8.0360     0.0156     2.5316     0.0700
  623.5000   -64.4503    10.2566     9.0309    11.0003   114.6824     8.0371     0.0156     2.5295     0.0730
  624.0000   -64.2846    10.1276     8.6742    10.8613   113.3588     8.0381     0.0127     2.5265     0.0736
  624.5000   -64.4215     9.9999     8.4450    10.6501   113.0719     8.0391     0.0097     2.5296     0.0717
  625.0000   -64.7035     9.8740     8.2839    10.4431   115.3177     8.0402     0.0075     2.5304     0.0708
  625.5000   -64.8363     9.6163     8.2936    10.3111   117.4116     8.0412     0.0091     2.5253     0.0764
  626.0000   -65.1184     9.5585     8.3611    10.1106   119.8027     8.0423     0.0114     2.5163     0.0801
  626.5000   -65.0978     9.4382     8.5464    10.0521   118.9248     8.0433     0.0047     2.5179     0.0810
  627.0000   -65.0814     9.2580     8.6757    10.0633   116.2639     8.0444     0.0010     2.5090     0.0837
  627.5000   -65.0649     9.2023     8.8069     9.9362   115.9770     8.0454     0.0041     2.5046     0.0876
  628.0000   -65.0484     9.0893     8.4590     9.8759   116.4398     8.0464     0.0064     2.5061     0.0881
  628.5000   -65.0320     9.0346     8.1120     9.8062   117.0478     8.0475     0.0080     2.5107     0.0860
  629.0000   -65.0155     8.9829     8.0760     9.6168   118.2502     8.0485     0.0088     2.5048     0.0877
  629.5000   -65.1524     8.9316     8.2072     9.4311   119.1554     8.0496     0.0088     2.5011     0.0904
  630.0000   -65.2852     8.7006     8.2650     9.3214   117.8317     8.0355     0.0074     2.4914     0.0970
  630.5000   -65.5632     8.3566     8.0986     9.3968   115.7652     8.0217     0.0037     2.4870     0.0988
  631.0000   -65.5467     8.0263     7.8287     9.4725   115.0325     8.0079    -0.0015     2.4886     0.0954
  631.5000   -65.5302     7.7625     7.5214     9.4175   115.3467     7.9941     0.0031     2.4864     0.0987
  632.0000   -65.5138     7.4556     7.0265     9.4280   116.5491     7.9803     0.0046     2.4797     0.1017
  632.5000   -65.4973     7.1115     6.6589     9.2782   117.9000     7.9665     0.0099     2.4655     0.1119
  633.0000   -65.6342     6.6900     6.2677     6.8171   118.6566     7.9678     0.0168     2.4618     0.1146
  633.5000   -65.6137     6.2935     6.0629     5.7897   118.2257     7.9689     0.0138     2.4762     0.1073
  634.0000   -65.5972     6.4778     6.6871     7.7493   118.0873     7.9699     0.0109     2.5086     0.0992
  634.5000   -65.4315     7.0960     7.2241     9.4805   118.8473     7.9710     0.0102     2.5147     0.0808
  635.0000   -65.2658     7.6662     7.7504    10.1005   117.2265     7.9868     0.0072     2.5178     0.0792
  635.5000   -64.8016     8.2252     8.2578    10.3953   117.0882     8.0027     0.0050     2.5194     0.0777
  636.0000   -64.3373     8.8233     8.8595    10.5518   116.4488     8.0186     0.0036     2.5225     0.0765
  636.5000   -64.0224     9.4666     9.4395    10.7106   115.4255     8.0196     0.0089     2.5294     0.0743
  637.0000   -63.7074     9.8115     9.9882    11.0232   112.8109     8.0355     0.0150     2.5422     0.0617
  637.5000   -63.5417    10.0292    10.4959    11.3450   110.0106     8.0365     0.0173     2.5572     0.0586
  638.0000   -63.5252    10.2517    10.6547    11.4364   114.2545     8.0376     0.0197     2.5650     0.0505
  638.5000   -63.6621    10.5519    10.5938    11.4491   115.7128     8.0535     0.0212     2.5658     0.0529
  639.0000   -63.7949    10.7116    10.6063    11.5414   115.2533     8.0397     0.0228     2.5538     0.0631
  639.5000   -63.9277    10.8738    10.4699    11.5542   114.2268     7.9962     0.0145     2.5426     0.0585
  640.0000   -64.0605    10.9622    10.4100    11.5671   113.0518     7.9496     0.0140     2.5487     0.0627
  640.5000   -64.0433    10.8995    10.3536    11.6603   112.1739     7.8914     0.0008     2.5268     0.0747
  641.0000   -64.1769    10.6882    10.3658    11.7543   109.0672     7.8507    -0.0052     2.5181     0.0798
  641.5000   -64.1597    10.4779    10.3035    11.6057   107.1492     7.8840    -0.0007     2.5189     0.0780
  642.0000   -64.1432    10.4180    10.1770    11.3017   108.2030     7.9294     0.0029     2.5197     0.0767
  642.5000   -64.1269    10.4334    10.0462    11.0820   110.5941     7.9725     0.0036     2.5213     0.0764
  643.0000   -64.1104    10.4458     9.9199    11.0148   112.9851     7.9736     0.0021     2.5191     0.0818
  643.5000   -63.9448    10.3144     9.9346    11.1067   114.3361     7.9746     0.0000     2.5034     0.0884
  644.0000   -63.7791    10.2524    10.0153    11.3521   115.5385     7.9905     0.0000     2.5020     0.0898
  644.5000   -63.6134    10.2675    10.0271    11.5230   116.1465     7.9915     0.0024     2.5044     0.0892
  645.0000   -63.5970    10.4229     9.9669    11.6158   116.7545     7.9926     0.0039     2.5082     0.0847
  645.5000   -63.5806    10.3603     9.9099    11.7094   116.7681     7.9936     0.0070     2.5150     0.0810
  646.0000   -63.7255    10.3040     9.7882    11.6417   112.6213     7.9946     0.0101     2.5196     0.0789
  646.5000   -63.9958    10.3589     9.7294    11.1810   112.7836     7.9968     0.0071     2.5160     0.0807
  647.0000   -63.9791    10.3991     9.6100    11.1132   113.2430     8.0116     0.0049     2.5108     0.0848
  647.5000   -64.1121    10.4115     9.4238    11.2028   112.9595     8.0126     0.0035     2.5041     0.0887
  648.0000   -64.0896    10.2096     9.2385    10.9123   112.9731     8.0136     0.0043     2.4997     0.0911
  648.5000   -63.9299    10.0812     8.9377    10.4083   112.9868     8.0147     0.0058     2.4982     0.0914
  649.0000   -63.9134     9.8176     8.5847     9.9275   113.0005     8.0157     0.0089     2.4961     0.0916
  649.5000   -63.8971     9.2358     8.1899     9.3389   112.4163     8.0168     0.0143     2.4962     0.0922
  650.0000   -64.0298     8.7073     7.5901     8.9076   111.5419     8.0178     0.0151     2.4950     0.0923
  650.5000   -64.9201     8.1130     6.9049     8.4376   109.7725     8.0072     0.0130     2.4918     0.0936
  651.0000   -65.4871     7.3746     6.4511     8.3864   108.2968     7.9967     0.0092     2.4751     0.0954
  651.5000   -65.6187     6.9846     6.1111     8.1690   111.5829     7.9861     0.0047     2.4391     0.1259
  652.0000   -65.7458     6.1730     5.4774     7.6847   113.5282     7.9775     0.0026     2.4174     0.1326
  652.5000   -66.0311     5.1618     4.6133     7.1298   114.5819     7.9492     0.0057     2.3821     0.1496
  653.0000   -66.3075     4.2570     3.4785     6.4791   115.1900     7.9504     0.0148     2.3482     0.1920
  653.5000   -66.5884     3.6093     2.8498     5.5297   115.3522     7.9515     0.0193     2.3159     0.2089
  654.0000   -66.7244     3.0181     2.6078     3.8913   113.4342     7.9526     0.0149     2.2860     0.2228
  654.5000   -67.1501     2.8585     2.5389     2.9891   110.3275     7.9537     0.0120     2.2885     0.2178
  655.0000   -67.7294     2.7451     2.4733     2.7322   107.9638     7.9548     0.0090     2.3334     0.1757
  655.5000   -68.6073     2.7101     2.5632     2.5679   105.7486     7.9559     0.0008     2.3751     0.1449
  656.0000   -69.1911     2.7507     2.8271     3.0151   108.2883     7.9570    -0.0074     2.4426     0.1143
