~VERSION INFORMATION
 VERS.                2.0:   CWLS LOG ASCII STANDARD - VERSION 2.0
 WRAP.                 NO:   ONE LINE PER DEPTH STEP
~WELL INFORMATION
#MNEM.UNIT      DATA TYPE    INFORMATION
#----------   ------------   ------------------------------
 STRT.F           95.0000:   START DEPTH
 STOP.F          914.0000:   STOP DEPTH
 STEP.F            0.5000:   STEP LENGTH
 NULL.          -999.2500:   NO VALUE
 COMP. LAWRENCE/ALLISON INC:   COMPANY
 WELL. NPR ##3 31-61 SX 2:   WELL
 FLD .             TEAPOT:   FIELD
 LOC .       S2 T38N R78W:   LOCATION
 CNTY.            NATRONA:   COUNTY
 STAT.            WYOMING:   STATE
 CTRY. UNITED STATES OF AMERICA:   COUNTRY
 SRVC.      Dresser Atlas:   SERVICE COMPANY
 DATE.        30-JAN-1986:   LOGDATE
 API .       490251106800:   API NUMBER
~CURVE INFORMATION
#MNEM.UNIT       API CODE    CURVE DESCRIPTION
#----------   ------------   ------------------------------
 DEPT.F                  :   
 RILD.OHMM   07 120 46 00:   INDUCTION LOG DEEP RESISTIVITY
 RILM.OHMM   07 120 44 00:   INDUCTION LOG MEDIUM RESISTIVITY
 CALD.IN     45 280 60 00:   CALIPER FROM DENSITY
 GRD .GAPI   45 310 01 00:   GAMMA RAY FROM DENSITY LOG
 CORR.G/C3   45 356 01 00:   DENSITY CORRECTION
 PORD.DEC    45 890 10 00:   POROSITY DENSITY LIMESTONE
 DEN .G/C3   45 350 01 00:   COMPENSATED BULK DENSITY
~PARAMETER INFORMATION
#MNEM.UNIT          VALUE    DESCRIPTION
#----------   ------------   ------------------------------
 PD  .                 GL:   PERMANENT DATUM
 EPD .F              5126:   ELEVATION PERMANENT DATUM
 LMF .                 GL:   LOG MEASURED FROM
 DMF .                 GL:   DRILLING MEASURED FROM
 EGL .F              5126:   GROUND LEVEL
 DATE.        30-JAN-1986:   RUN DATE
 RUN .                  1:   RUN NUMBER
 DD  .F               925:   DEPTH DRILLER
 DL  .F               918:   DEPTH LOGGER
 BLI .F               910:   BOTTOM LOG INTERVAL
 CS  .IN            8.625:   CASING SIZE
 CBD .F               127:   CASING BOTTOM DRILLER
 CBL .F               127:   CASING BOTTOM LOGGER
 BS  .IN             6.25:   BIT SIZE
 BSD .F               925:   BIT SIZE AT DEPTH
 DFT .                AIR:   DRILLING FLUID TYPE
 LUN .            HL-6264:   LOGGING UNIT NUMBER
 LUL .           GILLETTE:   LOGGING UNIT LOCATION
 ENGI.     P. M. FAHLSING:   RECORDING ENGINEER
 WITN.        LINOA FIVAS:   WITNESSED BY
 CLNT.            A2DTECH:   CLIENT CODE
 ORIG.           5" PRINT:   ORIGIN OF DATA
 UWI .       490251106800:   UNIQUE WELL ID
 DICO. A2D Technologies, Inc.:   DIGITIZING COMPANY
~OTHER INFORMATION
~A   DEPT     RILD       RILM       CALD         GRD      CORR       PORD        DEN   
# ...
  186.0000     6.2576     6.0283     6.7661   144.7616     0.1490     0.1231     2.4722
  186.5000     6.1702     5.9489     6.7664   143.5621     0.1399     0.1237     2.4714
  187.0000     6.0840     5.9010     6.7667   139.6437     0.1324     0.1228     2.4737
  187.5000     6.0407     5.8249     6.7670   138.1422     0.1308     0.1192     2.4767
  188.0000     5.9978     5.7439     6.7823   138.1512     0.1383     0.1198     2.4759
  188.5000     5.9551     5.7430     6.7826   138.7645     0.1503     0.1250     2.4691
  189.0000     5.8719     5.7422     6.7829   139.9820     0.1518     0.1294     2.4630
  189.5000     5.8707     5.7414     6.7832   142.4080     0.1457     0.1312     2.4607
  190.0000     5.8695     5.7406     6.7684   142.1149     0.1457     0.1290     2.4622
  190.5000     5.8683     5.7398     6.7688   141.5198     0.1562     0.1267     2.4659
  191.0000     5.8670     5.7390     6.7540   141.2267     0.1667     0.1252     2.4682
  191.5000     5.8658     5.6986     6.7543   139.1210     0.1727     0.1259     2.4689
  192.0000     5.8646     5.6585     6.7246   136.1089     0.1531     0.1273     2.4666
  192.5000     5.8631     5.6577     6.7249   134.3053     0.1245     0.1276     2.4643
  193.0000     5.8619     5.6964     6.7252   134.3143     0.1214     0.1247     2.4665
  193.5000     5.8607     5.7353     6.7255   134.6255     0.1405     0.1204     2.4748
  194.0000     5.8595     5.7343     6.7258   135.2388     0.1531     0.1174     2.4800
  194.5000     5.8583     5.7335     6.7261   134.0394     0.1590     0.1207     2.4755
  195.0000     5.8571     5.7327     6.7264   134.9548     0.1605     0.1249     2.4702
  195.5000     5.8559     5.7319     6.7267   137.3807     0.1574     0.1246     2.4694
  196.0000     5.7741     5.6915     6.7420   140.7130     0.1506     0.1225     2.4754
  196.5000     5.6934     5.6124     6.7724   140.4200     0.1358     0.1165     2.4814
  197.0000     5.6139     5.4962     6.7727   141.0333     0.1333     0.1128     2.4889
  197.5000     5.5355     5.3452     6.7730   143.5346     0.1377     0.1107     2.4934
  198.0000     5.4582     5.2345     6.7432   146.7908     0.1407     0.1122     2.4866
  198.5000     5.3819     5.1260     6.7134   146.7999     0.1375     0.1201     2.4700
  199.0000     5.2701     5.0199     6.7137   143.4857     0.1329     0.1358     2.4556
  199.5000     5.1965     4.9845     6.7140   140.4736     0.1374     0.1466     2.4398
  200.0000     5.0184     4.9089     6.7143   142.5974     0.1494     0.1439     2.4337
  200.5000     5.0173     4.9146     6.7146   144.6247     0.1643     0.1334     2.4450
  201.0000     5.0163     4.9139     6.7300   144.7372     0.1552     0.1271     2.4608
  201.5000     5.0152     4.9818     6.7453   142.6345     0.1447     0.1238     2.4683
  202.0000     5.0493     5.0158     6.7606   141.4381     0.1461     0.1217     2.4743
  202.5000     5.0834     5.0500     6.7609   144.7735     0.1626     0.1202     2.4766
  203.0000     5.1177     5.1197     6.7612   147.5047     0.1791     0.1193     2.4781
  203.5000     5.1163     5.1190     6.7615   146.0062     0.1821     0.1229     2.4758
  204.0000     5.1153     5.1183     6.7618   138.1643     0.1729     0.1230     2.4713
  204.5000     5.1142     5.1176     6.7621   135.7595     0.1864     0.1227     2.4720
  205.0000     5.1487     5.1169     6.7775   136.3743     0.1804     0.1257     2.4705
  205.5000     5.1837     5.1518     6.7627   138.5013     0.1532     0.1333     2.4599
  206.0000     5.2547     5.1869     6.7630   141.3835     0.1396     0.1381     2.4516
  206.5000     5.3269     5.2951     6.7633   139.1297     0.1320     0.1385     2.4471
  207.0000     5.4377     5.4056     6.7636   137.4801     0.1274     0.1379     2.4478
  207.5000     5.5127     5.4803     6.7639   136.7369     0.1244     0.1376     2.4486
  208.0000     5.6271     5.5946     6.7793   136.7491     0.1153     0.1391     2.4470
  208.5000     5.7047     5.7114     6.7796   136.7612     0.1032     0.1395     2.4455
  209.0000     5.8231     5.8306     6.7799   136.9243     0.1076     0.1392     2.4470
  209.5000     5.9442     5.9522     6.7802   138.1449     0.1166     0.1389     2.4493
  210.0000     6.0262     6.0345     6.7805   138.6102     0.1165     0.1416     2.4440
  210.5000     6.1090     6.1178     6.7808   138.3202     0.1150     0.1444     2.4387
  211.0000     6.2357     6.1595     6.7811   138.9365     0.1194     0.1414     2.4402
  211.5000     6.3215     6.1587     6.7814   141.0634     0.1299     0.1378     2.4469
  212.0000     6.3644     6.1153     6.7817   143.0392     0.1419     0.1351     2.4514
  212.5000     6.3628     6.0303     6.7820   141.0876     0.1539     0.1339     2.4529
  213.0000     6.2739     5.9054     6.7672   140.4955     0.1583     0.1348     2.4544
  213.5000     6.1011     5.7831     6.7676   140.5076     0.1372     0.1370     2.4529
  214.0000     5.9743     5.6242     6.7679   140.5197     0.1236     0.1376     2.4484
  214.5000     5.7696     5.3944     6.7682   138.7191     0.1491     0.1319     2.4506
  215.0000     5.5720     5.1739     6.7685   136.6164     0.1686     0.1264     2.4581
  215.5000     5.3070     4.9625     6.7688   136.3264     0.1806     0.1207     2.4687
  216.0000     4.9851     4.7928     6.7691   135.8853     0.1625     0.1253     2.4777
  216.5000     4.7152     4.5970     6.7694   133.0273     0.1474     0.1347     2.4626
  217.0000     4.4910     4.3787     6.7545   133.3416     0.1458     0.1440     2.4460
  217.5000     4.3072     4.2584     6.7248   133.9579     0.1488     0.1513     2.4325
  218.0000     4.1886     4.0844     6.7251   132.7616     0.1517     0.1528     2.4257
  218.5000     4.0732     4.0276     6.7254   130.6588     0.1547     0.1514     2.4241
  219.0000     3.9065     3.8899     6.7257   129.3114     0.1576     0.1465     2.4286
  219.5000     3.7466     3.6542     6.7411   129.0215     0.1545     0.1324     2.4422
  220.0000     3.6335     3.5049     6.7414   130.8463     0.1409     0.1094     2.4761
  220.5000     3.5432     3.5288     6.7718   133.4248     0.1108     0.0974     2.5190
  221.0000     3.5967     3.7036     6.7871   138.2707     0.1017     0.1247     2.5310
  221.5000     3.8488     3.8604     6.8024   143.4188     0.1212     0.1459     2.4572
  222.0000     4.0114     4.0799     6.8027   143.7330     0.1527     0.1794     2.3849
  222.5000     4.2392     4.3119     6.8030   134.6817     0.1707     0.1817     2.3721
  223.0000     4.5111     4.5570     6.7882   130.7663     0.1511     0.1693     2.3901
  223.5000     4.8005     4.9173     6.7735   131.6847     0.1209     0.1644     2.4037
  224.0000     5.1439     5.1969     6.7739   132.6032     0.1164     0.1637     2.4052
  224.5000     5.4360     5.4924     6.7742   129.8962     0.1148     0.1630     2.4051
  225.0000     5.7050     5.7647     6.7745   128.6999     0.1128     0.1560     2.4134
  225.5000     5.9873     6.0086     6.7748   130.2226     0.1083     0.1454     2.4254
  226.0000     6.1972     6.2628     6.7751   131.4431     0.0993     0.1462     2.4360
  226.5000     6.4589     6.4828     6.7754   131.4552     0.1114     0.1496     2.4329
  227.0000     6.6853     6.6180     6.7907   131.4673     0.1190     0.1479     2.4314
  227.5000     6.8718     6.7561     6.7910   130.8752     0.1175     0.1447     2.4344
  228.0000     6.9663     6.8495     6.7913   127.5641     0.0995     0.1421     2.4374
  228.5000     7.0620     6.8962     6.7766   124.8571     0.1131     0.1417     2.4404
  229.0000     7.0605     6.9432     6.7769   121.5460     0.1327     0.1378     2.4479
  229.5000     7.0590     6.8942     6.7621   121.2560     0.1388     0.1342     2.4524
  230.0000     7.0576     6.8457     6.7474   126.7061     0.1418     0.1315     2.4577
  230.5000     6.9109     6.7039     6.7327   131.2500     0.1298     0.1292     2.4622
  231.0000     6.7673     6.5650     6.7330   131.5642     0.1284     0.1274     2.4659
