~VERSION INFORMATION
 VERS.                2.0:   CWLS LOG ASCII STANDARD - VERSION 2.0
 WRAP.                 NO:   ONE LINE PER DEPTH STEP
~WELL INFORMATION
#MNEM.UNIT      DATA TYPE    INFORMATION
#----------   ------------   ------------------------------
 STRT.F          100.0000:   START DEPTH
 STOP.F          872.0000:   STOP DEPTH
 STEP.F            0.5000:   STEP LENGTH
 NULL.          -999.2500:   NO VALUE
 COMP. U S NAVY/INTEX OIL CO:   COMPANY
 WELL. 53 S 11 #N P R 3-11:   WELL
 FLD .             TEAPOT:   FIELD
 LOC .      S11 T38N R78W:   LOCATION
 CNTY.            NATRONA:   COUNTY
 STAT.            WYOMING:   STATE
 CTRY. UNITED STATES OF AMERICA:   COUNTRY
 SRVC.       Schlumberger:   SERVICE COMPANY
 DATE.        07-AUG-1961:   LOGDATE
 API .       490250635800:   API NUMBER
~CURVE INFORMATION
#MNEM.UNIT       API CODE    CURVE DESCRIPTION
#----------   ------------   ------------------------------
 DEPT.F                  :   
 CILD.MMHO   05 110 46 00:   CONDUCTIVITY INDUCTION LOG DEEP
 ILD .OHMM   05 120 46 00:   INDUCTION LOG DEEP
 SPR .MV     05 010 01 00:   SPONTANEOUS POTENTIAL FROM RES.
 ASN .OHMM   05 041 16 00:   AMPLIFIED SHORT NORMAL 16"
~PARAMETER INFORMATION
#MNEM.UNIT          VALUE    DESCRIPTION
#----------   ------------   ------------------------------
 PD  .                 GL:   PERMANENT DATUM
 EPD .F              5192:   ELEVATION PERMANENT DATUM
 LMF .                 KB:   LOG MEASURED FROM
 DAPD.F                 6:   FEET ABOVE PERMANENT DATUM
 DMF .                 KB:   DRILLING MEASURED FROM
 EKB .F              5198:   KELLING BUSHING
 EGL .F              5192:   GROUND LEVEL
 DATE.             8-7-61:   RUN DATE
 RUN .                  1:   RUN NUMBER
 DD  .F               870:   DEPTH DRILLER
 DL  .F               873:   DEPTH LOGGER
 BLI .F               872:   BOTTOM LOG INTERVAL
 TLI .F               100:   TOP LOG INTERVAL
 BS  .IN            7.875:   BIT SIZE
 BSD .F               870:   BIT SIZE AT DEPTH
 DFT .            GEL/OIL:   DRILLING FLUID TYPE
 DFD .               10.4:   DRILLING FLUID DENSITY
 DFV .                 43:   DRILLING FLUID VISCOSITY
 RMS .OHMM            .02:   RESISTIVITY MUD SAMPLE
 MST .F                70:   MUD SAMPLE TEMPERATURE
 TCS .HRS               1:   TIME CURCULATED STOPPED
 LUN .               2544:   LOGGING UNIT NUMBER
 LUL .                 NC:   LOGGING UNIT LOCATION
 ENGI.             QUINCY:   RECORDING ENGINEER
 WITN.          JORGENSON:   WITNESSED BY
 CLNT.            A2DTECH:   CLIENT CODE
 ORIG.       2", 5" PRINT:   ORIGIN OF DATA
 UWI .       490250635800:   UNIQUE WELL ID
 DICO. A2D Technologies, Inc.:   DIGITIZING COMPANY
~OTHER INFORMATION
~A   DEPT      CILD         ILD      SPR          ASN 
# ...
  319.0000    67.5205    13.6470   -24.2635    13.6166
  319.5000    66.7394    13.9275   -24.5919    13.8652
  320.0000    65.9584    14.3152   -24.9257    14.1454
  320.5000    65.1773    14.6813   -25.2530    14.2820
  321.0000    64.3963    15.0570   -25.5879    14.5873
  321.5000    63.6152    15.4298   -25.9129    14.9213
  322.0000    61.6281    15.8001   -26.2495    15.2383
  322.5000    58.8945    16.1805   -26.3823    15.5678
  323.0000    56.1608    16.5307   -26.3456    15.8834
  323.5000    53.4271    16.8652   -26.2352    16.2216
  324.0000    50.6935    17.1890   -26.1017    16.4545
  324.5000    47.9598    17.4912   -26.0104    16.5505
  325.0000    47.9899    17.5846   -25.8028    16.8497
  325.5000    49.2462    17.5799   -25.5510    16.8015
  326.0000    50.3049    17.4896   -25.2945    16.5206
  326.5000    51.9684    17.1563   -25.1338    16.2587
  327.0000    54.3116    16.7285   -25.1651    15.9879
  327.5000    56.6547    16.3409   -25.3472    15.7167
  328.0000    59.2965    15.8766   -25.6053    15.4483
  328.5000    57.2864    15.7021   -25.8526    15.1855
  329.0000    57.2864    15.5774   -26.0950    14.8917
  329.5000    57.7741    15.3227   -26.3524    14.7311
  330.0000    58.3089    15.1084   -26.2298    14.6457
  330.5000    58.8438    14.8802   -26.3418    14.5102
  331.0000    59.3786    14.6465   -26.5749    14.3937
  331.5000    59.9135    14.5365   -26.7520    14.2672
  332.0000    60.4483    14.5046   -26.7688    14.1458
  332.5000    60.9832    14.4474   -26.7096    14.0211
  333.0000    61.5180    14.3997   -26.6502    13.8991
  333.5000    62.0529    14.3510   -26.5949    13.7749
  334.0000    62.5877    14.2950   -26.4332    13.6626
  334.5000    63.1226    14.2516   -26.1512    13.6233
  335.0000    65.0586    14.0988   -25.7603    13.3427
  335.5000    67.3367    13.9840   -25.3929    13.1482
  336.0000    72.4221    13.2144   -25.0222    12.8627
  336.5000    79.9397    12.0157   -24.6524    12.4912
  337.0000    87.4573    10.9966   -24.5336    11.8440
  337.5000    97.3328     9.8738   -24.5323    11.0600
  338.0000   108.0572     8.8519   -24.4956    10.2344
  338.5000   118.7816     7.6576   -24.4757     9.8779
  339.0000   129.5060     6.7605   -24.4476     9.3583
  339.5000   140.2304     6.2887   -24.4239     8.9029
  340.0000   151.1439     5.6931   -24.3979     8.3412
  340.5000   159.9955     5.1471   -24.3728     7.8379
  341.0000   159.0697     5.0710   -24.3482     7.5619
  341.5000   156.6820     5.1904   -24.3334     7.5549
  342.0000   154.3025     5.3003   -24.1722     7.5953
  342.5000   151.8164     5.4297   -23.9750     7.6730
  343.0000   151.9168     5.4939   -23.7836     7.7470
  343.5000   152.1579     5.4721   -23.5905     7.7839
  344.0000   152.3895     5.4460   -23.3970     7.7736
  344.5000   152.6457     5.4145   -23.2059     7.6775
  345.0000   152.9020     5.3904   -23.0098     7.5671
  345.5000   153.1583     5.3858   -22.9111     7.4590
  346.0000   153.4146     5.4008   -23.0122     7.3625
  346.5000   153.6709     5.4284   -23.1804     7.3499
  347.0000   152.7558     5.4540   -23.3356     7.4074
  347.5000   151.1156     5.4775   -23.4980     7.4959
  348.0000   149.4754     5.5064   -23.6532     7.5751
  348.5000   147.8352     5.6718   -23.8194     7.6592
  349.0000   146.1950     5.7884   -23.9354     7.6918
  349.5000   146.5918     5.7818   -23.9443     7.7033
  350.0000   147.7978     5.6955   -23.9245     7.6831
  350.5000   149.0038     5.6227   -23.7864     7.6420
  351.0000   150.2099     5.5351   -23.6635     7.6081
  351.5000   151.4159     5.4817   -23.5396     7.5569
  352.0000   152.6219     5.4254   -23.4106     7.4825
  352.5000   153.8280     5.3370   -23.2695     7.4037
  353.0000   155.0340     5.2572   -23.1133     7.3258
  353.5000   155.5022     5.1733   -22.9422     7.2493
  354.0000   154.7786     5.0918   -22.7845     7.2609
  354.5000   154.0550     5.0871   -22.6024     7.2892
  355.0000   153.3314     5.1289   -22.5330     7.3134
  355.5000   152.6077     5.1990   -22.7938     7.3452
  356.0000   151.8841     5.3582   -23.0794     7.4299
  356.5000   151.1605     5.5024   -23.3671     7.5233
  357.0000   150.4369     5.6514   -23.6529     7.6167
  357.5000   149.7487     5.7913   -23.9379     7.7000
  358.0000   145.9849     5.9206   -24.2253     7.7290
  358.5000   142.3970     6.0426   -24.4943     7.7518
  359.0000   138.8091     6.1682   -24.6127     7.7752
  359.5000   135.6784     6.2877   -24.7234     7.7979
  360.0000   134.4175     6.4127   -24.3758     7.8392
  360.5000   133.2992     6.5296   -24.0518     7.9729
  361.0000   132.1809     6.5702   -23.9253     8.1063
  361.5000   131.0626     6.6188   -23.9504     8.2105
  362.0000   129.9443     6.6635   -23.9128     8.2627
  362.5000   129.6482     6.6991   -23.7395     8.3096
  363.0000   131.5628     6.6872   -23.5668     8.3541
  363.5000   133.1162     6.6561   -23.4132     8.4042
  364.0000   134.6491     6.6164   -23.2205     8.3975
  364.5000   136.1875     6.5903   -23.1769     8.3815
  365.0000   137.7329     6.4763   -23.3698     8.3373
  365.5000   139.2819     6.3288   -23.5377     8.2425
  366.0000   140.8290     6.1711   -23.7197     8.1509
  366.5000   141.5667     6.0829   -23.8954     8.0551
  367.0000   141.1032     6.1047   -24.0712     7.9645
  367.5000   140.6142     6.1227   -24.2554     7.8633
  368.0000   140.1586     6.1483   -24.3622     7.8195
  368.5000   139.7030     6.1699   -24.2522     7.8395
  369.0000   139.2473     6.1937   -24.0358     7.8669
  369.5000   138.7917     6.2162   -23.8389     7.9248
  370.0000   138.3361     6.2399   -23.6178     7.9445
  370.5000   137.8805     6.2617   -23.5299     7.9214
  371.0000   137.6884     6.2870   -23.5324     7.8980
  371.5000   138.7182     6.2852   -23.5448     7.8775
  372.0000   139.6645     6.1782   -23.4019     7.8498
  372.5000   140.6107     6.0968   -23.1226     7.8782
  373.0000   141.5570     6.0924   -22.9337     7.9485
  373.5000   142.5033     6.0916   -22.9709     8.0056
  374.0000   143.4496     6.0935   -23.4305     8.0700
  374.5000   142.9463     6.0897   -23.7235     8.0829
  375.0000   141.8672     6.1207   -23.7414     8.0276
  375.5000   140.7881     6.1740   -23.7281     7.9868
  376.0000   139.7091     6.2150   -23.8209     7.9296
  376.5000   138.6300     6.2682   -24.0878     7.9283
  377.0000   137.5509     6.2960   -24.3850     8.0138
  377.5000   136.4718     6.3010   -24.5731     8.0978
  378.0000   135.3927     6.3228   -24.4661     8.0981
  378.5000   134.3137     6.3440   -24.2724     8.0788
  379.0000   133.6683     6.3625   -24.0501     8.2186
  379.5000   133.6683     6.3888   -23.9177     8.4085
  380.0000   135.0599     6.3298   -23.8284     8.3549
  380.5000   138.2142     6.2009   -23.5527     8.2058
  381.0000   141.3684     5.9939   -23.2306     8.0699
  381.5000   144.5226     5.7891   -22.9254     7.9280
  382.0000   147.6768     5.5824   -22.6121     7.7881
  382.5000   150.8311     5.3778   -22.3336     7.6499
  383.0000   153.7688     5.2017   -22.4323     7.5048
  383.5000   154.7999     5.1819   -22.7303     7.3910
  384.0000   155.7647     5.1759   -22.8843     7.3626
  384.5000   156.7295     5.1655   -23.1674     7.3858
  385.0000   157.6944     5.1569   -23.5210     7.4444
  385.5000   158.6592     5.1474   -23.6085     7.4774
  386.0000   159.6240     5.1383   -23.7732     7.4698
  386.5000   160.5888     5.1289   -23.8925     7.4549
  387.0000   161.5536     5.1194   -23.9571     7.4480
  387.5000   161.8091     5.1098   -23.8366     7.4071
  388.0000   161.8091     5.1003   -23.6372     7.3431
  388.5000   159.4689     5.0899   -23.5448     7.2884
  389.0000   156.4475     5.0872   -24.0539     7.2456
  389.5000   153.4261     5.1649   -24.1482     7.3222
  390.0000   150.4046     5.2891   -23.8556     7.4454
  390.5000   147.3778     5.5434   -23.5112     7.7188
  391.0000   144.3386     5.8748   -23.1655     8.0021
  391.5000   141.2948     6.0708   -23.1260     8.0462
