~VERSION INFORMATION
 VERS.                2.0:   CWLS LOG ASCII STANDARD - VERSION 2.0
 WRAP.                 NO:   ONE LINE PER DEPTH STEP
~WELL INFORMATION
#MNEM.UNIT      DATA TYPE    INFORMATION
#----------   ------------   ------------------------------
 STRT.F           15.0000:   START DEPTH
 STOP.F          550.0000:   STOP DEPTH
 STEP.F            0.5000:   STEP LENGTH
 NULL.          -999.2500:   NO VALUE
 COMP. LAWRENCE/ALLISON INC:   COMPANY
 WELL. NPR 3 #43-21 SX 10:   WELL
 FLD .             TEAPOT:   FIELD
 LOC .      S10 T38N R78W:   LOCATION
 CNTY.            NATRONA:   COUNTY
 STAT.            WYOMING:   STATE
 CTRY. UNITED STATES OF AMERICA:   COUNTRY
 SRVC.           Gearhart:   SERVICE COMPANY
 DATE.        05-JUL-1986:   LOGDATE
 API .       490251110100:   API NUMBER
~CURVE INFORMATION
#MNEM.UNIT       API CODE    CURVE DESCRIPTION
#----------   ------------   ------------------------------
 DEPT.F                  :   
 GRR .GAPI   07 310 01 00:   GAMMA RAY
 RILD.OHMM   07 120 46 00:   INDUCTION LOG DEEP
 RILM.OHMM   07 120 44 00:   INDUCTION LOG MEDIUM
~PARAMETER INFORMATION
#MNEM.UNIT          VALUE    DESCRIPTION
#----------   ------------   ------------------------------
 PD  .                 GL:   PERMANENT DATUM
 EPD .F              5205:   ELEVATION PERMANENT DATUM
 LMF .                 KB:   LOG MEASURED FROM
 DAPD.F                 5:   FEET ABOVE PERMANENT DATUM
 DMF .                 KB:   DRILLING MEASURED FROM
 EKB .F              5210:   KELLING BUSHING
 EGL .F              5205:   GROUND LEVEL
 DATE.        05-JUL-1986:   RUN DATE
 RUN .                  1:   RUN NUMBER
 DD  .F               560:   DEPTH DRILLER
 DL  .F               560:   DEPTH LOGGER
 BLI .F               550:   BOTTOM LOG INTERVAL
 TLI .F                15:   TOP LOG INTERVAL
 CS  .IN            8.625:   CASING SIZE
 CBD .F                47:   CASING BOTTOM DRILLER
 CBL .F                47:   CASING BOTTOM LOGGER
 BS  .IN            7.875:   BIT SIZE
 BSD .F               560:   BIT SIZE AT DEPTH
 DFT .                AIR:   DRILLING FLUID TYPE
 TCS .HRS            2100:   TIME CURCULATED STOPPED
 TLAB.HRS            2230:   TIME LOGGER AT BOTTOM
 MRT .F                83:   MAXIMUM RECORDED TEMPERATURE
 LUN .               7609:   LOGGING UNIT NUMBER
 LUL .           GILLETTE:   LOGGING UNIT LOCATION
 ENGI.              BAUER:   RECORDING ENGINEER
 WITN.              FIVAS:   WITNESSED BY
 CLNT.            A2DTECH:   CLIENT CODE
 ORIG.           5" PRINT:   ORIGIN OF DATA
 UWI .       490251110100:   UNIQUE WELL ID
 DICO. A2D Technologies, Inc.:   DIGITIZING COMPANY
~OTHER INFORMATION
~A   DEPT      GRR       RILD       RILM   
   15.0000  -999.2500  -999.2500  -999.2500
   15.5000    78.3500  -999.2500  -999.2500
   16.0000    79.5616  -999.2500  -999.2500
   16.5000    79.8600  -999.2500  -999.2500
   17.0000    80.1583  -999.2500  -999.2500
   17.5000    79.8478  -999.2500  -999.2500
   18.0000    78.6159  -999.2500  -999.2500
   18.5000    77.4004  -999.2500  -999.2500
   19.0000    78.6261  -999.2500  -999.2500
   19.5000    80.1451  -999.2500  -999.2500
   20.0000    81.0351  -999.2500  -999.2500
   20.5000    81.6379  -999.2500  -999.2500
   21.0000    81.6053  -999.2500  -999.2500
   21.5000    80.6829  -999.2500  -999.2500
   22.0000    80.4020  -999.2500  -999.2500
   22.5000    82.2224  -999.2500  -999.2500
   23.0000    84.1197  -999.2500  -999.2500
   23.5000    87.2471  -999.2500  -999.2500
   24.0000    90.4678  -999.2500  -999.2500
   24.5000    89.4561  -999.2500  -999.2500
   25.0000    86.3521  -999.2500  -999.2500
   25.5000    82.9376  -999.2500  -999.2500
   26.0000    79.6306  -999.2500  -999.2500
   26.5000    79.1297  -999.2500  -999.2500
   27.0000    80.6457  -999.2500  -999.2500
   27.5000    80.0293  -999.2500  -999.2500
   28.0000    78.8055  -999.2500  -999.2500
   28.5000    77.5818  -999.2500  -999.2500
   29.0000    78.7934  -999.2500  -999.2500
   29.5000    80.3094  -999.2500  -999.2500
   30.0000    79.9989  -999.2500  -999.2500
   30.5000    77.2531  -999.2500  -999.2500
   31.0000    77.2470  -999.2500  -999.2500
   31.5000    78.7630  -999.2500  -999.2500
   32.0000    82.7143  -999.2500  -999.2500
   32.5000    86.9700  -999.2500  -999.2500
   33.0000    87.5743  -999.2500  -999.2500
   33.5000    86.0447  -999.2500  -999.2500
   34.0000    84.2121  -999.2500  -999.2500
   34.5000    83.2928  -999.2500  -999.2500
   35.0000    84.5059  -999.2500  -999.2500
   35.5000    85.1086  -999.2500  -999.2500
   36.0000    83.2746  -999.2500  -999.2500
   36.5000    79.3111  -999.2500  -999.2500
   37.0000    78.6962  -999.2500  -999.2500
   37.5000    79.6034  -999.2500  -999.2500
   38.0000    85.0768  -999.2500  -999.2500
   38.5000    89.3325  -999.2500  -999.2500
   39.0000    92.3705  -999.2500  -999.2500
   39.5000    88.4071  -999.2500  -999.2500
   40.0000    81.0951  -999.2500  -999.2500
   40.5000    80.4802  -999.2500  -999.2500
   41.0000    80.4741  -999.2500  -999.2500
   41.5000    80.7724  -999.2500  -999.2500
   42.0000    81.9840  -999.2500  -999.2500
   42.5000    83.5000  -999.2500  -999.2500
   43.0000    88.0602  -999.2500  -999.2500
   43.5000    92.9247  -999.2500  -999.2500
   44.0000    97.7893  -999.2500  -999.2500
   44.5000   102.6538  -999.2500  -999.2500
   45.0000   105.0831  -999.2500  -999.2500
   45.5000   105.3829  -999.2500  -999.2500
   46.0000   110.5504  -999.2500  -999.2500
   46.5000   116.0237  -999.2500  -999.2500
   47.0000   118.7589  -999.2500  -999.2500
   47.5000   117.2293     4.6582     3.3016
   48.0000   115.7011     4.9270     3.6680
   48.5000   115.6950     4.9261     3.9901
   49.0000   116.9066     4.8910     4.1613
   49.5000   118.4226     4.7883     4.2793
   50.0000   119.9386     4.9241     4.4006
   50.5000   119.9325     5.1353     4.5894
   51.0000   118.4044     5.3557     4.8541
   51.5000   117.4851     5.5077     5.0980
   52.0000   115.9569     5.7439     5.1696
   52.5000   113.5156     5.9067     5.2053
   53.0000   112.2918     5.9478     5.3527
   53.5000   112.5917     5.9051     5.5433
   54.0000   108.6267     5.8629     5.7005
   54.5000   105.5765     5.8211     5.7401
   55.0000   101.3086     5.7390     5.6989
   55.5000    98.8672     5.6980     5.5793
   56.0000   101.2965     5.6574     5.5007
   56.5000   104.3345     5.6566     5.5388
   57.0000   108.2859     5.6558     5.4224
   57.5000   111.0198     5.6550     5.3460
   58.0000   111.0134     5.6942     5.3831
   58.5000   110.7029     5.7740     5.5357
   59.0000   110.6969     5.8547     5.8138
   59.5000   110.6908     6.0207     6.1490
   60.0000   109.1627     6.2790     6.4128
   60.5000   107.9389     6.6411     6.6412
   61.0000   108.5419     6.8776     6.9261
   61.5000   109.7533     7.1727     7.0729
   62.0000   109.7472     7.4804     7.2223
   62.5000   108.5235     7.5852     7.1707
   63.0000   107.2997     7.6915     7.1198
   63.5000   106.3804     7.7449     7.2701
   64.0000   107.8964     7.8533     7.3720
   64.5000   110.0212     7.8520     7.4232
   65.0000   109.7108     7.8509     7.5269
   65.5000   107.5738     7.7948     7.5789
   66.0000   105.1324     7.7937     7.7392
   66.5000   106.0396     7.8478     7.7927
   67.0000   109.6946     7.8465     7.8468
   67.5000   113.6631     7.9009     7.8454
   68.0000   117.6053     7.8996     7.8443
   68.5000   116.9518     7.9544     7.8988
   69.0000   113.5769     8.0658     7.9533
   69.5000   109.3171     8.1216     8.0645
   70.0000   108.4324     8.1777     8.2931
   70.5000   112.7346     8.2342     8.6490
   71.0000   115.4480     8.2327     9.3426
   71.5000   116.9965     8.1739    10.5262
   72.0000   117.8449     8.1156    16.1559
   72.5000   114.9213     8.1144    41.7031
   73.0000   111.0969     8.1133   106.8945
   73.5000   108.3896     8.1121   205.4221
   74.0000   108.0794     8.1685   102.4535
   74.5000   109.7859     8.1670    50.7405
   75.0000   112.7346     8.1659    28.3173
   75.5000   113.5406     8.1647    17.1934
   76.0000   112.5073     8.1636    14.1212
   76.5000   111.0928     8.1625    12.7966
   77.0000   111.6944     8.1613    11.8432
   77.5000   112.9060     8.1602    10.9609
   78.0000   115.3352     8.1019     9.9328
   78.5000   118.9821     8.1008     8.5691
   79.0000   122.0202     8.0996     7.9866
   79.5000   122.6244     8.0985     7.9296
   80.0000   121.7036     8.0973     7.9847
   80.5000   117.7402     8.1533     8.0398
   81.0000   114.3855     8.2675     8.1525
   81.5000   112.8574     8.3249     8.2088
   82.0000   112.2425     8.5007     8.3235
   82.5000   112.8452     8.5598     8.3813
   83.0000   113.4480     8.7409     8.4984
   83.5000   114.3567     8.8630     8.6177
   84.0000   115.5667     8.9871     8.7997
   84.5000   116.7783     9.0495     8.8608
   85.0000   118.2943     9.1121     8.9220
   85.5000   119.8103     9.1105     8.9205
   86.0000   118.2822     9.1092     8.9192
   86.5000   115.5364     9.0441     8.8555
   87.0000   112.1817     9.0429     8.8543
   87.5000   110.6536     8.9783     8.7911
   88.0000   110.6475     8.9142     8.8518
   88.5000   111.8606     8.7886     9.1028
   89.0000   108.5045     8.7258     9.9021
   89.5000   104.8455     8.6029    10.9240
   90.0000   102.4041     8.5414    11.7174
   90.5000   103.3112     8.4211    12.3931
   91.0000   109.3934     8.3024    12.5671
   91.5000   115.7801     8.2431    11.5490
   92.0000   120.3402     8.1270    10.3925
   92.5000   119.1165     8.1258     9.0926
   93.0000   116.3707     8.1247     7.9553
   93.5000   114.2337     8.0667     7.6258
   94.0000   114.8365     8.0091     7.7872
   94.5000   115.4407     8.0080     8.7738
   95.0000   115.7391     8.0633     9.6115
   95.5000   115.4271     8.1190    10.8292
   96.0000   114.5077     8.2327    12.0310
   96.5000   114.5017     8.3480    12.8145
   97.0000   114.8000     8.4653    12.1979
   97.5000   114.7939     8.5835    11.0537
   98.0000   110.5261     8.7651    10.4481
   98.5000   106.5626     8.8257     9.2706
   99.0000   105.6433     9.0124     8.5799
   99.5000   110.5079     9.0112     8.5190
  100.0000   117.3706     9.0101     8.8262
  100.5000   119.0203     9.0095     8.8728
  101.0000   117.1862     9.0088     9.0101
  101.5000   111.3962     9.0081     9.0736
  102.0000   108.0415     9.0075     9.0736
  102.5000   106.2105     9.0069     9.0090
  103.0000   108.0293     9.0062     8.8222
  103.5000   110.4585     9.0056     8.6977
  104.0000   114.1054     9.0050     8.6382
  104.5000   114.7097     8.9413     8.6382
  105.0000   112.8755     8.8159     8.6991
  105.5000   112.5666     8.7536     8.7604
