~VERSION INFORMATION
 VERS.                2.0:   CWLS LOG ASCII STANDARD - VERSION 2.0
 WRAP.                 NO:   ONE LINE PER DEPTH STEP
~WELL INFORMATION
#MNEM.UNIT      DATA TYPE    INFORMATION
#----------   ------------   ------------------------------
 STRT.F          420.0000:   START DEPTH
 STOP.F         1937.0000:   STOP DEPTH
 STEP.F            0.5000:   STEP LENGTH
 NULL.          -999.2500:   NO VALUE
 COMP. LAWRENCE/ALLISON INC:   COMPANY
 WELL.      85 "X" #85-29:   WELL
 FLD .             TEAPOT:   FIELD
 LOC .      S29 T39N R78W:   LOCATION
 CNTY.            NATRONA:   COUNTY
 STAT.            WYOMING:   STATE
 CTRY. UNITED STATES OF AMERICA:   COUNTRY
 SRVC.            Unknown:   SERVICE COMPANY
 DATE.        28-SEP-1987:   LOGDATE
 API .       490251119100:   API NUMBER
~CURVE INFORMATION
#MNEM.UNIT       API CODE    CURVE DESCRIPTION
#----------   ------------   ------------------------------
 DEPT.F                  :   
 ROP .FT/HR  91 810 01 00:   RAT OF DRILLING PENETRATION
 TGAS.TC/CC  91 830 01 00:   TOTAL GAS UNIT
~PARAMETER INFORMATION
#MNEM.UNIT          VALUE    DESCRIPTION
#----------   ------------   ------------------------------
 DATE.        28-SEP-1987:   RUN DATE
 BLI .F              1937:   BOTTOM LOG INTERVAL
 TLI .F               420:   TOP LOG INTERVAL
 LUN .              T-146:   LOGGING UNIT NUMBER
 CLNT.            A2DTECH:   CLIENT CODE
 ORIG.           5" PRINT:   ORIGIN OF DATA
 UWI .       490251119100:   UNIQUE WELL ID
 DICO. A2D Technologies, Inc.:   DIGITIZING COMPANY
~OTHER INFORMATION
~A   DEPT        ROP       TGAS 
# ...
 1149.0000     0.1885     8.7238
 1149.5000     0.1888     8.7390
 1150.0000     0.1890     8.3532
 1150.5000     0.1893     8.3381
 1151.0000     0.1896     8.3231
 1151.5000     0.1899     8.3081
 1152.0000     0.1902     7.9133
 1152.5000     0.1905     7.8982
 1153.0000     0.1907     7.8832
 1153.5000     0.1910     7.8682
 1154.0000     0.1913     8.2329
 1154.5000     0.1916     8.2112
 1155.0000     0.1919     8.1894
 1155.5000     0.1922     8.1676
 1156.0000     0.1924     8.1458
 1156.5000     0.1927     8.1240
 1157.0000     0.1930     8.1023
 1157.5000     0.1933     8.0805
 1158.0000     0.1936     8.0587
 1158.5000     0.1939     8.0369
 1159.0000     0.1941     8.0152
 1159.5000     0.1939     7.9934
 1160.0000     0.1934     7.9716
 1160.5000     0.1929     7.9498
 1161.0000     0.1924     7.9280
 1161.5000     0.1919     7.9063
 1162.0000     0.1914     7.8845
 1162.5000     0.1909     7.8627
 1163.0000     0.1904     7.8409
 1163.5000     0.1899     7.8191
 1164.0000     0.1894     7.7974
 1164.5000     0.1889     7.7756
 1165.0000     0.1884     7.7538
 1165.5000     0.1879     7.7508
 1166.0000     0.1874     7.7661
 1166.5000     0.1869     7.7813
 1167.0000     0.1864     7.7965
 1167.5000     0.1859     7.8117
 1168.0000     0.1854     7.8270
 1168.5000     0.1849     7.8422
 1169.0000     0.1844     7.8574
 1169.5000     0.1839     7.8727
 1170.0000     0.1834     7.8879
 1170.5000     0.1829     7.9031
 1171.0000     0.1824     7.9183
 1171.5000     0.1819     7.9336
 1172.0000     0.1814     7.9488
 1172.5000     0.1809     7.9640
 1173.0000     0.1803     7.9792
 1173.5000     0.1805     7.9945
 1174.0000     0.1807     8.0097
 1174.5000     0.1809     8.0249
 1175.0000     0.1812     8.0402
 1175.5000     0.1814     8.0554
 1176.0000     0.1816     8.0706
 1176.5000     0.1818     8.0858
 1177.0000     0.1820     8.1011
 1177.5000     0.1822     8.1163
 1178.0000     0.1824     8.1315
 1178.5000     0.1826     8.1467
 1179.0000     0.1829     8.1620
 1179.5000     0.1831     8.1772
 1180.0000     0.1833     8.1924
 1180.5000     0.1835     8.2077
 1181.0000     0.1837     8.2229
 1181.5000     0.1839     8.2381
 1182.0000     0.1841     8.2481
 1182.5000     0.1843     8.2405
 1183.0000     0.1846     8.2329
 1183.5000     0.1848     8.2253
 1184.0000     0.1850     8.2177
 1184.5000     0.1852     8.2101
 1185.0000     0.1854     8.2025
 1185.5000     0.1856     8.1949
 1186.0000     0.1858     8.1873
 1186.5000     0.1861     8.1797
 1187.0000     0.1863     8.1722
 1187.5000     0.1865     8.1646
 1188.0000     0.1867     8.1570
 1188.5000     0.1869     8.1494
 1189.0000     0.1871     8.1418
 1189.5000     0.1873     8.1342
 1190.0000     0.1875     8.1266
 1190.5000     0.1878     8.1190
 1191.0000     0.1880     8.1114
 1191.5000     0.1882     8.1038
 1192.0000     0.1884     8.0962
 1192.5000     0.1886     8.0886
 1193.0000     0.1888     8.0810
 1193.5000     0.1890     8.0734
 1194.0000     0.1892     8.0658
 1194.5000     0.1895     8.0582
 1195.0000     0.1897     8.0506
 1195.5000     0.1899     8.0430
 1196.0000     0.1901     8.0354
 1196.5000     0.1903     8.0278
 1197.0000     0.1891     8.0203
 1197.5000     0.1878     8.0127
 1198.0000     0.1864     8.0051
 1198.5000     0.1851     7.9975
 1199.0000     0.1837     7.9899
 1199.5000     0.1824     7.9823
 1200.0000     0.1810     7.9747
 1200.5000     0.1797     7.9671
 1201.0000     0.1814     7.9595
 1201.5000     0.1840     7.9610
 1202.0000     0.1866     7.9701
 1202.5000     0.1893     7.9792
 1203.0000     0.1919     7.9884
 1203.5000     0.1945     7.9975
 1204.0000     0.1971     8.0066
 1204.5000     0.1998     8.0158
 1205.0000     0.2024     8.0249
 1205.5000     0.2050     8.0340
 1206.0000     0.2077     8.0432
 1206.5000     0.2103     8.0523
 1207.0000     0.2129     8.0614
 1207.5000     0.2155     8.0706
 1208.0000     0.2182     8.0797
 1208.5000     0.2208     8.0888
 1209.0000     0.2232     8.0980
 1209.5000     0.2231     8.1071
 1210.0000     0.2230     8.1163
 1210.5000     0.2229     8.1254
 1211.0000     0.2229     8.1345
 1211.5000     0.2228     8.1437
 1212.0000     0.2227     8.1528
 1212.5000     0.2227     8.1619
 1213.0000     0.2226     8.1711
 1213.5000     0.2225     8.1832
 1214.0000     0.2225     8.2024
 1214.5000     0.2224     8.2216
 1215.0000     0.2223     8.2408
 1215.5000     0.2222     8.2600
 1216.0000     0.2222     8.2792
 1216.5000     0.2221     8.2984
 1217.0000     0.2220     8.3176
 1217.5000     0.2220     8.3368
 1218.0000     0.2219     8.3560
 1218.5000     0.2218     8.3752
 1219.0000     0.2218     8.3945
 1219.5000     0.2413     8.4137
 1220.0000     0.2043     8.4329
 1220.5000     0.1955     8.4521
 1221.0000     0.2060     8.4713
 1221.5000     0.2068     8.4905
 1222.0000     0.1980     8.5097
 1222.5000     0.2084     8.5289
 1223.0000     0.2093     8.5481
 1223.5000     0.2101     8.5673
 1224.0000     0.2110     8.5865
 1224.5000     0.2118     8.6057
 1225.0000     0.2127     8.6249
 1225.5000     0.2135     8.6441
 1226.0000     0.2144     8.6633
 1226.5000     0.2152     8.6826
 1227.0000     0.2161     8.7018
 1227.5000     0.2169     8.7210
 1228.0000     0.2178     8.7402
 1228.5000     0.2186     8.7594
 1229.0000     0.2195     8.7786
 1229.5000     0.2203     8.7978
 1230.0000     0.2212     8.8334
 1230.5000     0.2220     8.8803
 1231.0000     0.2229     8.9273
 1231.5000     0.2237     8.9742
 1232.0000     0.2246     9.0211
 1232.5000     0.2254     9.0680
 1233.0000     0.2263     9.1150
 1233.5000     0.2271     9.1619
 1234.0000     0.2280     9.2088
 1234.5000     0.2288     9.2557
 1235.0000     0.2297     9.3027
 1235.5000     0.2305     9.3496
 1236.0000     0.2314     9.3965
 1236.5000     0.2322     9.4434
 1237.0000     0.2331     9.4904
 1237.5000     0.2339     9.5373
 1238.0000     0.2348     9.5842
 1238.5000     0.2356     9.6312
 1239.0000     0.2365     9.6781
 1239.5000     0.2373     9.7139
 1240.0000     0.1816     9.7230
 1240.5000     0.1068     7.0704
 1241.0000     0.1076     7.4595
 1241.5000     0.1085     7.0854
 1242.0000     0.1221     7.4745
 1242.5000     0.1385     7.4820
 1243.0000     0.1394     7.4895
 1243.5000     0.1213     7.1153
 1244.0000     0.1218     7.5044
 1244.5000     0.1223     7.4985
 1245.0000     0.1228     7.4755
 1245.5000     0.1232     7.4525
 1246.0000     0.1237     7.4295
 1246.5000     0.1242     7.4064
 1247.0000     0.1246     7.3834
 1247.5000     0.1251     7.3604
 1248.0000     0.1256     7.3374
 1248.5000     0.1260     7.3144
 1249.0000     0.1265     7.2914
 1249.5000     0.1270     7.2684
 1250.0000     0.1274     7.2454
 1250.5000     0.1279     7.2224
 1251.0000     0.1284     7.1993
 1251.5000     0.1288     7.1763
 1252.0000     0.1293     7.1533
 1252.5000     0.1298     7.1303
 1253.0000     0.1302     7.1073
 1253.5000     0.1307     7.0843
 1254.0000     0.1312     7.0613
 1254.5000     0.1316     7.0383
 1255.0000     0.1321     7.0153
 1255.5000     0.1325     6.9922
 1256.0000     0.1329     6.9692
 1256.5000     0.1279     6.9462
 1257.0000     0.1236     6.9509
 1257.5000     0.1194     6.9736
 1258.0000     0.1151     6.9962
 1258.5000     0.1109     7.0189
 1259.0000     0.1066     7.0415
 1259.5000     0.1436     7.0642
 1260.0000     0.1626     7.0869
 1260.5000     0.1721     7.1095
 1261.0000     0.1911     7.1322
 1261.5000     0.1912     7.1548
 1262.0000     0.2008     7.1775
 1262.5000     0.2009     7.2001
 1263.0000     0.2010     7.2228
 1263.5000     0.2010     7.2455
 1264.0000     0.2011     7.2681
 1264.5000     0.2107     7.2908
 1265.0000     0.2108     7.3134
 1265.5000     0.2109     7.3361
 1266.0000     0.2110     7.3452
 1266.5000     0.2111     7.3079
 1267.0000     0.2112     7.2707
 1267.5000     0.2118     7.2334
 1268.0000     0.2124     7.1962
 1268.5000     0.2130     7.1590
 1269.0000     0.2136     7.1217
 1269.5000     0.2142     7.0845
 1270.0000     0.2148     7.0472
