~VERSION INFORMATION
 VERS.                2.0:   CWLS LOG ASCII STANDARD - VERSION 2.0
 WRAP.                 NO:   ONE LINE PER DEPTH STEP
~WELL INFORMATION
#MNEM.UNIT      DATA TYPE    INFORMATION
#----------   ------------   ------------------------------
 STRT.F          110.5000:   START DEPTH
 STOP.F         1944.0000:   STOP DEPTH
 STEP.F            0.5000:   STEP LENGTH
 NULL.          -999.2500:   NO VALUE
 COMP.    FENIX & SCISSON:   COMPANY
 WELL.   NPR 3 SHX #34-10:   WELL
 FLD .             TEAPOT:   FIELD
 LOC .      S10 T38N R78W:   LOCATION
 CNTY.            NATRONA:   COUNTY
 STAT.            WYOMING:   STATE
 CTRY. UNITED STATES OF AMERICA:   COUNTRY
 SRVC.            Unknown:   SERVICE COMPANY
 DATE.        14-APR-1978:   LOGDATE
 API .       490251061800:   API NUMBER
~CURVE INFORMATION
#MNEM.UNIT       API CODE    CURVE DESCRIPTION
#----------   ------------   ------------------------------
 DEPT.F                  :   
 ILD .OHMM   05 120 46 00:   INDUCTION LOG DEEP
 CILD.MMHO   05 110 00 00:   CONDUCTIVITY INDUCTION LOG
 NPHI.DEC    42 890 01 00:   NEUTRON POROSITY LIMESTONE
 GRD .GAPI   45 310 01 00:   GAMMA RAY FROM DENSITY LOG
~PARAMETER INFORMATION
#MNEM.UNIT          VALUE    DESCRIPTION
#----------   ------------   ------------------------------
 PD  .                 GL:   PERMANENT DATUM
 EPD .F              5244:   ELEVATION PERMANENT DATUM
 LMF .                 KB:   LOG MEASURED FROM
 DMF .                 KB:   DRILLING MEASURED FROM
 EKB .F              5252:   KELLING BUSHING
 EGL .F              5244:   GROUND LEVEL
 DATE.          4-14-1978:   RUN DATE
 RUN .                  1:   RUN NUMBER
 DD  .F              1953:   DEPTH DRILLER
 DL  .F              1950:   DEPTH LOGGER
 BLI .F              1944:   BOTTOM LOG INTERVAL
 TLI .F               715:   TOP LOG INTERVAL
 CS  .IN            9.625:   CASING SIZE
 CBD .F               708:   CASING BOTTOM DRILLER
 CBL .F               712:   CASING BOTTOM LOGGER
 BS  .IN             8.75:   BIT SIZE
 BSD .F              1953:   BIT SIZE AT DEPTH
 DFT .                OIL:   DRILLING FLUID TYPE
 TCS .HRS               5:   TIME CURCULATED STOPPED
 LUN .               2958:   LOGGING UNIT NUMBER
 LUL .               CASP:   LOGGING UNIT LOCATION
 ENGI.             MILLER:   RECORDING ENGINEER
 CLNT.            A2DTECH:   CLIENT CODE
 ORIG.           5" PRINT:   ORIGIN OF DATA
 UWI .       490251061800:   UNIQUE WELL ID
 DICO. A2D Technologies, Inc.:   DIGITIZING COMPANY
~OTHER INFORMATION
~A   DEPT      ILD       CILD       NPHI        GRD   
# ...
 1789.5000     8.4371   123.8806  -999.2500  -999.2500
 1790.0000     8.4591   123.8806  -999.2500  -999.2500
 1790.5000     8.4811   123.8806  -999.2500  -999.2500
 1791.0000     8.5068   123.8806  -999.2500  -999.2500
 1791.5000     8.5360   123.8806  -999.2500  -999.2500
 1792.0000     8.5652   123.8806  -999.2500  -999.2500
 1792.5000     8.5943   123.8806  -999.2500  -999.2500
 1793.0000     8.6234   123.8806  -999.2500  -999.2500
 1793.5000     8.6500   123.8806  -999.2500  -999.2500
 1794.0000     8.6789   123.8806  -999.2500  -999.2500
 1794.5000     8.7114   123.8806  -999.2500  -999.2500
 1795.0000     8.7443   123.8884  -999.2500  -999.2500
 1795.5000     8.7778   123.9149  -999.2500  -999.2500
 1796.0000     8.8006   123.9414  -999.2500  -999.2500
 1796.5000     8.7450   123.9679  -999.2500  -999.2500
 1797.0000     8.7065   123.9944  -999.2500  -999.2500
 1797.5000     8.6695   124.0209  -999.2500  -999.2500
 1798.0000     8.6325   124.0473  -999.2500  -999.2500
 1798.5000     8.5955   124.0738  -999.2500  -999.2500
 1799.0000     8.5584   124.1003  -999.2500  -999.2500
 1799.5000     8.5213   124.1268  -999.2500  -999.2500
 1800.0000     8.4842   124.1533  -999.2500  -999.2500
 1800.5000     8.4506   124.1798  -999.2500  -999.2500
 1801.0000     8.4543   124.2063  -999.2500  -999.2500
 1801.5000     8.4575   124.2328  -999.2500  -999.2500
 1802.0000     8.4607   124.2593  -999.2500  -999.2500
 1802.5000     8.4638   124.2858  -999.2500  -999.2500
 1803.0000     8.4669   124.3123  -999.2500  -999.2500
 1803.5000     8.4700   124.3388  -999.2500  -999.2500
 1804.0000     8.4732   124.3653  -999.2500  -999.2500
 1804.5000     8.4763   124.3918  -999.2500  -999.2500
 1805.0000     8.4794   124.4183  -999.2500  -999.2500
 1805.5000     8.4825   124.4447  -999.2500  -999.2500
 1806.0000     8.4858   124.4712  -999.2500  -999.2500
 1806.5000     8.4890   124.4977  -999.2500  -999.2500
 1807.0000     8.4847   124.5242  -999.2500  -999.2500
 1807.5000     8.4277   124.5507  -999.2500  -999.2500
 1808.0000     8.3704   124.5772  -999.2500  -999.2500
 1808.5000     8.3133   124.6037  -999.2500  -999.2500
 1809.0000     8.2561   124.6302  -999.2500  -999.2500
 1809.5000     8.1988   124.6567  -999.2500  -999.2500
 1810.0000     8.1406   124.6832  -999.2500  -999.2500
 1810.5000     8.1521   124.7097  -999.2500  -999.2500
 1811.0000     8.1768   124.7362  -999.2500  -999.2500
 1811.5000     8.2017   124.7627  -999.2500  -999.2500
 1812.0000     8.2265   124.7891  -999.2500  -999.2500
 1812.5000     8.2513   124.8157  -999.2500  -999.2500
 1813.0000     8.2760   124.8421  -999.2500  -999.2500
 1813.5000     8.3008   124.8686  -999.2500  -999.2500
 1814.0000     8.3264   124.9366  -999.2500  -999.2500
 1814.5000     8.3296   125.0195  -999.2500  -999.2500
 1815.0000     8.3269   125.1024  -999.2500  -999.2500
 1815.5000     8.3241   125.1852  -999.2500  -999.2500
 1816.0000     8.3214   125.2681  -999.2500  -999.2500
 1816.5000     8.3186   125.3510  -999.2500  -999.2500
 1817.0000     8.3159   125.4338  -999.2500  -999.2500
 1817.5000     8.3132   125.5167  -999.2500  -999.2500
 1818.0000     8.3104   125.5995  -999.2500  -999.2500
 1818.5000     8.3077   125.6824  -999.2500  -999.2500
 1819.0000     8.3049   125.7653  -999.2500  -999.2500
 1819.5000     8.3022   125.8481  -999.2500  -999.2500
 1820.0000     8.2994   125.6077  -999.2500  -999.2500
 1820.5000     8.2965   125.2466  -999.2500  -999.2500
 1821.0000     8.2938   124.8856  -999.2500  -999.2500
 1821.5000     8.3038   124.5245  -999.2500  -999.2500
 1822.0000     8.3774   124.1635  -999.2500  -999.2500
 1822.5000     8.4501   123.8024  -999.2500  -999.2500
 1823.0000     8.5226   123.4414  -999.2500  -999.2500
 1823.5000     8.5951   123.0803  -999.2500  -999.2500
 1824.0000     8.6676   122.7193  -999.2500  -999.2500
 1824.5000     8.7402   122.3587  -999.2500  -999.2500
 1825.0000     8.8133   121.9920  -999.2500  -999.2500
 1825.5000     8.8875   122.1174  -999.2500  -999.2500
 1826.0000     8.8858   122.4377  -999.2500  -999.2500
 1826.5000     8.8789   122.7586  -999.2500  -999.2500
 1827.0000     8.8723   123.0795  -999.2500  -999.2500
 1827.5000     8.8659   123.4005  -999.2500  -999.2500
 1828.0000     8.8594   123.7214  -999.2500  -999.2500
 1828.5000     8.8530   124.0423  -999.2500  -999.2500
 1829.0000     8.8465   124.3633  -999.2500  -999.2500
 1829.5000     8.8401   124.6842  -999.2500  -999.2500
 1830.0000     8.8336   125.0051  -999.2500  -999.2500
 1830.5000     8.8273   125.3261  -999.2500  -999.2500
 1831.0000     8.8208   125.6479  -999.2500  -999.2500
 1831.5000     8.8145   126.1502  -999.2500  -999.2500
 1832.0000     8.7566   127.0904  -999.2500  -999.2500
 1832.5000     8.6507   128.0265  -999.2500  -999.2500
 1833.0000     8.5447   128.9626  -999.2500  -999.2500
 1833.5000     8.4381   129.8987  -999.2500  -999.2500
 1834.0000     8.3349   130.8458  -999.2500  -999.2500
 1834.5000     8.3361   130.6458  -999.2500  -999.2500
 1835.0000     8.3432   130.3930  -999.2500  -999.2500
 1835.5000     8.3499   130.1403  -999.2500  -999.2500
 1836.0000     8.3569   129.8876  -999.2500  -999.2500
 1836.5000     8.3633   130.9303  -999.2500  -999.2500
 1837.0000     8.3658   132.1764  -999.2500  -999.2500
 1837.5000     8.1566   133.4409  -999.2500  -999.2500
 1838.0000     7.7182   141.8819  -999.2500  -999.2500
 1838.5000     7.2820   153.3625  -999.2500  -999.2500
 1839.0000     6.8441   164.8199  -999.2500  -999.2500
 1839.5000     6.4108   167.5306  -999.2500  -999.2500
 1840.0000     6.1301   167.3723  -999.2500  -999.2500
 1840.5000     6.1342   167.1869  -999.2500  -999.2500
 1841.0000     6.1336   167.0174  -999.2500  -999.2500
 1841.5000     6.1310   166.8334  -999.2500  -999.2500
 1842.0000     6.2456   166.6667  -999.2500  -999.2500
 1842.5000     6.4973   156.1194  -999.2500  -999.2500
 1843.0000     7.0595   146.0099  -999.2500  -999.2500
 1843.5000     7.6066   135.9005  -999.2500  -999.2500
 1844.0000     8.1543   125.7910  -999.2500  -999.2500
 1844.5000     8.7017   118.9055  -999.2500  -999.2500
 1845.0000     9.2255   118.9055  -999.2500  -999.2500
 1845.5000     9.2105   118.9055  -999.2500  -999.2500
 1846.0000     9.1542   120.0159  -999.2500  -999.2500
 1846.5000     9.0965   123.5451  -999.2500  -999.2500
 1847.0000     8.9624   127.8777  -999.2500  -999.2500
 1847.5000     8.4702   132.2104  -999.2500  -999.2500
 1848.0000     7.9872   136.5430  -999.2500  -999.2500
 1848.5000     7.7225   139.6219  -999.2500  -999.2500
 1849.0000     7.5678   138.8998  -999.2500  -999.2500
 1849.5000     7.4494   138.1830  -999.2500  -999.2500
 1850.0000     7.4721   137.4627  -999.2500  -999.2500
 1850.5000     7.4945   136.4994  -999.2500  -999.2500
 1851.0000     7.5185   133.6871  -999.2500  -999.2500
 1851.5000     7.6262   130.2249  -999.2500  -999.2500
 1852.0000     7.9109   125.5071  -999.2500  -999.2500
 1852.5000     8.1928   120.7894  -999.2500  -999.2500
 1853.0000     8.4749   116.7284  -999.2500  -999.2500
 1853.5000     8.7569   113.6955  -999.2500  -999.2500
 1854.0000     9.0393   110.6582  -999.2500  -999.2500
 1854.5000     9.3201   107.6183  -999.2500  -999.2500
 1855.0000     9.5370   105.9704  -999.2500  -999.2500
 1855.5000     9.5736   105.9702  -999.2500  -999.2500
 1856.0000     9.6141   105.9702  -999.2500  -999.2500
 1856.5000     9.6547   105.9702  -999.2500  -999.2500
 1857.0000     9.6953   105.9702  -999.2500  -999.2500
 1857.5000     9.7358   105.9702  -999.2500  -999.2500
 1858.0000     9.7762   105.9702  -999.2500  -999.2500
 1858.5000     9.8168   105.3800  -999.2500  -999.2500
 1859.0000     9.8773   101.8940  -999.2500  -999.2500
 1859.5000    10.0381    98.4080  -999.2500  -999.2500
 1860.0000    10.2598    94.9219  -999.2500  -999.2500
 1860.5000    10.5767    91.4359  -999.2500  -999.2500
 1861.0000    10.8955    87.9499  -999.2500  -999.2500
 1861.5000    11.3124    86.0696  -999.2500  -999.2500
 1862.0000    12.1164    86.0696  -999.2500  -999.2500
