~VERSION INFORMATION
 VERS.                2.0:   CWLS LOG ASCII STANDARD - VERSION 2.0
 WRAP.                 NO:   ONE LINE PER DEPTH STEP
~WELL INFORMATION
#MNEM.UNIT      DATA TYPE    INFORMATION
#----------   ------------   ------------------------------
 STRT.F         1005.5000:   START DEPTH
 STOP.F         2315.0000:   STOP DEPTH
 STEP.F            0.5000:   STEP LENGTH
 NULL.          -999.2500:   NO VALUE
 COMP. LAWRENCE/ALLISON INC:   COMPANY
 WELL.  32 SHX 15 #32 -15:   WELL
 FLD .             TEAPOT:   FIELD
 LOC .      S15 T38N R78W:   LOCATION
 CNTY.            NATRONA:   COUNTY
 STAT.            WYOMING:   STATE
 CTRY. UNITED STATES OF AMERICA:   COUNTRY
 SRVC.            Unknown:   SERVICE COMPANY
 DATE.        10-SEP-1988:   LOGDATE
 API .       490251124500:   API NUMBER
~CURVE INFORMATION
#MNEM.UNIT       API CODE    CURVE DESCRIPTION
#----------   ------------   ------------------------------
 DEPT.F                  :   
 ROP .MIN/FT 91 810 01 00:   RATE OF DRILLING PENETRATION
 TGAS.UNITS  91 830 01 00:   TOTAL GAS FROM HOTWIRE
~PARAMETER INFORMATION
#MNEM.UNIT          VALUE    DESCRIPTION
#----------   ------------   ------------------------------
 EKB .F              5259:   KELLING BUSHING
 EGL .F              5249:   GROUND LEVEL
 DATE.        10-SEP-1988:   RUN DATE
 RUN .                  1:   RUN NUMBER
 DD  .F              2316:   DEPTH DRILLER
 TLI .F              1005:   TOP LOG INTERVAL
 CS  .IN                7:   CASING SIZE
 CBD .F               991:   CASING BOTTOM DRILLER
 ENGI. R. HUSK/D. PETERSON:   RECORDING ENGINEER
 CLNT.            A2DTECH:   CLIENT CODE
 ORIG.           5" PRINT:   ORIGIN OF DATA
 UWI .       490251124500:   UNIQUE WELL ID
 DICO. A2D Technologies, Inc.:   DIGITIZING COMPANY
~OTHER INFORMATION
~A  DEPT         ROP       TGAS 
# ...
 1734.5000     0.4540     7.3631
 1735.0000     0.4546     7.3716
 1735.5000     0.4235     7.3800
 1736.0000     0.4240     7.3885
 1736.5000     0.4137     7.3969
 1737.0000     0.4145     7.4054
 1737.5000     0.4042     7.4138
 1738.0000     0.3837     7.4223
 1738.5000     0.3843     7.4307
 1739.0000     0.3849     7.4392
 1739.5000     0.3854     7.4476
 1740.0000     0.3859     7.4561
 1740.5000     0.3864     7.4645
 1741.0000     0.3762     7.4730
 1741.5000     0.3769     7.4814
 1742.0000     0.3775     7.4899
 1742.5000     0.3780     7.4984
 1743.0000     0.3785     7.5068
 1743.5000     0.3896     7.5153
 1744.0000     0.4218     7.5237
 1744.5000     0.4435     7.5322
 1745.0000     0.4758     7.5406
 1745.5000     0.5080     7.5491
 1746.0000     0.5086     7.5575
 1746.5000     0.5091     7.5660
 1747.0000     0.5096     7.5744
 1747.5000     0.5101     7.5829
 1748.0000     0.5106     7.5913
 1748.5000     0.5006     7.5998
 1749.0000     0.4798     7.6082
 1749.5000     0.4805     7.6167
 1750.0000     0.4705     7.6251
 1750.5000     0.4710     7.6336
 1751.0000     0.4715     7.6420
 1751.5000     0.4720     7.6505
 1752.0000     0.4726     7.6590
 1752.5000     0.4626     7.6674
 1753.0000     0.4631     7.6759
 1753.5000     0.4742     7.6843
 1754.0000     0.4640     7.6928
 1754.5000     0.4752     7.7012
 1755.0000     0.4757     7.7097
 1755.5000     0.4762     7.7181
 1756.0000     0.4663     7.7266
 1756.5000     0.4350     7.7350
 1757.0000     0.4145     7.7435
 1757.5000     0.3937     7.7519
 1758.0000     0.3627     7.7604
 1758.5000     0.3632     7.7688
 1759.0000     0.3637     7.7773
 1759.5000     0.3642     7.7857
 1760.0000     0.3648     7.7942
 1760.5000     0.3758     7.8027
 1761.0000     0.3975     7.8111
 1761.5000     0.3981     7.8196
 1762.0000     0.4092     7.8280
 1762.5000     0.4414     7.8365
 1763.0000     0.4419     7.8449
 1763.5000     0.4636     7.8534
 1764.0000     0.4747     7.8618
 1764.5000     0.4858     7.8703
 1765.0000     0.4545     7.8787
 1765.5000     0.4444     7.8872
 1766.0000     0.4451     7.8956
 1766.5000     0.4138     7.9041
 1767.0000     0.4038     7.9125
 1767.5000     0.3938     7.9210
 1768.0000     0.3731     7.9294
 1768.5000     0.3631     7.9379
 1769.0000     0.3637     7.9463
 1769.5000     0.3324     7.9548
 1770.0000     0.3331     7.9633
 1770.5000     0.3336     7.9717
 1771.0000     0.3341     7.9802
 1771.5000     0.3452     7.9886
 1772.0000     0.3669     7.9971
 1772.5000     0.3991     8.0055
 1773.0000     0.4208     8.0140
 1773.5000     0.4530     8.0224
 1774.0000     0.4959     8.0309
 1774.5000     0.5070     8.0393
 1775.0000     0.4651     8.0478
 1775.5000     0.4234     8.0562
 1776.0000     0.4028     8.0647
 1776.5000     0.3715     8.0731
 1777.0000     0.3404     8.0816
 1777.5000     0.3303     8.0900
 1778.0000     0.3309     8.0985
 1778.5000     0.3315     8.1069
 1779.0000     0.3637     8.1154
 1779.5000     0.3854     8.1239
 1780.0000     0.4176     8.1323
 1780.5000     0.4303     8.1408
 1781.0000     0.4610     8.1492
 1781.5000     0.4615     8.1577
 1782.0000     0.4620     8.1661
 1782.5000     0.4626     8.1746
 1783.0000     0.4523     8.1830
 1783.5000     0.4317     8.1915
 1784.0000     0.4112     8.1999
 1784.5000     0.3906     8.2084
 1785.0000     0.3805     8.2168
 1785.5000     0.3706     8.2253
 1786.0000     0.3605     8.2337
 1786.5000     0.3503     8.2422
 1787.0000     0.3616     8.2506
 1787.5000     0.3516     8.2591
 1788.0000     0.3521     8.2676
 1788.5000     0.3526     8.2760
 1789.0000     0.3532     8.2845
 1789.5000     0.3429     8.2929
 1790.0000     0.3436     8.3014
 1790.5000     0.3442     8.3098
 1791.0000     0.3553     8.3183
 1791.5000     0.3875     8.3267
 1792.0000     0.3986     8.3352
 1792.5000     0.4097     8.3436
 1793.0000     0.4208     8.3521
 1793.5000     0.4213     8.3605
 1794.0000     0.4006     8.3690
 1794.5000     0.4012     8.3774
 1795.0000     0.4018     8.3859
 1795.5000     0.3916     8.3943
 1796.0000     0.3817     8.4028
 1796.5000     0.3504     8.4112
 1797.0000     0.3192     8.4197
 1797.5000     0.2987     8.4282
 1798.0000     0.2779     8.4366
 1798.5000     0.2892     8.4451
 1799.0000     0.3214     8.4535
 1799.5000     0.3642     8.4620
 1800.0000     0.4282     8.4697
 1800.5000     0.4710     8.4678
 1801.0000     0.4926     8.4659
 1801.5000     0.5249     8.4641
 1802.0000     0.5360     8.4623
 1802.5000     0.5447     8.4604
 1803.0000     0.5447     8.4586
 1803.5000     0.5342     8.4567
 1804.0000     0.5131     8.4549
 1804.5000     0.5026     8.4531
 1805.0000     0.4921     8.4512
 1805.5000     0.4710     8.4494
 1806.0000     0.4605     8.4476
 1806.5000     0.4605     8.4457
 1807.0000     0.4500     8.4439
 1807.5000     0.4501     8.4421
 1808.0000     0.4501     8.4402
 1808.5000     0.4607     8.4384
 1809.0000     0.4608     8.4366
 1809.5000     0.4608     8.4347
 1810.0000     0.4609     8.4329
 1810.5000     0.4609     8.4311
 1811.0000     0.4610     8.4292
 1811.5000     0.4293     8.4274
 1812.0000     0.4188     8.4256
 1812.5000     0.3872     8.4237
 1813.0000     0.3766     8.4219
 1813.5000     0.3645     8.4201
 1814.0000     0.3345     8.4182
 1814.5000     0.3345     8.4164
 1815.0000     0.3029     8.4145
 1815.5000     0.2923     8.4127
 1816.0000     0.2924     8.4109
 1816.5000     0.2924     8.4090
 1817.0000     0.2925     8.4072
 1817.5000     0.2926     8.4054
 1818.0000     0.2926     8.4035
 1818.5000     0.3032     8.4017
 1819.0000     0.3244     8.3999
 1819.5000     0.3456     8.3980
 1820.0000     0.3668     8.3962
 1820.5000     0.3774     8.3944
 1821.0000     0.4092     8.3925
 1821.5000     0.4304     8.3907
 1822.0000     0.4622     8.3889
 1822.5000     0.4728     8.3870
 1823.0000     0.4940     8.3852
 1823.5000     0.5046     8.3834
 1824.0000     0.4941     8.3815
 1824.5000     0.4730     8.3797
 1825.0000     0.4731     8.3779
 1825.5000     0.4731     8.3760
 1826.0000     0.4732     8.3742
 1826.5000     0.4732     8.3723
 1827.0000     0.4627     8.3705
 1827.5000     0.4522     8.3687
 1828.0000     0.4311     8.3668
 1828.5000     0.4206     8.3650
 1829.0000     0.3889     8.3632
 1829.5000     0.3784     8.3613
 1830.0000     0.3784     8.3595
 1830.5000     0.3679     8.3577
 1831.0000     0.3468     8.3558
 1831.5000     0.3469     8.3540
 1832.0000     0.3469     8.3522
 1832.5000     0.3470     8.3503
 1833.0000     0.3576     8.3485
 1833.5000     0.3788     8.3467
 1834.0000     0.3894     8.3448
 1834.5000     0.4212     8.3430
 1835.0000     0.4318     8.3412
 1835.5000     0.4636     8.3393
 1836.0000     0.4742     8.3375
 1836.5000     0.4743     8.3357
 1837.0000     0.4743     8.3338
 1837.5000     0.4638     8.3320
 1838.0000     0.4639     8.3301
 1838.5000     0.4322     8.3283
 1839.0000     0.4217     8.3265
 1839.5000     0.3900     8.3246
 1840.0000     0.3795     8.3228
 1840.5000     0.3796     8.3210
 1841.0000     0.3690     8.3191
 1841.5000     0.3691     8.3173
 1842.0000     0.3797     8.3155
 1842.5000     0.3798     8.3136
 1843.0000     0.3798     8.3118
 1843.5000     0.3904     8.3100
 1844.0000     0.3905     8.3081
 1844.5000     0.3800     8.3063
 1845.0000     0.3800     8.3045
 1845.5000     0.3695     8.3026
 1846.0000     0.3484     8.3008
 1846.5000     0.3379     8.2990
 1847.0000     0.3380     8.2971
 1847.5000     0.3380     8.2953
 1848.0000     0.3698     8.2935
 1848.5000     0.3804     8.2916
 1849.0000     0.3910     8.2898
 1849.5000     0.4228     8.2879
 1850.0000     0.4334     8.2861
 1850.5000     0.4652     8.2843
 1851.0000     0.4758     8.2824
 1851.5000     0.4864     8.2806
 1852.0000     0.4970     8.2788
 1852.5000     0.5077     8.2769
 1853.0000     0.5077     8.2751
 1853.5000     0.5078     8.2733
 1854.0000     0.5078     8.2714
 1854.5000     0.5079     8.2696
 1855.0000     0.4974     8.2678
 1855.5000     0.4763     8.2659
