~VERSION INFORMATION
 VERS.                2.0:   CWLS LOG ASCII STANDARD - VERSION 2.0
 WRAP.                 NO:   ONE LINE PER DEPTH STEP
~WELL INFORMATION
#MNEM.UNIT      DATA TYPE    INFORMATION
#----------   ------------   ------------------------------
 STRT.F            0.0000:   START DEPTH
 STOP.F          384.0000:   STOP DEPTH
 STEP.F            0.5000:   STEP LENGTH
 NULL.          -999.2500:   NO VALUE
 COMP. DEPARTMENT OF ENERGY:   COMPANY
 WELL. NPR 3 #65-15 SX3 C4:   WELL
 FLD .        TEAPOT EAST:   FIELD
 LOC .       S3 T38N R78W:   LOCATION
 CNTY.            NATRONA:   COUNTY
 STAT.            WYOMING:   STATE
 CTRY. UNITED STATES OF AMERICA:   COUNTRY
 SRVC.      Dresser Atlas:   SERVICE COMPANY
 DATE.        02-JUL-1985:   LOGDATE
 API .       490251134600:   API NUMBER
~CURVE INFORMATION
#MNEM.UNIT       API CODE    CURVE DESCRIPTION
#----------   ------------   ------------------------------
 DEPT.F                  :   
 CALD.IN     45 280 60 00:   CALIPER FROM DENSITY LOG
 CORR.G/C3   45 356 01 00:   DENSITY CORRECTION
 DEN .G/C3   45 350 01 00:   COMPENSATED BULK DENSTIY
 NPOR.DEC    42 890 03 00:   NEUTRON POROSITY SANDSTONE
 PORD.DEC    45 890 12 00:   POROSITY DENSITY SANDSTONE
 GRR .GAPI   07 310 01 00:   GAMMA RAY
 RILD.OHMM   07 120 46 00:   INDUCTION LOG DEEP RESISTIVITY
 RILM.OHMM   07 120 44 00:   RESITIVITY LONG MEDIUM
~PARAMETER INFORMATION
#MNEM.UNIT          VALUE    DESCRIPTION
#----------   ------------   ------------------------------
 PD  .                 GL:   PERMANENT DATUM
 EPD .F              5162:   ELEVATION PERMANENT DATUM
 LMF .                 GL:   LOG MEASURED FROM
 DMF .                 GL:   DRILLING MEASURED FROM
 EGL .F              5162:   GROUND LEVEL
 DATE.        02-JUL-1985:   RUN DATE
 RUN .                  1:   RUN NUMBER
 DD  .F               399:   DEPTH DRILLER
 DL  .F               388:   DEPTH LOGGER
 BLI .F               380:   BOTTOM LOG INTERVAL
 CS  .IN                7:   CASING SIZE
 CBD .F                80:   CASING BOTTOM DRILLER
 CBL .F                68:   CASING BOTTOM LOGGER
 BS  .IN            4.875:   BIT SIZE
 BSD .F               399:   BIT SIZE AT DEPTH
 DFT .                OIL:   DRILLING FLUID TYPE
 TCS .HRS               4:   TIME CURCULATED STOPPED
 MRT .F               158:   MAXIMUM RECORDED TEMPERATURE
 LUN .               6274:   LOGGING UNIT NUMBER
 LUL .           GILLETTE:   LOGGING UNIT LOCATION
 ENGI.             RAUTIO:   RECORDING ENGINEER
 WITN.            SCHULTE:   WITNESSED BY
 CLNT.            A2DTECH:   CLIENT CODE
 ORIG.           5" PRINT:   ORIGIN OF DATA
 UWI .       490251134600:   UNIQUE WELL ID
 DICO. A2D Technologies, Inc.:   DIGITIZING COMPANY
~OTHER INFORMATION
~A    DEPT    CALD       CORR        DEN       NPOR       PORD         GRR      RILD       RILM   
# ...
  121.5000     6.6232     0.0578     2.4345     0.2555     0.1353   110.1748     7.2045     6.8300
  122.0000     6.6244     0.0534     2.4158     0.2528     0.1437   110.5000     7.3139     6.8822
  122.5000     6.6258     0.0556     2.4113     0.2546     0.1362   111.1237     7.4749     6.9832
  123.0000     6.6270     0.0711     2.4340     0.2588     0.1214   112.0505     7.6928     7.0366
  123.5000     6.6432     0.0881     2.4558     0.2609     0.1111   113.2803     7.8622     7.0904
  124.0000     6.6444     0.0987     2.4664     0.2597     0.1144   114.5101     7.8698     7.2445
  124.5000     6.6455     0.1063     2.4597     0.2561     0.1150   116.6490     7.8789     7.3000
  125.0000     6.6467     0.0953     2.4591     0.2534     0.1156   119.0909     7.8863     7.3560
  125.5000     6.6629     0.0823     2.4569     0.2503     0.1180   118.7374     7.9488     7.4650
  126.0000     6.6641     0.0749     2.4502     0.2491     0.1261   115.4943     8.0118     7.5745
  126.5000     6.6803     0.0795     2.4352     0.2561     0.1361   112.4817     8.0752     7.6324
  127.0000     6.6815     0.0840     2.4233     0.2582     0.1391   111.5859     8.1392     7.6908
  127.5000     6.6827     0.0856     2.4211     0.2524     0.1354   114.3353     8.2609     7.7496
  128.0000     6.6691     0.0811     2.4430     0.2485     0.1182   115.5650     8.3844     7.8089
  128.5000     6.6703     0.0752     2.4573     0.2455     0.1139   116.7949     8.5100     7.9278
  129.0000     6.6561     0.0722     2.4612     0.2473     0.1172   117.7216     8.6389     8.0971
  129.5000     6.6576     0.0693     2.4558     0.2506     0.1191   117.7394     8.7073     8.2731
  130.0000     6.6437     0.0603     2.4515     0.2509     0.1169   117.7172     8.7763     8.3945
  130.5000     6.6449     0.0649     2.4794     0.2497     0.1030   117.1686     8.7846     8.4573
  131.0000     6.6461     0.0890     2.4840     0.2479     0.1012   116.8833     8.7929     8.2898
  131.5000     6.6473     0.1131     2.4841     0.2464     0.0999   116.6023     8.8012     8.2378
  132.0000     6.6635     0.1357     2.4879     0.2455     0.0939   116.3126     8.6879     8.1298
  132.5000     6.6647     0.1147     2.5000     0.2461     0.0860   117.2438     8.5762     8.0231
  133.0000     6.6659     0.1073     2.5053     0.2479     0.0884   119.6857     8.4659     7.8642
  133.5000     6.6823     0.1058     2.4971     0.2528     0.0951   121.5434     8.3011     7.8695
  134.0000     6.6835     0.1014     2.4874     0.2565     0.1020   119.4180     8.1943     7.8190
  134.5000     6.6997     0.0939     2.4775     0.2587     0.1059   120.1818     8.1433     7.8256
  135.0000     6.6859     0.0760     2.4688     0.2575     0.1096   124.3063     8.0946     7.8308
  135.5000     6.6870     0.0550     2.4636     0.2554     0.1128   125.5317     8.1041     7.8361
  136.0000     6.6882     0.0490     2.4645     0.2539     0.1119   124.0342     8.1683     7.8414
  136.5000     6.6894     0.0581     2.4713     0.2563     0.1086   124.0563     8.1816     7.8468
  137.0000     6.6906     0.0792     2.4744     0.2590     0.1070   124.0740     8.2428     7.8532
  137.5000     6.6767     0.0883     2.4752     0.2593     0.1073   123.4856     8.3081     7.8585
  138.0000     6.6779     0.0793     2.4715     0.2578     0.1091   121.6851     8.2564     7.8638
  138.5000     6.6944     0.0734     2.4663     0.2572     0.1122   118.3152     8.2661     7.8691
  139.0000     6.6955     0.0779     2.4611     0.2551     0.1154   114.9495     8.2740     7.8186
  139.5000     6.7118     0.0825     2.4581     0.2512     0.1151   112.0456     8.2244     7.7709
  140.0000     6.7129     0.0841     2.4636     0.2509     0.1115   113.2754     8.2322     7.7189
  140.5000     6.7141     0.0796     2.4757     0.2524     0.1033   117.5355     8.1830     7.5695
  141.0000     6.7000     0.0902     2.4780     0.2548     0.1030   118.1592     8.1910     7.4701
  141.5000     6.7014     0.0918     2.4660     0.2570     0.1202   117.2678     8.1417     7.4234
  142.0000     6.6875     0.0858     2.4503     0.2584     0.1266   116.6344     8.0388     7.3770
  142.5000     6.6887     0.1009     2.4391     0.2590     0.1280   118.5153     7.9354     7.3296
  143.0000     6.6899     0.1160     2.4400     0.2599     0.1186   120.0727     7.8315     7.2848
  143.5000     6.6761     0.1266     2.4536     0.2602     0.1129   117.9490     7.7307     7.1893
  144.0000     6.6926     0.0876     2.4604     0.2587     0.1132   115.2394     7.5802     7.0898
  144.5000     6.6937     0.0471     2.4620     0.2544     0.1135   113.7420     7.4309     6.9533
  145.0000     6.6949     0.0561     2.4651     0.2520     0.1116   112.5475     7.2781     6.7684
  145.5000     6.6961     0.0772     2.4712     0.2534     0.1066   111.6561     7.0442     6.5418
  146.0000     6.6819     0.0986     2.4833     0.2593     0.0992   113.7950     6.8577     6.1924
  146.5000     6.6981     0.1134     2.4848     0.2602     0.1043   117.4490     6.6761     5.8210
  147.0000     6.6843     0.1255     2.4631     0.2581     0.1119   119.8910     6.5886     5.5101
  147.5000     6.7008     0.1406     2.4504     0.2541     0.1227   121.4545     6.4604     5.5542
  148.0000     6.6869     0.1361     2.4385     0.2547     0.1330   118.7186     6.3770     5.8389
  148.5000     6.6881     0.1227     2.4272     0.2562     0.1393   114.1908     6.2517     6.0440
  149.0000     6.6915     0.1122     2.4189     0.2572     0.1420   113.2950     6.2142     6.2185
  149.5000     6.7058     0.1048     2.4267     0.2574     0.1290   118.1656     6.3526     6.3980
  150.0000     6.7070     0.0943     2.4455     0.2568     0.1227   120.3045     6.5165     6.5826
  150.5000     6.6922     0.0805     2.4508     0.2565     0.1205   119.7160     6.8323     6.8218
  151.0000     6.6927     0.0614     2.4321     0.2580     0.1339   118.2267     7.1615     6.9642
  151.5000     6.6781     0.0449     2.4216     0.2595     0.1392   115.8232     7.4182     7.0651
  152.0000     6.6936     0.0509     2.4322     0.2613     0.1359   112.8136     7.5780     7.1668
  152.5000     6.6789     0.0660     2.4465     0.2634     0.1235   109.5010     7.6913     7.2197
  153.0000     6.6794     0.0796     2.4511     0.2655     0.1192   113.7642     7.7450     7.2227
  153.5000     6.6799     0.0922     2.4465     0.2670     0.1256   117.7243     7.6959     7.2256
  154.0000     6.6653     0.0977     2.4367     0.2682     0.1304   119.8909     7.6463     7.1281
  154.5000     6.6808     0.0827     2.4317     0.2685     0.1328   120.8495     7.5444     7.0327
  155.0000     6.6812     0.0722     2.4288     0.2688     0.1346   121.4280     7.4429     6.9391
  155.5000     6.6817     0.0617     2.4258     0.2688     0.1358   122.3579     7.2938     6.7988
  156.0000     6.6822     0.0543     2.4229     0.2676     0.1370   123.2877     7.1468     6.6613
  156.5000     6.6826     0.0513     2.4192     0.2591     0.1391   126.0305     6.9543     6.4759
  157.0000     6.6831     0.0513     2.4155     0.2615     0.1426   122.7231     6.7669     6.1343
  157.5000     6.6835     0.0544     2.4193     0.2687     0.1402   119.7135     6.4938     5.8455
  158.0000     6.6839     0.0559     2.4313     0.2696     0.1329   123.0676     6.1886     5.5318
  158.5000     6.6844     0.0560     2.4344     0.2675     0.1311   128.2398     5.8537     5.2349
  159.0000     6.6848     0.0500     2.4337     0.2620     0.1317   130.0788     5.2319     4.8857
  159.5000     6.6853     0.0441     2.4338     0.2578     0.1314   128.4232     4.8263     4.6881
  160.0000     6.6857     0.0381     2.4323     0.2593     0.1317   115.5799     4.8967     4.6571
  160.5000     6.7012     0.0411     2.4226     0.2744     0.1362   110.4491     5.0371     4.7908
  161.0000     6.7017     0.0697     2.3941     0.2810     0.1588   106.8335     5.2176     4.9967
  161.5000     6.7172     0.1089     2.3596     0.2834     0.1820   105.0308     5.5184     5.2478
