~VERSION INFORMATION
 VERS.                2.0:   CWLS LOG ASCII STANDARD - VERSION 2.0
 WRAP.                 NO:   ONE LINE PER DEPTH STEP
~WELL INFORMATION
#MNEM.UNIT      DATA TYPE    INFORMATION
#----------   ------------   ------------------------------
 STRT.F            7.0000:   START DEPTH
 STOP.F          690.0000:   STOP DEPTH
 STEP.F            0.5000:   STEP LENGTH
 NULL.          -999.2500:   NO VALUE
 COMP. FENIX & SCISSON INC:   COMPANY
 WELL.  NPR#3 #26-46 SX11:   WELL
 FLD .             TEAPOT:   FIELD
 LOC .      S11 T38N R78W:   LOCATION
 CNTY.            NATRONA:   COUNTY
 STAT.            WYOMING:   STATE
 CTRY. UNITED STATES OF AMERICA:   COUNTRY
 SRVC.      Dresser Atlas:   SERVICE COMPANY
 DATE.        13-AUG-1985:   LOGDATE
 API .       490251083600:   API NUMBER
~CURVE INFORMATION
#MNEM.UNIT       API CODE    CURVE DESCRIPTION
#----------   ------------   ------------------------------
 DEPT.F                  :   
 DPHI.DEC    45 890 12 00:   DENSITY POROSITY SANDSTONE
 NPHI.DEC    42 890 03 00:   NEUTRON POROSITY SANDSTONE
 RHOB.G/C3   45 350 01 00:   BULK DENSITY
 CORR.G/C3   45 356 01 00:   DENSITY CORRECTION
 CALD.IN     45 280 60 00:   CALIPER
 SPR .MV     07 010 01 00:   SPONTANEOUS POTENTIAL
 ILD .OHMM   07 120 46 00:   INDUCTION LOG DEEP
 ILM .OHMM   07 120 44 00:   INDUCTION LOG MEDIUM
 SFL .OHMM   07 220 01 00:   SHALLOW FOCUSED LOG RESISTIVITY
 GRR .GAPI   07 310 01 00:   GAMMA RAY FROM RES. LOG.
~PARAMETER INFORMATION
#MNEM.UNIT          VALUE    DESCRIPTION
#----------   ------------   ------------------------------
 PD  .                 GL:   PERMANENT DATUM
 EPD .F              5193:   ELEVATION PERMANENT DATUM
 LMF .                 KB:   LOG MEASURED FROM
 DAPD.F                 5:   FEET ABOVE PERMANENT DATUM
 DMF .                 KB:   DRILLING MEASURED FROM
 EKB .F              5198:   KELLING BUSHING
 EGL .F              5193:   GROUND LEVEL
 DATE.          8-13-1985:   RUN DATE
 RUN .                  8:   RUN NUMBER
 DD  .F               664:   DEPTH DRILLER
 BLI .F               635:   BOTTOM LOG INTERVAL
 TLI .F               340:   TOP LOG INTERVAL
 CBL .F               340:   CASING BOTTOM LOGGER
 BS  .IN             8.75:   BIT SIZE
 BSD .F               664:   BIT SIZE AT DEPTH
 DFT .          KPC WATER:   DRILLING FLUID TYPE
 LUN .           HL- 6274:   LOGGING UNIT NUMBER
 LUL .           GILLETTE:   LOGGING UNIT LOCATION
 ENGI.             RAUTIO:   RECORDING ENGINEER
 WITN.            SCHULTE:   WITNESSED BY
 CLNT.            A2DTECH:   CLIENT CODE
 ORIG.        2" 5" PRINT:   ORIGIN OF DATA
 UWI .       490251083600:   UNIQUE WELL ID
 DICO. A2D Technologies, Inc.:   DIGITIZING COMPANY
~OTHER INFORMATION
~A    DEPT    DPHI       NPHI       RHOB       CORR       CALD         SPR       ILD        ILM        SFL        GRR   
# ...
  107.5000  -999.2500  -999.2500  -999.2500  -999.2500  -999.2500   -37.6257     9.7087    11.2805    11.2016    59.9223
  108.0000  -999.2500  -999.2500  -999.2500  -999.2500  -999.2500   -37.6776     8.9252    11.0496    10.5147    61.8226
  108.5000  -999.2500  -999.2500  -999.2500  -999.2500  -999.2500   -37.7294     8.2049    10.6727     9.6221    64.2272
  109.0000  -999.2500  -999.2500  -999.2500  -999.2500  -999.2500   -37.7811     7.5427     9.5848     8.8053    63.7129
  109.5000  -999.2500  -999.2500  -999.2500  -999.2500  -999.2500   -37.8328     6.9421     8.4556     7.7639    61.4829
  110.0000  -999.2500  -999.2500  -999.2500  -999.2500  -999.2500   -37.8845     6.5206     7.4595     6.7859    62.4502
  110.5000  -999.2500  -999.2500  -999.2500  -999.2500  -999.2500   -37.9357     6.2241     6.5807     6.3904    65.9037
  111.0000  -999.2500  -999.2500  -999.2500  -999.2500  -999.2500   -37.9794     5.9612     5.8286     6.9095    69.3227
  111.5000  -999.2500  -999.2500  -999.2500  -999.2500  -999.2500   -38.0449     5.7095     5.6236     7.0710    72.6857
  112.0000  -999.2500  -999.2500  -999.2500  -999.2500  -999.2500   -38.1124     5.6386     5.5156     6.9421    73.6303
  112.5000  -999.2500  -999.2500  -999.2500  -999.2500  -999.2500   -38.1797     5.6014     5.4831     7.0584    74.4508
  113.0000  -999.2500  -999.2500  -999.2500  -999.2500  -999.2500   -38.2461     5.5645     5.4044     7.2689    75.9686
  113.5000  -999.2500  -999.2500  -999.2500  -999.2500  -999.2500   -38.3103     5.5278     5.3268     7.1735    77.9091
  114.0000  -999.2500  -999.2500  -999.2500  -999.2500  -999.2500   -38.4023     5.5156     5.3162     7.0710    80.0385
  114.5000  -999.2500  -999.2500  -999.2500  -999.2500  -999.2500   -38.9693     5.5294     5.3161     6.8419    83.0054
  115.0000  -999.2500  -999.2500  -999.2500  -999.2500  -999.2500   -39.4190     5.5389     5.3161     6.6817    83.3450
  115.5000  -999.2500  -999.2500  -999.2500  -999.2500  -999.2500   -39.5516     5.5484     5.3156     6.6474    81.7827
  116.0000  -999.2500  -999.2500  -999.2500  -999.2500  -999.2500   -39.6847     5.5575     5.3166     6.6299    80.2144
  116.5000  -999.2500  -999.2500  -999.2500  -999.2500  -999.2500   -39.7619     5.5671     5.3997     6.9078    78.6461
  117.0000  -999.2500  -999.2500  -999.2500  -999.2500  -999.2500   -39.6792     5.6474     5.4653     7.1311    77.9141
  117.5000  -999.2500  -999.2500  -999.2500  -999.2500  -999.2500   -39.6015     5.7231     5.5317     7.3392    77.4733
  118.0000  -999.2500  -999.2500  -999.2500  -999.2500  -999.2500   -39.5238     5.7752     5.5989     7.3522    78.1316
  118.5000  -999.2500  -999.2500  -999.2500  -999.2500  -999.2500   -39.4464     5.7752     5.6284     7.3678    79.1702
  119.0000  -999.2500  -999.2500  -999.2500  -999.2500  -999.2500   -39.3788     5.7752     5.6429     7.3822    79.5323
  119.5000  -999.2500  -999.2500  -999.2500  -999.2500  -999.2500   -39.2863     5.7752     5.6574     7.4039    79.7160
  120.0000  -999.2500  -999.2500  -999.2500  -999.2500  -999.2500   -39.1611     5.7752     5.6699     7.0710    79.8796
  120.5000  -999.2500  -999.2500  -999.2500  -999.2500  -999.2500   -39.0348     5.6921     5.5609     7.1116    79.3190
  121.0000  -999.2500  -999.2500  -999.2500  -999.2500  -999.2500   -38.9080     5.6050     5.4668     7.1364    77.5034
  121.5000  -999.2500  -999.2500  -999.2500  -999.2500  -999.2500   -38.7819     5.5185     5.3744     7.0185    75.6991
  122.0000  -999.2500  -999.2500  -999.2500  -999.2500  -999.2500   -38.7457     5.4597     5.3110     6.9324    75.8982
  122.5000  -999.2500  -999.2500  -999.2500  -999.2500  -999.2500   -38.7137     5.4232     5.2966     6.8785    77.1076
  123.0000  -999.2500  -999.2500  -999.2500  -999.2500  -999.2500   -38.6814     5.3874     5.2822     6.8941    77.2972
  123.5000  -999.2500  -999.2500  -999.2500  -999.2500  -999.2500   -38.6488     5.3654     5.2676     6.9055    76.1514
  124.0000  -999.2500  -999.2500  -999.2500  -999.2500  -999.2500   -38.6159     5.4392     5.3304     6.9168    75.0179
  124.5000  -999.2500  -999.2500  -999.2500  -999.2500  -999.2500   -38.5799     5.5025     5.3951     6.9279    73.9907
  125.0000  -999.2500  -999.2500  -999.2500  -999.2500  -999.2500   -38.7037     5.5665     5.4607     6.9398    74.0022
  125.5000  -999.2500  -999.2500  -999.2500  -999.2500  -999.2500   -38.8620     5.6312     5.5269     7.1777    75.7304
  126.0000  -999.2500  -999.2500  -999.2500  -999.2500  -999.2500   -39.0201     5.7004     5.5997     7.5414    77.9121
  126.5000  -999.2500  -999.2500  -999.2500  -999.2500  -999.2500   -39.1910     5.7752     5.6811     7.4232    79.8558
  127.0000  -999.2500  -999.2500  -999.2500  -999.2500  -999.2500   -39.6318     5.8511     5.7639     7.2348    79.8176
  127.5000  -999.2500  -999.2500  -999.2500  -999.2500  -999.2500   -39.9383     5.9280     5.8479     7.0512    79.9418
  128.0000  -999.2500  -999.2500  -999.2500  -999.2500  -999.2500   -39.7804     6.0059     5.9332     6.8754    73.4286
  128.5000  -999.2500  -999.2500  -999.2500  -999.2500  -999.2500   -39.7577     6.0848     6.0195     7.0274    68.1562
  129.0000  -999.2500  -999.2500  -999.2500  -999.2500  -999.2500   -39.7308     6.1647     6.1030     7.2736    71.7485
  129.5000  -999.2500  -999.2500  -999.2500  -999.2500  -999.2500   -39.7043     6.2457     6.1374     7.5264    76.3511
  130.0000  -999.2500  -999.2500  -999.2500  -999.2500  -999.2500   -39.6778     6.3041     6.1867     7.7871    78.9733
  130.5000  -999.2500  -999.2500  -999.2500  -999.2500  -999.2500   -39.6513     6.3707     6.2466     7.8242    78.6750
  131.0000  -999.2500  -999.2500  -999.2500  -999.2500  -999.2500   -39.6250     6.4381     6.3071     7.7823    78.3060
  131.5000  -999.2500  -999.2500  -999.2500  -999.2500  -999.2500   -39.5980     6.5066     6.3682     7.6295    75.8557
  132.0000  -999.2500  -999.2500  -999.2500  -999.2500  -999.2500   -39.5527     6.5690     6.4494     7.6111    73.3590
  132.5000  -999.2500  -999.2500  -999.2500  -999.2500  -999.2500   -39.4407     6.5228     6.4279     7.8084    72.3301
  133.0000  -999.2500  -999.2500  -999.2500  -999.2500  -999.2500   -39.3326     6.4794     6.3967     7.9695    72.1909
  133.5000  -999.2500  -999.2500  -999.2500  -999.2500  -999.2500   -39.2247     6.4365     6.3656     7.8891    72.5516
  134.0000  -999.2500  -999.2500  -999.2500  -999.2500  -999.2500   -39.1166     6.3908     6.3318     7.8082    73.2787
  134.5000  -999.2500  -999.2500  -999.2500  -999.2500  -999.2500   -39.0048     6.3442     6.2621     7.6611    73.5097
  135.0000  -999.2500  -999.2500  -999.2500  -999.2500  -999.2500   -38.9467     6.2938     6.1863     7.5166    72.5874
  135.5000  -999.2500  -999.2500  -999.2500  -999.2500  -999.2500   -38.9025     6.2438     6.1118     7.3729    72.0252
  136.0000  -999.2500  -999.2500  -999.2500  -999.2500  -999.2500   -38.8584     6.1941     6.0412     7.2963    72.1789
  136.5000  -999.2500  -999.2500  -999.2500  -999.2500  -999.2500   -38.8146     6.1449     6.0021     7.2217    72.3329
  137.0000  -999.2500  -999.2500  -999.2500  -999.2500  -999.2500   -38.8020     6.1030     5.9625     7.0691    71.2538
  137.5000  -999.2500  -999.2500  -999.2500  -999.2500  -999.2500   -38.9901     6.1917     5.9369     6.8929    69.4162
  138.0000  -999.2500  -999.2500  -999.2500  -999.2500  -999.2500   -39.1775     6.2738     6.1030     6.8155    69.4720
  138.5000  -999.2500  -999.2500  -999.2500  -999.2500  -999.2500   -39.3643     6.2277     6.0855     6.6840    72.4354
  139.0000  -999.2500  -999.2500  -999.2500  -999.2500  -999.2500   -39.5514     6.1799     6.0543     6.5144    75.0139
  139.5000  -999.2500  -999.2500  -999.2500  -999.2500  -999.2500   -39.7431     6.1324     6.0233     6.3490    74.5601
  140.0000  -999.2500  -999.2500  -999.2500  -999.2500  -999.2500   -39.7604     6.1004     5.9917     6.2164    71.6544
  140.5000  -999.2500  -999.2500  -999.2500  -999.2500  -999.2500   -39.7365     6.0860     5.9701     6.2164    68.5505
