~VERSION INFORMATION
 VERS.                2.0:   CWLS LOG ASCII STANDARD - VERSION 2.0
 WRAP.                 NO:   ONE LINE PER DEPTH STEP
~WELL INFORMATION
#MNEM.UNIT      DATA TYPE    INFORMATION
#----------   ------------   ------------------------------
 STRT.F          160.0000:   START DEPTH
 STOP.F         1181.5000:   STOP DEPTH
 STEP.F            0.5000:   STEP LENGTH
 NULL.          -999.2500:   NO VALUE
 COMP.            US NAVY:   COMPANY
 WELL. RES 3 TEAPOT DOM #71-SX-14:   WELL
 FLD .             TEAPOT:   FIELD
 LOC .      S14 T38N R78W:   LOCATION
 CNTY.            NATRONA:   COUNTY
 STAT.            WYOMING:   STATE
 CTRY. UNITED STATES OF AMERICA:   COUNTRY
 SRVC.       Schlumberger:   SERVICE COMPANY
 DATE.        23-AUG-1959:   LOGDATE
 API .       490250632200:   API NUMBER
~CURVE INFORMATION
#MNEM.UNIT       API CODE    CURVE DESCRIPTION
#----------   ------------   ------------------------------
 DEPT.F                  :   
 SPR .MV     05 010 01 00:   SPONTANEOUS POTENTIAL FROM RES.
 IL  .OHMM   05 120 00 00:   INDUCTION LOG
 ASN .OHMM   05 041 16 00:   AMPLIFIED SHORT NORMAL 16"
 CIL .MMHO   05 110 00 00:   CONDUCTIVITY INDUCTION LOG
~PARAMETER INFORMATION
#MNEM.UNIT          VALUE    DESCRIPTION
#----------   ------------   ------------------------------
 PD  .                 GL:   PERMANENT DATUM
 EPD .F              5259:   ELEVATION PERMANENT DATUM
 LMF .                 KB:   LOG MEASURED FROM
 DAPD.F                 4:   FEET ABOVE PERMANENT DATUM
 DMF .                 KB:   DRILLING MEASURED FROM
 EKB .F              5263:   KELLING BUSHING
 EGL .F              5259:   GROUND LEVEL
 DATE.            8-23-59:   RUN DATE
 RUN .                  1:   RUN NUMBER
 DD  .F              1190:   DEPTH DRILLER
 DL  .F              1186:   DEPTH LOGGER
 BLI .F              1180:   BOTTOM LOG INTERVAL
 TLI .F               150:   TOP LOG INTERVAL
 CBD .F                17:   CASING BOTTOM DRILLER
 BS  .IN             6.75:   BIT SIZE
 BSD .F              1190:   BIT SIZE AT DEPTH
 DFT .                GEL:   DRILLING FLUID TYPE
 DFD .                9.5:   DRILLING FLUID DENSITY
 DFV .                 52:   DRILLING FLUID VISCOSITY
 MSS .           FLOWLINE:   MUD SAMPLE SOURCE
 RMS .OHMM            2.6:   RESISTIVITY MUD SAMPLE
 MST .F                62:   MUD SAMPLE TEMPERATURE
 MFSS.                  M:   MUD FILTRATE SAMPLE SOURCE
 MCSS.                  M:   MUD CAKE SAMPLE SOURCE
 RMB .OHMM            2.2:   RESISTIVITY MUD AT BHT
 BHT .F                80:   BOTTOM HOLE TEMPERATURE
 TCS .HRS               1:   TIME CURCULATED STOPPED
 MRT .F                80:   MAXIMUM RECORDED TEMPERATURE
 LUN .               2523:   LOGGING UNIT NUMBER
 LUL .               CSPR:   LOGGING UNIT LOCATION
 ENGI.             ATWOOD:   RECORDING ENGINEER
 WITN.             MARTIN:   WITNESSED BY
 CLNT.            A2DTECH:   CLIENT CODE
 ORIG.     1", 2.5" PRINT:   ORIGIN OF DATA
 UWI .       490250632200:   UNIQUE WELL ID
 DICO. A2D Technologies, Inc.:   DIGITIZING COMPANY
~OTHER INFORMATION
~A   DEPT      SPR           IL        ASN      CIL   
# ...
 1109.0000   -38.8239    12.6747    14.4737    83.4092
 1109.5000   -37.9685    12.6592    14.2578    82.7725
 1110.0000   -37.1773    12.4147    14.0446    83.4528
 1110.5000   -36.3791    12.2008    13.8333    85.3661
 1111.0000   -35.5834    11.9722    13.6185    87.2804
 1111.5000   -34.7685    11.7492    13.4073    89.1953
 1112.0000   -33.9820    11.5271    13.1953    91.1091
 1112.5000   -33.3116    11.3026    12.9705    93.0202
 1113.0000   -33.5908    11.0744    12.8150    94.9393
 1113.5000   -33.8739    10.9080    12.7515    96.8526
 1114.0000   -33.6768    10.9150    12.6750    98.7205
 1114.5000   -33.1777    11.0675    12.6006    98.7205
 1115.0000   -32.8574    11.2261    12.5258    98.7205
 1115.5000   -33.1010    11.3865    12.4974    96.3996
 1116.0000   -33.5169    11.5463    12.5004    94.1673
 1116.5000   -33.9002    11.7122    12.5001    91.9350
 1117.0000   -34.2958    11.7904    12.4992    89.8622
 1117.5000   -34.3332    11.6568    12.5032    90.4646
 1118.0000   -34.3324    11.5399    12.4668    91.3575
 1118.5000   -34.2594    11.4182    12.3888    91.6339
 1119.0000   -33.9365    11.2941    12.3153    93.4055
 1119.5000   -33.9891    11.2566    12.2403    96.9488
 1120.0000   -33.9696    11.2611    12.1664    96.9488
 1120.5000   -33.9688    11.2248    12.0922    98.7205
 1121.0000   -33.9832    11.1092    12.0120    98.2457
 1121.5000   -33.8839    11.0823    11.9637    97.3528
 1122.0000   -33.7042    11.0585    11.9686    96.9488
 1122.5000   -33.5350    11.0098    11.9705    96.9488
 1123.0000   -33.3664    10.9635    11.9409    96.9488
 1123.5000   -33.1943    10.9179    11.8854    96.9488
 1124.0000   -33.0263    10.8709    11.8331    96.9488
 1124.5000   -32.8546    10.8253    11.7809    97.5046
 1125.0000   -32.6828    10.7788    11.7269    97.9745
 1125.5000   -32.5543    10.7313    11.6775    98.4445
 1126.0000   -32.5483    10.6899    11.6151    98.9144
 1126.5000   -32.5432    10.6351    11.6468    99.3844
 1127.0000   -32.3004    10.5949    11.7324    99.8543
 1127.5000   -31.9881    10.5850    11.8169   100.3243
 1128.0000   -31.6749    10.7457    11.8988   100.4921
 1128.5000   -31.3658    10.7199    11.9860   100.4921
 1129.0000   -31.0549    10.7153    12.0665   100.4921
 1129.5000   -30.7436    10.6645    12.1362   100.4921
 1130.0000   -30.4321    10.6146    12.0478   100.4921
 1130.5000   -30.1257    10.5637    11.9620   100.4921
 1131.0000   -29.8078    10.5640    11.8702   100.4921
 1131.5000   -29.6938    10.5930    11.7940   100.4921
 1132.0000   -29.7082    10.6185    11.7919   100.4921
 1132.5000   -29.6602    10.6434    11.7898   100.4921
 1133.0000   -29.5782    10.6694    11.7911   100.4114
 1133.5000   -29.5056    10.6948    11.7905   100.1634
 1134.0000   -29.4316    10.7205    11.7909    99.9154
 1134.5000   -29.3565    10.7460    11.7906    99.6673
 1135.0000   -29.2825    10.7717    11.7896    99.4193
 1135.5000   -29.2084    10.7972    11.7662    99.1713
 1136.0000   -29.1332    10.8225    11.7410    98.9232
 1136.5000   -29.0593    10.8492    11.7151    98.7205
 1137.0000   -28.9950    10.8724    11.6897    98.7205
 1137.5000   -28.9932    10.9014    11.6642    98.7205
 1138.0000   -28.9909    10.8598    11.6386    98.7205
 1138.5000   -28.9948    10.8042    11.6131    98.7205
 1139.0000   -28.9902    10.7495    11.5875    98.8838
 1139.5000   -28.9844    10.6956    11.5619    99.2720
 1140.0000   -28.7938    10.6396    11.5364    99.6580
 1140.5000   -28.5795    10.5860    11.5107   100.0473
 1141.0000   -28.3603    10.5327    11.4847   100.4365
 1141.5000   -28.1451    10.4784    11.4605   100.8259
 1142.0000   -27.9283    10.4253    11.4352   101.2149
 1142.5000   -27.7113    10.3712    11.4375   101.6031
 1143.0000   -27.4949    10.3163    11.4439   101.9898
 1143.5000   -27.2774    10.2677    11.5682   102.2612
 1144.0000   -27.0615    10.2052    11.6832   102.2569
 1144.5000   -26.8453    10.1955    11.8043   102.2534
 1145.0000   -26.6254    10.2279    11.9246   102.2529
 1145.5000   -26.4168    10.4775    12.0420   101.1024
 1146.0000   -26.2015    10.5741    12.1423   100.0782
 1146.5000   -26.3960    10.7050    12.0768    99.0553
 1147.0000   -26.7338    10.8358    11.9834    98.0310
 1147.5000   -27.0836    10.9095    11.8877    96.9621
 1148.0000   -27.2232    10.9024    11.7944    98.0532
 1148.5000   -27.2122    10.8274    11.6996    99.2033
 1149.0000   -27.2127    10.7248    11.6068   100.3533
 1149.5000   -27.2165    10.6211    11.5098   101.5033
 1150.0000   -27.2124    10.5201    11.4300   102.6534
 1150.5000   -27.2082    10.4174    11.3337   103.8034
 1151.0000   -27.0953    10.3152    11.2523   104.9535
 1151.5000   -26.9796    10.2131    11.1667   106.1032
 1152.0000   -26.8591    10.1109    11.0831   107.2514
 1152.5000   -26.7427    10.0088    10.9990   108.3990
 1153.0000   -26.6233     9.9067    10.9150   109.3433
 1153.5000   -26.4990     9.8046    10.8307   109.3405
 1154.0000   -26.3033     9.7025    10.7463   109.3388
 1154.5000   -26.0997     9.6004    10.6376   109.8766
 1155.0000   -25.8926     9.4985    10.5203   111.3500
 1155.5000   -25.6930     9.3963    10.3988   112.8247
 1156.0000   -25.4858     9.2946    10.2884   114.2972
 1156.5000   -25.4276     9.1925    10.1645   115.7686
 1157.0000   -25.3500     9.0896    10.0204   117.2412
 1157.5000   -25.2636     8.9904     9.6610   119.1727
 1158.0000   -25.1728     8.8844     9.4090   121.9868
 1158.5000   -25.0855     8.7698     9.1271   124.7982
 1159.0000   -24.9965     8.4480     8.8662   127.6113
 1159.5000   -24.9088     8.0967     8.5775   130.6390
 1160.0000   -24.8193     7.7404     8.3276   142.0125
 1160.5000   -24.7218     7.3888     7.7721   154.3393
 1161.0000   -24.5332     7.0342     7.2816   166.6853
 1161.5000   -24.3243     6.6804     6.7821   179.0271
 1162.0000   -24.1146     6.3285     6.2763   191.3609
 1162.5000   -23.9085     5.9692     5.7503   201.7374
 1163.0000   -23.6954     5.6242     5.4849   212.6342
 1163.5000   -23.4910     5.2550     5.4139   224.5212
 1164.0000   -23.3133     5.2393     5.4982   236.6526
 1164.5000   -23.3968     5.1911     6.4781   237.6122
 1165.0000   -23.4754     5.5861     7.3485   222.7362
 1165.5000   -23.5658     6.4141     8.3641   206.6850
 1166.0000   -23.6502     7.1974     8.6795   174.3347
 1166.5000   -23.7359     8.0165     9.0223   137.6969
 1167.0000   -23.8224     8.6572     9.2385   130.8087
 1167.5000   -23.9083     8.9486     9.3647   121.7520
 1168.0000   -23.9934     8.9491     9.5062   119.8563
 1168.5000   -24.0806     8.9601     9.6485   118.2087
 1169.0000   -24.1655     8.9583     9.7822   118.2087
 1169.5000   -24.2485     9.0326     9.9394   118.2087
 1170.0000   -24.3461     9.1047    10.0579   118.2087
 1170.5000   -24.2955     9.1781    10.1920   117.0014
 1171.0000   -24.1626     9.2498    10.3098   115.1108
 1171.5000   -24.0221     9.3543    10.5284   113.2202
 1172.0000   -24.0146     9.5506    10.8147   111.3296
 1172.5000   -24.0093     9.7452    11.0821   109.4390
 1173.0000   -24.0135     9.9425    11.3531   107.5484
 1173.5000   -24.0115    10.1375    11.6216   105.6578
 1174.0000   -24.0113    10.3370    11.8887   103.7672
 1174.5000   -24.0150    10.5291    12.1824   101.8765
 1175.0000   -23.9766    10.7170    12.2861    99.9859
 1175.5000   -23.8805    10.7253    12.1338    98.0953
 1176.0000   -23.7880    10.7295    12.0048    96.9488
 1176.5000   -23.6948    10.7262    11.8668    96.9488
 1177.0000   -23.6007    10.7274    11.7892    96.7318
 1177.5000   -23.5073    10.7266    11.9219    96.4561
 1178.0000   -23.4156    10.7278    12.0468    96.1804
 1178.5000   -23.3204    10.7278    12.1783    95.9046
 1179.0000   -23.3013    10.7985    12.3077    95.6289
 1179.5000   -23.3035    10.8944    12.4383    95.3532
 1180.0000   -23.5493    10.9890    12.5687  -999.2500
 1180.5000   -23.8819    11.0841    12.6745  -999.2500
 1181.0000   -24.2299    11.1789  -999.2500  -999.2500
 1181.5000  -999.2500    11.2566  -999.2500  -999.2500
