~VERSION INFORMATION
 VERS.                2.0:   CWLS LOG ASCII STANDARD - VERSION 2.0
 WRAP.                 NO:   ONE LINE PER DEPTH STEP
~WELL INFORMATION
#MNEM.UNIT      DATA TYPE    INFORMATION
#----------   ------------   ------------------------------
 STRT.F           10.0000:   START DEPTH
 STOP.F         2599.5000:   STOP DEPTH
 STEP.F            0.5000:   STEP LENGTH
 NULL.          -999.2500:   NO VALUE
 COMP. FENIX & SCISSON INC:   COMPANY
 WELL.   34-SHX-33 #34-33:   WELL
 FLD .             TEAPOT:   FIELD
 LOC .      S33 T39N R78W:   LOCATION
 CNTY.            NATRONA:   COUNTY
 STAT.            WYOMING:   STATE
 CTRY. UNITED STATES OF AMERICA:   COUNTRY
 SRVC.           BIRDWELL:   SERVICE COMPANY
 DATE.        20-FEB-1978:   LOGDATE
 API .       490251058400:   API NUMBER
~CURVE INFORMATION
#MNEM.UNIT       API CODE    CURVE DESCRIPTION
#----------   ------------   ------------------------------
 DEPT.F                  :   
 GR  .GAPI   30 310 01 00:   GAMMA RAY
 CALI.IN     70 280 01 00:   CALIPER
~PARAMETER INFORMATION
#MNEM.UNIT          VALUE    DESCRIPTION
#----------   ------------   ------------------------------
 PD  .                 GL:   PERMANENT DATUM
 EPD .F              5174:   ELEVATION PERMANENT DATUM
 LMF .                 KB:   LOG MEASURED FROM
 DAPD.F                10:   FEET ABOVE PERMANENT DATUM
 DMF .                 KB:   DRILLING MEASURED FROM
 EKB .F              5184:   KELLING BUSHING
 EGL .F              5174:   GROUND LEVEL
 DATE.            2-20-78:   RUN DATE
 RUN .                  1:   RUN NUMBER
 DD  .F              2590:   DEPTH DRILLER
 DL  .F              2600:   DEPTH LOGGER
 BLI .F              2600:   BOTTOM LOG INTERVAL
 CS  .IN            8.625:   CASING SIZE
 CBD .F               737:   CASING BOTTOM DRILLER
 BS  .IN            8.625:   BIT SIZE
 BSD .F              2590:   BIT SIZE AT DEPTH
 TCS .HRS               2:   TIME CURCULATED STOPPED
 LUL .             CASPER:   LOGGING UNIT LOCATION
 ENGI.             MILLER:   RECORDING ENGINEER
 WITN.           MCGINLEY:   WITNESSED BY
 CLNT.            A2DTECH:   CLIENT CODE
 ORIG.           5" PRINT:   ORIGIN OF DATA
 UWI .       490251058400:   UNIQUE WELL ID
 DICO. A2D Technologies, Inc.:   DIGITIZING COMPANY
~OTHER INFORMATION
~A   DEPT        GR      CALI   
# ...
 2318.5000   202.1344     9.3145
 2319.0000   212.3928     9.3210
 2319.5000   217.0163     9.3276
 2320.0000   218.8333     9.3341
 2320.5000   221.3031     9.3409
 2321.0000   228.7231     9.3548
 2321.5000   236.1673     9.3689
 2322.0000   241.4897     9.3829
 2322.5000   235.7612     9.3970
 2323.0000   210.9268     9.4110
 2323.5000   187.4442     9.4252
 2324.0000   169.7587     9.4397
 2324.5000   167.9317     9.4403
 2325.0000   170.9523     9.4402
 2325.5000   173.0012     9.4403
 2326.0000   173.3196     9.4452
 2326.5000   173.6608     9.4655
 2327.0000   173.4261     9.4849
 2327.5000   170.7225     9.4946
 2328.0000   167.6409     9.4673
 2328.5000   166.7887     9.4412
 2329.0000   165.1894     9.4197
 2329.5000   163.2498     9.4203
 2330.0000   159.7074     9.4202
 2330.5000   156.2882     9.4207
 2331.0000   156.3970     9.4375
 2331.5000   161.7327     9.4555
 2332.0000   167.1705     9.4734
 2332.5000   168.9581     9.4913
 2333.0000   167.2186     9.5004
 2333.5000   165.5728     9.5015
 2334.0000   164.8704     9.5025
 2334.5000   164.1205     9.5035
 2335.0000   163.7664     9.5045
 2335.5000   163.7665     9.5055
 2336.0000   163.9435     9.5065
 2336.5000   164.2869     9.5076
 2337.0000   164.2982     9.5085
 2337.5000   163.1805     9.5096
 2338.0000   162.6318     9.5106
 2338.5000   164.1328     9.5116
 2339.0000   165.4788     9.5126
 2339.5000   165.9528     9.5136
 2340.0000   167.1550     9.5146
 2340.5000   169.8907     9.5156
 2341.0000   172.6729     9.5166
 2341.5000   173.1749     9.5176
 2342.0000   167.8086     9.5186
 2342.5000   163.6615     9.5194
 2343.0000   161.1153     9.5333
 2343.5000   159.4333     9.5530
 2344.0000   159.0325     9.5732
 2344.5000   161.1620     9.5780
 2345.0000   165.8988     9.6496
 2345.5000   171.0271     9.5759
 2346.0000   175.1189     9.4409
 2346.5000   174.0467     9.4516
 2347.0000   171.3091     9.4696
 2347.5000   168.5737     9.4879
 2348.0000   169.7513     9.4998
 2348.5000   171.2150     9.4970
 2349.0000   170.6668     9.4944
 2349.5000   170.5044     9.4918
 2350.0000   170.9004     9.4892
 2350.5000   171.3050     9.4867
 2351.0000   173.3502     9.4839
 2351.5000   177.4305     9.4814
 2352.0000   180.1683     9.4599
 2352.5000   179.1796     9.4167
 2353.0000   180.2138     9.4019
 2353.5000   180.9448     9.4285
 2354.0000   174.1513     9.5355
 2354.5000   167.4902     9.4682
 2355.0000   161.3312     9.4211
 2355.5000   160.7741     9.5877
 2356.0000   164.9075     9.4853
 2356.5000   170.9976     9.3879
 2357.0000   175.3234     9.5193
 2357.5000   175.6781     9.4655
 2358.0000   175.5251     9.4235
 2358.5000   173.0763     9.4378
 2359.0000   170.0297     9.4439
 2359.5000   166.0150     9.4428
 2360.0000   159.5131     9.6521
 2360.5000   153.0309     9.3814
 2361.0000   149.9791     9.3804
 2361.5000   157.4892     9.3805
 2362.0000   167.0240     9.3965
 2362.5000   175.3862     9.4317
 2363.0000   176.4169     9.4978
 2363.5000   176.0040     9.7052
 2364.0000   175.6373     9.4682
 2364.5000   173.9920     9.4540
 2365.0000   176.8244     9.4903
 2365.5000   179.5637     9.5243
 2366.0000   180.7129     9.8024
 2366.5000   182.5236     9.4958
 2367.0000   184.3785     9.4910
 2367.5000   184.5963     9.5402
 2368.0000   178.7798     9.7183
 2368.5000   172.3615     9.4262
 2369.0000   165.9397     9.4151
 2369.5000   159.5123     9.4204
 2370.0000   153.0938     9.4122
 2370.5000   146.6425     9.3940
 2371.0000   140.6714     9.3760
 2371.5000   138.9567     9.3579
 2372.0000   144.6165     9.3410
 2372.5000   149.8845     9.3405
 2373.0000   155.1481     9.3405
 2373.5000   159.7675     9.3400
 2374.0000   159.0984     9.3437
 2374.5000   155.6206     9.4413
 2375.0000   146.5528     9.5350
 2375.5000   139.6985     9.4556
 2376.0000   136.9022     9.4213
 2376.5000   137.9535     9.4365
 2377.0000   142.4930     9.4531
 2377.5000   148.3798     9.4579
 2378.0000   152.3926     9.4519
 2378.5000   154.6845     9.4459
 2379.0000   156.5360     9.4399
 2379.5000   158.3600     9.4340
 2380.0000   161.6633     9.4287
 2380.5000   165.7276     9.4185
 2381.0000   169.7902     9.4002
 2381.5000   173.8362     9.6262
 2382.0000   173.8571    10.1404
 2382.5000   168.3263     9.4858
 2383.0000   160.7352     9.6073
 2383.5000   153.1359     9.5424
 2384.0000   148.8835     9.4651
 2384.5000   153.1996     9.4708
 2385.0000   157.2374     9.3822
 2385.5000   151.9256     9.6962
 2386.0000   145.2367     9.4227
 2386.5000   138.4673     9.4277
 2387.0000   137.7819     9.4316
 2387.5000   140.5268     9.4358
 2388.0000   144.7241     9.4400
 2388.5000   149.0200     9.4442
 2389.0000   150.8379     9.4485
 2389.5000   151.1625     9.4527
 2390.0000   151.2021     9.4560
 2390.5000   149.4926     9.4442
 2391.0000   147.7911     9.4415
 2391.5000   146.0940     9.4434
 2392.0000   144.4467     9.4453
 2392.5000   146.6385     9.4470
 2393.0000   153.2074     9.4487
 2393.5000   156.6932     9.4503
 2394.0000   153.9079     9.4520
 2394.5000   150.7480     9.4537
 2395.0000   152.0729     9.4554
 2395.5000   160.1062     9.4570
 2396.0000   169.6925     9.4586
 2396.5000   174.3948     9.4608
 2397.0000   177.7117     9.4766
 2397.5000   179.1261     9.5619
 2398.0000   172.4249     9.4901
 2398.5000   161.8361     9.7150
 2399.0000   151.1469     9.4749
 2399.5000   142.2666     9.4628
 2400.0000   139.7242     9.4496
 2400.5000   139.6432     9.4407
 2401.0000   141.3504     9.4435
 2401.5000   146.2504     9.4459
 2402.0000   150.8940     9.4484
 2402.5000   149.0579     9.4509
 2403.0000   145.5290     9.4534
 2403.5000   141.8467     9.4558
 2404.0000   140.2450     9.4584
 2404.5000   140.8903     9.4618
 2405.0000   143.5696     9.4687
 2405.5000   147.8775     9.4754
 2406.0000   151.4900     9.4821
 2406.5000   151.1833     9.4888
 2407.0000   151.9875     9.4956
 2407.5000   153.3830     9.5023
 2408.0000   153.3082     9.5090
 2408.5000   152.4789     9.5157
 2409.0000   151.6451     9.5225
 2409.5000   152.9717     9.5292
 2410.0000   156.5059     9.5358
 2410.5000   157.1668     9.5390
 2411.0000   153.6193     9.5371
 2411.5000   148.8716     9.5352
 2412.0000   145.7632     9.5333
 2412.5000   143.0881     9.5313
 2413.0000   140.4424     9.5294
 2413.5000   138.3788     9.5275
 2414.0000   140.1410     9.5255
 2414.5000   144.6831     9.5236
 2415.0000   149.1986     9.5217
 2415.5000   150.9262     9.5198
 2416.0000   150.1974     9.5178
 2416.5000   145.8740     9.5159
 2417.0000   140.6962     9.5140
 2417.5000   138.1802     9.5121
 2418.0000   139.3654     9.5101
 2418.5000   140.0453     9.5082
 2419.0000   145.8083     9.5063
 2419.5000   154.8721     9.5044
 2420.0000   159.5112     9.5024
 2420.5000   162.4387     9.5005
 2421.0000   164.4835     9.5000
 2421.5000   165.3568     9.5000
 2422.0000   159.2036     9.5000
 2422.5000   158.9787     9.5000
 2423.0000   158.7204     9.5000
 2423.5000   156.2940     9.5000
 2424.0000   154.5750     9.5000
 2424.5000   154.2703     9.5000
 2425.0000   153.8464     9.5000
 2425.5000   150.2964     9.5000
 2426.0000   146.4138     9.5000
 2426.5000   146.6129     9.5000
 2427.0000   149.1800     9.5000
 2427.5000   147.4053     9.4994
 2428.0000   145.0828     9.5307
 2428.5000   145.6427     9.5753
 2429.0000   149.3223     9.5955
 2429.5000   152.6633     9.5873
 2430.0000   148.8834     9.5798
 2430.5000   142.9610     9.5796
 2431.0000   140.9370     9.5792
 2431.5000   143.1383     9.5822
 2432.0000   150.2029     9.6488
 2432.5000   163.4906     9.6513
 2433.0000   177.9236     9.6437
 2433.5000   174.9948    10.0906
 2434.0000   168.9796     9.6350
 2434.5000   165.3087     9.3856
 2435.0000   165.3627     9.5184
 2435.5000   166.2561     9.4340
 2436.0000   166.0813     9.4207
 2436.5000   163.4739     9.4203
 2437.0000   159.7171     9.4203
 2437.5000   156.2537     9.4203
 2438.0000   154.8049     9.4203
 2438.5000   154.2940     9.4203
 2439.0000   155.8323     9.4203
 2439.5000   156.9534     9.4203
