~VERSION INFORMATION
 VERS.                2.0:   CWLS LOG ASCII STANDARD - VERSION 2.0
 WRAP.                 NO:   ONE LINE PER DEPTH STEP
~WELL INFORMATION
#MNEM.UNIT      DATA TYPE    INFORMATION
#----------   ------------   ------------------------------
 STRT.F           80.0000:   START DEPTH
 STOP.F          782.0000:   STOP DEPTH
 STEP.F            0.5000:   STEP LENGTH
 NULL.          -999.2500:   NO VALUE
 COMP.            US NAVY:   COMPANY
 WELL. NPR 3 TEAPOT DOM #87-S-34:   WELL
 FLD .             TEAPOT:   FIELD
 LOC .      S34 T39N R78W:   LOCATION
 CNTY.            NATRONA:   COUNTY
 STAT.            WYOMING:   STATE
 CTRY. UNITED STATES OF AMERICA:   COUNTRY
 SRVC.       Schlumberger:   SERVICE COMPANY
 DATE.        07-AUG-1961:   LOGDATE
 API .       490250651100:   API NUMBER
~CURVE INFORMATION
#MNEM.UNIT       API CODE    CURVE DESCRIPTION
#----------   ------------   ------------------------------
 DEPT.F                  :   
 GR  .GAPI   30 310 01 00:   GAMMA RAY
 SPR .MV     05 010 01 00:   SPONTANEOUS POTENTIAL FROM RES.
 ASN .OHMM   05 041 16 00:   AMPLIFIED SHORT NORMAL 16"
 ILD .OHMM   05 120 46 00:   INDUCTION LOG DEEP
 CILD.MMHO   05 110 46 00:   CONDUCTIVITY INDUCTION LOG DEEP
~PARAMETER INFORMATION
#MNEM.UNIT          VALUE    DESCRIPTION
#----------   ------------   ------------------------------
 PD  .                 KB:   PERMANENT DATUM
 EPD .F                  :   ELEVATION PERMANENT DATUM
 LMF .                 KB:   LOG MEASURED FROM
 DAPD.F                  :   FEET ABOVE PERMANENT DATUM
 DMF .                 KB:   DRILLING MEASURED FROM
 EKB .F              5102:   KELLING BUSHING
 EDF .F                  :   DRILLING FLOOR
 EGL .F              5097:   GROUND LEVEL
 DATE.        07-AUG-1961:   RUN DATE
 RUN .                  1:   RUN NUMBER
 DD  .F               770:   DEPTH DRILLER
 DL  .F               783:   DEPTH LOGGER
 BLI .F               782:   BOTTOM LOG INTERVAL
 TLI .F               100:   TOP LOG INTERVAL
 CS  .IN                 :   CASING SIZE
 CBD .F                  :   CASING BOTTOM DRILLER
 CBL .F                  :   CASING BOTTOM LOGGER
 BS  .IN             6.75:   BIT SIZE
 BSD .F               770:   BIT SIZE AT DEPTH
 DFT .       OIL EMULSION:   DRILLING FLUID TYPE
 DFD .               10.4:   DRILLING FLUID DENSITY
 DFV .                 45:   DRILLING FLUID VISCOSITY
 DFPH.                   :   DRILLING FLUID PH
 DFL .                   :   DRILLING FLUID LOSS
 MSS .                   :   MUD SAMPLE SOURCE
 RMS .OHMM           0.95:   RESISTIVITY MUD SAMPLE
 MST .F                72:   MUD SAMPLE TEMPERATURE
 RMF .OHMM               :   RESISTIVITY MUD FILTRATE SAMPLE
 MFST.F                  :   MUD FILTRATE SAMPLE TEMPERATURE
 RMC .OHMM               :   RESISTIVITY MUD CAKE
 MCST.F                  :   MUD CAKE SAMPLE TEMPERATURE
 MFSS.                   :   MUD FILTRATE SAMPLE SOURCE
 MCSS.                   :   MUD CAKE SAMPLE SOURCE
 RMB .OHMM               :   RESISTIVITY MUD AT BHT
 BHT .F                  :   BOTTOM HOLE TEMPERATURE
 TCS .HRS               1:   TIME CURCULATED STOPPED
 TLAB.HRS                :   TIME LOGGER AT BOTTOM
 MRT .F                  :   MAXIMUM RECORDED TEMPERATURE
 LUN .               2544:   LOGGING UNIT NUMBER
 LUL .                   :   LOGGING UNIT LOCATION
 ENGI.             QUINBY:   RECORDING ENGINEER
 WITN.          JORGENSON:   WITNESSED BY
 CLNT.            A2DTECH:   CLIENT CODE
 ORIG.       2", 5" PRINT:   ORIGIN OF DATA
 UWI .       490250651100:   UNIQUE WELL ID
 DICO. A2D Technologies, Inc.:   DIGITIZING COMPANY
 OS  .                   :   OTHER SERVICES
 PWI .                   :   PRIMARY WELL IDENTIFIER
 R1  .                   :   REMARKS 1
 R2  .                   :   REMARKS 2
~OTHER INFORMATION
~A   DEPT       GR        SPR         ASN         ILD      CILD  
# ...
  385.0000  -999.2500   -27.1070    10.2153     8.4450   114.7868
  385.5000  -999.2500   -26.9539    10.2039     8.3693   114.7673
  386.0000  -999.2500   -26.9516    10.2150     8.4081   114.7447
  386.5000  -999.2500   -27.1002    10.2150     8.4439   114.7187
  387.0000  -999.2500   -27.3801    10.2148     8.4435   114.6997
  387.5000  -999.2500   -27.7127    10.2146     8.4431   114.6771
  388.0000  -999.2500   -27.9996    10.2145     8.4428   114.6505
  388.5000  -999.2500   -28.1488    10.1702     8.4424   114.6321
  389.0000  -999.2500   -28.3026    10.1009     8.3667   114.6096
  389.5000  -999.2500   -28.4463    10.0182     8.3558   114.5871
  390.0000  -999.2500   -28.4441     9.9779     8.2906   114.5646
  390.5000  -999.2500   -28.4418     9.8974     8.2150   116.0429
  391.0000  -999.2500   -28.2483     9.8235     8.1393   116.0210
  391.5000  -999.2500   -27.8985     9.7530     8.0636   116.3814
  392.0000  -999.2500   -27.5286     9.7012     8.0633   117.4775
  392.5000  -999.2500   -27.1362     9.6684     7.9876   118.2933
  393.0000  -999.2500   -26.9200     9.6151     7.9871   119.2494
  393.5000  -999.2500   -26.9175     9.5200     7.9115   120.4129
  394.0000  -999.2500   -26.7644     9.4737     7.9051   121.1612
  394.5000  -999.2500   -26.7898     9.4088     7.8354   122.1172
  395.0000  -999.2500   -27.2128     9.3388     7.8351   123.3483
  395.5000  -999.2500   -27.4348     9.2868     7.8302   124.8273
  396.0000  -999.2500   -27.5108     9.3164     7.7590   126.3079
  396.5000  -999.2500   -27.6591     9.4287     7.7586   127.7822
  397.0000  -999.2500   -27.6571     9.4718     7.7553   127.7627
  397.5000  -999.2500   -27.5038     9.5201     7.6825   127.7403
  398.0000  -999.2500   -27.5011     9.5638     7.6822   127.7140
  398.5000  -999.2500   -27.4993     9.5730     7.6819   127.6952
  399.0000  -999.2500   -27.4970     9.4853     7.6814   127.6727
  399.5000  -999.2500   -27.3432     9.2622     7.6811   127.6458
  400.0000  -999.2500   -27.1653     9.0964     7.7560   127.6276
  400.5000  -999.2500   -27.0391     9.0059     7.8310   127.6049
  401.0000  -999.2500   -26.9130     9.0796     7.9299   126.0811
  401.5000  -999.2500   -26.7868     9.1581     8.0561   126.0586
  402.0000  -999.2500   -26.5841     9.2765     8.1310   124.5337
  402.5000  -999.2500   -26.2840     9.4044     8.2812   123.6236
  403.0000  -999.2500   -26.0795     9.5905     8.4034   122.9880
  403.5000  -999.2500   -25.9819     9.7730     8.5280   121.4625
  404.0000  -999.2500   -26.1329     9.9837     8.5813   120.6206
  404.5000  -999.2500   -26.2840    10.0597     8.5810   119.6198
  405.0000  -999.2500   -26.4451    10.1424     8.5805   118.3913
  405.5000  -999.2500   -26.8882    10.2251     8.5802   116.8694
  406.0000  -999.2500   -27.0957    10.2844     8.5357   116.6167
  406.5000  -999.2500   -27.3480    10.3595     8.5042   115.3202
  407.0000  -999.2500   -27.4924    10.3593     8.5037   115.3003
  407.5000  -999.2500   -27.6435    10.2839     8.4281   115.2778
  408.0000  -999.2500   -27.7946    10.2787     8.4107   115.2520
  408.5000  -999.2500   -27.7946    10.2083     8.3520   115.2327
  409.0000  -999.2500   -27.9456     9.9521     8.2352   115.2102
  409.5000  -999.2500   -27.9360     9.9211     8.1695   115.1838
  410.0000  -999.2500   -27.4924     9.8464     7.9744   117.7678
  410.5000  -999.2500   -27.0684     9.7468     7.7837   121.1765
  411.0000  -999.2500   -26.7261     9.6036     7.6584   124.1246
  411.5000  -999.2500   -26.5861     9.4393     7.5214   126.0911
  412.0000  -999.2500   -26.4350     9.2735     7.4076   127.0871
  412.5000  -999.2500   -26.2840     9.0588     7.2822   128.5661
  413.0000  -999.2500   -26.1329     8.9419     7.2191   128.5435
  413.5000  -999.2500   -26.1329     8.8717     7.2188   128.5201
  414.0000  -999.2500   -26.2840     8.8151     7.2184   128.4985
  414.5000  -999.2500   -26.4350     8.7607     7.2180   128.4760
  415.0000  -999.2500   -26.6516     8.7379     7.2929   128.4519
  415.5000  -999.2500   -26.9194     8.7152     7.3021   128.4309
  416.0000  -999.2500   -27.3414     8.7753     7.4427   128.1281
  416.5000  -999.2500   -27.4924     8.8775     7.5513   126.8822
  417.0000  -999.2500   -27.6435     8.9602     7.7512   126.1262
  417.5000  -999.2500   -27.4924     9.0309     7.8181   123.8364
  418.0000  -999.2500   -27.4924     9.0789     7.9252   122.3095
  418.5000  -999.2500   -27.4924     9.1216     8.0498   121.6216
  419.0000  -999.2500   -27.3414     9.1358     8.1935   119.2643
  419.5000  -999.2500   -27.3414     9.1409     8.2990   117.7368
  420.0000  -999.2500   -27.3213     9.2108     8.4187   116.2162
  420.5000  -999.2500   -27.1903     9.2656     8.4935   114.6922
  421.0000  -999.2500   -27.0393     9.3099     8.3888   114.6656
  421.5000  -999.2500   -26.8882     9.4664     8.3423   114.1141
  422.0000  -999.2500   -26.7372     9.6681     8.3418   113.1231
  422.5000  -999.2500   -26.6642     9.9029     8.2662   114.0889
  423.0000  -999.2500   -26.5629     9.9514     8.2638   114.5838
  423.5000  -999.2500   -26.4350     9.9779     8.1901   116.0580
  424.0000  -999.2500   -26.3605     9.9927     8.1144   116.0361
  424.5000  -999.2500   -26.2840     9.9309     8.0383   116.0135
  425.0000  -999.2500   -26.2840     9.7666     7.9631   117.4914
  425.5000  -999.2500   -26.6621     9.6397     7.9627   117.4700
  426.0000  -999.2500   -26.9406     9.5514     7.9623   117.4474
  426.5000  -999.2500   -27.3414     9.4950     7.9620   117.4232
  427.0000  -999.2500   -27.4924     9.4733     7.9847   117.4024
  427.5000  -999.2500   -27.4924     9.4797     8.0365   117.6428
  428.0000  -999.2500   -27.4924     9.5096     8.0362   118.8589
  428.5000  -999.2500   -27.4134     9.5095     8.1111   118.8363
  429.0000  -999.2500   -27.3122     9.5088     8.1860   118.8138
  429.5000  -999.2500   -27.0393     9.4790     8.3066   117.2868
  430.0000  -999.2500   -26.8077     9.4438     8.4312   117.2673
  430.5000  -999.2500   -26.4043     9.4336     8.5614   117.1173
  431.0000  -999.2500   -26.1329     9.6628     8.6805   115.7171
  431.5000  -999.2500   -25.8998     9.9857     8.8237   114.1967
  432.0000  -999.2500   -25.6476    10.2012     9.0873   112.6127
  432.5000  -999.2500   -25.6798    10.3642     9.2476   111.1444
  433.0000  -999.2500   -26.0655    10.5372     9.4973   109.1092
  433.5000  -999.2500   -26.3177    10.7279     9.7639   105.0975
  434.0000  -999.2500   -26.5861    10.8834    10.0376   102.6027
  434.5000  -999.2500   -26.7372    11.1317    10.3356    99.6522
  435.0000  -999.2500   -26.8882    11.4051    10.6048    96.0203
  435.5000  -999.2500   -27.0393    11.7400    10.8739    92.6905
  436.0000  -999.2500   -27.0393    12.0925    11.1431    89.5895
  436.5000  -999.2500   -27.0393    12.3083    11.4123    85.4417
  437.0000  -999.2500   -27.0393    12.4914    11.6814    84.5846
  437.5000  -999.2500   -27.0393    12.6908    11.9070    82.3949
  438.0000  -999.2500   -27.0393    12.9102    12.0437    80.8690
  438.5000  -999.2500   -27.0393    13.0142    12.2451    80.0800
  439.0000  -999.2500   -26.9497    13.1408    12.3200    79.3244
  439.5000  -999.2500   -26.8882    13.3616    12.3950    79.2993
  440.0000  -999.2500   -25.0313    13.5120    12.3712    85.7155
  440.5000  -999.2500   -25.0372    13.1721    12.2927    85.7895
  441.0000  -999.2500   -25.0430    13.0210    12.1387    85.8647
  441.5000  -999.2500   -25.0489    12.9451    11.9847    85.9528
  442.0000  -999.2500   -25.0548    12.8692    11.7552    86.0257
  442.5000  -999.2500   -25.0606    12.7931    11.5244    87.6025
  443.0000  -999.2500   -25.0665    12.5668    11.3716    87.6755
  443.5000  -999.2500   -25.2230    12.2653    11.1414    89.2523
  444.0000  -999.2500   -25.8393    12.1142    11.0630    90.8290
  444.5000  -999.2500   -26.4639    12.0383    10.9845    90.9022
  445.0000  -999.2500   -26.5975    12.1128    11.0578    90.9774
  445.5000  -999.2500   -26.6033    12.2624    11.1304    91.0663
