~VERSION INFORMATION
 VERS.                2.0:   CWLS LOG ASCII STANDARD - VERSION 2.0
 WRAP.                 NO:   ONE LINE PER DEPTH STEP
~WELL INFORMATION
#MNEM.UNIT      DATA TYPE    INFORMATION
#----------   ------------   ------------------------------
 STRT.F           33.0000:   START DEPTH
 STOP.F         1374.0000:   STOP DEPTH
 STEP.F            0.5000:   STEP LENGTH
 NULL.          -999.2500:   NO VALUE
 COMP. FENIX & SCISSON INC:   COMPANY
 WELL.   NPR-3 "S" #84-14:   WELL
 FLD .             TEAPOT:   FIELD
 LOC .      S14 T38N R78W:   LOCATION
 CNTY.            NATRONA:   COUNTY
 STAT.            WYOMING:   STATE
 CTRY. UNITED STATES OF AMERICA:   COUNTRY
 SRVC.            Unknown:   SERVICE COMPANY
 DATE.        18-MAR-1978:   LOGDATE
 API .       490251060400:   API NUMBER
~CURVE INFORMATION
#MNEM.UNIT       API CODE    CURVE DESCRIPTION
#----------   ------------   ------------------------------
 DEPT.F                  :   
 SPR .MV     05 010 01 00:   SPONTANEOUS POTENTIAL FROM RES.
 SN  .OHMM   05 040 16 00:   SHORT NORMAL 16"
 ILD .OHMM   05 120 46 00:   INDUCTION LOG DEEP
 CALD.IN     45 280 60 00:   CALIPER
 GRD .GAPI   45 310 01 00:   GAMMA RAY FROM DENSITY LOG
 CORR.G/C3   45 356 01 00:   DENSITY CORRECTION
 RHOB.G/C3   45 350 01 00:   BULK DENSITY
 DPHI.DEC    45 890 00 00:   DENSITY POROSITY
~PARAMETER INFORMATION
#MNEM.UNIT          VALUE    DESCRIPTION
#----------   ------------   ------------------------------
 PD  .                 GL:   PERMANENT DATUM
 EPD .F              5314:   ELEVATION PERMANENT DATUM
 LMF .                 KB:   LOG MEASURED FROM
 DMF .                 KB:   DRILLING MEASURED FROM
 EKB .F              5318:   KELLING BUSHING
 EGL .F              5314:   GROUND LEVEL
 DATE.          3-18-1978:   RUN DATE
 RUN .                  1:   RUN NUMBER
 DD  .F              1375:   DEPTH DRILLER
 DL  .F              1380:   DEPTH LOGGER
 BLI .F              1374:   BOTTOM LOG INTERVAL
 TLI .F                50:   TOP LOG INTERVAL
 CS  .IN            8.625:   CASING SIZE
 CBD .F                40:   CASING BOTTOM DRILLER
 CBL .F                50:   CASING BOTTOM LOGGER
 BS  .IN            7.875:   BIT SIZE
 BSD .F              1375:   BIT SIZE AT DEPTH
 DFT .                KCL:   DRILLING FLUID TYPE
 DFD .                8.1:   DRILLING FLUID DENSITY
 DFV .                 31:   DRILLING FLUID VISCOSITY
 DFPH.                 10:   DRILLING FLUID PH
 DFL .                8.4:   DRILLING FLUID LOSS
 MSS .           FLOWLINE:   MUD SAMPLE SOURCE
 RMS .OHMM            .28:   RESISTIVITY MUD SAMPLE
 MST .F                62:   MUD SAMPLE TEMPERATURE
 RMF .OHMM            .26:   RESISTIVITY MUD FILTRATE SAMPLE
 MFST.F                67:   MUD FILTRATE SAMPLE TEMPERATURE
 RMC .OHMM            .36:   RESISTIVITY MUD CAKE
 MCST.F                70:   MUD CAKE SAMPLE TEMPERATURE
 MFSS.               MEAS:   MUD FILTRATE SAMPLE SOURCE
 RMB .OHMM            .22:   RESISTIVITY MUD AT BHT
 BHT .F                80:   BOTTOM HOLE TEMPERATURE
 TCS .HRS               4:   TIME CURCULATED STOPPED
 MRT .F                80:   MAXIMUM RECORDED TEMPERATURE
 LUN .               2958:   LOGGING UNIT NUMBER
 LUL .               CASP:   LOGGING UNIT LOCATION
 ENGI.             MILLER:   RECORDING ENGINEER
 WITN.           MCGINLEY:   WITNESSED BY
 CLNT.            A2DTECH:   CLIENT CODE
 ORIG.      2" & 5" PRINT:   ORIGIN OF DATA
 UWI .       490251060400:   UNIQUE WELL ID
 DICO. A2D Technologies, Inc.:   DIGITIZING COMPANY
~OTHER INFORMATION
~A   DEPT      SPR         SN        ILD       CALD         GRD      CORR       RHOB       DPHI   
# ...
 1086.0000   -42.4165     6.7957     6.1747     7.4555   111.7225     0.0212     2.4940     0.0861
 1086.5000   -42.1650     6.7922     6.1974     7.4746   111.6074     0.0220     2.4917     0.0874
 1087.0000   -42.1122     6.7886     6.2200     7.4937   110.9674     0.0227     2.4907     0.0784
 1087.5000   -42.1159     6.7851     6.2427     7.5129   111.1730     0.0203     2.5005     0.0761
 1088.0000   -42.2507     6.7816     6.2654     7.5324   109.1071     0.0145     2.5104     0.0770
 1088.5000   -42.7251     6.7781     6.2809     7.5521   108.3039     0.0086     2.5075     0.0740
 1089.0000   -43.1895     6.7746     6.2366     7.6013   108.3800     0.0033     2.5105     0.0714
 1089.5000   -43.4206     6.7711     6.1893     7.6031   108.4161     0.0011     2.5141     0.0742
 1090.0000   -43.4302     6.7674     6.1424     7.6011   107.3265     0.0064     2.5128     0.0775
 1090.5000   -43.1435     6.7638     6.0943     7.5997   106.8501     0.0116     2.5064     0.0809
 1091.0000   -43.3150     6.7205     6.0510     7.5985   106.8509     0.0168     2.5001     0.0822
 1091.5000   -43.7001     6.6359     5.9573     7.5971   106.8943     0.0211     2.4964     0.0818
 1092.0000   -43.6302     6.5523     5.8781     7.5958   108.3126     0.0176     2.5010     0.0790
 1092.5000   -43.4620     6.4697     5.7994     7.5945   110.5379     0.0141     2.5045     0.0806
 1093.0000   -43.3206     6.3881     5.7212     7.5932   110.7837     0.0107     2.4999     0.0879
 1093.5000   -43.6137     6.3075     5.6441     7.5919   108.2033     0.0072     2.4925     0.0954
 1094.0000   -43.9142     6.2280     5.5679     7.5906   107.2560     0.0037     2.4776     0.1030
 1094.5000   -44.2122     6.1295     5.4928     7.5893   108.8705     0.0044     2.4573     0.1105
 1095.0000   -44.5097     5.9589     5.4187     7.5880   111.0282     0.0061     2.4467     0.1148
 1095.5000   -44.8073     5.7930     5.2963     7.5867   112.1638     0.0078     2.4464     0.1177
 1096.0000   -45.1048     5.5760     5.1776     7.5854   113.2822     0.0088     2.4403     0.1265
 1096.5000   -45.4024     5.3270     5.0613     7.5841   113.6072     0.0071     2.4294     0.1375
 1097.0000   -45.7000     5.0226     4.8896     7.5818   113.2430     0.0055     2.4187     0.1500
 1097.5000   -45.9976     4.7168     4.3200     7.5725   113.8561     0.0038     2.3967     0.1638
 1098.0000   -46.2962     4.4297     3.8166     7.5632   114.5723     0.0052     2.3712     0.1776
 1098.5000   -46.5532     4.0380     3.3724     7.5539   113.1308     0.0093     2.3456     0.1914
 1099.0000   -46.6343     3.5871     2.9799     7.5445   110.1965     0.0141     2.3200     0.2051
 1099.5000   -46.4134     3.1865     2.6115     7.5352   109.2946     0.0234     2.2946     0.2189
 1100.0000   -46.2030     2.8307     2.2099     7.5285   109.4039     0.0328     2.2683     0.2226
 1100.5000   -46.1731     2.5424     2.2162     7.4488   106.5662     0.0424     2.2612     0.1946
 1101.0000   -46.3253     2.5424     2.2145     7.4067   103.3765     0.0407     2.2966     0.1728
 1101.5000   -46.4727     2.5623     2.0828     7.3840   100.4888     0.0248     2.3450     0.1552
 1102.0000   -45.7701     2.5918     2.0373     7.3677   100.9077     0.0260     2.3840     0.1417
 1102.5000   -44.6317     2.6380     2.2193     7.3346   106.3052     0.0226     2.3984     0.1294
 1103.0000   -44.1069     3.0074     2.3948     7.3042   112.2357     0.0140     2.4131     0.1174
 1103.5000   -43.7915     3.3844     2.6244     7.2934   115.7615     0.0193     2.4334     0.1078
 1104.0000   -43.5081     3.8011     2.8560     7.2849   115.8032     0.0263     2.4545     0.1087
 1104.5000   -43.4363     4.2480     3.2128     7.2569   115.9440     0.0337     2.4538     0.1099
 1105.0000   -43.3716     4.6792     3.6141     7.2164   116.5008     0.0398     2.4518     0.1106
 1105.5000   -43.3050     4.8983     3.9444     7.1752   116.8027     0.0521     2.4500     0.1091
 1106.0000   -43.1874     4.9868     4.2247     7.1241   116.8713     0.0639     2.4496     0.1098
 1106.5000   -43.0701     5.0156     4.4640     7.1007   117.1733     0.0755     2.4532     0.1144
 1107.0000   -42.9543     5.0443     4.4640     7.0897   117.3477     0.0766     2.4472     0.1186
 1107.5000   -42.9692     5.0813     4.3145     7.0794   117.2336     0.0735     2.4411     0.1274
 1108.0000   -43.2674     4.9756     4.0704     7.0685   118.1333     0.0762     2.4278     0.1362
 1108.5000   -43.5272     4.8022     3.9230     7.0674   119.0367     0.0832     2.4128     0.1286
 1109.0000   -43.5867     4.6350     3.8800     7.1316   119.8179     0.0900     2.4211     0.1194
 1109.5000   -43.6502     4.4648     3.8243     7.1969   122.1790     0.0894     2.4332     0.1127
 1110.0000   -43.6504     4.4365     3.7694     7.2618   123.5046     0.0858     2.4491     0.1082
 1110.5000   -43.3204     4.4230     3.7116     7.3268   121.6147     0.0822     2.4501     0.1038
 1111.0000   -43.2841     4.5570     3.7116     7.3922   119.6936     0.0781     2.4636     0.0947
 1111.5000   -43.7866     4.7182     3.7116     7.4037   117.7676     0.0706     2.4771     0.0878
 1112.0000   -44.2829     4.8541     3.8302     7.4028   116.7837     0.0518     2.4905     0.0842
 1112.5000   -44.5480     5.0513     3.9999     7.4013   117.6086     0.0333     2.4924     0.0836
 1113.0000   -44.6250     5.2564     4.1772     7.3999   118.6081     0.0206     2.4966     0.0821
 1113.5000   -44.5291     5.4698     4.3623     7.3985   118.5266     0.0152     2.5012     0.0783
 1114.0000   -43.7097     5.6746     4.6217     7.3971   118.5079     0.0088     2.5060     0.0754
 1114.5000   -43.4077     5.9064     4.9848     7.3957   118.7896     0.0090     2.5112     0.0770
 1115.0000   -43.7124     6.1302     5.1505     7.3943   118.5908     0.0090     2.5100     0.0785
 1115.5000   -43.4891     6.3625     5.3220     7.3929   117.8440     0.0090     2.5063     0.0801
 1116.0000   -43.1885     6.4115     5.4985     7.3916   116.3384     0.0090     2.5026     0.0818
 1116.5000   -42.8867     6.4325     5.6757     7.3902   114.8523     0.0090     2.4990     0.0835
 1117.0000   -42.5843     6.4573     5.6589     7.3888   114.7832     0.0090     2.4955     0.0842
 1117.5000   -42.3182     6.4226     5.6235     7.3874   115.4413     0.0090     2.4963     0.0809
 1118.0000   -42.4022     6.3414     5.5882     7.3860   118.1916     0.0080     2.4974     0.0834
 1118.5000   -42.4890     6.2613     5.5530     7.3846   119.9950     0.0068     2.4932     0.0943
 1119.0000   -42.5741     6.1822     5.5180     7.3832   118.8326     0.0056     2.4827     0.0953
 1119.5000   -42.6589     6.1661     5.4830     7.3818   117.8148     0.0043     2.4726     0.0938
 1120.0000   -42.7431     6.1661     5.4369     7.3804   118.9001     0.0031     2.4757     0.0961
 1120.5000   -42.8261     6.1661     5.3833     7.3791   120.1125     0.0019     2.4723     0.0993
 1121.0000   -42.9249     6.0603     5.3301     7.3777   120.7635     0.0007     2.4726     0.0926
 1121.5000   -43.3638     5.9539     5.2773     7.3763   120.7467    -0.0005     2.4775     0.0957
 1122.0000   -43.6684     5.8496     5.2223     7.3749   119.4734    -0.0023     2.4772     0.1030
 1122.5000   -43.4389     5.7287     5.0827     7.3735   117.9462    -0.0044     2.4646     0.1104
 1123.0000   -43.5284     5.5289     4.9393     7.3721   116.6215    -0.0065     2.4591     0.1177
 1123.5000   -44.0522     5.3234     4.8000     7.3707   117.5696    -0.0087     2.4293     0.1251
 1124.0000   -44.5711     5.1265     4.4997     7.3694   118.6387    -0.0057     2.4248     0.1324
 1124.5000   -45.0961     4.9241     4.1601     7.3680   119.5810    -0.0002     2.4160     0.1398
 1125.0000   -45.7042     4.7182     3.8159     7.3666   119.6018     0.0053     2.4042     0.1471
 1125.5000   -44.9800     4.5230     3.7846     7.3655   120.2848     0.0109     2.3881     0.1486
 1126.0000   -44.0784     4.3782     3.8587     7.3635   121.0043     0.0146     2.3985     0.1326
