~VERSION INFORMATION
 VERS.                2.0:   CWLS LOG ASCII STANDARD - VERSION 2.0
 WRAP.                 NO:   ONE LINE PER DEPTH STEP
~WELL INFORMATION
#MNEM.UNIT      DATA TYPE    INFORMATION
#----------   ------------   ------------------------------
 STRT.F           86.0000:   START DEPTH
 STOP.F         1134.0000:   STOP DEPTH
 STEP.F            0.5000:   STEP LENGTH
 NULL.          -999.2500:   NO VALUE
 COMP.          U.S. NAVY:   COMPANY
 WELL. RES 3 TEAPOT DOM #64-S-2:   WELL
 FLD .             TEAPOT:   FIELD
 LOC .       S2 T38N R78W:   LOCATION
 CNTY.            NATRONA:   COUNTY
 STAT.            WYOMING:   STATE
 CTRY. UNITED STATES OF AMERICA:   COUNTRY
 SRVC. Schlumberger Well Surveying Corp:   SERVICE COMPANY
 DATE.        28-JUL-1964:   LOGDATE
 API .       490250644400:   API NUMBER
~CURVE INFORMATION
#MNEM.UNIT       API CODE    CURVE DESCRIPTION
#----------   ------------   ------------------------------
 DEPT.F                  :   
 ASN .OHMM   05 041 16 00:   AMPLIFIED SHORT NORMAL 16"
 CILD.MMHO   05 110 46 00:   CONDUCTIVITY INDUCTION LOG DEEP
 ILD .OHMM   05 120 46 00:   INDUCTION LOG DEEP
 SPR .MV     05 010 01 00:   SPONTANEOUS POTENTIAL FROM RES.
 DT  .US/F   60 520 33 00:   INTERVAL TRANSIT TIME
 GR  .GAPI   30 310 01 00:   GAMMA RAY
~PARAMETER INFORMATION
#MNEM.UNIT          VALUE    DESCRIPTION
#----------   ------------   ------------------------------
 PD  .                 GL:   PERMANENT DATUM
 EPD .F              5204:   ELEVATION PERMANENT DATUM
 LMF .                 KB:   LOG MEASURED FROM
 DAPD.F                 5:   FEET ABOVE PERMANENT DATUM
 DMF .                 KB:   DRILLING MEASURED FROM
 EKB .F              5209:   KELLING BUSHING
 EGL .F              5204:   GROUND LEVEL
 DATE.        28-JUL-1964:   RUN DATE
 RUN .                  1:   RUN NUMBER
 DD  .F              1135:   DEPTH DRILLER
 DL  .F              1135:   DEPTH LOGGER
 BLI .F              1134:   BOTTOM LOG INTERVAL
 TLI .F                86:   TOP LOG INTERVAL
 CS  .IN            10.75:   CASING SIZE
 CBD .F                11:   CASING BOTTOM DRILLER
 BS  .IN            7.875:   BIT SIZE
 BSD .F              1135:   BIT SIZE AT DEPTH
 DFT .            GEL-OIL:   DRILLING FLUID TYPE
 DFD .                9.5:   DRILLING FLUID DENSITY
 DFV .                 49:   DRILLING FLUID VISCOSITY
 DFL .                 10:   DRILLING FLUID LOSS
 MSS .           FLOWLINE:   MUD SAMPLE SOURCE
 RMS .OHMM           2.35:   RESISTIVITY MUD SAMPLE
 MST .F                89:   MUD SAMPLE TEMPERATURE
 RMF .OHMM           1.71:   RESISTIVITY MUD FILTRATE SAMPLE
 MFST.F                89:   MUD FILTRATE SAMPLE TEMPERATURE
 RMC .OHMM           3.01:   RESISTIVITY MUD CAKE
 MCST.F                89:   MUD CAKE SAMPLE TEMPERATURE
 MFSS.                 FP:   MUD FILTRATE SAMPLE SOURCE
 MCSS.                 FP:   MUD CAKE SAMPLE SOURCE
 TCS .HRS               1:   TIME CURCULATED STOPPED
 LUN .               3527:   LOGGING UNIT NUMBER
 LUL .               CSPR:   LOGGING UNIT LOCATION
 ENGI.             KNOBEL:   RECORDING ENGINEER
 WITN.          JORGENSEN:   WITNESSED BY
 CLNT.            A2DTECH:   CLIENT CODE
 ORIG.        2" 5" PRINT:   ORIGIN OF DATA
 UWI .       490250644400:   UNIQUE WELL ID
 DICO. A2D Technologies, Inc.:   DIGITIZING COMPANY
~OTHER INFORMATION
~A   DEPT        ASN      CILD        ILD       SPR         DT         GR   
# ...
 1074.0000    10.4852    99.7189    10.3183   -33.2934   104.6637    34.2127
 1074.5000    10.3617   100.9388    10.1911   -32.4601    97.9999    35.4585
 1075.0000    10.3008   102.2208    10.0726   -29.7601    95.7108    36.3569
 1075.5000    10.2256   102.9631     9.9497   -27.5982    92.1002    35.4559
 1076.0000    10.1504   103.8454     9.8168   -26.7584    86.3030    39.5021
 1076.5000    10.1504   104.4465     9.7790   -26.3958    87.3474    39.9507
 1077.0000    10.1504   105.1883     9.7425   -26.1490    88.9422    36.8005
 1077.5000    10.1504   105.9306     9.7429   -25.8543    88.1152    37.2488
 1078.0000    10.1504   105.9168     9.7432   -25.7031    87.5893    33.9490
 1078.5000    10.1757   105.9074     9.7436   -25.5517    87.6652    31.8486
 1079.0000    10.2256   105.8961     9.8191   -25.5502    87.9669    33.6502
 1079.5000    10.3008   105.4092     9.8463   -25.5142    87.9809    33.9446
 1080.0000    10.3008   104.9197     9.8949   -25.3972    87.5169    38.1709
 1080.5000    10.3759   104.3555     9.9703   -25.3204    87.3672    36.9401
 1081.0000    10.3759   103.5919    10.0458   -25.2444    88.2824    38.4376
 1081.5000    10.3907   102.8276    10.1213   -25.0927    88.1965    39.1857
 1082.0000    10.4511   102.0619    10.1642   -25.0915    87.7458    40.5339
 1082.5000    10.4511   101.7195    10.1971   -25.0900    87.8970    37.6835
 1083.0000    10.4511   101.2877    10.1975   -25.0882    88.2740    40.8305
 1083.5000    10.4511   101.2744    10.1978   -25.0627    88.5004    38.7301
 1084.0000    10.3449   102.2790    10.1982   -24.9355    88.0497    33.5832
 1084.5000    10.2965   103.5127    10.1986   -24.9340    87.2227    34.5292
 1085.0000    10.1504   104.7189    10.1677   -24.9325    86.5438    34.9875
 1085.5000    10.0494   105.9386    10.1199   -24.9309    86.5578    37.7091
 1086.0000     9.9248   107.2432    10.0496   -24.7796    88.0528    37.3730
 1086.5000     9.7549   108.3786     9.9492   -24.6282    89.1822    36.4720
 1087.0000     9.6035   108.8452     9.8251   -24.4766    88.8067    40.3686
 1087.5000     9.4737   110.2207     9.6565   -24.2629    88.5815    45.3147
 1088.0000     9.3564   110.5322     9.5055   -24.0160    88.5825    42.4646
 1088.5000     9.2481   111.7060     9.3007   -23.7224    88.8842    40.3642
 1089.0000     9.2481   111.6922     9.1847   -23.5223    89.3364    38.7136
 1089.5000     9.2850   112.4360     9.0762   -23.2698    89.7903    43.5097
 1090.0000     9.4085   112.4245     9.2268   -23.0285    90.4013    44.4579
 1090.5000     9.6241   112.4134     9.3378   -23.1172    90.9941    42.3014
 1091.0000     9.7308   112.4021     9.4615   -23.1153    91.1452    41.4063
 1091.5000     9.8544   112.3899     9.6033   -23.1139    90.9954    42.9038
 1092.0000    10.0000   111.6265     9.6336   -22.9625    90.6201    41.1032
 1092.5000    10.0000   111.5085     9.7557   -22.8109    90.0941    39.9023
 1093.0000    10.0000   110.0963     9.8297   -22.7466    89.5681    39.6012
 1093.5000    10.0752   110.0866     9.8300   -22.6497    89.0422  -999.2500
 1094.0000    10.0752   109.3223     9.8303   -22.5065    87.9846  -999.2500
 1094.5000    10.0752   109.3088     9.8307   -22.5052    86.3915  -999.2500
 1095.0000    10.0326   109.2997     9.8123   -22.6536    86.0346  -999.2500
 1095.5000    10.0000   109.2881     9.7564   -22.6522    87.0137  -999.2500
 1096.0000    10.0000   109.2771     9.7568   -22.6867    88.5193  -999.2500
 1096.5000    10.0000   109.2658     9.6820   -22.7991    88.4448  -999.2500
 1097.0000     9.9248   110.0065     9.6825   -22.7976    87.6931  -999.2500
 1097.5000     9.9248   109.9962     9.6077   -22.6462    87.3176  -999.2500
 1098.0000     9.8496   110.0802     9.5005   -22.4946    88.2212  -999.2500
 1098.5000     9.7744   111.4780     9.4527   -22.4298    88.8996  -999.2500
 1099.0000     9.6992   111.7672     9.3086   -22.3328    89.2094  -999.2500
 1099.5000     9.6724   112.2338     9.2070   -22.1901    89.5028  -999.2500
 1100.0000     9.9060   112.9518     9.1592   -21.9890    89.8045  -999.2500
 1100.5000     9.9850   113.9208     9.0363   -21.7376    90.1062  -999.2500
 1101.0000     9.8947   115.1878     8.9134   -21.5862    90.4079  -999.2500
 1101.5000     9.7808   116.3604     8.7849   -21.3983    90.3334  -999.2500
 1102.0000     9.6590   117.5804     8.6677   -21.2832    89.8074  -999.2500
 1102.5000     9.4737   118.9183     8.5448   -21.0545    89.5824  -999.2500
 1103.0000     9.2892   120.0201     8.4107   -20.8306    89.8089  -999.2500
 1103.5000     9.0949   121.9930     8.2991   -20.6790    90.2014  -999.2500
 1104.0000     8.9173   123.4019     8.1661   -20.6777    91.0144  -999.2500
 1104.5000     8.7202   124.7201     7.9614   -20.6762    91.6171  -999.2500
 1105.0000     8.4812   127.1840     7.7490   -20.6744    92.1446  -999.2500
 1105.5000     8.1504   131.3566     7.4235   -20.6732    92.5968  -999.2500
 1106.0000     7.8677   137.2388     6.3860   -20.5217    93.1242  -999.2500
 1106.5000     7.5443   148.1960     5.5548   -20.5202    93.5764  -999.2500
 1107.0000     7.2782   157.2289     4.4347   -20.4818    93.7660  -999.2500
 1107.5000     6.9424   175.1561     3.9658   -20.3672    94.6812  -999.2500
 1108.0000     6.4211   210.6615     3.8148   -20.1379    96.2502  -999.2500
 1108.5000     5.7056   231.9695     3.6851   -19.8676   100.3063  -999.2500
 1109.0000     5.2522   238.5022     3.5691   -19.3132   102.0350  -999.2500
 1109.5000     4.9774   236.2293     3.5213   -18.7331   105.1935  -999.2500
 1110.0000     4.8742   234.1616     3.4610   -18.4109   104.5896  -999.2500
 1110.5000     5.0703   232.4411     3.7935   -19.3086   103.2334  -999.2500
 1111.0000     5.5639   229.9673     4.2564   -19.8591   101.5009  -999.2500
 1111.5000     6.7564   225.9221     5.0387   -20.2054    99.0913  -999.2500
 1112.0000     7.7667   215.0897     5.5946   -20.3538    93.8975  -999.2500
 1112.5000     8.0752   197.7279     6.1843   -20.3898    93.1432  -999.2500
 1113.0000     8.2219   158.5384     6.9167   -20.5007    92.8404  -999.2500
 1113.5000     8.3798   129.2118     7.1160   -20.4993    92.6128  -999.2500
 1114.0000     8.5564   129.2018     7.3679   -20.4978    92.9872  -999.2500
 1114.5000     8.6656   129.1905     7.6097   -20.4961    93.1358  -999.2500
 1115.0000     8.8271   129.1773     7.8566   -20.3448    93.0493  -999.2500
 1115.5000     9.0116   128.1501     8.1198   -20.3433    92.8307  -999.2500
 1116.0000     9.1469   126.8975     8.3103   -20.3416    92.6031  -999.2500
 1116.5000     9.2932   125.1972     8.5090   -20.3403    92.3755  -999.2500
 1117.0000     9.4009   123.4764     8.7215   -20.1889    92.1480  -999.2500
 1117.5000     9.5298   120.8389     8.9064   -20.1874    91.8451  -999.2500
 1118.0000     9.6842   118.9258     9.1051   -20.1859    91.5423  -999.2500
 1118.5000    10.0000   116.8085     9.3233   -20.1843    91.2395  -999.2500
 1119.0000    10.0000   114.0272     9.4562   -20.1829    91.0119  -999.2500
 1119.5000    10.0000   112.1863     9.6261   -20.3315    90.7091  -999.2500
 1120.0000    10.1504   110.1908     9.7498   -20.3898    90.4062  -999.2500
 1120.5000    10.3291   107.9686     9.8734   -20.4783    90.1034  -999.2500
 1121.0000    10.5278   106.1999    10.0008   -20.6268    89.7253  -999.2500
 1121.5000    10.7013   104.9358    10.0762   -20.7748    89.2686  -999.2500
 1122.0000    10.8501   103.7148    10.0941   -20.8256    88.9604  -999.2500
 1122.5000    10.9774   103.2255    10.1521   -21.0719    88.6659  -999.2500
 1123.0000    11.0973   101.8892    10.1524   -21.1634    88.5888  -999.2500
 1123.5000    11.2208   101.4934    10.1528   -21.2574    88.5870  -999.2500
 1124.0000    11.2782   101.0041    10.0781   -21.5171    88.6608  -999.2500
 1124.5000    11.2782   100.3486    10.0785   -21.5952    88.5080  -999.2500
 1125.0000    11.2782   100.3389    10.0037   -21.6891    88.2804  -999.2500
 1125.5000    11.2782    99.5745     9.9291   -21.8126    88.1286  -999.2500
