~VERSION INFORMATION
 VERS.                2.0:   CWLS LOG ASCII STANDARD - VERSION 2.0
 WRAP.                 NO:   ONE LINE PER DEPTH STEP
~WELL INFORMATION
#MNEM.UNIT      DATA TYPE    INFORMATION
#----------   ------------   ------------------------------
 STRT.F           80.0000:   START DEPTH
 STOP.F          808.0000:   STOP DEPTH
 STEP.F            0.5000:   STEP LENGTH
 NULL.          -999.2500:   NO VALUE
 COMP.           U S NAVY:   COMPANY
 WELL.     NRP #3 #38-S-2:   WELL
 FLD .             TEAPOT:   FIELD
 LOC .       S2 T38N R78W:   LOCATION
 CNTY.            NATRONA:   COUNTY
 STAT.            WYOMING:   STATE
 CTRY. UNITED STATES OF AMERICA:   COUNTRY
 SRVC.       Schlumberger:   SERVICE COMPANY
 DATE.        18-JUN-1962:   LOGDATE
 API .       490250639100:   API NUMBER
~CURVE INFORMATION
#MNEM.UNIT       API CODE    CURVE DESCRIPTION
#----------   ------------   ------------------------------
 DEPT.F                  :   
 GR  .GAPI   30 310 01 00:   GAMMA RAY
 SPR .MV     05 010 01 00:   SPONTANEOUS POTENTIAL FROM RES.
 ASN .OHMM   05 041 16 00:   AMPLIFIED SHORT NORMAL 16"
 ILD .OHMM   05 120 46 00:   INDUCTION LOG DEEP
 CILD.MMHO   05 110 46 00:   CONDUCTIVITY INDUCTION LOG DEEP
 CALM.IN     15 280 01 00:   CALIPER FROM MICRO LOG
~PARAMETER INFORMATION
#MNEM.UNIT          VALUE    DESCRIPTION
#----------   ------------   ------------------------------
 PD  .                 GL:   PERMANENT DATUM
 EPD .F              5146:   ELEVATION PERMANENT DATUM
 LMF .                 KB:   LOG MEASURED FROM
 DAPD.F                 5:   FEET ABOVE PERMANENT DATUM
 DMF .                 KB:   DRILLING MEASURED FROM
 EKB .F              5151:   KELLING BUSHING
 EGL .F              5146:   GROUND LEVEL
 DATE.          6-18-1962:   RUN DATE
 RUN .                  1:   RUN NUMBER
 DD  .F              1000:   DEPTH DRILLER
 DL  .F               808:   DEPTH LOGGER
 BLI .F               807:   BOTTOM LOG INTERVAL
 TLI .F                80:   TOP LOG INTERVAL
 BS  .IN             8.75:   BIT SIZE
 BSD .F              1000:   BIT SIZE AT DEPTH
 DFT .       OIL EMULSION:   DRILLING FLUID TYPE
 DFD .                8.7:   DRILLING FLUID DENSITY
 DFV .                 58:   DRILLING FLUID VISCOSITY
 DFL .                  4:   DRILLING FLUID LOSS
 RMS .OHMM           3.77:   RESISTIVITY MUD SAMPLE
 MST .F                79:   MUD SAMPLE TEMPERATURE
 RMF .OHMM           2.47:   RESISTIVITY MUD FILTRATE SAMPLE
 MFST.F                79:   MUD FILTRATE SAMPLE TEMPERATURE
 RMC .OHMM           3.29:   RESISTIVITY MUD CAKE
 MCST.F                79:   MUD CAKE SAMPLE TEMPERATURE
 TCS .HRS               1:   TIME CURCULATED STOPPED
 LUN .               2503:   LOGGING UNIT NUMBER
 LUL .               CSPR:   LOGGING UNIT LOCATION
 ENGI.             DANNER:   RECORDING ENGINEER
 WITN.          JORGENSEN:   WITNESSED BY
 CLNT.            A2DTECH:   CLIENT CODE
 ORIG.   1", 2", 5" PRINT:   ORIGIN OF DATA
 UWI .       490250639100:   UNIQUE WELL ID
 DICO. A2D Technologies, Inc.:   DIGITIZING COMPANY
~OTHER INFORMATION
~A   DEPT       GR        SPR          ASN        ILD      CILD      CALM   
# ...
  652.0000    35.4042   -79.7240    29.0401    23.9790    43.1052     8.0465
  652.5000    33.0787   -79.7470    28.6705    23.7324    43.3614     8.0461
  653.0000    31.7631   -79.1423    28.1961    23.4162    43.6163     8.0283
  653.5000    38.3259   -78.5298    27.7418    23.0987    43.8714     8.0090
  654.0000    40.4737   -78.0055    27.3344    22.8110    44.1265     7.9886
  654.5000    30.7416   -78.0971    27.3728    22.8733    44.3815     8.0255
  655.0000    29.6610   -78.1971    27.4736    22.9690    44.6366     8.0937
  655.5000    27.5002   -78.2987    27.5765    23.0644    44.8914     8.1733
  656.0000    24.2027   -78.3847    27.6611    23.1653    45.1455     8.2532
  656.5000    28.1211   -77.6108    27.4648    23.1017    45.3993     8.3332
  657.0000    31.7307   -76.7520    27.0388    22.9728    45.6569     8.4077
  657.5000    38.4431   -75.8944    26.6251    22.6599    46.9121     8.4095
  658.0000    44.3394   -75.0802    26.2144    22.1384    48.6570     8.4095
  658.5000    60.8695   -74.5622    25.8040    21.6180    50.4018     8.4296
  659.0000    57.2885   -74.5033    25.3936    21.0994    52.1466     8.5211
  659.5000    54.7475   -74.4591    24.9829    20.6657    53.7831     8.6092
  660.0000    52.2167   -74.4106    24.5720    20.5142    54.3725     8.6764
  660.5000    52.9124   -74.3610    24.1630    20.3562    55.0566     8.6909
  661.0000    53.1836   -74.1524    23.8117    20.1910    55.7406     8.7058
  661.5000    52.6829   -73.8167    23.6507    20.1440    56.4247     8.7207
  662.0000    48.1188   -73.5889    23.4842    20.1423    56.5598     8.7358
  662.5000    45.9435   -74.0022    23.3174    20.1432    56.0317     8.7506
  663.0000    47.3978   -74.4186    23.1602    20.1457    55.5037     8.7662
  663.5000    48.4777   -74.8326    22.8439    20.1315    54.9757     8.7184
  664.0000    50.5680   -75.2464    22.4910    19.7908    56.5540     8.6242
  664.5000    51.2113   -75.6681    22.1373    19.4485    59.2902     8.5282
  665.0000    49.2317   -75.6234    21.7850    19.1085    61.5573     8.4881
  665.5000    45.1838   -75.3887    21.4322    18.7707    63.2295     8.4598
  666.0000    43.7276   -75.1496    21.0796    18.4330    64.9016     8.4582
  666.5000    42.9690   -74.9097    20.7754    18.1922    66.3058     8.4714
  667.0000    43.6845   -74.6706    20.6508    17.9685    67.3587     8.4859
  667.5000    44.8504   -74.4311    20.5226    17.7458    68.4187     8.4456
  668.0000    46.8118   -74.1864    20.3940    17.6466    69.4757     8.3784
  668.5000    51.5456   -74.1928    20.2656    17.6131    69.9726     8.3098
  669.0000    54.0571   -74.2612    20.1372    17.5803    70.1398     8.2822
  669.5000    55.5604   -74.3320    20.0086    17.5476    70.3070     8.2727
  670.0000    50.7120   -74.4029    19.8790    17.5150    70.4743     8.2635
  670.5000    50.0525   -74.4756    19.8430    17.4844    70.6415     8.2543
  671.0000    53.1168   -74.5329    19.7718    17.4053    70.8087     8.2451
  671.5000    58.1887   -74.1554    19.7020    17.3194    71.1453     8.2358
  672.0000    60.8292   -73.7550    19.6322    17.2328    71.5880     8.2265
  672.5000    59.0942   -73.3569    19.5624    17.1463    72.0306     8.2171
  673.0000    57.9351   -72.9605    19.4926    17.0599    72.4732     8.2085
  673.5000    61.2993   -72.6816    19.4229    16.9736    72.9158     8.2398
  674.0000    60.8653   -72.5969    19.3110    16.8770    73.3585     8.3318
  674.5000    57.8441   -72.5094    19.1338    16.7447    73.8011     8.3684
  675.0000    49.9445   -72.4224    18.9577    16.6115    75.3704     8.3683
  675.5000    50.5792   -72.3356    18.7816    16.4781    77.2185     8.4267
  676.0000    45.1145   -72.2486    18.6053    16.3456    79.0667     8.5211
  676.5000    85.5735   -72.1611    18.4298    16.2127    80.9259     8.6174
  677.0000    85.2651   -71.9734    18.2927    16.0961    82.0766     8.6497
  677.5000    50.1105   -71.6308    18.1585    15.9767    83.2342     8.5775
  678.0000    49.5976   -71.3055    18.0427    15.8601    83.9076     8.5138
  678.5000    49.5521   -71.2777    18.0030    15.8436    83.8196     8.5690
  679.0000    49.4997   -71.2612    17.9578    15.8315    83.7316     8.6120
  679.5000    49.5000   -71.2435    17.9123    15.8188    83.6436     8.5889
  680.0000    49.5000   -71.2254    17.8674    15.8059    83.5556     8.5575
  680.5000  -999.2500   -71.2072    17.8240    15.7930    83.4676     8.5255
  681.0000  -999.2500   -71.1891    17.7817    15.7803    83.3795     8.4864
  681.5000  -999.2500   -71.1709    17.7392    15.7675    83.2915     8.4406
  682.0000  -999.2500   -71.1527    17.6968    15.7833    83.2035     8.4236
  682.5000  -999.2500   -71.1347    17.6543    15.8195    83.1155     8.4709
  683.0000  -999.2500   -71.1163    17.6119    15.8560    83.0275     8.4856
  683.5000  -999.2500   -71.0951    17.5695    15.8926    82.9365     8.3092
  684.0000  -999.2500   -71.1806    17.5271    15.9286    83.4124     8.1955
  684.5000  -999.2500   -71.2810    17.4846    15.9223    83.9034     8.2228
  685.0000  -999.2500   -71.3840    17.4421    15.8346    84.3950     8.2479
  685.5000  -999.2500   -71.4955    17.3995    15.7482    84.8870     8.2735
  686.0000  -999.2500   -71.2326    17.3554    15.6614    85.3788     8.2991
  686.5000  -999.2500   -70.9177    17.3104    15.5735    85.8706     8.3029
  687.0000  -999.2500   -70.5961    17.2652    15.5232    86.3624     8.2751
  687.5000  -999.2500   -70.4319    17.2200    15.4736    86.8542     8.2481
  688.0000  -999.2500   -70.3449    17.1747    15.4237    87.3460     8.2334
  688.5000  -999.2500   -70.2591    17.1294    15.3736    87.8378     8.2618
  689.0000  -999.2500   -70.1734    17.0842    15.3236    88.1767     8.2886
  689.5000  -999.2500   -70.0876    17.0389    15.2736    88.4633     8.3141
  690.0000  -999.2500   -70.0017    16.9937    15.2236    88.7500     8.3170
  690.5000  -999.2500   -69.9158    16.9484    15.1735    89.0366     8.3023
  691.0000  -999.2500   -69.8300    16.9031    15.1234    89.3233     8.2864
  691.5000  -999.2500   -69.7441    16.8574    15.0736    89.6099     8.2709
  692.0000  -999.2500   -69.6582    16.8112    15.0237    89.8966     8.2543
  692.5000  -999.2500   -69.5722    16.8091    15.0228    89.8670     8.3633
  693.0000  -999.2500   -69.4862    16.8094    15.0643    89.6663     8.5726
  693.5000  -999.2500   -69.4008    16.8095    15.1060    89.4657     8.7848
  694.0000  -999.2500   -69.3158    16.8095    15.1481    89.2650     8.8725
  694.5000  -999.2500   -69.3364    16.8095    15.1895    89.0644     8.8202
  695.0000  -999.2500   -69.4749    16.8096    15.2329    88.9682     8.7316
  695.5000  -999.2500   -69.6131    16.8101    15.2846    88.9682     8.5670
  696.0000  -999.2500   -69.7520    16.8085    15.1755    88.9682     8.3876
  696.5000  -999.2500   -69.8771    16.7095    15.1216    88.9682     8.1913
  697.0000  -999.2500   -69.8790    16.5996    15.0660    89.3235     7.9233
  697.5000  -999.2500   -69.8785    16.4899    15.0123    90.0161     7.7090
  698.0000  -999.2500   -69.8787    16.3802    14.9587    90.7086     7.7213
  698.5000  -999.2500   -69.8805    16.2687    14.9050    91.4011     7.8070
  699.0000  -999.2500   -69.8757    16.1734    14.8513    92.0936     7.8916
  699.5000  -999.2500   -69.4436    16.0809    14.7976    92.7862     7.9765
  700.0000  -999.2500   -68.9566    15.9889    14.7439    93.4787     8.0622
  700.5000  -999.2500   -68.4690    15.8988    14.6903    94.1712     8.0934
  701.0000  -999.2500   -67.9805    15.8101    14.6366    94.8637     8.1010
  701.5000  -999.2500   -67.4982    15.6824    14.5829    95.5545     8.2653
  702.0000  -999.2500   -67.4203    15.7216    14.5253    96.2447     8.4895
  702.5000  -999.2500   -67.3953    14.0169    14.4055    97.0045     8.6905
  703.0000  -999.2500   -67.3708    12.9243    14.2744    99.1059     8.6925
  703.5000  -999.2500   -67.3457    11.8318    14.1429   101.4446     8.6917
