~VERSION INFORMATION
 VERS.                2.0:   CWLS LOG ASCII STANDARD - VERSION 2.0
 WRAP.                 NO:   ONE LINE PER DEPTH STEP
~WELL INFORMATION
#MNEM.UNIT      DATA TYPE    INFORMATION
#----------   ------------   ------------------------------
 STRT.F           40.0000:   START DEPTH
 STOP.F          596.0000:   STOP DEPTH
 STEP.F            0.5000:   STEP LENGTH
 NULL.          -999.2500:   NO VALUE
 COMP. FENIX & SCISSON INC:   COMPANY
 WELL. SX-15 N.O.R. #3 #51-15:   WELL
 FLD .             TEAPOT:   FIELD
 LOC .      S15 T38N R78W:   LOCATION
 CNTY.            NATRONA:   COUNTY
 STAT.            WYOMING:   STATE
 CTRY. UNITED STATES OF AMERICA:   COUNTRY
 SRVC.              Welex:   SERVICE COMPANY
 DATE.        12-MAR-1977:   LOGDATE
 API .       490251031100:   API NUMBER
~CURVE INFORMATION
#MNEM.UNIT       API CODE    CURVE DESCRIPTION
#----------   ------------   ------------------------------
 DEPT.F                  :   
 GRD .GAPI   45 310 01 00:   GAMMA RAY FROM DENSITY LOG
 CALD.IN     45 280 60 00:   CALIPER FROM DENSITY LOG
 CORR.G/C3   45 356 01 00:   DENSITY CORRECTION
 RHOB.G/C3   45 350 01 00:   BULK DENSITY
 DPOR.DEC    45 890 12 00:   DENSITY POROSITY SANDSTONE
 SGRD.OHMM   07 220 05 00:   SHALLOW GUARD RESISTIVITY
 ILD .OHMM   07 120 46 00:   INDUCTION LOG DEEP
 ILM .OHMM   07 120 44 00:   INDUCTION LOG MEDIUM
 SPR .MV     07 010 01 00:   SPONTANEOUS POTENTIAL
~PARAMETER INFORMATION
#MNEM.UNIT          VALUE    DESCRIPTION
#----------   ------------   ------------------------------
 PD  .                 GL:   PERMANENT DATUM
 EPD .F              5221:   ELEVATION PERMANENT DATUM
 LMF .                 GL:   LOG MEASURED FROM
 DMF .                 GL:   DRILLING MEASURED FROM
 EGL .F              5221:   GROUND LEVEL
 DATE.            3-12-77:   RUN DATE
 RUN .                  1:   RUN NUMBER
 DD  .F               600:   DEPTH DRILLER
 DL  .F               597:   DEPTH LOGGER
 BLI .F               596:   BOTTOM LOG INTERVAL
 TLI .F                45:   TOP LOG INTERVAL
 CS  .IN            8.625:   CASING SIZE
 CBD .F                46:   CASING BOTTOM DRILLER
 CBL .F                45:   CASING BOTTOM LOGGER
 BS  .IN            7.875:   BIT SIZE
 BSD .F               600:   BIT SIZE AT DEPTH
 DFT .            KCL-MUD:   DRILLING FLUID TYPE
 DFD .                8.9:   DRILLING FLUID DENSITY
 DFV .                 34:   DRILLING FLUID VISCOSITY
 MSS .            MUD PIT:   MUD SAMPLE SOURCE
 RMS .OHMM            .68:   RESISTIVITY MUD SAMPLE
 MST .F                40:   MUD SAMPLE TEMPERATURE
 RMF .OHMM            .57:   RESISTIVITY MUD FILTRATE SAMPLE
 MFST.F                40:   MUD FILTRATE SAMPLE TEMPERATURE
 RMC .OHMM            .78:   RESISTIVITY MUD CAKE
 MCST.F                40:   MUD CAKE SAMPLE TEMPERATURE
 MFSS.           MEASURED:   MUD FILTRATE SAMPLE SOURCE
 MCSS.           MEASURED:   MUD CAKE SAMPLE SOURCE
 RMB .OHMM            .41:   RESISTIVITY MUD AT BHT
 BHT .F                65:   BOTTOM HOLE TEMPERATURE
 TCS .HRS               3:   TIME CURCULATED STOPPED
 MRT .F                65:   MAXIMUM RECORDED TEMPERATURE
 LUN .                716:   LOGGING UNIT NUMBER
 LUL .             VERNAL:   LOGGING UNIT LOCATION
 ENGI.           CALLAHAN:   RECORDING ENGINEER
 WITN.         STUEBINGER:   WITNESSED BY
 CLNT.            A2DTECH:   CLIENT CODE
 ORIG.       2", 5" PRINT:   ORIGIN OF DATA
 UWI .       490251031100:   UNIQUE WELL ID
 DICO. A2D Technologies, Inc.:   DIGITIZING COMPANY
~OTHER INFORMATION
~A   DEPT       GRD        CALD     CORR       RHOB       DPOR       SGRD        ILD        ILM        SPR   
# ...
  259.0000   116.8383     7.8938     0.0275     2.4552     0.1207    12.0470     8.2406     9.4423   -51.8701
  259.5000   116.2878     7.8938     0.0267     2.4505     0.1265    12.1566     8.1646     9.3908   -52.1275
  260.0000   115.7400     7.8938     0.0299     2.4522     0.1293    12.0380     8.1028     9.3103   -52.3849
  260.5000   115.7654     7.8938     0.0389     2.4540     0.1238    11.8870     7.9682     9.2286   -52.6428
  261.0000   116.4187     7.8938     0.0335     2.4564     0.1187    11.5088     7.8330     9.1476   -52.8986
  261.5000   116.2616     7.8938     0.0254     2.4425     0.1232    11.0860     7.7002     9.0673   -53.2408
  262.0000   116.0779     7.8938     0.0222     2.4265     0.1381    11.0860     7.5696     8.8612   -53.6249
  262.5000   116.3608     7.8938     0.0221     2.4259     0.1361    11.0860     7.4412     8.6277   -54.0112
  263.0000   116.8565     7.8938     0.0219     2.4241     0.1408    10.7439     7.3150     8.4004   -54.3974
  263.5000   117.3570     7.8938     0.0289     2.4176     0.1444    10.1743     7.1910     8.1791   -54.7846
  264.0000   117.8581     7.8938     0.0373     2.4342     0.1370     9.6290     7.0690     7.8818   -55.0924
  264.5000   118.3571     7.8938     0.0445     2.4460     0.1308     9.1098     6.9263     8.0008   -55.3113
  265.0000   118.8604     7.8938     0.0443     2.4503     0.1245     8.6576     6.9455     8.1987   -55.5301
  265.5000   119.3882     7.8938     0.0442     2.4548     0.1250    11.1947     6.9880     8.4014   -55.7491
  266.0000   118.6908     7.8938     0.0442     2.4596     0.1171    11.1950     7.0315     8.6091   -55.9681
  266.5000   117.8068     7.8938     0.0389     2.4486     0.1231    10.9788     7.1088     8.8220   -56.1872
  267.0000   116.9218     7.8938     0.0296     2.4365     0.1305    10.8834     7.2323     9.0402   -56.4062
  267.5000   116.2769     7.8938     0.0199     2.4409     0.1295    11.1434     7.3579     9.2637   -56.6253
  268.0000   116.6094     7.8938     0.0264     2.4344     0.1380    11.7165     7.4857     9.3979   -56.8443
  268.5000   116.9344     7.8938     0.0373     2.4606     0.1254    11.7019     7.6157     9.4140   -57.0631
  269.0000   116.1798     7.8938     0.0376     2.4656     0.1163    11.6794     7.7480     9.4302   -57.2821
  269.5000   114.8298     7.8938     0.0296     2.4609     0.1186    11.6571     7.8826     9.4464   -57.5803
  270.0000   113.4898     7.8938     0.0216     2.4561     0.1259    11.6343     8.0195     9.4626   -57.9514
  270.5000   112.5255     7.8938     0.0188     2.4515     0.1308    11.6128     8.1779     9.4778   -58.3216
  271.0000   113.2365     7.8938     0.0287     2.4510     0.1281    11.5359     8.0778     9.4208   -58.6994
  271.5000   113.9233     7.8938     0.0382     2.4573     0.1232    11.4519     7.9296     9.3560   -58.9436
  272.0000   113.6986     7.8938     0.0485     2.4634     0.1183    11.3685     7.7842     9.2908   -59.1586
  272.5000   113.2812     7.8938     0.0421     2.4625     0.1159    11.2923     7.6668     9.2290   -59.3722
  273.0000   113.8187     7.8938     0.0306     2.4551     0.1260    10.9451     7.5631     9.0324   -59.5864
  273.5000   114.5387     7.8938     0.0330     2.4521     0.1300    10.6330     7.4609     8.8281   -59.8006
  274.0000   115.2668     7.8939     0.0372     2.4504     0.1230    10.2977     7.3346     8.6430   -60.0147
  274.5000   115.9902     7.8946     0.0413     2.4486     0.1258    10.4894     7.1407     8.3680   -60.2289
  275.0000   116.8053     7.8953     0.0453     2.4511     0.1246    10.3931     6.9548     8.1238   -60.4431
  275.5000   117.7661     7.8960     0.0452     2.4505     0.1199    10.0999     6.7733     7.8867   -60.6573
  276.0000   118.7229     7.8966     0.0328     2.4360     0.1290     9.8386     6.5965     7.6565   -60.8715
  276.5000   119.6655     7.8973     0.0223     2.4221     0.1373     9.5857     6.4243     7.4057   -61.0857
  277.0000   120.4799     7.8980     0.0310     2.4143     0.1456     9.3362     6.2567     6.9562   -61.2999
  277.5000   120.9378     7.8987     0.0410     2.4251     0.1408     8.3918     6.0934     6.5340   -61.5141
  278.0000   121.4296     7.8994     0.0503     2.4300     0.1381     6.9984     5.9225     6.0327   -61.7287
  278.5000   121.5196     7.9001     0.0542     2.4354     0.1351     5.7609     5.9755     6.2665   -61.9426
  279.0000   121.5914     7.9007     0.0578     2.4486     0.1243     8.0370     6.0334     6.6040   -62.0430
  279.5000   121.6657     7.9014     0.0619     2.4616     0.1214    10.2078     6.0918     6.9597   -62.1224
  280.0000   121.7349     7.9021     0.0679     2.4892     0.1134    10.2519     6.1499     7.2342   -62.2014
  280.5000   121.8057     7.9028     0.0712     2.4941     0.1074    10.2773     6.2024     7.5768   -62.2807
  281.0000   121.1674     7.9035     0.0649     2.4869     0.1099    10.4385     6.4312     7.9548   -62.3599
  281.5000   120.0835     7.9041     0.0588     2.4800     0.1123    10.8544     6.6846     8.0185   -62.4392
  282.0000   120.6224     7.9048     0.0530     2.4732     0.1147    11.3945     6.9479     8.0863   -62.5184
  282.5000   121.2402     7.9055     0.0507     2.4699     0.1170    11.2535     7.2198     8.2238   -62.5977
  283.0000   121.8516     7.9062     0.0595     2.4722     0.1169    11.0692     7.4603     8.3865   -62.6770
  283.5000   122.4571     7.9068     0.0542     2.4742     0.1147    10.8834     7.5478     8.5523   -62.7562
  284.0000   122.7881     7.9075     0.0492     2.4720     0.1155    11.3012     7.6424     8.7214   -62.8355
  284.5000   122.3790     7.9082     0.0441     2.4695     0.1169    11.9345     7.7382     8.8939   -62.9147
  285.0000   121.9818     7.9089     0.0460     2.4760     0.1143    11.7414     7.8353     9.0385   -62.9940
  285.5000   121.6307     7.9096     0.0521     2.4833     0.1110    11.6090     7.9335     9.1624   -63.0733
  286.0000   121.6433     7.9103     0.0455     2.4787     0.1095    11.6669     7.9934     9.2880   -63.1525
  286.5000   121.6637     7.9109     0.0338     2.4708     0.1172    11.7165     8.0430     9.4533   -63.2318
  287.0000   120.9675     7.9116     0.0342     2.4655     0.1187    12.1425     8.0927     9.9249   -63.3111
  287.5000   120.0804     7.9123     0.0340     2.4730     0.1090    12.4976     8.1428     9.7436   -63.3903
  288.0000   119.1851     7.9130     0.0433     2.4802     0.0992    12.0451     8.1932     9.3908   -63.4696
  288.5000   118.2883     7.9137     0.0469     2.4871     0.0943    12.1098     8.2439     9.4706   -63.5489
  289.0000   117.3922     7.9143     0.0286     2.4832     0.1024    12.1747     8.2949     9.5708   -63.6283
  289.5000   116.6273     7.9150     0.0237     2.4787     0.1089    12.2399     8.3463     9.6720   -63.7074
  290.0000   116.9720     7.9157     0.0194     2.4743     0.1134    12.3054     8.3980     9.7742   -63.7742
  290.5000   119.4347     7.9164     0.0149     2.4699     0.1175    12.3713     8.4585     9.8382   -63.7727
  291.0000   122.0099     7.9171     0.0174     2.4676     0.1149    12.3829     8.5213     9.8485   -63.7725
  291.5000   125.2549     7.9177     0.0215     2.4769     0.1103    12.3829     8.5847     9.8589   -63.7725
  292.0000   125.2732     7.9184     0.0258     2.4859     0.1058    12.5200     8.6486     9.8693   -63.7725
  292.5000   124.8207     7.9191     0.0300     2.4948     0.1012    12.8392     8.7128     9.8797   -63.7725
  293.0000   124.2465     7.9198     0.0341     2.5030     0.0966    13.4542     8.7231     9.8901   -63.7725
  293.5000   123.8429     7.9205     0.0383     2.5036     0.0921    12.9384     8.7231     9.9005   -63.7725
  294.0000   124.2237     7.9211     0.0324     2.4980     0.0905    12.3829     8.7241     9.9116   -63.7725
  294.5000   124.9281     7.9218     0.0271     2.4908     0.1101    12.2874     8.6554     9.9257   -63.7725
  295.0000   125.6318     7.9225     0.0336     2.4877     0.1092    12.1972     8.5507     9.7769   -63.7725
