~VERSION INFORMATION
 VERS.                2.0:   CWLS LOG ASCII STANDARD - VERSION 2.0
 WRAP.                 NO:   ONE LINE PER DEPTH STEP
~WELL INFORMATION
#MNEM.UNIT      DATA TYPE    INFORMATION
#----------   ------------   ------------------------------
 STRT.F           34.0000:   START DEPTH
 STOP.F          604.0000:   STOP DEPTH
 STEP.F            0.5000:   STEP LENGTH
 NULL.          -999.2500:   NO VALUE
 COMP. FENIX & SCISSON INC:   COMPANY
 WELL.       NPR #17 SX-2:   WELL
 FLD .             TEAPOT:   FIELD
 LOC .       S2 T38N R78W:   LOCATION
 CNTY.            NATRONA:   COUNTY
 STAT.            WYOMING:   STATE
 CTRY. UNITED STATES OF AMERICA:   COUNTRY
 SRVC.       Schlumberger:   SERVICE COMPANY
 DATE.        18-MAR-1977:   LOGDATE
 API .       490251032700:   API NUMBER
~CURVE INFORMATION
#MNEM.UNIT       API CODE    CURVE DESCRIPTION
#----------   ------------   ------------------------------
 DEPT.F                  :   
 SPR .MV     07 010 01 00:   SPONTANEOUS POTENTIAL
 ILD .OHMM   07 120 46 00:   INDUCTION LOG DEEP
 ILM .OHMM   07 120 44 00:   INDUCTION LOG MEDIUM
 LL8 .OHMM   07 220 08 00:   LATEROLOG-8 RES.
 CALD.IN     45 280 60 00:   CALIPER FROM DENSITY LOG
 GRD .GAPI   45 310 01 00:   GAMMA RAY FROM DENSITY LOG
 CORR.G/C3   45 356 01 00:   DENSITY CORRECTION
 DPHI.DEC    45 890 12 00:   DENSITY POROSITY SANDSTONE
 RHOB.G/C3   45 350 01 00:   BULK DENSITY
~PARAMETER INFORMATION
#MNEM.UNIT          VALUE    DESCRIPTION
#----------   ------------   ------------------------------
 PD  .                 GL:   PERMANENT DATUM
 EPD .F              5122:   ELEVATION PERMANENT DATUM
 LMF .                 KB:   LOG MEASURED FROM
 DAPD.F                 4:   FEET ABOVE PERMANENT DATUM
 DMF .                 KB:   DRILLING MEASURED FROM
 EKB .F              5126:   KELLING BUSHING
 EGL .F              5122:   GROUND LEVEL
 DATE.        18-MAR-1977:   RUN DATE
 RUN .                  1:   RUN NUMBER
 DD  .F               600:   DEPTH DRILLER
 DL  .F               605:   DEPTH LOGGER
 BLI .F               604:   BOTTOM LOG INTERVAL
 TLI .F                44:   TOP LOG INTERVAL
 CS  .IN            8.625:   CASING SIZE
 CBD .F                40:   CASING BOTTOM DRILLER
 CBL .F                44:   CASING BOTTOM LOGGER
 BS  .IN            7.875:   BIT SIZE
 BSD .F               600:   BIT SIZE AT DEPTH
 DFT .            KCL MUD:   DRILLING FLUID TYPE
 DFD .                8.9:   DRILLING FLUID DENSITY
 DFV .                 39:   DRILLING FLUID VISCOSITY
 DFPH.                8.5:   DRILLING FLUID PH
 DFL .                6.1:   DRILLING FLUID LOSS
 MSS .                PIT:   MUD SAMPLE SOURCE
 RMS .OHMM           0.26:   RESISTIVITY MUD SAMPLE
 MST .F                52:   MUD SAMPLE TEMPERATURE
 RMF .OHMM           0.24:   RESISTIVITY MUD FILTRATE SAMPLE
 MFST.F                52:   MUD FILTRATE SAMPLE TEMPERATURE
 MFSS.               MEAS:   MUD FILTRATE SAMPLE SOURCE
 TCS .HRS            0230:   TIME CURCULATED STOPPED
 LUN .               7711:   LOGGING UNIT NUMBER
 LUL .               CSPR:   LOGGING UNIT LOCATION
 ENGI.             SAYLER:   RECORDING ENGINEER
 WITN.         STUEBINGER:   WITNESSED BY
 CLNT.            A2DTECH:   CLIENT CODE
 ORIG.           5" PRINT:   ORIGIN OF DATA
 UWI .       490251032700:   UNIQUE WELL ID
 DICO. A2D Technologies, Inc.:   DIGITIZING COMPANY
~OTHER INFORMATION
~A   DEPT      SPR        ILD        ILM        LL8       CALD        GRD       CORR       DPHI       RHOB   
# ...
  216.5000   -33.1866    10.0932     9.6886    10.1815     8.0075   116.9596     0.0741     0.0711     2.5305
  217.0000   -33.3278    10.0287     9.7615    10.2580     8.0088   117.7103     0.0531     0.0779     2.5126
  217.5000   -33.4665     9.9642     9.6980    10.1913     8.0098   118.7777     0.0509     0.0836     2.5112
  218.0000   -33.4534     9.7672     9.5708    10.1984     8.0554   120.5936     0.0457     0.0863     2.5038
  218.5000   -33.2940     9.7056     9.5761     9.9939     8.0713   123.1403     0.0413     0.0946     2.4896
  219.0000   -33.1345     9.5717     9.5814     9.8617     8.0278   125.4835     0.0361     0.1003     2.4800
  219.5000   -33.2732     9.4516     9.5867     9.7312     8.0288   125.1363     0.0256     0.1059     2.4696
  220.0000   -33.5608     9.3836     9.3942     9.6025     7.9557   122.3259     0.0144     0.1089     2.4816
  220.5000   -33.8485     9.1947     9.2043     9.5401     7.9416   121.2128     0.0107     0.1050     2.4809
  221.0000   -34.1361     8.8854     8.9583     9.4152     7.9577   121.2267     0.0078     0.1073     2.4705
  221.5000   -34.7218     8.7179     8.6573     9.1626     8.0033   121.5649     0.0183     0.1106     2.4690
  222.0000   -35.3075     8.6031     8.4248     8.9789     8.0191   121.8485     0.0274     0.1064     2.4818
  222.5000   -35.4487     8.4898     8.3120     8.9839     8.0350   121.7137     0.0320     0.1061     2.4624
  223.0000   -35.4357     8.4376     8.2019     8.9888     8.0509   121.2792     0.0358     0.1165     2.4639
  223.5000   -36.1705     8.4429     8.1496     8.9304     8.0519   120.8513     0.0404     0.1132     2.4685
  224.0000   -36.4607     8.4481     8.2121     8.7526     8.0530   120.8646     0.0494     0.1120     2.4730
  224.5000   -36.4477     8.4534     8.2739     8.6957     8.0540   120.7297     0.0585     0.1080     2.4790
  225.0000   -36.4373     8.4586     8.4528     8.8232     8.0699   120.0022     0.0758     0.0988     2.5000
  225.5000   -36.4269     8.5228     8.6356     8.9514     8.0412   117.7933     0.0781     0.0889     2.5038
  226.0000   -36.1184     8.5875     8.7613     9.4019     8.0423   115.1399     0.0572     0.1003     2.4874
  226.5000   -35.8099     8.8348     8.9507     9.6718     8.0136   114.2642     0.0648     0.0883     2.5002
  227.0000   -35.3524     9.0263     9.0810     9.6102     7.9850   113.0923     0.0738     0.0826     2.5129
  227.5000   -34.8949     9.1581     9.1493     9.4175     7.8970   110.7352     0.0548     0.0894     2.5077
  228.0000   -34.5864     9.2276     9.2825     9.3563     7.8829   109.1189     0.0507     0.0972     2.4988
  228.5000   -34.2779     9.2977     9.3523     9.3628     7.9732   108.5395     0.0725     0.0864     2.5034
  229.0000   -34.2675     9.3468     9.4227     9.4332     8.0188   109.5898     0.0574     0.0939     2.4758
  229.5000   -34.2571     9.3736     9.4937     9.4384     8.0347   111.2327     0.0595     0.1061     2.4766
  230.0000   -34.2467     9.5105     9.6318     9.5093     8.0505   113.6164     0.0682     0.0961     2.4908
  230.5000   -34.2363     9.5827     9.7043     9.6475     8.0516   115.8519     0.0546     0.0963     2.4849
  231.0000   -34.2259     9.6555     9.7097     9.7200     8.0674   118.0873     0.0315     0.0990     2.4827
  231.5000   -34.2155     9.6615     9.7151     9.7931     8.1278   120.6191     0.0198     0.1078     2.4730
  232.0000   -34.2050     9.6675     9.7205     9.7308     8.1734   122.1139     0.0254     0.1010     2.4933
  232.5000   -34.3463     9.6066     9.6572     9.6687     8.1892   122.1271     0.0212     0.0877     2.4993
  233.0000   -34.4849     9.5461     9.4646     9.4750     8.1903   120.9552     0.0220     0.0946     2.4926
  233.5000   -34.6235     9.5520     9.3392     9.3497     8.1616   118.0055     0.0228     0.0970     2.4919
  234.0000   -34.6105     9.5580     9.3444     9.3548     8.1476   117.5710     0.0229     0.1014     2.4868
  234.5000   -34.3020     9.5640     9.3496     9.3600     8.1340   118.9210     0.0244     0.1112     2.4674
  235.0000   -33.9935     9.5037     9.3548     9.3004     8.1202   120.2676     0.0267     0.1148     2.4622
  235.5000   -33.5360     9.4383     9.2939     9.3056     8.1213   120.7253     0.0328     0.1139     2.4630
  236.0000   -33.2275     9.3194     9.2347     9.1825     8.1223   120.2941     0.0479     0.1061     2.4840
  236.5000   -33.2171     9.3254     9.1758     9.1876     8.0936   117.6407     0.0389     0.1198     2.4534
  237.0000   -32.9086     9.2664     9.1822     9.1926     8.0205   114.9873     0.0360     0.1258     2.4430
  237.5000   -32.7492     9.2724     9.1873     9.1977     7.9325   115.2968     0.0473     0.1204     2.4513
  238.0000   -32.7388     9.2903     9.1924     9.2669     7.9781   116.7916     0.0496     0.1114     2.4715
  238.5000   -32.7284     9.3499     9.2616     9.2737     8.0978   117.2493     0.0166     0.1162     2.4596
  239.0000   -32.8674     9.4208     9.3963     9.3417     8.1137   117.2626     0.0175     0.1138     2.4694
  239.5000   -33.1546     9.5585     9.5331     9.4810     8.0999   116.2388     0.0183     0.1087     2.4776
  240.0000   -33.4426     9.6981     9.7392     9.7540     7.9970   114.7717     0.0131     0.1071     2.4732
  240.5000   -33.5812     9.8398     9.9498     9.9655     8.0428   114.7850     0.0094     0.1083     2.4695
  241.0000   -33.4214    10.1231    10.0946    10.1750     8.1336   117.4649     0.0094     0.1113     2.4651
  241.5000   -33.4110    10.4145    10.3128    10.3305     8.2227   118.6634     0.0110     0.1130     2.4621
  242.0000   -33.4006    10.4930    10.4629    10.4729     8.2386   119.1177     0.0111     0.1133     2.4637
  242.5000   -33.3902    10.6463    10.5417    10.6251     8.2248   115.8751     0.0111     0.1124     2.4667
  243.0000   -33.2308    10.8018    10.6951    10.6310     8.2095   111.8883     0.0119     0.1100     2.4750
  243.5000   -33.2203    10.8838    11.0025    10.7109     8.1823   107.7535     0.0127     0.1073     2.4788
  244.0000   -33.2099    11.1198    11.1302    10.7298     8.1834   107.0227     0.0128     0.1058     2.4803
  244.5000   -33.0505    11.2822    11.3060    10.9768     8.1695   106.2985     0.0136     0.1153     2.4572
  245.0000   -32.7420    11.6070    11.4817    11.3421     8.1706   103.4970     0.0152     0.1210     2.4461
  245.5000   -32.4335    11.8586    11.6575    11.4273     8.1717   100.6954     0.0175     0.1192     2.4544
  246.0000   -31.9760    12.0319    11.8332    11.2761     8.1729    98.9309     0.0220     0.1179     2.4566
  246.5000   -31.6675    12.1232    12.0089    11.2029     8.1443    98.2030     0.0319     0.1218     2.4440
  247.0000   -31.2100    12.1307    12.1744    11.6062     8.1156    99.8463     0.0432     0.1167     2.4575
  247.5000   -30.6035    12.1383    12.1812    11.6934     8.0870   101.4892     0.0530     0.1185     2.4561
  248.0000   -29.9970    11.8955    11.9366    11.4590     8.0729   102.3914     0.0606     0.1228     2.4382
  248.5000   -29.2414    11.8205    11.3764    10.8465     8.0000   102.2565     0.0719     0.1325     2.4323
  249.0000   -28.1877    11.6648    10.3279     9.8483     7.8675   100.0475     0.0922     0.1328     2.4286
  249.5000   -27.1341    11.2740     9.8432     8.8801     7.6460    99.6133     0.0840     0.1366     2.4219
  250.0000   -26.6766    10.8963     9.6973     8.1652     7.6171   101.2593     0.0657     0.1509     2.3810
  250.5000   -26.7879    10.6013     9.5145     7.2099     7.6926   103.4942     0.0545     0.1655     2.3682
  251.0000   -26.8079    10.3850     9.5171     7.1685     7.8272   105.4319     0.0496     0.1802     2.3556
  251.5000   -26.7990    10.3160     9.5197     7.8852     7.9024   105.4436     0.0594     0.1652     2.3788
  252.0000   -26.9392    10.2474     9.5223     8.9887     7.9182   102.6406     0.0347     0.1598     2.3863
  252.5000   -26.9548    10.1096     9.3935     9.2717     7.9341   100.1338     0.0257     0.1562     2.3997
