~VERSION INFORMATION
 VERS.                2.0:   CWLS LOG ASCII STANDARD - VERSION 2.0
 WRAP.                 NO:   ONE LINE PER DEPTH STEP
~WELL INFORMATION
#MNEM.UNIT      DATA TYPE    INFORMATION
#----------   ------------   ------------------------------
 STRT.F           90.0000:   START DEPTH
 STOP.F          712.0000:   STOP DEPTH
 STEP.F            0.5000:   STEP LENGTH
 NULL.          -999.2500:   NO VALUE
 COMP. U S NAVY-INTEX OIL:   COMPANY
 WELL. RES 3 TEAPOT DOM #76S-34:   WELL
 FLD .             TEAPOT:   FIELD
 LOC .      S34 T39N R78W:   LOCATION
 CNTY.            NATRONA:   COUNTY
 STAT.            WYOMING:   STATE
 CTRY. UNITED STATES OF AMERICA:   COUNTRY
 SRVC.       Schlumberger:   SERVICE COMPANY
 DATE.        08-AUG-1961:   LOGDATE
 API .       490250651700:   API NUMBER
~CURVE INFORMATION
#MNEM.UNIT       API CODE    CURVE DESCRIPTION
#----------   ------------   ------------------------------
 DEPT.F                  :   
 SPR .MV     05 010 01 00:   SPONTANEOUS POTENTIAL FROM RES.
 ASN .OHMM   05 041 16 00:   AMPLIFIED SHORT NORMAL 16"
 CILD.MMHO   05 110 46 00:   CONDUCTIVITY INDUCTION LOG DEEP
 ILD .OHMM   05 120 46 00:   INDUCTION LOG DEEP
~PARAMETER INFORMATION
#MNEM.UNIT          VALUE    DESCRIPTION
#----------   ------------   ------------------------------
 LMF .                 KB:   LOG MEASURED FROM
 DMF .                 KB:   DRILLING MEASURED FROM
 EKB .F              5092:   KELLING BUSHING
 EGL .F              5087:   GROUND LEVEL
 DATE.        08-AUG-1961:   RUN DATE
 RUN .                  1:   RUN NUMBER
 DD  .F               710:   DEPTH DRILLER
 DL  .F               713:   DEPTH LOGGER
 BLI .F               712:   BOTTOM LOG INTERVAL
 TLI .F               100:   TOP LOG INTERVAL
 BS  .IN             6.75:   BIT SIZE
 BSD .F               710:   BIT SIZE AT DEPTH
 DFT .       OIL EMULSION:   DRILLING FLUID TYPE
 DFD .               10.4:   DRILLING FLUID DENSITY
 DFV .                 45:   DRILLING FLUID VISCOSITY
 RMS .OHMM           1.21:   RESISTIVITY MUD SAMPLE
 MST .F                78:   MUD SAMPLE TEMPERATURE
 TCS .HRS               1:   TIME CURCULATED STOPPED
 LUN .               2544:   LOGGING UNIT NUMBER
 LUL .                 NC:   LOGGING UNIT LOCATION
 ENGI.             QUINBY:   RECORDING ENGINEER
 WITN.          JORGENSON:   WITNESSED BY
 CLNT.            A2DTECH:   CLIENT CODE
 ORIG.      2" , 5" PRINT:   ORIGIN OF DATA
 UWI .       490250651700:   UNIQUE WELL ID
 DICO. A2D Technologies, Inc.:   DIGITIZING COMPANY
~OTHER INFORMATION
~A   DEPT      SPR        ASN       CILD        ILD   
# ...
  674.0000   -27.9811    19.2610    54.6875    15.3708
  674.5000   -27.9796    19.1038    54.6875    15.2954
  675.0000   -27.9781    18.8679    54.6875    15.2189
  675.5000   -27.8197    18.7846    54.6875    15.0653
  676.0000   -27.7294    18.6226    54.6875    15.0676
  676.5000   -27.5028    18.3962    54.6875    14.9911
  677.0000   -27.5013    18.1604    54.6875    14.9152
  677.5000   -27.4997    18.0031    54.6875    14.9181
  678.0000   -27.4982    17.9245    54.6875    14.9204
  678.5000   -27.3399    17.9245    56.2500    14.9520
  679.0000   -27.4955    17.9245    56.2500    15.0032
  679.5000   -27.4937    17.9245    56.2500    15.0837
  680.0000   -27.4920    17.9245    56.2500    15.1644
  680.5000   -27.4905    18.0818    56.2500    15.4014
  681.0000   -27.3322    18.3962    56.2500    15.4038
  681.5000   -27.1739    18.7107    57.8125    15.4061
  682.0000   -27.1724    18.7107    57.8125    15.2384
  682.5000   -27.3276    18.4748    59.3750    14.9418
  683.0000   -27.4828    18.0818    59.3750    14.7870
  683.5000   -27.6588    17.5299    59.3750    14.5551
  684.0000   -27.9499    17.0471    59.3750    14.2445
  684.5000   -28.1051    16.4874    59.3750    13.9338
  685.0000   -27.9465    16.0377    64.0625    13.5449
  685.5000   -27.7882    15.8805    67.6509    13.2342
  686.0000   -27.4731    15.7233    70.8229    13.0794
  686.5000   -27.3149    15.5660    75.0000    13.0035
  687.0000   -27.1566    15.4874    75.0000    13.0064
  687.5000   -26.9983    15.4088    75.0000    13.0870
  688.0000   -26.8400    15.4088    73.4375    13.2458
  688.5000   -26.5250    15.4088    70.3125    13.0916
  689.0000   -26.3667    15.2516    68.7500    12.9364
  689.5000   -26.3652    15.1730    68.7500    12.7804
  690.0000   -26.2069    15.0157    69.6354    12.6239
  690.5000   -26.2053    14.7013    71.8750    12.3972
  691.0000   -26.2038    14.3868    75.0000    12.2430
  691.5000   -26.2019    13.9937    76.5625    12.0106
  692.0000   -26.2003    13.6761    79.6875    11.8558
  692.5000   -26.1988    13.3648    81.2500    11.7016
  693.0000   -26.1973    13.1950    82.8125    11.4698
  693.5000   -26.1957    13.0503    85.9375    11.3933
  694.0000   -25.8807    12.8931    85.9375    11.2391
  694.5000   -25.5657    12.8931    85.9375    11.4767
  695.0000   -25.2507    12.8145    85.9375    11.7920
  695.5000   -25.1917    12.7358    85.9375    11.6378
  696.0000   -25.0908    12.7358    85.9375    11.1707
  696.5000   -24.9326    12.7358    85.9375    10.8600
  697.0000   -24.4713    12.6572    87.5000    10.7840
  697.5000   -24.1458    12.6572    87.5000    10.8646
  698.0000   -23.9875    12.6572    87.5000    10.8670
  698.5000   -23.8083    12.6572    87.5000    10.8693
  699.0000   -23.6705    12.6572    87.5000    10.9504
  699.5000   -23.3555    12.5786    87.5000    11.0309
  700.0000   -23.3019    12.5786    87.5000    11.1115
  700.5000   -23.0390    12.5786    87.5000    11.1138
  701.0000   -22.7239    12.5739    87.5000    11.2726
  701.5000   -22.4089    12.4214    89.0625    11.2749
  702.0000   -22.0939    12.4214    89.0625    11.3555
  702.5000   -22.0923    12.1855    89.0625    11.3578
  703.0000   -21.9341    12.1069    89.0625    11.2819
  703.5000   -21.7758    11.9497    89.0625    11.2059
  704.0000   -21.7742    11.9497    90.6250    11.2082
  704.5000   -21.6160    11.9497    90.6250    11.1322
  705.0000   -21.4577    11.9497    92.6736    11.1346
  705.5000   -21.1426    12.0283    93.7500    11.1369
  706.0000   -20.8276    12.0283    93.7500    11.1393
  706.5000   -20.6690    11.9497    93.7500    11.1416
  707.0000   -20.5107    11.7925    93.7500    11.0656
  707.5000   -20.5091    11.7138    93.7500    10.9120
  708.0000   -20.5076    11.7138    92.1875    10.8355
  708.5000   -20.5063    11.7138    90.6250    10.7596
  709.0000   -20.1910    11.7925    89.0625    10.6836
  709.5000   -20.1895    11.7925    89.0625    10.6865
  710.0000   -20.0312    11.9497    87.5000    10.6888
  710.5000   -19.8730    12.1069    85.9375    10.6912
  711.0000   -19.7147    12.2642    84.3750    10.6935
  711.5000   -19.5564    12.2642    84.3750    10.6958
  712.0000   -19.2518    12.4528    82.8125    10.7762
