~VERSION INFORMATION
 VERS.                2.0:   CWLS LOG ASCII STANDARD - VERSION 2.0
 WRAP.                 NO:   ONE LINE PER DEPTH STEP
~WELL INFORMATION
#MNEM.UNIT      DATA TYPE    INFORMATION
#----------   ------------   ------------------------------
 STRT.F           36.0000:   START DEPTH
 STOP.F          700.0000:   STOP DEPTH
 STEP.F            0.5000:   STEP LENGTH
 NULL.          -999.2500:   NO VALUE
 COMP. FENIX & SCISSON INC:   COMPANY
 WELL. NPR #3 13SX14 #13-14:   WELL
 FLD .             TEAPOT:   FIELD
 LOC .      S14 T38N R78W:   LOCATION
 CNTY.            NATRONA:   COUNTY
 STAT.            WYOMING:   STATE
 CTRY. UNITED STATES OF AMERICA:   COUNTRY
 SRVC.              Welex:   SERVICE COMPANY
 DATE.        28-FEB-1977:   LOGDATE
 API .       490251029600:   API NUMBER
~CURVE INFORMATION
#MNEM.UNIT       API CODE    CURVE DESCRIPTION
#----------   ------------   ------------------------------
 DEPT.F                  :   
 CALD.IN     45 280 60 00:   CALIPER FROM DENSITY LOG
 GRD .GAPI   45 310 01 00:   GAMMA RAY FROM DENSITY LOG
 CORR.G/C3   45 356 01 00:   DENSITY CORRECTION
 RHOB.G/C3   45 350 01 00:   BULK DENSITY
 DPHI.DEC    45 890 12 00:   DENSITY POROSITY SANDSTONE
 SPR .MV     07 010 01 00:   SPONTANEOUS POTENTIAL
 SGRD.OHMM   07 220 05 00:   SHALLOW RESISTIVITY
 ILD .OHMM   07 120 46 00:   INDUCTION LOG DEEP
 ILM .OHMM   07 120 44 00:   INDUCTION LOG MEDIUM
~PARAMETER INFORMATION
#MNEM.UNIT          VALUE    DESCRIPTION
#----------   ------------   ------------------------------
 PD  .                 GL:   PERMANENT DATUM
 EPD .F              5238:   ELEVATION PERMANENT DATUM
 LMF .                 GL:   LOG MEASURED FROM
 DMF .                 GL:   DRILLING MEASURED FROM
 EGL .F              5238:   GROUND LEVEL
 DATE.            2-28-77:   RUN DATE
 RUN .                  1:   RUN NUMBER
 DD  .F               710:   DEPTH DRILLER
 DL  .F               706:   DEPTH LOGGER
 BLI .F               704:   BOTTOM LOG INTERVAL
 TLI .F                42:   TOP LOG INTERVAL
 CS  .IN            8.625:   CASING SIZE
 CBD .F                42:   CASING BOTTOM DRILLER
 CBL .F                42:   CASING BOTTOM LOGGER
 BS  .IN            7.875:   BIT SIZE
 BSD .F               710:   BIT SIZE AT DEPTH
 DFT .           CHEM-GEL:   DRILLING FLUID TYPE
 DFD .                8.7:   DRILLING FLUID DENSITY
 DFV .                 33:   DRILLING FLUID VISCOSITY
 DFPH.                  7:   DRILLING FLUID PH
 DFL .                  8:   DRILLING FLUID LOSS
 MSS .          FLOW LINE:   MUD SAMPLE SOURCE
 RMS .OHMM           .382:   RESISTIVITY MUD SAMPLE
 MST .F                54:   MUD SAMPLE TEMPERATURE
 RMF .OHMM           .342:   RESISTIVITY MUD FILTRATE SAMPLE
 MFST.F                54:   MUD FILTRATE SAMPLE TEMPERATURE
 RMC .OHMM           .821:   RESISTIVITY MUD CAKE
 MCST.F                54:   MUD CAKE SAMPLE TEMPERATURE
 MFSS.           MEASURED:   MUD FILTRATE SAMPLE SOURCE
 MCSS.           MEASURED:   MUD CAKE SAMPLE SOURCE
 RMB .OHMM           .333:   RESISTIVITY MUD AT BHT
 BHT .F                62:   BOTTOM HOLE TEMPERATURE
 TCS .HRS               3:   TIME CURCULATED STOPPED
 MRT .F                62:   MAXIMUM RECORDED TEMPERATURE
 LUN .               8611:   LOGGING UNIT NUMBER
 LUL .           GILLETTE:   LOGGING UNIT LOCATION
 ENGI.               DOAK:   RECORDING ENGINEER
 WITN.               JAPP:   WITNESSED BY
 CLNT.            A2DTECH:   CLIENT CODE
 ORIG.       2", 5" PRINT:   ORIGIN OF DATA
 UWI .       490251029600:   UNIQUE WELL ID
 DICO. A2D Technologies, Inc.:   DIGITIZING COMPANY
~OTHER INFORMATION
~A   DEPT       CALD       GRD       CORR        RHOB     DPHI         SPR        SGRD      ILD        ILM   
# ...
  291.5000     7.9836   127.4300     0.0152     2.5041     0.0838   -41.6011    11.0058     7.8752    10.2105
  292.0000     7.9752   126.5989     0.0119     2.4983     0.0889   -41.5427    10.7836     7.9548    10.1547
  292.5000     7.9668   127.9537     0.0085     2.4876     0.0941   -41.4822    11.0223     8.0292    10.1100
  293.0000     7.9584   129.4101     0.0077     2.4784     0.0992   -41.4219    11.3432     7.9342    10.2809
  293.5000     7.9499   130.8702     0.0090     2.4782     0.1002   -41.3614    11.8238     7.8797    10.4323
  294.0000     7.9415   131.2239     0.0104     2.4853     0.0941   -41.3026    11.7495     7.8264    10.5837
  294.5000     7.9331   129.2472     0.0117     2.4942     0.0896   -41.2903    11.6160     7.7730    10.6846
  295.0000     7.9245   127.7329     0.0131     2.4999     0.0847   -41.5403    11.4838     7.7196    10.3033
  295.5000     7.9282   126.4857     0.0144     2.4969     0.0870   -41.7927    11.3528     7.6666    10.0288
  296.0000     7.9391   127.2235     0.0158     2.4989     0.0898   -41.8324    11.2233     7.6140     9.7436
  296.5000     7.9501   126.4481     0.0168     2.5036     0.0834   -41.7812    11.1887     7.5618     9.9117
  297.0000     7.9612   125.1531     0.0154     2.5019     0.0874   -41.7300    11.1887     7.5018    10.1096
  297.5000     7.9722   123.8738     0.0139     2.5002     0.0854   -41.6792    11.1181     7.4256     9.9742
  298.0000     7.9833   123.6039     0.0136     2.4984     0.0844   -41.6285    10.9015     7.3502     9.7898
  298.5000     7.9943   124.6807     0.0160     2.4967     0.0862   -41.5778    10.6891     7.2756     9.6089
  299.0000     8.0054   126.7739     0.0184     2.4955     0.0882   -41.5272    10.4808     7.2018     9.4312
  299.5000     8.0163   128.8963     0.0208     2.4985     0.0864   -41.4767    10.2977     7.1217     9.2569
  300.0000     8.0202   130.9603     0.0204     2.5044     0.0827   -41.4515    10.3533     7.0563     9.0858
  300.5000     8.0138   129.4667     0.0197     2.5102     0.0789   -41.4514    10.4330     7.0563     8.9677
  301.0000     8.0076   127.5196     0.0190     2.5149     0.0781   -41.4512    10.4894     7.0563     8.9897
  301.5000     8.0014   125.3789     0.0183     2.5113     0.0796   -41.4513    10.2780     7.1217     9.0341
  302.0000     7.9951   126.5967     0.0176     2.5040     0.0771   -41.4513     9.8338     7.1421     9.0788
  302.5000     7.9889   128.8207     0.0169     2.5175     0.0746   -41.4513     9.9919     7.2125     9.1236
  303.0000     7.9827   129.6604     0.0161     2.5238     0.0723   -41.4513    10.3217     7.2836     9.1687
  303.5000     7.9765   127.5873     0.0154     2.5200     0.0736   -41.4514    10.6624     7.3553     9.2140
  304.0000     7.9702   126.0105     0.0161     2.5160     0.0750   -41.4510    10.9842     7.4278     9.2596
  304.5000     7.9640   125.4719     0.0204     2.5135     0.0763   -41.4509    10.7137     7.5010     9.3053
  305.0000     7.9578   125.9621     0.0246     2.5206     0.0724   -41.3932    10.4700     7.5749     9.3512
  305.5000     7.9516   124.3395     0.0287     2.5280     0.0684   -41.2797    10.2977     7.6495     9.3975
  306.0000     7.9453   122.5213     0.0329     2.5354     0.0655   -41.2630    10.7939     7.7249     9.4439
  306.5000     7.9428   121.6365     0.0338     2.5413     0.0612   -41.2756    11.1210     7.8010     9.5093
  307.0000     7.9550   123.3993     0.0299     2.5404     0.0608   -41.2895    11.2497     7.8779     9.6251
  307.5000     7.9668   125.0715     0.0262     2.5348     0.0659   -41.3033    11.5024     7.9555     9.7424
  308.0000     7.9786   126.7390     0.0225     2.5220     0.0715   -41.3169    11.3790     8.0285     9.8610
  308.5000     7.9903   127.2544     0.0188     2.5124     0.0775   -41.3306    11.1887     8.0285     9.9249
  309.0000     8.0020   126.5958     0.0151     2.5095     0.0791   -41.3442    11.4137     8.0285     9.9249
  309.5000     8.0136   126.8869     0.0114     2.5129     0.0781   -41.3578    11.6793     8.0285     9.9249
  310.0000     8.0206   130.1269     0.0092     2.5167     0.0772   -41.3715    11.4217     7.9548     9.9249
  310.5000     8.0148   133.2055     0.0104     2.5184     0.0762   -41.3851    11.0888     7.8886     9.9249
  311.0000     8.0094   135.9972     0.0115     2.5166     0.0780   -41.3988    10.7819     7.8266     9.9248
  311.5000     8.0039   137.2072     0.0125     2.5093     0.0807   -41.4127    10.9490     7.7651     9.9255
  312.0000     7.9984   137.9454     0.0136     2.5022     0.0835   -41.4247    11.2953     7.7041     9.8560
  312.5000     7.9930   133.3365     0.0146     2.5004     0.0862   -41.4345    11.2602     7.6436     9.7063
  313.0000     7.9875   129.5980     0.0157     2.5035     0.0849   -41.4904    11.1204     7.5835     9.5655
  313.5000     7.9821   127.7321     0.0168     2.5064     0.0830   -41.5975    10.9848     7.5267     9.5655
  314.0000     7.9766   126.4568     0.0178     2.5093     0.0811   -41.5488    10.8834     7.5921     9.5655
  314.5000     7.9712   126.2712     0.0189     2.5061     0.0820   -41.4899    11.1196     7.6701     9.7436
  315.0000     7.9657   124.2393     0.0164     2.5025     0.0842   -41.4622    11.1887     7.7489     9.8718
  315.5000     7.9602   122.2743     0.0138     2.4994     0.0865   -41.4964    10.9361     7.8095     9.9964
  316.0000     7.9548   120.3139     0.0111     2.5028     0.0856   -41.5296    10.7836     7.9355    10.1227
  316.5000     7.9493   118.3458     0.0089     2.5062     0.0830   -41.5630    11.3024     8.0576    10.2505
  317.0000     7.9437   116.3769     0.0115     2.5096     0.0804   -41.5966    12.0435     8.1819    10.3794
  317.5000     7.9485   114.4363     0.0142     2.5123     0.0783   -41.6288    11.7197     8.3083    10.5868
  318.0000     7.9609   113.3960     0.0168     2.5104     0.0783   -41.6162    12.0714     8.4368    10.5837
  318.5000     7.9733   114.9055     0.0194     2.5128     0.0774   -41.4180    12.4858     8.5671    10.5914
  319.0000     7.9858   116.2255     0.0221     2.5158     0.0749   -41.2853    12.7258     8.7204    10.8492
  319.5000     7.9987   114.9117     0.0247     2.5188     0.0748   -41.5208    12.9683     8.9054    11.1469
  320.0000     7.9989   113.1692     0.0265     2.5218     0.0755   -41.7536    12.9453     9.0942    11.4526
  320.5000     7.9947   112.5859     0.0240     2.5215     0.0725   -41.7299    12.8946     9.2871    11.7668
  321.0000     7.9903   112.6155     0.0214     2.5161     0.0758   -41.7772    12.7302     9.4840    12.0896
  321.5000     7.9860   110.8849     0.0190     2.5106     0.0791   -41.9895    13.1624     9.6851    12.4212
  322.0000     7.9816   109.2250     0.0165     2.5133     0.0804   -42.2140    13.6021     9.8905    12.7620
  322.5000     7.9773   107.5740     0.0153     2.5195     0.0745   -41.9175    13.9596    10.1003    13.0285
  323.0000     7.9730   105.9193     0.0163     2.5249     0.0704   -41.5096    14.0526    10.3145    13.3307
  323.5000     7.9686   105.4245     0.0173     2.5287     0.0686   -41.3941    14.1336    10.5332    13.5384
  324.0000     7.9643   106.0908     0.0183     2.5321     0.0675   -41.7764    15.6264    10.7566    14.2227
  324.5000     7.9600   106.6112     0.0193     2.5264     0.0698   -41.6942    19.2759    10.9842    14.8903
  325.0000     7.9556   105.3292     0.0203     2.5204     0.0729   -41.4593    16.9417    11.1201    14.4041
  325.5000     7.9513   104.9079     0.0213     2.5143     0.0761   -41.5986    14.5530    11.2919    14.0889
  326.0000     7.9469   105.7509     0.0223     2.5083     0.0799   -41.9780    14.6465    11.3969    14.3511
  326.5000     7.9425   106.5778     0.0218     2.5023     0.0842   -41.9556    14.7942    11.3969    14.2360
  327.0000     7.9507   107.4245     0.0192     2.4963     0.0885   -41.7246    15.0119    11.2199    14.0447
  327.5000     7.9602   107.0806     0.0166     2.4903     0.0922   -41.4842    14.9027    11.0009    13.8559
