~VERSION INFORMATION
 VERS.                2.0:   CWLS LOG ASCII STANDARD - VERSION 2.0
 WRAP.                 NO:   ONE LINE PER DEPTH STEP
~WELL INFORMATION
#MNEM.UNIT      DATA TYPE    INFORMATION
#----------   ------------   ------------------------------
 STRT.F           30.0000:   START DEPTH
 STOP.F          618.0000:   STOP DEPTH
 STEP.F            0.5000:   STEP LENGTH
 NULL.          -999.2500:   NO VALUE
 COMP. FENNIX & SCISSON, INC.:   COMPANY
 WELL.       NPR #88-S-10:   WELL
 FLD .              NPR-3:   FIELD
 LOC .      S10 T38N R78W:   LOCATION
 CNTY.            NATRONA:   COUNTY
 STAT.            WYOMING:   STATE
 CTRY. UNITED STATES OF AMERICA:   COUNTRY
 SRVC.              Welex:   SERVICE COMPANY
 DATE.        22-APR-1977:   LOGDATE
 API .       490251034200:   API NUMBER
~CURVE INFORMATION
#MNEM.UNIT       API CODE    CURVE DESCRIPTION
#----------   ------------   ------------------------------
 DEPT.F                  :   
 CALD.IN     45 280 60 00:   CALIPER FROM DENSITY LOG
 GRD .GAPI   45 310 01 00:   GAMMA RAY FROM DENSITY LOG
 CORR.G/C3   45 356 01 00:   DENSITY CORRECTION
 RHOB.G/C3   45 350 01 00:   BULK DENSITY
 DPHI.DEC    45 890 12 00:   DENSITY POROSITY SANDSTONE
 ILD .OHMM   07 120 46 00:   INDUCTION LOG DEEP
 ILM .OHMM   07 120 44 00:   INDUCTION LOG MEDIUM
 SGRD.OHMM   07 220 05 00:   SHALLOW GUARD RESISTIVITY
 SPR .MV     07 010 01 00:   SPONTANEOUS POTENTIAL FROM RES.
~PARAMETER INFORMATION
#MNEM.UNIT          VALUE    DESCRIPTION
#----------   ------------   ------------------------------
 PD  .                 GL:   PERMANENT DATUM
 EPD .F              5255:   ELEVATION PERMANENT DATUM
 LMF .                 GL:   LOG MEASURED FROM
 DMF .                 GL:   DRILLING MEASURED FROM
 EGL .F              5255:   GROUND LEVEL
 DATE.        22-APR-1977:   RUN DATE
 RUN .                  1:   RUN NUMBER
 DD  .F               630:   DEPTH DRILLER
 DL  .F               620:   DEPTH LOGGER
 BLI .F               618:   BOTTOM LOG INTERVAL
 TLI .F                38:   TOP LOG INTERVAL
 CS  .IN            8.625:   CASING SIZE
 CBD .F                40:   CASING BOTTOM DRILLER
 BS  .IN            7.875:   BIT SIZE
 BSD .F               630:   BIT SIZE AT DEPTH
 DFT .            KCL GEL:   DRILLING FLUID TYPE
 DFD .                9.0:   DRILLING FLUID DENSITY
 DFV .                 40:   DRILLING FLUID VISCOSITY
 DFPH.                8.0:   DRILLING FLUID PH
 DFL .                6.4:   DRILLING FLUID LOSS
 MSS .            MUD PIT:   MUD SAMPLE SOURCE
 RMS .OHMM            .20:   RESISTIVITY MUD SAMPLE
 MST .F                65:   MUD SAMPLE TEMPERATURE
 RMF .OHMM            .18:   RESISTIVITY MUD FILTRATE SAMPLE
 MFST.F                65:   MUD FILTRATE SAMPLE TEMPERATURE
 RMC .OHMM            .28:   RESISTIVITY MUD CAKE
 MCST.F                65:   MUD CAKE SAMPLE TEMPERATURE
 MFSS.               MEAS:   MUD FILTRATE SAMPLE SOURCE
 MCSS.               MEAS:   MUD CAKE SAMPLE SOURCE
 RMB .OHMM            .18:   RESISTIVITY MUD AT BHT
 BHT .F                71:   BOTTOM HOLE TEMPERATURE
 TCS .HRS            0300:   TIME CURCULATED STOPPED
 MRT .F                71:   MAXIMUM RECORDED TEMPERATURE
 LUN .               8611:   LOGGING UNIT NUMBER
 LUL .             CASPER:   LOGGING UNIT LOCATION
 ENGI.          T. JOYNER:   RECORDING ENGINEER
 WITN.           ROB LYON:   WITNESSED BY
 CLNT.            A2DTECH:   CLIENT CODE
 ORIG.           5" PRINT:   ORIGIN OF DATA
 UWI .       490251034200:   UNIQUE WELL ID
 DICO. A2D Technologies, Inc.:   DIGITIZING COMPANY
~OTHER INFORMATION
~A   DEPT     CALD        GRD       CORR       RHOB       DPHI        ILD        ILM       SGRD        SPR   
# ...
  504.5000     7.7652    87.7520     0.0178     2.3133     0.2027    14.5910    26.0054    26.0723   -12.4322
  505.0000     7.7952    87.9047     0.0163     2.3171     0.2015    14.2896    25.4617    25.8825   -12.2901
  505.5000     7.8253    89.8538     0.0163     2.3118     0.2062    14.1886    24.0862    26.0512   -12.3013
  506.0000     7.8254    92.8508     0.0164     2.3081     0.2091    14.0883    22.7850    26.2206   -12.0126
  506.5000     7.8256    95.6974     0.0119     2.3021     0.2105    14.0854    22.1571    26.3911   -11.8727
  507.0000     7.8108    94.0544     0.0074     2.2998     0.2108    14.1806    21.9991    26.5627   -11.7313
  507.5000     7.7960    92.8590     0.0044     2.3163     0.2067    14.4730    22.6049    26.1854   -11.5907
  508.0000     7.7961    95.1083     0.0030     2.3193     0.2020    14.7722    23.2294    25.9948   -11.4508
  508.5000     7.7963    95.8590     0.0061     2.3245     0.1968    15.0775    23.7070    25.4522   -11.3109
  509.0000     7.7964    95.5626     0.0121     2.3312     0.1912    15.3892    24.1945    25.0934   -11.1710
  509.5000     7.7966    95.7161     0.0152     2.3409     0.1850    15.7081    25.0350    25.0830   -11.0333
  510.0000     7.7967    96.1682     0.0167     2.3559     0.1761    15.9228    26.4465    25.5966   -11.0423
  510.5000     7.7969    99.0155     0.0213     2.3596     0.1701    16.1404    28.5218    27.4122   -10.9001
  511.0000     7.7821   100.3658     0.0274     2.3716     0.1662    16.2486    26.9810    25.5755   -10.7603
  511.5000     7.7673    99.4706     0.0289     2.3745     0.1653    16.1329    24.6579    24.6988   -10.6204
  512.0000     7.7674    98.8740     0.0245     2.3693     0.1674    15.9089    24.1445    24.3505   -10.4805
  512.5000     7.7676    98.8777     0.0245     2.3641     0.1716    15.6880    23.6418    24.1733   -10.3406
  513.0000     7.7677    98.8807     0.0215     2.3611     0.1749    15.3639    22.9903    23.8324   -10.3517
  513.5000     7.7828    98.8837     0.0201     2.3596     0.1758    14.9433    21.7483    23.4964   -10.3607
  514.0000     7.7830    99.1861     0.0201     2.3678     0.1722    14.5341    20.7158    23.0060   -10.3696
  514.5000     7.7981    99.9376     0.0202     2.3738     0.1665    14.1362    20.4249    22.3710   -10.3785
  515.0000     7.7982   101.2879     0.0232     2.3790     0.1641    13.8442    20.2775    21.7535   -10.3874
  515.5000     7.8133   102.3388     0.0248     2.3797     0.1626    13.4652    19.0501    21.1531   -10.3963
  516.0000     7.8135   102.6412     0.0278     2.3797     0.1602    13.0965    16.8196    20.7116   -10.4053
  516.5000     7.8136   102.7939     0.0309     2.3887     0.1551    12.7379    16.0225    20.2793   -10.4142
  517.0000     7.8138   102.4975     0.0370     2.3894     0.1566    12.3892    17.3979    19.8560   -10.4231
  517.5000     7.8139   101.7520     0.0416     2.3864     0.1617    12.2143    18.3788    19.7115   -10.4320
  518.0000     7.8141   100.2580     0.0431     2.3759     0.1662    12.0431    19.2815    19.5680   -10.4410
  518.5000     7.7993    98.7640     0.0432     2.3715     0.1697    11.7986    19.8159    19.6952   -10.4499
  519.0000     7.7994    99.2161     0.0432     2.3707     0.1700    11.5549    16.7848    19.6871   -10.6076
  519.5000     7.7547   100.7161     0.0402     2.3692     0.1715    11.3944    14.3171    19.6790   -10.6165
  520.0000     7.7399    99.8209     0.0297     2.3595     0.1766    11.2259    12.7282    19.8090   -10.6254
  520.5000     7.7401    97.1292     0.0192     2.3565     0.1793    10.9285    11.6323    19.9378   -10.6344
  521.0000     7.7552    96.9818     0.0117     2.3557     0.1769    10.9394    11.1568    19.9275   -10.7921
  521.5000     7.7852    97.1352     0.0133     2.3632     0.1700    11.2593    10.8494    19.9193   -10.8010
  522.0000     7.8003    98.6352     0.0133     2.3744     0.1664    11.7002    10.9207    19.9111   -10.8099
  522.5000     7.8154   100.1352     0.0149     2.3841     0.1625    11.8607    11.0688    19.9029   -10.8189
  523.0000     7.8305    99.5394     0.0149     2.3841     0.1595    11.3775    11.3744    19.8947   -10.8278
  523.5000     7.8157    98.9436     0.0149     2.3893     0.1577    10.6913    12.6103    19.8865   -10.8367
  524.0000     7.8158    97.7490     0.0135     2.3908     0.1560    10.4705    13.1546    19.8783   -10.8456
  524.5000     7.8010    96.2550     0.0135     2.3893     0.1568    10.5412    12.5149    19.8701   -11.0034
  525.0000     7.8012    95.2101     0.0121     2.3863     0.1598    10.5385    12.0033    19.7255   -11.0123
  525.5000     7.8013    94.9129     0.0076     2.3833     0.1619    10.4640    11.6726    19.3137   -11.0212
  526.0000     7.8015    95.6652     0.0076     2.3818     0.1637    10.3187    11.5086    19.0414   -11.1789
  526.5000     7.8016    98.8119     0.0077     2.3826     0.1628    10.1754    11.5047    18.7729   -11.4855
  527.0000     7.7868    99.1135     0.0107     2.3871     0.1583    10.0342    11.6607    18.5082   -11.6432
  527.5000     7.7870    98.8171     0.0138     2.3908     0.1544     9.9632    11.5763    18.5006   -11.6521
  528.0000     7.7871    98.3718     0.0169     2.4059     0.1496     9.8928    11.3353    18.4930   -11.8099
  528.5000     7.7873    97.6263     0.0171     2.4162     0.1410     9.8907    11.1761    18.4853   -11.8188
  529.0000     7.7874    95.8328     0.0139     2.4184     0.1401     9.8887    11.0192    18.3508   -11.9765
  529.5000     7.7876    93.2909     0.0095     2.4161     0.1416    10.0238    10.9396    17.9677   -12.1342
  530.0000     7.7877    91.9466     0.0080     2.4093     0.1463    10.1613    10.9359    17.5927   -12.4408
  530.5000     7.7879    93.8957     0.0050     2.4049     0.1445    10.0197    10.9321    17.3446   -12.4497
  531.0000     7.7880    95.3957     0.0051     2.4133     0.1392     9.8128    11.0041    17.1001   -12.6074
  531.5000     7.8031    96.8957     0.0066     2.4246     0.1362     9.6101    10.9246    16.9756   -12.7652
  532.0000     7.8033    95.8508     0.0127     2.4297     0.1353     9.4766    10.7711    16.9686   -12.9229
  532.5000     7.8184    95.1053     0.0143     2.4219     0.1365     9.3450    10.6199    16.8451   -13.0806
  533.0000     7.8185    94.9578     0.0158     2.4206     0.1382     9.2153    10.6162    16.7225   -13.0895
  533.5000     7.8187    94.9616     0.0143     2.4245     0.1361     9.1501    10.6126    16.6007   -13.2473
  534.0000     7.8188    94.9646     0.0129     2.4311     0.1326     9.2119    10.6089    16.4799   -13.2562
  534.5000     7.8040    95.2670     0.0099     2.4319     0.1308     9.4019    10.6788    16.3599   -13.4139
  535.0000     7.8042    95.2700     0.0100     2.4350     0.1302     9.4654    10.6750    16.4664   -13.4228
  535.5000     7.8043    95.8718     0.0085     2.4378     0.1322     9.4630    10.5979    16.4595   -13.4318
  536.0000     7.8045    98.7191     0.0085     2.4360     0.1346     9.2039    10.4491    16.5666   -13.4407
  536.5000     7.8046   100.3688     0.0071     2.4285     0.1334     8.8904    10.3737    16.4459   -13.4496
  537.0000     7.7898    99.4735     0.0056     2.4265     0.1310     8.6470    10.1577    16.4392   -13.6073
  537.5000     7.7900    99.0267     0.0057     2.4304     0.1307     8.5859     9.9462    16.4324   -13.7651
  538.0000     7.7752    98.8800     0.0057     2.4340     0.1334     8.6435     9.8744    16.3127   -13.7740
  538.5000     7.7753    99.0334     0.0073     2.4340     0.1313     8.8222     9.6688    16.1940   -13.7829
  539.0000     7.7605    99.4855     0.0103     2.4314     0.1307     8.9428     9.5990    15.9656   -13.7918
  539.5000     7.7607   100.6861     0.0119     2.4272     0.1328     9.0649     9.7291    15.8494   -13.8008
  540.0000     7.7608   102.0364     0.0119     2.4310     0.1280     9.1888     9.9290    15.7268   -13.8097
  540.5000     7.7610   100.9915     0.0150     2.4452     0.1226     9.1869     9.8574    15.5121   -13.9674
