~VERSION INFORMATION
 VERS.                2.0:   CWLS LOG ASCII STANDARD - VERSION 2.0
 WRAP.                 NO:   ONE LINE PER DEPTH STEP
~WELL INFORMATION
#MNEM.UNIT      DATA TYPE    INFORMATION
#----------   ------------   ------------------------------
 STRT.F           38.0000:   START DEPTH
 STOP.F          846.0000:   STOP DEPTH
 STEP.F            0.5000:   STEP LENGTH
 NULL.          -999.2500:   NO VALUE
 COMP. FENIX & SCISSON INC:   COMPANY
 WELL.    NPR 3 #34-SX-14:   WELL
 FLD .        TEAPOT DOME:   FIELD
 LOC .      S14 T38N R78W:   LOCATION
 CNTY.            NATRONA:   COUNTY
 STAT.            WYOMING:   STATE
 CTRY. UNITED STATES OF AMERICA:   COUNTRY
 SRVC.           BIRDWELL:   SERVICE COMPANY
 DATE.        26-APR-1978:   LOGDATE
 API .       490251063500:   API NUMBER
~CURVE INFORMATION
#MNEM.UNIT       API CODE    CURVE DESCRIPTION
#----------   ------------   ------------------------------
 DEPT.F                  :   
 NEUT.CPS    81 330 30 00:   NEUTRON
 TT  .US/F   81 520 00 00:   TRANSIT TIME
 GRD .GAPI   45 310 01 00:   GAMMA RAY FROM DENSITY LOG
 RHOB.G/C3   45 350 01 00:   BULK DENSITY
 DPOR.DEC    45 890 10 00:   DENSITY POROSITY
 CALD.IN     45 280 60 00:   CALIPER FROM DENSITY LOG
 CORR.G/C3   45 356 01 00:   DENSITY CORRECTION
~PARAMETER INFORMATION
#MNEM.UNIT          VALUE    DESCRIPTION
#----------   ------------   ------------------------------
 PD  .                 GL:   PERMANENT DATUM
 EPD .F              5232:   ELEVATION PERMANENT DATUM
 LMF .                 KB:   LOG MEASURED FROM
 DMF .                 KB:   DRILLING MEASURED FROM
 EKB .F              5236:   KELLING BUSHING
 EGL .F              5232:   GROUND LEVEL
 DATE.          4-26-1978:   RUN DATE
 RUN .                  1:   RUN NUMBER
 DD  .F               855:   DEPTH DRILLER
 DL  .F               853:   DEPTH LOGGER
 BLI .F               846:   BOTTOM LOG INTERVAL
 TLI .F                40:   TOP LOG INTERVAL
 CS  .IN            8.625:   CASING SIZE
 CBD .F                40:   CASING BOTTOM DRILLER
 CBL .F                40:   CASING BOTTOM LOGGER
 BS  .IN            7.875:   BIT SIZE
 BSD .F               855:   BIT SIZE AT DEPTH
 DFT .                KCL:   DRILLING FLUID TYPE
 DFD .                8.5:   DRILLING FLUID DENSITY
 DFV .                 31:   DRILLING FLUID VISCOSITY
 DFPH.                 10:   DRILLING FLUID PH
 DFL .               10.4:   DRILLING FLUID LOSS
 MSS .          FLUID PIT:   MUD SAMPLE SOURCE
 RMS .OHMM            .36:   RESISTIVITY MUD SAMPLE
 MST .F                68:   MUD SAMPLE TEMPERATURE
 RMF .OHMM            .28:   RESISTIVITY MUD FILTRATE SAMPLE
 MFST.F                74:   MUD FILTRATE SAMPLE TEMPERATURE
 RMC .OHMM            .48:   RESISTIVITY MUD CAKE
 MCST.F                79:   MUD CAKE SAMPLE TEMPERATURE
 MFSS.               MEAS:   MUD FILTRATE SAMPLE SOURCE
 RMB .OHMM            .33:   RESISTIVITY MUD AT BHT
 BHT .F                75:   BOTTOM HOLE TEMPERATURE
 TCS .HRS               1:   TIME CURCULATED STOPPED
 MRT .F                75:   MAXIMUM RECORDED TEMPERATURE
 LUN .               3006:   LOGGING UNIT NUMBER
 LUL .              CASP.:   LOGGING UNIT LOCATION
 ENGI.             MILLER:   RECORDING ENGINEER
 WITN.           MCGINLEY:   WITNESSED BY
 CLNT.            A2DTECH:   CLIENT CODE
 ORIG.      2" , 5" PRINT:   ORIGIN OF DATA
 UWI .       490251063500:   UNIQUE WELL ID
 DICO. A2D Technologies, Inc.:   DIGITIZING COMPANY
~OTHER INFORMATION
~A   DEPT     NEUT         TT         GRD      RHOB       DPOR       CALD       CORR   
# ...
  129.0000  -999.2500  -999.2500    74.3625     2.3763     0.1515     8.1175     0.0298
  129.5000  -999.2500  -999.2500    72.8464     2.3752     0.1522     8.1655     0.0346
  130.0000  -999.2500  -999.2500    72.4900     2.3742     0.1529     8.1855     0.0364
  130.5000  -999.2500  -999.2500    72.7165     2.3728     0.1536     8.1807     0.0383
  131.0000  -999.2500  -999.2500    74.4625     2.3716     0.1543     8.1756     0.0401
  131.5000  -999.2500  -999.2500    76.1377     2.3702     0.1557     8.1705     0.0420
  132.0000  -999.2500  -999.2500    77.5417     2.3666     0.1639     8.1647     0.0439
  132.5000  -999.2500  -999.2500    77.1120     2.3541     0.1722     8.1424     0.0428
  133.0000  -999.2500  -999.2500    76.4615     2.3419     0.1805     8.1559     0.0412
  133.5000  -999.2500  -999.2500    75.6861     2.3274     0.1887     8.2514     0.0396
  134.0000  -999.2500  -999.2500    75.6421     2.3088     0.1970     8.3511     0.0382
  134.5000  -999.2500  -999.2500    78.1934     2.2902     0.2036     8.4515     0.0416
  135.0000  -999.2500  -999.2500    80.7413     2.2771     0.1970     8.5520     0.0469
  135.5000  -999.2500  -999.2500    81.2606     2.2913     0.1757     8.6512     0.0587
  136.0000  -999.2500  -999.2500    81.3231     2.3267     0.1543     8.6473     0.0700
  136.5000  -999.2500  -999.2500    80.7262     2.3619     0.1370     8.5785     0.0590
  137.0000  -999.2500  -999.2500    79.9458     2.3906     0.1393     8.5092     0.0376
  137.5000  -999.2500  -999.2500    79.1605     2.3964     0.1427     8.4398     0.0358
  138.0000  -999.2500  -999.2500    78.3770     2.3944     0.1446     8.3705     0.0354
  138.5000  -999.2500  -999.2500    77.6784     2.3881     0.1464     8.3012     0.0350
  139.0000  -999.2500  -999.2500    77.6847     2.3830     0.1481     8.2319     0.0346
  139.5000  -999.2500  -999.2500    78.2287     2.3826     0.1499     8.1627     0.0342
  140.0000  -999.2500  -999.2500    78.8948     2.3812     0.1516     8.0797     0.0319
  140.5000  -999.2500  -999.2500    79.5065     2.3768     0.1535     7.9631     0.0288
  141.0000  -999.2500  -999.2500    77.6377     2.3711     0.1597     7.8682     0.0256
  141.5000  -999.2500  -999.2500    76.1279     2.3583     0.1662     7.7742     0.0224
  142.0000  -999.2500  -999.2500    76.1399     2.3455     0.1725     7.6786     0.0208
  142.5000  -999.2500  -999.2500    76.3655     2.3329     0.1778     7.6494     0.0246
  143.0000  -999.2500  -999.2500    76.5930     2.3224     0.1831     7.6434     0.0283
  143.5000  -999.2500  -999.2500    76.8673     2.3135     0.1884     7.6310     0.0321
  144.0000  -999.2500  -999.2500    78.3939     2.3017     0.1936     7.5990     0.0373
  144.5000  -999.2500  -999.2500    80.0881     2.2955     0.1945     7.5303     0.0427
  145.0000  -999.2500  -999.2500    81.7936     2.2975     0.1952     7.4400     0.0481
  145.5000  -999.2500  -999.2500    82.5188     2.2998     0.1796     7.3502     0.0536
  146.0000  -999.2500  -999.2500    82.5393     2.3144     0.1653     7.3242     0.0589
  146.5000  -999.2500  -999.2500    81.2297     2.3516     0.1510     7.3812     0.0603
  147.0000  -999.2500  -999.2500    79.8988     2.3763     0.1435     7.5278     0.0495
  147.5000  -999.2500  -999.2500    78.6944     2.3842     0.1459     7.6729     0.0402
  148.0000  -999.2500  -999.2500    79.1414     2.3838     0.1449     7.8195     0.0422
  148.5000  -999.2500  -999.2500    79.6512     2.3829     0.1408     7.9040     0.0442
  149.0000  -999.2500  -999.2500    80.1574     2.3854     0.1366     7.9428     0.0462
  149.5000  -999.2500  -999.2500    80.6635     2.3935     0.1327     8.0588     0.0481
  150.0000  -999.2500  -999.2500    81.1641     2.4014     0.1301     8.2568     0.0481
  150.5000  -999.2500  -999.2500    81.4899     2.4093     0.1275     8.4402     0.0481
  151.0000  -999.2500  -999.2500    80.5188     2.4144     0.1280     8.6224     0.0470
  151.5000  -999.2500  -999.2500    77.8811     2.4128     0.1322     8.6439     0.0441
  152.0000  -999.2500  -999.2500    78.2290     2.4053     0.1387     8.6443     0.0411
  152.5000  -999.2500  -999.2500    79.8136     2.3979     0.1439     8.5980     0.0382
  153.0000  -999.2500  -999.2500    80.5129     2.3906     0.1479     8.5147     0.0382
  153.5000  -999.2500  -999.2500    79.5099     2.3853     0.1519     8.4330     0.0436
  154.0000  -999.2500  -999.2500    78.2614     2.3832     0.1559     8.3514     0.0493
  154.5000  -999.2500  -999.2500    77.0102     2.3739     0.1575     8.2697     0.0550
  155.0000  -999.2500  -999.2500    75.7425     2.3620     0.1642     8.1881     0.0607
  155.5000  -999.2500  -999.2500    75.0532     2.3571     0.1726     8.1063     0.0660
  156.0000  -999.2500  -999.2500    74.6844     2.3591     0.1810     8.0264     0.0647
  156.5000  -999.2500  -999.2500    74.7081     2.3346     0.1893     7.9588     0.0549
  157.0000  -999.2500  -999.2500    75.3921     2.3106     0.1932     7.9083     0.0517
  157.5000  -999.2500  -999.2500    76.1426     2.2965     0.1921     7.8780     0.0541
  158.0000  -999.2500  -999.2500    76.7223     2.3021     0.1871     7.8444     0.0547
  158.5000  -999.2500  -999.2500    76.3726     2.3081     0.1836     7.8207     0.0480
  159.0000  -999.2500  -999.2500    75.9953     2.3123     0.1867     7.8064     0.0414
  159.5000  -999.2500  -999.2500    75.7092     2.3088     0.1927     7.7794     0.0398
  160.0000  -999.2500  -999.2500    76.7149     2.2963     0.1986     7.6991     0.0394
  160.5000  -999.2500  -999.2500    79.1196     2.2838     0.2035     7.5465     0.0390
  161.0000  -999.2500  -999.2500    80.1064     2.2715     0.2059     7.3944     0.0387
  161.5000  -999.2500  -999.2500    79.6018     2.2686     0.2083     7.2517     0.0383
  162.0000  -999.2500  -999.2500    78.7380     2.2662     0.2091     7.3609     0.0400
  162.5000  -999.2500  -999.2500    77.8692     2.2640     0.2089     7.4819     0.0446
  163.0000  -999.2500  -999.2500    76.9930     2.2666     0.2057     7.6015     0.0492
  163.5000  -999.2500  -999.2500    76.1289     2.2712     0.1943     7.7192     0.0538
  164.0000  -999.2500  -999.2500    76.3787     2.2987     0.1719     7.9193     0.0585
  164.5000  -999.2500  -999.2500    77.8243     2.3412     0.1515     8.1375     0.0428
  165.0000  -999.2500  -999.2500    78.3272     2.3718     0.1518     8.2422     0.0320
  165.5000  -999.2500  -999.2500    77.0916     2.3750     0.1522     8.2659     0.0364
  166.0000  -999.2500  -999.2500    75.8368     2.3769     0.1566     8.3034     0.0421
  166.5000  -999.2500  -999.2500    74.6937     2.3744     0.1636     8.3895     0.0355
  167.0000  -999.2500  -999.2500    76.4473     2.3640     0.1706     8.4679     0.0276
  167.5000  -999.2500  -999.2500    79.5126     2.3458     0.1776     8.5458     0.0194
  168.0000  -999.2500  -999.2500    81.9379     2.3275     0.1833     8.6170     0.0216
  168.5000  -999.2500  -999.2500    81.3729     2.3094     0.1883     8.6426     0.0262
  169.0000  -999.2500  -999.2500    80.8311     2.3033     0.1936     8.6442     0.0310
  169.5000  -999.2500  -999.2500    81.9237     2.2905     0.2013     8.6228     0.0339
  170.0000  -999.2500  -999.2500    84.4585     2.2748     0.2096     8.6018     0.0364
  170.5000  -999.2500  -999.2500    85.4222     2.2590     0.2180     8.6033     0.0390
  171.0000  -999.2500  -999.2500    84.1737     2.2432     0.2263     8.5700     0.0414
  171.5000  -999.2500  -999.2500    82.9638     2.2275     0.2347     8.5400     0.0441
  172.0000  -999.2500  -999.2500    81.7225     2.2117     0.2394     8.4760     0.0518
  172.5000  -999.2500  -999.2500    81.1407     2.2043     0.2339     8.4057     0.0647
  173.0000  -999.2500  -999.2500    82.3084     2.2180     0.2159     8.3435     0.0845
  173.5000  -999.2500  -999.2500    83.4488     2.2327     0.1866     8.3350     0.1041
  174.0000  -999.2500  -999.2500    81.8330     2.3100     0.1573     8.3421     0.1175
