~VERSION INFORMATION
 VERS.                2.0:   CWLS LOG ASCII STANDARD - VERSION 2.0
 WRAP.                 NO:   ONE LINE PER DEPTH STEP
~WELL INFORMATION
#MNEM.UNIT      DATA TYPE    INFORMATION
#----------   ------------   ------------------------------
 STRT.F            0.0000:   START DEPTH
 STOP.F         1340.0000:   STOP DEPTH
 STEP.F            0.5000:   STEP LENGTH
 NULL.          -999.2500:   NO VALUE
 COMP. U S NAVY-INTEX OIL:   COMPANY
 WELL. NAVAL PETROLEUM RESERVE 3 S #81-14:   WELL
 FLD .             TEAPOT:   FIELD
 LOC .      S14 T38N R78W:   LOCATION
 CNTY.            NATRONA:   COUNTY
 STAT.            WYOMING:   STATE
 CTRY. UNITED STATES OF AMERICA:   COUNTRY
 SRVC.       Schlumberger:   SERVICE COMPANY
 DATE.        20-AUG-1966:   LOGDATE
 API .       490250971600:   API NUMBER
~CURVE INFORMATION
#MNEM.UNIT       API CODE    CURVE DESCRIPTION
#----------   ------------   ------------------------------
 DEPT.F                  :   
 SPR .MV     07 010 01 00:   SPONTANEOUS POTENTIAL
 CILD.MMHO   07 110 46 00:   CONDUCTIVITY INDUCTION LOG DEEP
 ILD .OHMM   07 120 46 00:   INDUCTION LOG DEEP
 ASN .OHMM   01 041 16 00:   AMPLIFIED SHORT NORMAL 16"
 CALD.IN     45 280 60 00:   CALIPER
 RHOB.G/C3   45 350 01 00:   BULK DENSITY
 DPHI.DEC    45 890 12 00:   DENSITY POROSITY SANDSTONE
 GRD .GAPI   45 310 01 00:   GAMMA RAY FROM DENSITY LOG
 CORR.G/C3   45 356 01 00:   DENSITY CORRECTION
~PARAMETER INFORMATION
#MNEM.UNIT          VALUE    DESCRIPTION
#----------   ------------   ------------------------------
 PD  .                 GL:   PERMANENT DATUM
 EPD .F              5283:   ELEVATION PERMANENT DATUM
 LMF .                 KB:   LOG MEASURED FROM
 DAPD.F                 5:   FEET ABOVE PERMANENT DATUM
 DMF .                 KB:   DRILLING MEASURED FROM
 EKB .F              5288:   KELLING BUSHING
 EGL .F              5283:   GROUND LEVEL
 DATE.            8-20-66:   RUN DATE
 RUN .                  1:   RUN NUMBER
 DD  .F              1340:   DEPTH DRILLER
 DL  .F              1337:   DEPTH LOGGER
 BLI .F              1336:   BOTTOM LOG INTERVAL
 TLI .F                17:   TOP LOG INTERVAL
 CS  .IN            8.625:   CASING SIZE
 CBD .F                15:   CASING BOTTOM DRILLER
 CBL .F                17:   CASING BOTTOM LOGGER
 BS  .IN            7.875:   BIT SIZE
 BSD .F              1340:   BIT SIZE AT DEPTH
 DFT .           GEL-CHEM:   DRILLING FLUID TYPE
 DFD .                9.8:   DRILLING FLUID DENSITY
 DFV .                 70:   DRILLING FLUID VISCOSITY
 DFL .                  8:   DRILLING FLUID LOSS
 MSS .          FLOW LINE:   MUD SAMPLE SOURCE
 RMS .OHMM           1.26:   RESISTIVITY MUD SAMPLE
 MST .F                71:   MUD SAMPLE TEMPERATURE
 RMF .OHMM            .71:   RESISTIVITY MUD FILTRATE SAMPLE
 MFST.F                71:   MUD FILTRATE SAMPLE TEMPERATURE
 MFSS.                  M:   MUD FILTRATE SAMPLE SOURCE
 RMB .OHMM           1.04:   RESISTIVITY MUD AT BHT
 BHT .F                86:   BOTTOM HOLE TEMPERATURE
 TCS .HRS               2:   TIME CURCULATED STOPPED
 MRT .F                86:   MAXIMUM RECORDED TEMPERATURE
 LUN .               3527:   LOGGING UNIT NUMBER
 LUL .               CSPR:   LOGGING UNIT LOCATION
 ENGI.          TOLLEFSON:   RECORDING ENGINEER
 WITN.                MAY:   WITNESSED BY
 CLNT.            A2DTECH:   CLIENT CODE
 ORIG.        2" 5" PRINT:   ORIGIN OF DATA
 UWI .       490250971600:   UNIQUE WELL ID
 DICO. A2D Technologies, Inc.:   DIGITIZING COMPANY
~OTHER INFORMATION
~A    DEPT     SPR       CILD        ILD        ASN         CALD     RHOB       DPHI          GRD     CORR   
# ...
  438.0000   -49.1478   176.1602     5.6638     6.5539     7.9769     2.4808     0.1252    97.9787     0.0654
  438.5000   -49.1347   179.4162     5.6439     6.5214     7.9767     2.4634     0.1299    99.9209     0.0572
  439.0000   -49.1216   182.6722     5.6534     6.5367     7.9765     2.4486     0.1346   101.8840     0.0506
  439.5000   -49.1085   183.1736     5.6741     6.6215     7.9763     2.4490     0.1392   103.8741     0.0479
  440.0000   -49.0954   180.2728     5.6949     6.7737     7.9761     2.4490     0.1428   103.4370     0.0555
  440.5000   -49.0824   175.6420     5.7156     6.9145     7.9759     2.4532     0.1389   102.1218     0.0619
  441.0000   -49.0693   172.7385     5.7380     6.9247     7.9757     2.4588     0.1337   100.8273     0.0681
  441.5000   -49.0562   170.6547     5.8202     6.9318     7.9755     2.4646     0.1300    99.5284     0.0641
  442.0000   -49.0431   168.5709     5.9101     6.9571     7.9753     2.4557     0.1333    98.2399     0.0538
  442.5000   -49.0298   166.4765     5.9999     7.0143     7.9752     2.4450     0.1372    96.9068     0.0449
  443.0000   -49.0170   164.4537     6.0894     7.0805     7.9750     2.4407     0.1412    98.1138     0.0343
  443.5000   -49.0033   159.6815     6.1805     7.2163     7.9748     2.4508     0.1416   100.5711     0.0305
  444.0000   -49.1428   154.6887     6.3589     7.4142     7.9746     2.4588     0.1333    99.7229     0.0346
  444.5000   -49.4035   149.6589     6.7106     7.6115     7.9744     2.4668     0.1278    97.8964     0.0382
  445.0000   -49.5987   144.6257     6.9013     7.8048     7.9742     2.4808     0.1222    96.0442     0.0495
  445.5000   -49.4773   139.6122     7.0069     7.9755     7.9740     2.4984     0.1167    94.2044     0.0607
  446.0000   -49.3603   135.2295     7.1138     8.0714     7.9738     2.5161     0.1112    93.1605     0.0723
  446.5000   -49.2427   133.3533     7.1557     7.9558     7.9736     2.5339     0.1057    95.9468     0.0835
  447.0000   -49.2312   132.2355     7.1908     7.9272     7.9734     2.5516     0.1001    98.8234     0.0941
  447.5000   -49.2822   132.2355     7.2262     8.2620     7.9732     2.5642     0.0936    97.7376     0.0819
  448.0000   -49.3348   136.5696     7.2091     8.4358     7.9730     2.5555     0.0978    95.8980     0.0560
  448.5000   -49.3886   140.5952     6.9864     8.2894     7.9728     2.5324     0.1029    94.0842     0.0418
  449.0000   -49.3991   144.6208     6.7635     8.1102     7.9727     2.5096     0.1080    92.2184     0.0548
  449.5000   -49.3990   148.6463     6.6265     7.9999     7.9725     2.4868     0.1131    93.1965     0.0670
  450.0000   -49.3864   150.1455     6.5818     7.8885     7.9723     2.4752     0.1182    95.3331     0.0795
  450.5000   -49.3339   151.5532     6.5374     7.7955     7.9721     2.4831     0.1233    97.5379     0.0630
  451.0000   -49.2836   152.8405     6.4934     7.7173     7.9719     2.4912     0.1260    98.6993     0.0288
  451.5000   -49.2332   154.0266     6.4492     7.6408     7.9717     2.4993     0.1180    99.6331     0.0401
  452.0000   -49.1828   155.1896     6.4050     7.5901     7.9715     2.5075     0.1105   100.5414     0.0520
  452.5000   -49.1324   156.1876     6.3610     7.5796     7.9713     2.5157     0.1049   100.3531     0.0648
  453.0000   -49.0820   155.4305     6.3372     7.5600     7.9711     2.5125     0.1073    98.6203     0.0776
  453.5000   -49.0323   154.5444     6.3373     7.5904     7.9709     2.5049     0.1098    97.0729     0.0726
  454.0000   -48.9975   153.6582     6.3373     7.6156     7.9707     2.4971     0.1123    98.4286     0.0592
  454.5000   -48.9984   152.7720     6.3373     7.6008     7.9705     2.4893     0.1148    99.8667     0.0668
  455.0000   -48.9623   151.8859     6.3373     7.5705     7.9703     2.4816     0.1173   101.2896     0.0751
  455.5000   -48.9020   151.1976     6.3373     7.5662     7.9701     2.4738     0.1198   102.7117     0.0655
  456.0000   -48.8413   151.7715     6.3373     7.5796     7.9700     2.4661     0.1223   104.1312     0.0592
  456.5000   -48.7805   153.0517     6.3374     7.5937     7.9698     2.4583     0.1248   105.3546     0.0507
  457.0000   -48.7196   154.3404     6.3373     7.5818     7.9696     2.4506     0.1272   104.4152     0.0351
  457.5000   -48.6579   155.6263     6.3376     7.5297     7.9694     2.4472     0.1297   103.1194     0.0204
  458.0000   -48.6020   156.9112     6.2936     7.4713     7.9692     2.4546     0.1322   101.8173     0.0235
  458.5000   -48.7225   158.1961     6.2169     7.4625     7.9690     2.4659     0.1337   100.5196     0.0430
  459.0000   -48.8530   159.4810     6.1398     7.4422     7.9688     2.4772     0.1281    99.2224     0.0530
  459.5000   -48.9825   160.7660     6.0617     7.3789     7.9686     2.4885     0.1226    97.9246     0.0486
  460.0000   -48.9860   162.0509     6.0381     7.3180     7.9684     2.4953     0.1189    96.6275     0.0367
  460.5000   -48.9714   161.8721     6.0378     7.2801     7.9682     2.4860     0.1209    95.3251     0.0351
  461.0000   -48.9568   161.4438     6.0379     7.2982     7.9680     2.4770     0.1229    94.5026     0.0468
  461.5000   -48.9425   161.0155     6.0379     7.3151     7.9678     2.4681     0.1249    94.3375     0.0576
  462.0000   -48.9281   160.5872     6.0379     7.3324     7.9676     2.4592     0.1272    94.3203     0.0635
  462.5000   -48.9138   160.1796     6.0379     7.3496     7.9675     2.4541     0.1265    95.0937     0.0550
  463.0000   -48.8995   161.1206     6.0379     7.3660     7.9673     2.4624     0.1247    96.1386     0.0470
  463.5000   -48.8851   162.2220     6.0379     7.3473     7.9671     2.4715     0.1230    97.1894     0.0408
  464.0000   -48.8708   163.1736     6.0379     7.2917     7.9669     2.4805     0.1213    98.2385     0.0445
  464.5000   -48.8565   163.0313     6.0380     7.2475     7.9667     2.4895     0.1196    99.2814     0.0510
  465.0000   -48.8421   162.8410     6.0463     7.2260     7.9665     2.4924     0.1179    99.8858     0.0579
  465.5000   -48.8278   162.6506     6.0683     7.2043     7.9663     2.4878     0.1161    99.8712     0.0619
  466.0000   -48.8134   162.4603     6.0901     7.1832     7.9661     2.4831     0.1156    99.5541     0.0569
  466.5000   -48.7985   162.2699     6.1120     7.2124     7.9659     2.4785     0.1170    99.2211     0.0511
  467.0000   -48.8299   162.1756     6.1339     7.2895     7.9657     2.4738     0.1191    98.6985     0.0455
  467.5000   -48.8760   161.2951     6.1558     7.3693     7.9655     2.4692     0.1211    96.7845     0.0391
  468.0000   -48.9223   160.0857     6.1775     7.4563     7.9653     2.4660     0.1232    94.8439     0.0389
  468.5000   -48.9685   158.8764     6.1987     7.5439     7.9651     2.4659     0.1252    92.8488     0.0459
  469.0000   -49.0148   157.6846     6.2233     7.5929     7.9650     2.4714     0.1273    92.1192     0.0469
  469.5000   -49.0610   155.5431     6.3113     7.5870     7.9647     2.4775     0.1255    93.7611     0.0401
  470.0000   -49.1072   153.4015     6.4210     7.5816     7.9646     2.4836     0.1191    95.8182     0.0327
  470.5000   -49.1534   151.2600     6.5125     7.5745     7.9644     2.4897     0.1127    97.8841     0.0380
  471.0000   -49.1996   149.1184     6.6059     7.6314     7.9642     2.4958     0.1068    99.9554     0.0547
  471.5000   -49.2458   146.9769     6.6993     7.7350     7.9640     2.5018     0.1102   101.9316     0.0604
  472.0000   -49.2921   144.8353     6.7928     7.9690     7.9638     2.5077     0.1134    99.9054     0.0530
  472.5000   -49.3382   142.6938     6.8863     8.1515     7.9636     2.4902     0.1165    95.8370     0.0478
  473.0000   -49.3856   140.5522     6.9798     8.2621     7.9634     2.4632     0.1197    96.9596     0.0398
  473.5000   -49.3626   138.4091     7.0720     8.3223     7.9632     2.4570     0.1229    99.0470     0.0387
  474.0000   -49.3119   136.2595     7.1454     8.3826     7.9630     2.4599     0.1260   101.1899     0.0425
