~VERSION INFORMATION
 VERS.                2.0:   CWLS LOG ASCII STANDARD - VERSION 2.0
 WRAP.                 NO:   ONE LINE PER DEPTH STEP
~WELL INFORMATION
#MNEM.UNIT      DATA TYPE    INFORMATION
#----------   ------------   ------------------------------
 STRT.F           29.0000:   START DEPTH
 STOP.F          500.0000:   STOP DEPTH
 STEP.F            0.5000:   STEP LENGTH
 NULL.          -999.2500:   NO VALUE
 COMP.    FENIX & SCISSON:   COMPANY
 WELL.        NPR #48-S-3:   WELL
 FLD .             TEAPOT:   FIELD
 LOC .       S3 T38N R78W:   LOCATION
 CNTY.            NATRONA:   COUNTY
 STAT.            WYOMING:   STATE
 CTRY. UNITED STATES OF AMERICA:   COUNTRY
 SRVC.              Welex:   SERVICE COMPANY
 DATE.        24-APR-1977:   LOGDATE
 API .       490251034900:   API NUMBER
~CURVE INFORMATION
#MNEM.UNIT       API CODE    CURVE DESCRIPTION
#----------   ------------   ------------------------------
 DEPT.F                  :   
 SPR .MV     07 010 01 00:   SPONTANEOUS POTENTIAL
 ILD .OHMM   07 120 46 00:   INDUCTION LOG DEEP
 ILM .OHMM   07 120 44 00:   INDUCTION LOG MEDIUM
 SGRD.OHMM   07 221 05 00:   SHALLOW SHORT GUARD RESISTIVITY
 GRD .GAPI   45 310 01 00:   GAMMA RAY FROM DENSITY LOG
 CALD.IN     45 280 60 00:   CALIPER FROM DENSITY LOG
 CORR.G/C3   45 356 01 00:   DENSITY CORRECTION
 RHOB.G/C3   45 350 01 00:   BULK DENSITY
 DPHI.DEC    45 890 12 00:   DENSITY POROSITY SANDSTONE
~PARAMETER INFORMATION
#MNEM.UNIT          VALUE    DESCRIPTION
#----------   ------------   ------------------------------
 PD  .                 GL:   PERMANENT DATUM
 EPD .F              5199:   ELEVATION PERMANENT DATUM
 LMF .                 GL:   LOG MEASURED FROM
 DMF .                 GL:   DRILLING MEASURED FROM
 EGL .F              5199:   GROUND LEVEL
 DATE.        24-APR-1977:   RUN DATE
 RUN .                  1:   RUN NUMBER
 DD  .F               500:   DEPTH DRILLER
 DL  .F               499:   DEPTH LOGGER
 BLI .F               497:   BOTTOM LOG INTERVAL
 TLI .F                30:   TOP LOG INTERVAL
 CS  .IN            8.625:   CASING SIZE
 BS  .IN               12:   BIT SIZE
 BSD .F               500:   BIT SIZE AT DEPTH
 DFT .             KCLMUD:   DRILLING FLUID TYPE
 DFD .                8.9:   DRILLING FLUID DENSITY
 TCS .HRS               1:   TIME CURCULATED STOPPED
 MRT .F                70:   MAXIMUM RECORDED TEMPERATURE
 ENGI.          T. JOYNER:   RECORDING ENGINEER
 WITN.            R. LYON:   WITNESSED BY
 CLNT.            A2DTECH:   CLIENT CODE
 ORIG.           5" PRINT:   ORIGIN OF DATA
 UWI .       490251034900:   UNIQUE WELL ID
 DICO. A2D Technologies, Inc.:   DIGITIZING COMPANY
~OTHER INFORMATION
~A   DEPT      SPR        ILD        ILM       SGRD        GRD         CALD      CORR        RHOB     DPHI   
# ...
  211.5000   -58.0342     4.6572     5.5653     7.5962   129.1826     7.8501    -0.0041     2.3995     0.1504
  212.0000   -57.8740     4.5965     5.7662     8.6381   129.6243     7.8499    -0.0041     2.4055     0.1444
  212.5000   -57.7139     4.6021     5.9332     9.0200   129.9180     7.8498    -0.0041     2.4137     0.1373
  213.0000   -57.4054     4.7357     6.1475     8.7703   130.2117     7.8496    -0.0041     2.4189     0.1336
  213.5000   -57.0969     4.8732     6.4136     8.6515   128.1199     7.8495    -0.0042     2.4251     0.1304
  214.0000   -56.9368     5.0845     6.6913    10.3651   125.4330     7.8493    -0.0034     2.4391     0.1253
  214.5000   -56.7767     5.3050     6.9328    10.3002   123.0442     7.8492    -0.0034     2.4510     0.1203
  215.0000   -56.4682     5.5735     7.2330    10.0966   123.0398     7.8490    -0.0035     2.4540     0.1194
  215.5000   -56.4564     5.8555     7.4425    10.6901   123.4826     7.8339    -0.0042     2.4315     0.1262
  216.0000   -56.1479     6.1519     7.7112    11.6272   124.0743     7.8338    -0.0042     2.4442     0.1241
  216.5000   -56.1361     6.3744     7.9345    12.4640   124.8152     7.8336    -0.0042     2.4592     0.1169
  217.0000   -55.9760     6.6050     8.0522    12.8034   125.5917     7.8485    -0.0043     2.4607     0.1158
  217.5000   -55.9642     6.7968     8.1716    12.9904   126.7428     7.8483    -0.0043     2.4590     0.1173
  218.0000   -55.8041     6.8981     8.1789    12.9994   125.2481     7.8481    -0.0043     2.4509     0.1185
  218.5000   -55.7923     7.0495     8.2431    13.0102   126.1380     7.8480    -0.0043     2.4434     0.1212
  219.0000   -55.7804     7.0563     8.2504    13.0191   127.1769     7.8478    -0.0036     2.4351     0.1286
  219.5000   -55.9172     7.1121     8.2007    12.8494   130.1532     7.8477    -0.0036     2.4186     0.1346
  220.0000   -55.9050     7.0682     8.0397    12.6797   134.0236     7.8475    -0.0036     2.4126     0.1349
  220.5000   -55.8932     6.9795     7.8817    12.5166   133.8703     7.8324    -0.0036     2.4223     0.1330
  221.0000   -55.8790     6.7957     7.7268    12.2684   131.4633     7.8323    -0.0036     2.4268     0.1301
  221.5000   -55.8672     6.5258     7.5226    11.9424   131.5722     7.8471    -0.0035     2.4290     0.1296
  222.0000   -55.8554     6.3524     7.3214    11.6251   133.2600     7.8619    -0.0029     2.4290     0.1305
  222.5000   -55.8437     6.1016     7.0791    11.4716   133.2557     7.8617    -0.0022     2.4267     0.1314
  223.0000   -55.9832     5.8999     6.8911    11.4004   132.6552     7.8616    -0.0014     2.4244     0.1323
  223.5000   -56.1198     5.7049     6.6618    11.2538   130.2664     7.8614    -0.0015     2.4222     0.1332
  224.0000   -56.2535     5.4406     6.4454    11.1070   128.1756     7.8463    -0.0015     2.4199     0.1352
  224.5000   -56.2417     5.2608     6.2751    10.8119   127.2771     7.8312    -0.0015     2.4176     0.1379
  225.0000   -56.5267     5.0518     6.0956    10.5957   128.4650     7.8311    -0.0015     2.4146     0.1397
  225.5000   -56.6663     4.8512     5.8919    10.3160   129.3548     7.8309    -0.0014     2.4116     0.1412
  226.0000   -56.8029     4.6909     5.6342     9.7683   127.2630     7.8308    -0.0008     2.4078     0.1436
  226.5000   -56.7882     4.5358     5.4842     8.8744   127.5567     7.8306    -0.0015     2.4033     0.1466
  227.0000   -56.6280     4.5717     5.4904     7.5244   129.0427     7.8327    -0.0016     2.3988     0.1502
  227.5000   -56.6163     4.7045     5.6886     6.6957   132.4660     7.8303    -0.0016     2.3950     0.1505
  228.0000   -56.3078     4.8411     6.0592     6.4273   134.3991     7.8302    -0.0016     2.4010     0.1427
  228.5000   -56.1477     5.0162     6.3654     9.9382   135.5870     7.8300    -0.0016     2.4130     0.1341
  229.0000   -55.9875     5.1977     6.6871    11.1835   136.3278     7.8299    -0.0016     2.4362     0.1254
  229.5000   -55.6790     5.4607     6.9766    11.9912   136.7706     7.8297    -0.0016     2.4487     0.1203
  230.0000   -55.3705     5.6975     7.2786    12.2506   134.3807     7.8296    -0.0017     2.4661     0.1183
  230.5000   -55.2104     5.9865     7.5414    12.4294   131.5447     7.8294    -0.0024     2.4690     0.1168
  231.0000   -55.0503     6.2903     7.7598    12.4380   129.0069     7.8442    -0.0032     2.4623     0.1159
  231.5000   -54.8901     6.5209     7.9296    12.3609   126.0215     7.8441    -0.0040     2.4578     0.1159
  232.0000   -54.8784     6.7989     7.9917    11.9493   127.6565     7.8589    -0.0047     2.4562     0.1171
  232.5000   -54.7181     6.8527     8.1103    12.2927   130.4838     7.8737    -0.0047     2.4562     0.1168
  233.0000   -54.7062     6.9070     8.1175    12.5586   133.4601     7.8735    -0.0055     2.4577     0.1156
  233.5000   -54.6943     6.9616     8.1811    12.7419   134.9471     7.8734    -0.0055     2.4625     0.1138
  234.0000   -54.6825     7.0167     8.1885    12.7507   130.1727     7.8882    -0.0055     2.4711     0.1114
  234.5000   -54.6683     7.0723     8.1958    12.5845   129.1251     7.9179    -0.0048     2.4778     0.1087
  235.0000   -54.6565     7.0301     8.2031    12.5931   129.4288     7.9178    -0.0041     2.4838     0.1057
  235.5000   -54.4964     6.9798     8.2104    12.6891   129.5635     7.9176    -0.0033     2.4875     0.1023
  236.0000   -54.4846     6.9007     8.2178    12.6978   129.5581     7.9175    -0.0026     2.4883     0.0980
  236.5000   -54.4728     6.9073     8.2251    12.6191   128.8086     7.9173    -0.0018     2.4882     0.0971
  237.0000   -54.4611     6.8647     8.2325    12.4546   126.5688     7.9321    -0.0019     2.4852     0.0980
  237.5000   -54.4493     6.7786     8.2398    12.2922   121.9452     7.9320    -0.0011     2.4822     0.0992
  238.0000   -54.4376     6.7851     8.3044    12.3861   127.3049     7.9318    -0.0003     2.4814     0.1004
  238.5000   -54.5742     6.7917     8.3695    12.4805   130.7283     7.9317     0.0011     2.4807     0.0992
  239.0000   -54.5624     6.8454     8.4937    12.4891   133.1085     7.9315     0.0011     2.4814     0.0980
  239.5000   -54.6990     6.8995     8.5603    12.3260   134.2975     7.9314     0.0018     2.4851     0.0980
  240.0000   -54.6873     6.9062     8.6351    12.0816   134.5902     7.9163     0.0018     2.4851     0.0986
  240.5000   -54.6755     6.9128     8.5163    12.0920   134.2876     7.9012     0.0033     2.4828     0.0995
  241.0000   -54.6637     6.9675     8.2916    12.3535   133.4606     7.8861     0.0040     2.4767     0.1010
  241.5000   -54.8033     6.9245     8.0726    12.6207   131.8934     7.8710     0.0048     2.4708     0.1076
  242.0000   -54.9399     6.8376     7.9139    12.7147   131.1439     7.8708     0.0047     2.4700     0.1091
  242.5000   -55.0765     6.7502     7.7049    12.3769   130.9916     7.8557     0.0047     2.4715     0.1079
  243.0000   -55.2107     6.6180     7.5011    12.3875   131.2854     7.8407     0.0055     2.4730     0.1076
  243.5000   -55.6439     6.4437     7.3525    12.3960   131.8761     7.8256     0.0054     2.4729     0.1085
  244.0000   -56.0768     6.2740     7.1572    12.1502   132.4678     7.8254     0.0054     2.4707     0.1100
  244.5000   -56.3618     6.1087     6.9671    11.8274   133.0596     7.8252     0.0054     2.4654     0.1130
  245.0000   -56.4984     5.9478     6.7821    10.9699   133.8400     7.8101     0.0054     2.4585     0.1186
  245.5000   -56.6350     5.7911     6.6019     9.9660   134.9873     7.8100     0.0054     2.4466     0.1219
  246.0000   -56.7775     5.6386     6.4711     8.8684   136.1752     7.8099     0.0046     2.4384     0.1240
  246.5000   -56.9082     5.4900     6.2993    10.1886   137.8102     7.8097     0.0046     2.4309     0.1280
  247.0000   -57.0448     5.3086     6.1745    10.9244   139.8923     7.8096     0.0038     2.4219     0.1342
  247.5000   -57.1814     5.0978     5.9790    11.0076   142.7195     7.8094     0.0031     2.4143     0.1357
