~VERSION INFORMATION
 VERS.                2.0:   CWLS LOG ASCII STANDARD - VERSION 2.0
 WRAP.                 NO:   ONE LINE PER DEPTH STEP
~WELL INFORMATION
#MNEM.UNIT      DATA TYPE    INFORMATION
#----------   ------------   ------------------------------
 STRT.F            8.0000:   START DEPTH
 STOP.F         1010.0000:   STOP DEPTH
 STEP.F            0.5000:   STEP LENGTH
 NULL.          -999.2500:   NO VALUE
 COMP.          U.S. NAVY:   COMPANY
 WELL. RES 3 TEAPOT DOM #47S-35:   WELL
 FLD .             TEAPOT:   FIELD
 LOC .      S35 T39N R78W:   LOCATION
 CNTY.            NATRONA:   COUNTY
 STAT.            WYOMING:   STATE
 CTRY. UNITED STATES OF AMERICA:   COUNTRY
 SRVC.      NL McCullough:   SERVICE COMPANY
 DATE.        12-NOV-1958:   LOGDATE
 API .       490250650800:   API NUMBER
~CURVE INFORMATION
#MNEM.UNIT       API CODE    CURVE DESCRIPTION
#----------   ------------   ------------------------------
 DEPT.F                  :   
 GRN .GAPI   35 310 01 00:   GAMMA RAY
 NEUT.NAPI   35 330 01 00:   NEUTRON
~PARAMETER INFORMATION
#MNEM.UNIT          VALUE    DESCRIPTION
#----------   ------------   ------------------------------
 PD  .                 GL:   PERMANENT DATUM
 EPD .F             51891:   ELEVATION PERMANENT DATUM
 DATE.        11-NOV-1959:   RUN DATE
 RUN .                  1:   RUN NUMBER
 BLI .F              1004:   BOTTOM LOG INTERVAL
 CS  .IN            8.625:   CASING SIZE
 WITN.             MARTNE:   WITNESSED BY
 CLNT.            A2DTECH:   CLIENT CODE
 ORIG.         2.5" PRINT:   ORIGIN OF DATA
 UWI .       490250650800:   UNIQUE WELL ID
 DICO. A2D Technologies, Inc.:   DIGITIZING COMPANY
~OTHER INFORMATION
~A    DEPT     GRN       NEUT   
# ...
  858.5000     6.3282   139.7410
  859.0000     6.3725   138.9878
  859.5000     6.4298   138.9842
  860.0000     6.4300   138.2309
  860.5000     6.4303   138.9771
  861.0000     6.4305   138.9730
  861.5000     6.3471   138.9693
  862.0000     6.2284   137.5460
  862.5000     6.1476   130.9344
  863.0000     6.0465   123.9649
  863.5000     5.9252   123.9613
  864.0000     5.8039   123.9577
  864.5000     5.7636   126.9526
  865.0000     5.9177   154.0103
  865.5000     6.0774   163.2623
  866.0000     6.1490   167.4217
  866.5000     6.1156   166.2158
  867.0000     5.9974   150.3398
  867.5000     5.9793   146.0394
  868.0000     6.0688   149.4146
  868.5000     6.2918   152.4095
  869.0000     6.4742   156.1540
  869.5000     6.2314   159.8986
  870.0000     6.1283   170.3897
  870.5000     6.0244   174.1806
  871.0000     5.9645   174.8803
  871.5000     5.9284   166.6205
  872.0000     5.9365   159.6201
  872.5000     5.9896   170.6650
  873.0000     6.0075   183.5133
  873.5000     5.8888   180.8577
  874.0000     6.0510   177.6512
  874.5000     6.1322   189.8460
  875.0000     5.6666   194.3402
  875.5000     5.3023   197.3439
  876.0000     5.4297   198.9105
  876.5000     5.5770   195.8168
  877.0000     5.7041   180.5522
  877.5000     5.8166   162.1826
  878.0000     5.8591   142.6138
  878.5000     5.8597   155.3328
  879.0000     5.8302   162.8255
  879.5000     5.8305   174.8159
  880.0000     5.8104   198.8004
  880.5000     5.7499   228.7818
  881.0000     5.6083   215.2684
  881.5000     5.5667   189.6802
  882.0000     5.5246   193.3340
  882.5000     5.5028   223.5759
  883.0000     5.4338   230.1675
  883.5000     5.3494   231.0083
  884.0000     5.2447   222.7579
  884.5000     5.1643   210.0108
  885.0000     5.1847   192.7658
  885.5000     5.3469   186.7652
  886.0000     5.3673   191.2743
  886.5000     5.3473   196.0578
  887.0000     5.3475   203.6628
  887.5000     5.2085   224.9180
  888.0000     4.7479   258.5600
  888.5000     4.3517   266.2584
  889.0000     4.0385   255.6782
  889.5000     3.7399   242.9567
  890.0000     3.6565   239.9546
  890.5000     3.6479   237.7021
  891.0000     3.6886   236.1993
  891.5000     3.7496   233.9081
  892.0000     3.8510   228.4756
  892.5000     3.8715   230.1413
  893.0000     3.8292   242.9617
  893.5000     3.7796   252.6724
  894.0000     3.6677   236.8069
  894.5000     3.2906   214.4333
  895.0000     3.3622   206.9335
  895.5000     3.5097   209.9285
  896.0000     3.5894   213.6730
  896.5000     3.6504   216.6702
  897.0000     3.7113   218.9855
  897.5000     3.7722   220.4089
  898.0000  -999.2500   214.8327
  898.5000  -999.2500   208.7621
  899.0000  -999.2500  -999.2500
  899.5000  -999.2500  -999.2500
  900.0000  -999.2500  -999.2500
  900.5000  -999.2500  -999.2500
  901.0000  -999.2500  -999.2500
  901.5000  -999.2500  -999.2500
  902.0000  -999.2500  -999.2500
  902.5000  -999.2500  -999.2500
  903.0000  -999.2500  -999.2500
  903.5000  -999.2500  -999.2500
  904.0000  -999.2500  -999.2500
  904.5000  -999.2500  -999.2500
  905.0000  -999.2500  -999.2500
  905.5000  -999.2500  -999.2500
  906.0000  -999.2500  -999.2500
  906.5000  -999.2500  -999.2500
  907.0000  -999.2500  -999.2500
  907.5000  -999.2500  -999.2500
  908.0000  -999.2500  -999.2500
  908.5000     4.7030  -999.2500
  909.0000     4.5768  -999.2500
  909.5000     4.4400  -999.2500
  910.0000     4.3038   252.4982
  910.5000     4.1356   259.9773
  911.0000     3.8925   268.4580
  911.5000     3.8114   282.4350
  912.0000     3.7303   289.9240
  912.5000     3.7707   296.6634
  913.0000     3.8944   300.4043
  913.5000     3.9753   301.1469
  914.0000     4.0173   300.3701
  914.5000     4.0851   293.9739
  915.0000     4.1489   286.3194
  915.5000     4.2416   275.6329
  916.0000     4.3170   266.2767
  916.5000     4.3976   261.7315
  917.0000     4.4178   258.8569
  917.5000     4.3164   256.1094
  918.0000     4.2353   255.1673
  918.5000     4.2150   253.6069
  919.0000     4.1947   253.0885
  919.5000     4.2148   251.6390
  920.0000     4.2147   249.6752
  920.5000     4.2146   245.5683
  921.0000     4.2204   242.5625
  921.5000     4.2347   238.0576
  922.0000     4.2233   234.3022
  922.5000     4.2962   232.0461
  923.0000     4.3761   229.0404
  923.5000     4.4570   226.7579
  924.0000     4.5581   225.1974
  924.5000     4.6593   223.0210
  925.0000     4.7402   222.0766
  925.5000     4.7806   220.5160
  926.0000     4.6718   217.9111
  926.5000     4.3803   214.4491
  927.0000     4.1791   209.4353
  927.5000     4.0917   205.7332
  928.0000     4.2398   201.9779
  928.5000     4.4235   200.4714
  929.0000     4.5809   204.9619
  929.5000     4.7595   219.1975
  930.0000     4.6177   243.1783
  930.5000     4.4353   248.5336
  931.0000     4.5162   255.5698
  931.5000     4.6174   261.6920
  932.0000     4.6578   268.4559
  932.5000     4.3870   276.3498
  933.0000     4.2289   280.9121
  933.5000     4.2676   278.5494
  934.0000     4.3871   268.8907
  934.5000     4.4427   267.0975
  935.0000     4.4742   275.3362
  935.5000     4.5242   279.0771
  936.0000     4.3532   276.8210
  936.5000     4.3474   266.3190
  937.0000     4.4340   270.8095
  937.5000     4.4364   291.1983
  938.0000     4.3933   298.0359
  938.5000     4.3730   303.5753
  939.0000     4.3931   309.9727
  939.5000     4.4133   317.2375
  940.0000     4.4334   320.5397
  940.5000     4.4536   319.9213
  941.0000     4.4620   310.0897
  941.5000     4.5243   299.9761
  942.0000     4.6067   272.2327
  942.5000     4.6961   268.4774
  943.0000     4.7163   272.2183
  943.5000     4.6554   280.4569
  944.0000     4.5541   284.1978
  944.5000     4.5742   284.9402
  945.0000     4.6146   270.8754
  945.5000     4.5055   243.5000
  946.0000     4.4524   234.6936
  946.5000     4.5911   242.6721
  947.0000     4.8314   252.0760
  947.5000     4.9268   255.2661
  948.0000     4.9380   253.2638
  948.5000     4.9177   244.3989
  949.0000     4.8568   246.6406
  949.5000     4.7757   254.8792
  950.0000     4.4314   257.8705
  950.5000     4.3098   260.8617
  951.0000     4.3907   261.6042
  951.5000     4.5337   258.5620
  952.0000     4.5727   256.9117
  952.5000     4.5433   255.2973
  953.0000     4.4123   253.1310
  953.5000     4.3217   252.5712
  954.0000     4.3589   251.8141
  954.5000     4.4943   251.4480
  955.0000     4.6936   251.0495
  955.5000     4.8352   249.5414
  956.0000     4.8959   249.5341
  956.5000     4.9363   248.7773
  957.0000     5.0172   246.5211
  957.5000     5.1592   243.5154
  958.0000     5.2415   236.0119
  958.5000     5.3240   235.2551
  959.0000     5.3408   240.4853
  959.5000     5.2467   249.6291
  960.0000     5.1421   250.9755
  960.5000     5.0878   251.9701
  961.0000     5.0771   254.5727
  961.5000     5.2593   257.6710
  962.0000     5.3199   260.6897
  962.5000     5.0768   257.6823
  963.0000     5.0362   252.4277
  963.5000     5.0969   250.1716
  964.0000     5.1575   246.4162
  964.5000     5.1777   245.6594
  965.0000     5.0574   244.9025
  965.5000     4.6052   249.5574
  966.0000     4.6792   253.2284
  966.5000     4.9479   254.6259
  967.0000     5.1866   255.3683
  967.5000     5.4434   249.1067
  968.0000     5.4472   247.2363
  968.5000     5.2984   244.1228
  969.0000     5.3185   237.5088
  969.5000     5.3994   220.8457
  970.0000     5.4398   202.0979
  970.5000     5.4379   196.8432
  971.0000     5.3184   204.3323
  971.5000     5.0345   212.5709
  972.0000     5.1438   215.5622
  972.5000     5.2571   214.6299
  973.0000     5.1520   212.5492
  973.5000     4.9409   230.3942
  974.0000     4.8960   236.5227
  974.5000     5.0744   227.3879
  975.0000     5.1553   215.9546
  975.5000     5.0540   219.9546
  976.0000     4.9450   228.4256
  976.5000     5.0740   233.4844
  977.0000     5.0942   234.2268
  977.5000     4.9640   234.2196
  978.0000     4.8420   231.2138
  978.5000     4.7578   229.7074
  979.0000     4.6430   225.2024
  979.5000     4.3793   217.3748
