~VERSION INFORMATION
 VERS.                2.0:   CWLS LOG ASCII STANDARD - VERSION 2.0
 WRAP.                 NO:   ONE LINE PER DEPTH STEP
~WELL INFORMATION
#MNEM.UNIT      DATA TYPE    INFORMATION
#----------   ------------   ------------------------------
 STRT.F           80.0000:   START DEPTH
 STOP.F          808.0000:   STOP DEPTH
 STEP.F            0.5000:   STEP LENGTH
 NULL.          -999.2500:   NO VALUE
 COMP.           U S NAVY:   COMPANY
 WELL.     NRP #3 #38-S-2:   WELL
 FLD .             TEAPOT:   FIELD
 LOC .       S2 T38N R78W:   LOCATION
 CNTY.            NATRONA:   COUNTY
 STAT.            WYOMING:   STATE
 CTRY. UNITED STATES OF AMERICA:   COUNTRY
 SRVC.       Schlumberger:   SERVICE COMPANY
 DATE.        18-JUN-1962:   LOGDATE
 API .       490250639100:   API NUMBER
~CURVE INFORMATION
#MNEM.UNIT       API CODE    CURVE DESCRIPTION
#----------   ------------   ------------------------------
 DEPT.F                  :   
 GR  .GAPI   30 310 01 00:   GAMMA RAY
 SPR .MV     05 010 01 00:   SPONTANEOUS POTENTIAL FROM RES.
 ASN .OHMM   05 041 16 00:   AMPLIFIED SHORT NORMAL 16"
 ILD .OHMM   05 120 46 00:   INDUCTION LOG DEEP
 CILD.MMHO   05 110 46 00:   CONDUCTIVITY INDUCTION LOG DEEP
 CALM.IN     15 280 01 00:   CALIPER FROM MICRO LOG
~PARAMETER INFORMATION
#MNEM.UNIT          VALUE    DESCRIPTION
#----------   ------------   ------------------------------
 PD  .                 GL:   PERMANENT DATUM
 EPD .F              5146:   ELEVATION PERMANENT DATUM
 LMF .                 KB:   LOG MEASURED FROM
 DAPD.F                 5:   FEET ABOVE PERMANENT DATUM
 DMF .                 KB:   DRILLING MEASURED FROM
 EKB .F              5151:   KELLING BUSHING
 EGL .F              5146:   GROUND LEVEL
 DATE.          6-18-1962:   RUN DATE
 RUN .                  1:   RUN NUMBER
 DD  .F              1000:   DEPTH DRILLER
 DL  .F               808:   DEPTH LOGGER
 BLI .F               807:   BOTTOM LOG INTERVAL
 TLI .F                80:   TOP LOG INTERVAL
 BS  .IN             8.75:   BIT SIZE
 BSD .F              1000:   BIT SIZE AT DEPTH
 DFT .       OIL EMULSION:   DRILLING FLUID TYPE
 DFD .                8.7:   DRILLING FLUID DENSITY
 DFV .                 58:   DRILLING FLUID VISCOSITY
 DFL .                  4:   DRILLING FLUID LOSS
 RMS .OHMM           3.77:   RESISTIVITY MUD SAMPLE
 MST .F                79:   MUD SAMPLE TEMPERATURE
 RMF .OHMM           2.47:   RESISTIVITY MUD FILTRATE SAMPLE
 MFST.F                79:   MUD FILTRATE SAMPLE TEMPERATURE
 RMC .OHMM           3.29:   RESISTIVITY MUD CAKE
 MCST.F                79:   MUD CAKE SAMPLE TEMPERATURE
 TCS .HRS               1:   TIME CURCULATED STOPPED
 LUN .               2503:   LOGGING UNIT NUMBER
 LUL .               CSPR:   LOGGING UNIT LOCATION
 ENGI.             DANNER:   RECORDING ENGINEER
 WITN.          JORGENSEN:   WITNESSED BY
 CLNT.            A2DTECH:   CLIENT CODE
 ORIG.   1", 2", 5" PRINT:   ORIGIN OF DATA
 UWI .       490250639100:   UNIQUE WELL ID
 DICO. A2D Technologies, Inc.:   DIGITIZING COMPANY
~OTHER INFORMATION
~A   DEPT       GR        SPR          ASN        ILD      CILD      CALM   
# ...
  444.0000  -999.2500   -71.1612     7.4351    10.4031   184.0248  -999.2500
  444.5000  -999.2500   -71.0722     7.1690     9.8977   197.0339  -999.2500
  445.0000  -999.2500   -70.9831     6.9052     9.3876   210.0430  -999.2500
  445.5000  -999.2500   -70.8943     6.6422     9.1923   221.6667  -999.2500
  446.0000  -999.2500   -70.8053     6.3822     9.1898   220.5680  -999.2500
  446.5000  -999.2500   -70.7113     6.2366     9.1910   219.4802  -999.2500
  447.0000  -999.2500   -70.7851     6.2540     9.2313   217.8466  -999.2500
  447.5000  -999.2500   -70.9188     6.2931     9.2685   214.6296  -999.2500
  448.0000  -999.2500   -71.0576     6.4830     9.5539   208.4136  -999.2500
  448.5000  -999.2500   -71.1445     6.8442     9.9612   195.7230  -999.2500
  449.0000  -999.2500   -71.2162     7.2169    10.3702   181.9433  -999.2500
  449.5000  -999.2500   -71.2868     7.6010    10.7796   169.3915  -999.2500
  450.0000  -999.2500   -71.3576     7.7598    11.1869   158.6289  -999.2500
  450.5000  -999.2500   -71.4285     7.8437    11.5075   151.3423  -999.2500
  451.0000  -999.2500   -71.4994     7.9703    11.5947   146.7993  -999.2500
  451.5000  -999.2500   -71.5703     8.0923    11.6860   145.1372  -999.2500
  452.0000  -999.2500   -71.6412     8.2138    11.7775   143.4751  -999.2500
  452.5000  -999.2500   -71.7121     8.3353    11.8688   141.8130  -999.2500
  453.0000  -999.2500   -71.7830     8.4568    11.9601   139.4787  -999.2500
  453.5000  -999.2500   -71.8539     8.5783    12.0485   136.7938  -999.2500
  454.0000  -999.2500   -71.9249     8.6953    12.1220   134.2063  -999.2500
  454.5000  -999.2500   -71.9957     8.7702    12.1934   133.4234  -999.2500
  455.0000  -999.2500   -72.0661     8.8424    12.2647   132.6680  -999.2500
  455.5000  -999.2500   -72.0850     8.9143    12.3360   131.9125  -999.2500
  456.0000  -999.2500   -72.0192     9.0094    12.4073   131.1570  -999.2500
  456.5000  -999.2500   -71.9545     9.1187    12.4786   130.4015  -999.2500
  457.0000  -999.2500   -71.8897     9.2267    12.5499   129.6460  -999.2500
  457.5000  -999.2500   -71.8246     9.2800    12.6213   128.3613  -999.2500
  458.0000  -999.2500   -71.7599     9.3311    12.6926   126.2243  -999.2500
  458.5000  -999.2500   -71.7119     9.3735    12.7635   124.0874  -999.2500
  459.0000  -999.2500   -71.7722     9.4133    12.8050   123.3552  -999.2500
  459.5000  -999.2500   -71.8335     9.4535    12.7888   123.7262  -999.2500
  460.0000  -999.2500   -71.8944     9.4939    12.7736   124.0934  -999.2500
  460.5000  -999.2500   -71.9554     9.4960    12.7584   124.4629  -999.2500
  461.0000  -999.2500   -72.0160     9.4946    12.7431   124.8326  -999.2500
  461.5000  -999.2500   -72.0764     9.4595    12.7279   125.2019  -999.2500
  462.0000  -999.2500   -72.0937     9.3291    12.7126   125.5713  -999.2500
  462.5000  -999.2500   -72.0603     9.2032    12.6974   125.9406  -999.2500
  463.0000  -999.2500   -72.0271     9.0745    12.6821   126.3100  -999.2500
  463.5000  -999.2500   -71.9936     8.9733    12.6670   126.6793  -999.2500
  464.0000  -999.2500   -71.9602     8.8783    12.6518   127.0487  -999.2500
  464.5000  -999.2500   -71.9271     8.7840    12.6375   128.0087  -999.2500
  465.0000  -999.2500   -71.9068     8.6900    12.6217   129.1799  -999.2500
  465.5000  -999.2500   -71.9068     8.5955    12.3549   132.2645  -999.2500
  466.0000  -999.2500   -71.9066     8.3873    12.0473   135.1731  -999.2500
  466.5000  -999.2500   -71.9068     8.1600    11.7392   141.6515  -999.2500
  467.0000  -999.2500   -71.9066     7.9323    11.4300   150.1281  -999.2500
  467.5000  -999.2500   -71.9069     7.6334    11.0534   161.6173  -999.2500
  468.0000  -999.2500   -71.9139     7.2328    10.4204   174.9139  -999.2500
  468.5000  -999.2500   -71.6493     6.8355     9.7926   196.2931  -999.2500
  469.0000  -999.2500   -71.3037     6.4377     9.1768   219.6561  -999.2500
  469.5000  -999.2500   -70.9552     6.0397     8.6934   260.3311  -999.2500
  470.0000  -999.2500   -70.6083     5.6415     8.1982   301.1708  -999.2500
  470.5000  -999.2500   -70.2621     5.2439     7.6998   342.0105  -999.2500
  471.0000  -999.2500   -70.0825     4.9209     7.2036   382.8503  -999.2500
  471.5000  -999.2500   -70.0815     4.6150     7.0568   408.2411  -999.2500
  472.0000  -999.2500   -70.0798     4.4555     6.9247   427.4765  -999.2500
  472.5000  -999.2500   -70.0846     4.3386     6.8090   439.8148  -999.2500
  473.0000  -999.2500   -70.1900     4.2219     6.8081   448.1716  -999.2500
  473.5000  -999.2500   -70.2955     4.1420     6.8110   439.1389  -999.2500
  474.0000  -999.2500   -70.4002     4.2552     6.8857   416.7896  -999.2500
  474.5000  -999.2500   -70.5048     4.4800     7.1661   370.9811  -999.2500
  475.0000  -999.2500   -70.6094     4.8502     7.4366   328.4789  -999.2500
  475.5000  -999.2500   -70.7140     5.2164     7.8443   288.9450  -999.2500
  476.0000  -999.2500   -70.8186     5.5133     8.3924   249.4113  -999.2500
  476.5000  -999.2500   -70.9233     5.8593     8.9403   225.7079  -999.2500
  477.0000  -999.2500   -71.0274     6.4043     9.4896   204.1009  -999.2500
  477.5000  -999.2500   -71.0965     6.7806    10.0394   182.4938  -999.2500
  478.0000  -999.2500   -71.0953     6.9622    10.5850   169.4518  -999.2500
  478.5000  -999.2500   -71.0954     7.0019    11.0211   162.1333  -999.2500
  479.0000  -999.2500   -71.0954     7.0376    11.0519   158.6081  -999.2500
  479.5000  -999.2500   -71.0954     7.0739    11.1198   160.7611  -999.2500
  480.0000  -999.2500   -71.0952     7.1414    10.9740   163.6698  -999.2500
  480.5000  -999.2500   -71.0950     7.2221    10.7233   168.9474  -999.2500
  481.0000  -999.2500   -71.0509     7.2545    10.4654   177.5600  -999.2500
  481.5000  -999.2500   -70.9597     7.2184    10.2080   186.1726  -999.2500
  482.0000  -999.2500   -70.8686     7.0789     9.9514   194.7852  -999.2500
  482.5000  -999.2500   -70.7773     6.8376     9.6945   203.5533  -999.2500
  483.0000  -999.2500   -70.6860     6.5968     9.4377   209.9113  -999.2500
  483.5000  -999.2500   -70.5946     6.4398     9.1814   216.3950  -999.2500
  484.0000  -999.2500   -70.5033     6.3056     8.9239   222.8665  -999.2500
  484.5000  -999.2500   -70.4125     6.2011     8.8101   229.7090  -999.2500
  485.0000  -999.2500   -70.3207     6.1803     8.8103   229.1840  -999.2500
  485.5000  -999.2500   -70.3383     6.3121     8.8107   227.3767  -999.2500
  486.0000  -999.2500   -70.4255     6.4447     8.9974   217.4042  -999.2500
  486.5000  -999.2500   -70.5137     6.5770     9.3469   207.4370  -999.2500
  487.0000  -999.2500   -70.6025     6.7246     9.6971   197.4610  -999.2500
  487.5000  -999.2500   -70.6911     6.9880    10.0487   187.4855  -999.2500
  488.0000  -999.2500   -70.7798     7.2530    10.4002   177.5125  -999.2500
  488.5000  -999.2500   -70.8717     7.5177    10.7510   167.5418  -999.2500
  489.0000  -999.2500   -70.8545     7.7825    11.1021   160.1594  -999.2500
  489.5000  -999.2500   -70.8040     8.0471    11.4653   153.1200  -999.2500
  490.0000  -999.2500   -70.7522     8.2953    11.6639   146.0806  -999.2500
  490.5000  -999.2500   -70.7006     8.4029    11.8086   141.0253  -999.2500
  491.0000  -999.2500   -70.6490     8.5040    11.9494   138.3404  -999.2500
  491.5000  -999.2500   -70.5977     8.5969    12.0931   135.6555  -999.2500
  492.0000  -999.2500   -70.5458     8.5555    12.0851   136.0440  -999.2500
  492.5000  -999.2500   -70.4907     8.5111    11.9963   138.8666  -999.2500
  493.0000  -999.2500   -70.5876     8.4640    11.9062   142.0720  -999.2500
  493.5000  -999.2500   -70.7042     8.3303    11.8155   145.2775  -999.2500
  494.0000  -999.2500   -70.8212     8.1943    11.6686   148.4829  -999.2500
  494.5000  -999.2500   -70.8499     8.0588    11.4312   151.6884  -999.2500
  495.0000  -999.2500   -70.7464     7.9234    11.1953   155.7196  -999.2500
  495.5000    76.6013   -70.6441     7.7880    10.9634   163.4760  -999.2500
