~VERSION INFORMATION
 VERS.                2.0:   CWLS LOG ASCII STANDARD - VERSION 2.0
 WRAP.                 NO:   ONE LINE PER DEPTH STEP
~WELL INFORMATION
#MNEM.UNIT      DATA TYPE    INFORMATION
#----------   ------------   ------------------------------
 STRT.F           40.0000:   START DEPTH
 STOP.F          876.5000:   STOP DEPTH
 STEP.F            0.5000:   STEP LENGTH
 NULL.          -999.2500:   NO VALUE
 COMP. FENIX & SCISSON INC:   COMPANY
 WELL.     NPR 3 #41-S-14:   WELL
 FLD .             TEAPOT:   FIELD
 LOC .      S14 T38N R78W:   LOCATION
 CNTY.            NATRONA:   COUNTY
 STAT.            WYOMING:   STATE
 CTRY. UNITED STATES OF AMERICA:   COUNTRY
 SRVC.            Unknown:   SERVICE COMPANY
 DATE.        12-MAR-1978:   LOGDATE
 API .       490251060200:   API NUMBER
~CURVE INFORMATION
#MNEM.UNIT       API CODE    CURVE DESCRIPTION
#----------   ------------   ------------------------------
 DEPT.F                  :   
 CALD.IN     45 280 60 00:   CALIPER FROM DENSITY LOG
 GRD .GAPI   45 310 01 00:   GAMMA RAY FROM DENSITY LOG
 RHOB.G/C3   45 350 01 00:   BULK DENSITY
 DPHI.DEC    45 890 12 00:   DENSITY POROSITY SANDSTONE
 CORR.G/C3   45 356 01 00:   DENSITY CORRECTION
 SPR .MV     05 010 01 00:   SPONTANEOUS POTENTIAL FROM RES.
 IL  .OHMM   05 120 00 00:   INDUCTION LOG
 SN  .OHMM   05 040 16 00:   SHORT NORMAL 16"
~PARAMETER INFORMATION
#MNEM.UNIT          VALUE    DESCRIPTION
#----------   ------------   ------------------------------
 PD  .                 GL:   PERMANENT DATUM
 EPD .F              5211:   ELEVATION PERMANENT DATUM
 LMF .                 KB:   LOG MEASURED FROM
 DMF .                 KB:   DRILLING MEASURED FROM
 EKB .F              5215:   KELLING BUSHING
 EGL .F              5211:   GROUND LEVEL
 DATE.            3-12-78:   RUN DATE
 RUN .                  1:   RUN NUMBER
 DD  .F               870:   DEPTH DRILLER
 DL  .F               872:   DEPTH LOGGER
 BLI .F               866:   BOTTOM LOG INTERVAL
 TLI .F                50:   TOP LOG INTERVAL
 CS  .IN            8.625:   CASING SIZE
 CBD .F                40:   CASING BOTTOM DRILLER
 CBL .F                40:   CASING BOTTOM LOGGER
 BS  .IN            7.875:   BIT SIZE
 BSD .F               870:   BIT SIZE AT DEPTH
 DFT .                KCL:   DRILLING FLUID TYPE
 DFD .                8.6:   DRILLING FLUID DENSITY
 DFV .                 33:   DRILLING FLUID VISCOSITY
 DFPH.                 10:   DRILLING FLUID PH
 DFL .               12.1:   DRILLING FLUID LOSS
 MSS .           FLOWLINE:   MUD SAMPLE SOURCE
 RMS .OHMM            .32:   RESISTIVITY MUD SAMPLE
 MST .F                54:   MUD SAMPLE TEMPERATURE
 RMF .OHMM            .36:   RESISTIVITY MUD FILTRATE SAMPLE
 MFST.F                55:   MUD FILTRATE SAMPLE TEMPERATURE
 RMC .OHMM             .5:   RESISTIVITY MUD CAKE
 MCST.F                56:   MUD CAKE SAMPLE TEMPERATURE
 MFSS.           MEASURED:   MUD FILTRATE SAMPLE SOURCE
 MCSS.           MEASURED:   MUD CAKE SAMPLE SOURCE
 RMB .OHMM            .24:   RESISTIVITY MUD AT BHT
 BHT .F                72:   BOTTOM HOLE TEMPERATURE
 TCS .HRS               4:   TIME CURCULATED STOPPED
 MRT .F                72:   MAXIMUM RECORDED TEMPERATURE
 LUN .               2958:   LOGGING UNIT NUMBER
 LUL .               CASP:   LOGGING UNIT LOCATION
 ENGI.             MILLER:   RECORDING ENGINEER
 WITN.         HARRINGTON:   WITNESSED BY
 CLNT.            A2DTECH:   CLIENT CODE
 ORIG.        2" 5" PRINT:   ORIGIN OF DATA
 UWI .       490251060200:   UNIQUE WELL ID
 DICO. A2D Technologies, Inc.:   DIGITIZING COMPANY
~OTHER INFORMATION
~A   DEPT     CALD         GRD      RHOB       DPHI       CORR        SPR         IL         SN   
# ...
  323.5000     8.2639    87.8933     2.4427     0.1120    -0.0012   -55.9579     6.5635     7.4511
  324.0000     8.2639    87.7176     2.4397     0.1142     0.0016   -56.1447     6.5399     7.5424
  324.5000     8.2639    87.7126     2.4381     0.1164     0.0039   -55.9336     6.7621     7.6348
  325.0000     8.2639    87.7224     2.4384     0.1164    -0.0025   -55.8175     7.0416     7.7283
  325.5000     8.2639    88.1811     2.4414     0.1142    -0.0089   -55.9933     7.0793     7.7976
  326.0000     8.2639    89.2675     2.4454     0.1120    -0.0110   -56.1554     7.1214     7.8061
  326.5000     8.2639    92.0547     2.4312     0.1201    -0.0102   -55.9856     7.1638     7.8145
  327.0000     8.2639    91.2763     2.4302     0.1185    -0.0094   -55.7724     7.2065     7.8230
  327.5000     8.2639    87.0505     2.4330     0.1168    -0.0086   -55.5784     7.2494     7.8315
  328.0000     8.2639    85.9118     2.4317     0.1181    -0.0078   -55.5731     7.2926     7.8401
  328.5000     8.2639    86.3682     2.4282     0.1211    -0.0070   -55.5874     7.3745     7.8485
  329.0000     8.2639    89.6686     2.4246     0.1237    -0.0062   -55.8721     7.3171     7.8569
  329.5000     8.2639    93.1963     2.4270     0.1225    -0.0054   -56.1529     7.2723     7.8659
  330.0000     8.2639    95.8937     2.4264     0.1205    -0.0045   -56.4319     7.2279     7.7563
  330.5000     8.2639    97.2859     2.4293     0.1184    -0.0037   -56.7109     7.1837     7.6299
  331.0000     8.2639    95.5394     2.4389     0.1163    -0.0042   -56.9690     7.1397     7.5120
  331.5000     8.2639    91.4100     2.4384     0.1144    -0.0051   -56.9749     7.0961     7.4955
  332.0000     8.2639    86.6859     2.4385     0.1152    -0.0060   -56.9736     7.0527     7.4798
  332.5000     8.2639    84.2878     2.4429     0.1116    -0.0070   -56.9734     7.0096     7.4642
  333.0000     8.2639    85.3343     2.4391     0.1172    -0.0079   -56.9734     6.9768     7.4430
  333.5000     8.2639    87.3034     2.4335     0.1190    -0.0088   -56.9733     6.9811     7.4455
  334.0000     8.2639    91.8605     2.4328     0.1210    -0.0095   -56.9730     6.9853     7.4510
  334.5000     8.2639    93.2587     2.4291     0.1200    -0.0095   -56.9748     6.9893     7.4566
  335.0000     8.2639    92.8751     2.4279     0.1210    -0.0095   -57.0215     6.9935     7.4622
  335.5000     8.2639    92.2551     2.4309     0.1175    -0.0097   -57.0691     6.9976     7.4678
  336.0000     8.2639    92.0935     2.4389     0.1116    -0.0106   -57.1166     7.0017     7.4735
  336.5000     8.2639    93.3969     2.4378     0.1147    -0.0114   -57.1644     7.0058     7.4791
  337.0000     8.2639    94.9722     2.4363     0.1168    -0.0108   -57.1730     7.0100     7.4847
  337.5000     8.2639    96.0319     2.4347     0.1220    -0.0091   -57.1730     7.0141     7.4904
  338.0000     8.2639    95.2295     2.4265     0.1201    -0.0074   -57.1621     7.0182     7.4960
  338.5000     8.2639    95.3278     2.4370     0.1159    -0.0058   -57.1032     7.0224     7.5017
  339.0000     8.2639    96.4373     2.4405     0.1151    -0.0033   -57.0443     7.0265     7.5074
  339.5000     8.2639    95.0816     2.4406     0.1148    -0.0027   -56.9813     7.0307     7.5130
  340.0000     8.2639    94.8437     2.4439     0.1148    -0.0020   -57.0970     7.0348     7.5187
  340.5000     8.2639    94.7310     2.4429     0.1108    -0.0013   -57.2528     7.0390     7.5244
  341.0000     8.2639    94.5867     2.4450     0.1096    -0.0005   -57.4115     7.0444     7.5300
  341.5000     8.2639    91.0437     2.4447     0.1130     0.0002   -57.5658     7.0522     7.5357
  342.0000     8.2639    85.6624     2.4389     0.1156     0.0009   -57.5135     7.0599     7.5414
  342.5000     8.2639    85.9962     2.4404     0.1156     0.0017   -57.4502     7.0676     7.5471
  343.0000     8.2639    90.7922     2.4402     0.1141     0.0024   -57.3877     7.0754     7.5528
  343.5000     8.2639    92.7254     2.4416     0.1106     0.0032   -57.3256     7.0832     7.5585
  344.0000     8.2639    90.5201     2.4511     0.1049     0.0039   -57.2636     7.0909     7.5642
  344.5000     8.2639    88.5291     2.4609     0.0993     0.0040   -57.2014     7.0987     7.5697
  345.0000     8.2639    89.0464     2.4662     0.0936     0.0009   -57.1801     7.1069     7.5756
  345.5000     8.2639    91.1240     2.4772     0.0900    -0.0023   -57.1925     6.9837     7.5817
  346.0000     8.2639    92.7559     2.4618     0.1020    -0.0054   -57.2049     6.8765     7.5068
  346.5000     8.2639    93.3933     2.4548     0.1056    -0.0056   -57.2175     6.7727     7.4275
  347.0000     8.2639    92.8618     2.4529     0.1108    -0.0039   -57.2301     6.6697     7.3490
  347.5000     8.2639    92.7151     2.4434     0.1148    -0.0018   -57.2427     6.5682     7.2714
  348.0000     8.2639    93.4369     2.4396     0.1152     0.0003   -57.2552     6.4682     7.1729
  348.5000     8.2639    93.3526     2.4389     0.1144     0.0024   -57.2678     6.3697     7.1839
  349.0000     8.2639    93.8321     2.4410     0.1120     0.0045   -57.2804     6.2912     7.1994
  349.5000     8.2639    96.8567     2.4438     0.1124     0.0066   -57.2930     6.2554     7.2149
  350.0000     8.2639    98.5016     2.4478     0.1079     0.0084   -57.3056     6.2447     7.2304
  350.5000     8.2639    96.9112     2.4553     0.1023     0.0067   -57.3181     6.2549     7.2460
  351.0000     8.2639    93.2757     2.4510     0.1063     0.0050   -57.3307     6.2662     7.2615
  351.5000     8.2639    90.1072     2.4430     0.1108     0.0034   -57.3433     6.2775     7.2772
  352.0000     8.2639    90.4994     2.4414     0.1135     0.0017   -57.3560     6.2888     7.2928
  352.5000     8.2639    91.7517     2.4407     0.1162     0.0005   -57.3658     6.3002     7.3085
  353.0000     8.2639    92.7016     2.4346     0.1180     0.0015   -57.5078     6.3116     7.3243
  353.5000     8.2639    92.4128     2.4403     0.1129     0.0049   -57.7144     6.3229     7.3400
  354.0000     8.2639    92.1056     2.4476     0.1088     0.0126   -57.7117     6.3344     7.3558
  354.5000     8.2639    91.7914     2.4515     0.1069     0.0200   -57.6279     6.3458     7.3717
  355.0000     8.2639    91.8274     2.4497     0.1089     0.0274   -57.5411     6.3573     7.3875
  355.5000     8.2639    92.0743     2.4479     0.1080     0.0347   -57.4544     6.4096     7.4034
  356.0000     8.2639    90.0611     2.4552     0.1023     0.0412   -57.3680     6.4837     7.4194
  356.5000     8.2639    86.9387     2.4671     0.0966     0.0262   -57.2815     6.5587     7.4353
  357.0000     8.2639    85.7586     2.4704     0.0920     0.0093   -57.1950     6.6346     7.4513
  357.5000     8.2639    85.4563     2.4548     0.1100     0.0054   -57.1090     6.7113     7.4673
  358.0000     8.2639    82.3283     2.4469     0.1086     0.0029   -57.0233     6.7888     7.4834
  358.5000     8.2639    80.3186     2.4488     0.1088     0.0002   -56.9807     6.8671     7.4997
  359.0000     8.2639    85.5133     2.4412     0.1140    -0.0013   -56.9967     6.9259     7.5119
  359.5000     8.2639    90.7658     2.4414     0.1137    -0.0007   -57.0123     6.9583     7.4898
  360.0000     8.2639    89.8067     2.4452     0.1113     0.0000   -57.0284     6.9768     7.4716
  360.5000     8.2639    88.6090     2.4490     0.1089     0.0005   -57.0445     6.9621     7.4535
  361.0000     8.2639    88.3229     2.4530     0.1064    -0.0004   -57.0605     6.8945     7.4355
  361.5000     8.2639    90.6826     2.4539     0.1056    -0.0014   -57.0765     6.8276     7.4175
  362.0000     8.2639    93.1391     2.4485     0.1089    -0.0024   -57.0925     6.7612     7.3995
  362.5000     8.2639    94.2839     2.4422     0.1140    -0.0034   -57.1086     6.6955     7.3816
  363.0000     8.2639    94.7295     2.4391     0.1152    -0.0004   -57.1246     6.6305     7.3677
  363.5000     8.2639    92.0860     2.4359     0.1164     0.0030   -57.1407     6.5661     7.3564
