~VERSION INFORMATION
 VERS.                2.0:   CWLS LOG ASCII STANDARD - VERSION 2.0
 WRAP.                 NO:   ONE LINE PER DEPTH STEP
~WELL INFORMATION
#MNEM.UNIT      DATA TYPE    INFORMATION
#----------   ------------   ------------------------------
 STRT.F           11.5000:   START DEPTH
 STOP.F          697.0000:   STOP DEPTH
 STEP.F            0.5000:   STEP LENGTH
 NULL.          -999.2500:   NO VALUE
 COMP. FENIX & SCISSON INC:   COMPANY
 WELL.    NPR3 SX-2 #12-2:   WELL
 FLD .             TEAPOT:   FIELD
 LOC .       S2 T38N R78W:   LOCATION
 CNTY.            NATRONA:   COUNTY
 STAT.            WYOMING:   STATE
 CTRY. UNITED STATES OF AMERICA:   COUNTRY
 SRVC.           BIRDWELL:   SERVICE COMPANY
 DATE.        13-JAN-1978:   LOGDATE
 API .       490251055000:   API NUMBER
~CURVE INFORMATION
#MNEM.UNIT       API CODE    CURVE DESCRIPTION
#----------   ------------   ------------------------------
 DEPT.F                  :   
 CALD.IN     45 280 60 00:   CALIPER FROM DENSITY LOG
 CORR.G/C3   45 356 01 00:   DENSITY CORRECTION
 RHOB.G/C3   45 350 01 00:   BULK DENSITY
 GRD .GAPI   45 310 01 00:   GAMMA RAY FROM DENSITY LOG
 DPHI.DEC    45 890 12 00:   DENSITY POROSITY SANDSTONE
 ILD .OHMM   05 120 46 00:   INDUCTION LOG DEEP
 SN  .OHMM   05 040 16 00:   SHORT NORMAL 16"
 SPR .MV     05 010 01 00:   SPONTANEOUS POTENTIAL FROM RES.
~PARAMETER INFORMATION
#MNEM.UNIT          VALUE    DESCRIPTION
#----------   ------------   ------------------------------
 PD  .                 GL:   PERMANENT DATUM
 EPD .F              5094:   ELEVATION PERMANENT DATUM
 LMF .                 KB:   LOG MEASURED FROM
 DAPD.F                 4:   FEET ABOVE PERMANENT DATUM
 DMF .                 KB:   DRILLING MEASURED FROM
 EKB .F              5098:   KELLING BUSHING
 EGL .F              5094:   GROUND LEVEL
 DATE.        13-JAN-1978:   RUN DATE
 RUN .                  1:   RUN NUMBER
 DD  .F               695:   DEPTH DRILLER
 DL  .F               697:   DEPTH LOGGER
 BLI .F               692:   BOTTOM LOG INTERVAL
 TLI .F                30:   TOP LOG INTERVAL
 CS  .IN            8.625:   CASING SIZE
 CBD .F                35:   CASING BOTTOM DRILLER
 CBL .F                35:   CASING BOTTOM LOGGER
 BS  .IN            7.875:   BIT SIZE
 BSD .F               695:   BIT SIZE AT DEPTH
 DFT .                KCL:   DRILLING FLUID TYPE
 DFD .                8.6:   DRILLING FLUID DENSITY
 DFV .                 32:   DRILLING FLUID VISCOSITY
 DFPH.                9.5:   DRILLING FLUID PH
 DFL .                 12:   DRILLING FLUID LOSS
 MSS .           FLOWLINE:   MUD SAMPLE SOURCE
 RMS .OHMM            0.3:   RESISTIVITY MUD SAMPLE
 MST .F                59:   MUD SAMPLE TEMPERATURE
 RMF .OHMM           0.24:   RESISTIVITY MUD FILTRATE SAMPLE
 MFST.F                70:   MUD FILTRATE SAMPLE TEMPERATURE
 RMC .OHMM           0.56:   RESISTIVITY MUD CAKE
 MCST.F                63:   MUD CAKE SAMPLE TEMPERATURE
 MFSS.               MEAS:   MUD FILTRATE SAMPLE SOURCE
 MCSS.               MEAS:   MUD CAKE SAMPLE SOURCE
 RMB .OHMM           0.26:   RESISTIVITY MUD AT BHT
 BHT .F                72:   BOTTOM HOLE TEMPERATURE
 TCS .HRS               2:   TIME CURCULATED STOPPED
 MRT .F                72:   MAXIMUM RECORDED TEMPERATURE
 LUN .               2958:   LOGGING UNIT NUMBER
 LUL .             CASPER:   LOGGING UNIT LOCATION
 ENGI.           MARTINEZ:   RECORDING ENGINEER
 WITN.       MR. MCGINLEY:   WITNESSED BY
 CLNT.            A2DTECH:   CLIENT CODE
 ORIG.           5" PRINT:   ORIGIN OF DATA
 UWI .       490251055000:   UNIQUE WELL ID
 DICO. A2D Technologies, Inc.:   DIGITIZING COMPANY
~OTHER INFORMATION
~A   DEPT     CALD       CORR       RHOB         GRD      DPHI        ILD         SN        SPR   
# ...
  659.5000     8.5253     0.1012     2.5373   100.6502     0.0677    11.7468    11.5422   -27.7010
  660.0000     8.5247     0.0997     2.5335    99.4193     0.0704    11.6619    11.5406   -27.7040
  660.5000     8.5243     0.0997     2.5306    95.7860     0.0735    11.5776    11.4594   -27.7069
  661.0000     8.5390     0.0998     2.5268    87.3203     0.0766    11.5736    11.3788   -27.7100
  661.5000     8.5535     0.1013     2.5216    84.3276     0.0720    11.4900    11.3772   -27.5618
  662.0000     8.5682     0.1043     2.5163    84.4880     0.0741    11.4069    11.2972   -27.5655
  662.5000     8.5977     0.1076     2.5118    87.6514     0.0975    11.2464    11.2177   -27.5685
  663.0000     8.6123     0.1194     2.5043    92.6167     0.1026    11.1651    11.1387   -27.5714
  663.5000     8.6119     0.1465     2.5028    94.4288     0.0856    11.0844    11.0603   -27.5744
  664.0000     8.5964     0.1885     2.5170    94.8895     0.0850    10.9285    11.1357   -27.5774
  664.5000     8.5658     0.2261     2.5253    95.5004     0.0808    10.7747    11.0569   -27.7314
  665.0000     8.5353     0.2487     2.5397    96.2614     0.0652    10.5499    11.0554   -27.7343
  665.5000     8.5198     0.2592     2.5642    97.4820     0.0505    10.3298    11.0539   -27.8884
  666.0000     8.5043     0.2457     2.5785    99.5156     0.0509    10.1124    11.0524   -28.1934
  666.5000     8.4888     0.2157     2.5515   103.2018     0.0865     9.8971    11.0509   -28.3475
  667.0000     8.4884     0.1782     2.5267   105.9148     0.0749     9.7638    10.8974   -28.6526
  667.5000     8.4880     0.1557     2.5245   106.0726     0.0743     9.7598    10.8959   -28.6556
  668.0000     8.4725     0.1480     2.5290   104.7341     0.0764     9.8923    10.8192   -28.8103
  668.5000     8.4720     0.1408     2.5245   102.6423     0.0737    10.1663    10.8178   -28.8132
  669.0000     8.4565     0.1408     2.5289    98.2983     0.0701    10.5203    10.9671   -28.6644
  669.5000     8.4560     0.1378     2.5319    95.3055     0.0674    10.9622    11.1189   -28.5163
  670.0000     8.4405     0.1378     2.5402    95.7663     0.0641    11.3440    11.3508   -28.2179
  670.5000     8.4552     0.1349     2.5537    98.1790     0.0651    11.6582    11.5871   -27.9180
  671.0000     8.4547     0.1259     2.5458   101.0421     0.0684    11.8985    11.8287   -27.4466
  671.5000     8.4693     0.1184     2.5387   102.8542     0.0687    12.1438    11.9921   -27.3221
  672.0000     8.4689     0.1109     2.5461   100.9529     0.0639    12.2249    12.0749   -27.1976
  672.5000     8.4835     0.1035     2.5514    96.4209     0.0606    12.3046    12.3255   -27.0731
  673.0000     8.4830     0.0990     2.5536    94.0288     0.0600    12.3857    12.4095   -26.9486
  673.5000     8.4976     0.0929     2.5544    95.3904     0.0654    12.3814    12.4077   -26.8786
  674.0000     8.4971     0.0898     2.5454    98.4037     0.0706    12.3772    12.4057   -26.8823
  674.5000     8.4966     0.0841     2.5349   101.2668     0.0745    12.2876    12.4906   -26.8853
  675.0000     8.5113     0.0781     2.5259   100.3003     0.0730    12.1987    12.4885   -26.8882
  675.5000     8.5108     0.0736     2.5236    99.1862     0.0733    12.0263    12.4868   -26.8912
  676.0000     8.5103     0.0706     2.5259    98.2956     0.0763    11.9393    12.4850   -27.0453
  676.5000     8.5099     0.0672     2.5266    97.1047     0.0797    11.9353    12.4833   -27.2000
  677.0000     8.5095     0.0647     2.5221    95.4633     0.0806    11.9312    12.3100   -27.2029
  677.5000     8.5090     0.0662     2.5206    93.8219     0.0785    12.0099    12.3083   -27.5080
  678.0000     8.5086     0.0723     2.5236    93.0811     0.0770    12.0058    12.2218   -27.8131
  678.5000     8.5081     0.0813     2.5251    92.9414     0.0764    12.0860    12.2201   -27.9671
  679.0000     8.5076     0.0874     2.5251    92.9520     0.0761    12.1658    12.1340   -28.1211
  679.5000     8.5072     0.0904     2.5250    92.4950     0.0770    12.2460    12.1323   -28.1241
  680.0000     8.5067     0.0919     2.5243    92.2217     0.0779    12.1564    12.1307   -28.1270
  680.5000     8.5063     0.0919     2.5250    93.4358     0.0771    11.9854    12.1290   -27.9789
  681.0000     8.5058     0.0920     2.5258    95.8485     0.0762    11.6545    12.0437   -27.9819
  681.5000     8.5054     0.0935     2.5250    97.0574     0.0768    11.0235    11.9589   -27.8278
  682.0000     8.5050     0.0920     2.5211    91.1428     0.0795    10.3510    11.8747   -27.6677
  682.5000     8.5045     0.0905     2.5063  -999.2500     0.0837    10.0689    11.7912   -27.5376
  683.0000     8.5040     0.0861     2.4943  -999.2500     0.0909    10.0654    11.6124   -27.5413
  683.5000     8.4885     0.0801     2.4845  -999.2500     0.0964     9.9920    11.3078   -27.5443
  684.0000     8.4881     0.0756     2.4703  -999.2500     0.1039     9.7161    10.9215   -27.6983
  684.5000     8.4726     0.0786     2.4800  -999.2500     0.1090     9.3827    10.6217   -27.7013
  685.0000     8.4721     0.0817     2.4762  -999.2500     0.1153     9.0608    10.3301   -27.8553
  685.5000     8.4567     0.0832     2.4620  -999.2500     0.1231     8.5112     9.8399   -28.0093
  686.0000     8.4262     0.0802     2.4372  -999.2500     0.1312     7.8851     9.1803   -28.1633
  686.5000     8.4257     0.0743     2.4110  -999.2500     0.1380     6.8644     8.6844   -28.4684
  687.0000     8.4102     0.0698     2.3683  -999.2500     0.1471     5.9346     8.2723   -28.7735
  687.5000     8.3947     0.0728     2.3735  -999.2500     0.1703     4.9908     7.9345   -29.0785
  688.0000     8.3641     0.0819     2.3573  -999.2500     0.1817     4.4975     7.6106   -29.3958
  688.5000     8.3036     0.1074     2.3300  -999.2500     0.1853     4.3432     7.1497   -29.7130
  689.0000     8.2430     0.1360     2.3412  -999.2500     0.1727     4.3417     6.5787   -30.1456
  689.5000     8.1673     0.1630     2.3720  -999.2500     0.1463     4.3403     5.9288   -30.2996
  690.0000     8.0526     0.1916     2.4867  -999.2500     0.1011     4.3388     5.6085   -30.6047
  690.5000  -999.2500     0.2262     2.5459  -999.2500     0.0915     4.3674     5.8053   -30.6076
  691.0000  -999.2500     0.2032     2.5391  -999.2500     0.0849     4.3656     6.2260   -30.4595
  691.5000  -999.2500     0.1827     2.5219  -999.2500     0.0816     4.3641     7.0200   -30.3114
  692.0000  -999.2500     0.1707     2.5091  -999.2500     0.0890     4.3626     7.7161   -30.2055
  692.5000  -999.2500     0.1632     2.4986  -999.2500     0.0933     4.3917     7.8147  -999.2500
  693.0000  -999.2500     0.1678     2.4964  -999.2500     0.0891     4.3899     7.8134  -999.2500
  693.5000  -999.2500     0.1783     2.5088  -999.2500     0.0937     4.4188     7.7584  -999.2500
  694.0000  -999.2500     0.1903     2.5038  -999.2500     0.1033     4.4173     7.8112  -999.2500
  694.5000  -999.2500     0.2009     2.4903  -999.2500     0.0940     4.4158     7.8102  -999.2500
  695.0000  -999.2500     0.2099     2.4948  -999.2500     0.0904     4.4143     7.8091  -999.2500
  695.5000  -999.2500     0.2144     2.5016  -999.2500     0.0916     4.4128     7.7541  -999.2500
  696.0000  -999.2500     0.2145     2.5188  -999.2500     0.0964     4.4114     7.7532  -999.2500
  696.5000  -999.2500     0.2130     2.5338  -999.2500     0.0919  -999.2500  -999.2500  -999.2500
  697.0000  -999.2500     0.2130  -999.2500  -999.2500     0.0963  -999.2500  -999.2500  -999.2500
