~VERSION INFORMATION
 VERS.                2.0:   CWLS LOG ASCII STANDARD - VERSION 2.0
 WRAP.                 NO:   ONE LINE PER DEPTH STEP
~WELL INFORMATION
#MNEM.UNIT      DATA TYPE    INFORMATION
#----------   ------------   ------------------------------
 STRT.F          672.0000:   START DEPTH
 STOP.F         2343.5000:   STOP DEPTH
 STEP.F            0.5000:   STEP LENGTH
 NULL.          -999.2500:   NO VALUE
 COMP. FENIX & SCISSON INC:   COMPANY
 WELL.   23 SHX-33 #23-33:   WELL
 FLD .             TEAPOT:   FIELD
 LOC .      S33 T39N R78W:   LOCATION
 CNTY.            NATRONA:   COUNTY
 STAT.            WYOMING:   STATE
 CTRY. UNITED STATES OF AMERICA:   COUNTRY
 SRVC.            Unknown:   SERVICE COMPANY
 DATE.        01-MAY-1978:   LOGDATE
 API .       490251062700:   API NUMBER
~CURVE INFORMATION
#MNEM.UNIT       API CODE    CURVE DESCRIPTION
#----------   ------------   ------------------------------
 DEPT.F                  :   
 IL  .OHMM   05 120 00 00:   INDUCTION LOG
 CIL .MMHO   05 110 00 00:   CONDUCTIVITY INDUCTION LOG
 CALD.IN     45 280 60 00:   CALIPER FROM DENSITY LOG
 GRD .GAPI   45 310 01 00:   GAMMA RAY FROM DENSITY LOG
 DPHI.DEC    45 890 12 00:   DENSITY POROSITY SANDSTONE
 RHOB.G/C3   45 350 01 00:   BULK DENSITY
 CORR.G/C3   45 356 01 00:   DENSITY CORRECTION
~PARAMETER INFORMATION
#MNEM.UNIT          VALUE    DESCRIPTION
#----------   ------------   ------------------------------
 PD  .                 GL:   PERMANENT DATUM
 EPD .F              5163:   ELEVATION PERMANENT DATUM
 LMF .                 KB:   LOG MEASURED FROM
 DAPD.F                10:   FEET ABOVE PERMANENT DATUM
 DMF .                 KB:   DRILLING MEASURED FROM
 EKB .F              5173:   KELLING BUSHING
 EGL .F              5163:   GROUND LEVEL
 DATE.           5-1-1978:   RUN DATE
 RUN .                  1:   RUN NUMBER
 DD  .F              2331:   DEPTH DRILLER
 DL  .F              2260:   DEPTH LOGGER
 BLI .F              2250:   BOTTOM LOG INTERVAL
 TLI .F               690:   TOP LOG INTERVAL
 CS  .IN            9.625:   CASING SIZE
 CBD .F               683:   CASING BOTTOM DRILLER
 CBL .F               690:   CASING BOTTOM LOGGER
 BS  .IN             8.75:   BIT SIZE
 BSD .F              2331:   BIT SIZE AT DEPTH
 DFT .                OIL:   DRILLING FLUID TYPE
 BHT .F               104:   BOTTOM HOLE TEMPERATURE
 TCS .HRS               5:   TIME CURCULATED STOPPED
 MRT .F               104:   MAXIMUM RECORDED TEMPERATURE
 LUN .               2958:   LOGGING UNIT NUMBER
 LUL .               CASP:   LOGGING UNIT LOCATION
 ENGI.             MILLER:   RECORDING ENGINEER
 WITN.           MCGINLEY:   WITNESSED BY
 CLNT.            A2DTECH:   CLIENT CODE
 ORIG.       2", 5" PRINT:   ORIGIN OF DATA
 UWI .       490251062700:   UNIQUE WELL ID
 DICO. A2D Technologies, Inc.:   DIGITIZING COMPANY
~OTHER INFORMATION
~A   DEPT       IL        CIL       CALD         GRD      DPHI       RHOB       CORR   
# ...
  990.5000     8.2831   109.5960     9.7847   101.1318     0.0095     2.5292     0.0206
  991.0000     8.3239   109.5960     9.7842    99.9164     0.0090     2.5302     0.0209
  991.5000     8.3647   109.5960     9.7836    99.1518     0.0088     2.5333     0.0212
  992.0000     8.4053   109.5960     9.7831    99.5872     0.0122     2.5339     0.0215
  992.5000     8.4463   109.5960     9.7825   100.1636     0.0144     2.5154     0.0183
  993.0000     8.4647   109.5960     9.7820    99.5998     0.0114     2.5174     0.0207
  993.5000     8.4677   109.5960     9.7814    98.7023     0.0087     2.5221     0.0252
  994.0000     8.4704   109.5960     9.7808    98.6557     0.0060     2.5268     0.0299
  994.5000     8.4730   109.5960     9.8061    99.6620     0.0037     2.5445     0.0345
  995.0000     8.4757   109.5960     9.8396   100.3114     0.0057     2.5437     0.0391
  995.5000     8.4783   109.5960     9.8732    99.1502     0.0085     2.5358     0.0393
  996.0000     8.4810   109.5960     9.9071    95.9050     0.0108     2.5378     0.0393
  996.5000     8.4837   109.5960     9.9209    93.3824     0.0074     2.5331     0.0413
  997.0000     8.4863   109.5960     9.8961    96.3555     0.0026     2.5293     0.0434
  997.5000     8.4890   109.5960     9.8652    98.2956    -0.0023     2.5366     0.0455
  998.0000     8.4916   109.5960     9.8775    98.5156    -0.0012     2.5441     0.0476
  998.5000     8.4943   109.5960     9.8980    99.6172     0.0001     2.5508     0.0497
  999.0000     8.4969   109.5960     9.9202   100.9103    -0.0002     2.5489     0.0513
  999.5000     8.4996   109.5960     9.8411   101.3204    -0.0011     2.5466     0.0533
 1000.0000     8.5023   109.5960     9.7494   100.9189    -0.0021     2.5450     0.0532
 1000.5000     8.5050   109.5960     9.8374   100.4217    -0.0031     2.5453     0.0532
 1001.0000     8.4996   109.5960     9.9738    99.6730    -0.0041     2.5480     0.0532
 1001.5000     8.4631   109.5960     9.9183    99.2866    -0.0051     2.5506     0.0532
 1002.0000     8.4269   109.5960     9.8403    99.1989    -0.0044     2.5533     0.0532
 1002.5000     8.3907   110.0618     9.8180    99.1178    -0.0027     2.5560     0.0532
 1003.0000     8.3546   110.5120     9.7773    99.0330     0.0009     2.5549     0.0533
 1003.5000     8.3184   110.9622     9.7621    98.9684     0.0084     2.5545     0.0486
 1004.0000     8.2823   111.4124     9.7566    98.9192     0.0029     2.5443     0.0428
 1004.5000     8.2461   111.8626     9.7407    99.9695     0.0068     2.5310     0.0370
 1005.0000     8.2100   112.3128     9.7632   100.7044     0.0104     2.5434     0.0312
 1005.5000     8.1738   112.7630     9.8007   100.5276     0.0109     2.5357     0.0253
 1006.0000     8.1376   113.2132     9.8856   100.3736     0.0112     2.5283     0.0234
 1006.5000     8.1015   113.6628     9.9624   100.2241     0.0110     2.5297     0.0259
 1007.0000     8.0653   114.1135     9.9544   100.3428     0.0076     2.5274     0.0296
 1007.5000     8.0292   114.5637     9.9336   101.7703     0.0041     2.5268     0.0334
 1008.0000     7.9930   115.8305     9.9138   102.8886     0.0006     2.5318     0.0371
 1008.5000     7.9569   117.2811     9.8996   103.6962    -0.0007     2.5368     0.0323
 1009.0000     7.9207   118.7318     9.8678   105.4084     0.0155     2.5418     0.0267
 1009.5000     7.8846   119.6798     9.8412   106.4006     0.0076     2.5473     0.0249
 1010.0000     7.8484   119.6286     9.8713   104.4840    -0.0028     2.5144     0.0342
 1010.5000     7.8121   119.5774     9.8997   102.2570    -0.0072     2.5256     0.0436
 1011.0000     7.7784   119.5262     9.8829   101.6139    -0.0094     2.5425     0.0494
 1011.5000     7.7790   119.4750     9.8420   101.8450    -0.0069     2.5598     0.0438
 1012.0000     7.7812   119.4239     9.8019   102.3559     0.0053     2.5653     0.0370
 1012.5000     7.7833   119.3727     9.7924   102.4011     0.0100     2.5512     0.0302
 1013.0000     7.7854   119.3214     9.8388   101.9923     0.0096     2.5368     0.0285
 1013.5000     7.7875   119.2702     9.8834   100.9283     0.0022     2.5288     0.0347
 1014.0000     7.7896   119.2190     9.9174    99.8725    -0.0046     2.5321     0.0406
 1014.5000     7.7917   119.1679     9.8709    98.8196    -0.0106     2.5439     0.0465
 1015.0000     7.7938   119.1167     9.8297    97.7814    -0.0097     2.5552     0.0525
 1015.5000     7.7959   119.0655     9.7897    98.4180    -0.0082     2.5627     0.0546
 1016.0000     7.7980   119.0143     9.7494   101.1682    -0.0166     2.5593     0.0517
 1016.5000     7.8000   118.9631     9.7568    99.2057    -0.0206     2.5566     0.0484
 1017.0000     7.8021   118.9119     9.8105    98.2703    -0.0193     2.5761     0.0456
 1017.5000     7.8042   118.8607     9.8376   100.6716    -0.0122     2.5808     0.0420
 1018.0000     7.8063   118.8095     9.8251   103.2550    -0.0050     2.5788     0.0347
 1018.5000     7.8084   118.7583     9.8709   105.8146     0.0022     2.5676     0.0275
 1019.0000     7.8105   118.7087    10.0817   105.8408     0.0061     2.5464     0.0232
 1019.5000     7.8126   119.0442    10.2805   104.2433    -0.0071     2.5412     0.0287
 1020.0000     7.8147   119.6446    10.3669   101.3377    -0.0039     2.5575     0.0351
 1020.5000     7.8167   120.2417    10.2028   100.7149    -0.0030     2.5527     0.0378
 1021.0000     7.8184   120.8387    10.1118   100.6774    -0.0026     2.5513     0.0374
 1021.5000     7.7911   121.4355    10.2031   101.8564    -0.0015     2.5633     0.0354
 1022.0000     7.7417   122.0323    10.1420   103.3084     0.0008     2.5601     0.0332
 1022.5000     7.6921   122.6292    10.0243   105.9629     0.0034     2.5519     0.0311
 1023.0000     7.6425   123.2260    10.0478   108.5604     0.0004     2.5436     0.0293
 1023.5000     7.5930   123.8228    10.0190   110.0991    -0.0047     2.5364     0.0296
 1024.0000     7.5434   124.4196     9.9296   110.7042    -0.0076     2.5447     0.0299
 1024.5000     7.4938   125.0164     9.9532   108.0307    -0.0057     2.5542     0.0302
 1025.0000     7.4443   125.6133    10.1058   107.1611    -0.0039     2.5536     0.0305
 1025.5000     7.3947   126.2101    10.2411   106.8976    -0.0048     2.5514     0.0308
 1026.0000     7.3450   126.7677    10.1355   106.4965    -0.0069     2.5500     0.0310
 1026.5000     7.2954   126.2111    10.0616   105.8948    -0.0091     2.5532     0.0311
 1027.0000     7.2512   125.6890    10.2514   105.3080    -0.0094     2.5582     0.0320
 1027.5000     7.2523   125.1674    10.3366   104.6551    -0.0087     2.5633     0.0292
 1028.0000     7.2554   124.7568    10.3246   102.3890    -0.0044     2.5649     0.0264
 1028.5000     7.2717   124.8308    10.3071   100.0182    -0.0005     2.5597     0.0238
 1029.0000     7.2878   124.9005    10.2895    98.9427     0.0035     2.5529     0.0212
 1029.5000     7.3039   124.9701    10.2721    99.8858     0.0074     2.5462     0.0246
 1030.0000     7.3200   125.0397    10.2545   102.1158     0.0120     2.5395     0.0290
 1030.5000     7.3337   125.1094    10.2380   103.4903     0.0056     2.5328     0.0334
 1031.0000     7.3334   125.1790    10.2182   104.1058    -0.0031     2.5274     0.0379
 1031.5000     7.3333   125.2486    10.1735   106.2200    -0.0048     2.5380     0.0424
 1032.0000     7.3333   125.3183    10.0915   108.3989     0.0001     2.5492     0.0433
 1032.5000     7.3333   125.3879    10.0087   105.7682     0.0041     2.5534     0.0425
 1033.0000     7.3333   125.4575     9.9579   102.8262     0.0081     2.5467     0.0412
 1033.5000     7.3333   125.5271    10.1923   102.5378     0.0122     2.5402     0.0400
 1034.0000     7.3333   125.5973    10.4390   106.0576     0.0136     2.5336     0.0391
 1034.5000     7.3333   125.6664    10.4920   111.7165     0.0104     2.5269     0.0450
 1035.0000     7.3333   125.7360    10.4565   111.1668     0.0074     2.5204     0.0507
 1035.5000     7.3333   125.4195    10.5641   108.6744     0.0044     2.5277     0.0563
