~VERSION INFORMATION
 VERS.                2.0:   CWLS LOG ASCII STANDARD - VERSION 2.0
 WRAP.                 NO:   ONE LINE PER DEPTH STEP
~WELL INFORMATION
#MNEM.UNIT      DATA TYPE    INFORMATION
#----------   ------------   ------------------------------
 STRT.F           20.0000:   START DEPTH
 STOP.F          805.5000:   STOP DEPTH
 STEP.F            0.5000:   STEP LENGTH
 NULL.          -999.2500:   NO VALUE
 COMP. FENIX & SCISSON INC:   COMPANY
 WELL.    16-SX-14 #16-14:   WELL
 FLD .             TEAPOT:   FIELD
 LOC .      S14 T38N R78W:   LOCATION
 CNTY.            NATRONA:   COUNTY
 STAT.            WYOMING:   STATE
 CTRY. UNITED STATES OF AMERICA:   COUNTRY
 SRVC.            Unknown:   SERVICE COMPANY
 DATE.        23-MAY-1978:   LOGDATE
 API .       490251063200:   API NUMBER
~CURVE INFORMATION
#MNEM.UNIT       API CODE    CURVE DESCRIPTION
#----------   ------------   ------------------------------
 DEPT.F                  :   
 SN  .OHMM   05 040 16 00:   SHORT NORMAL 16"
 ILD .OHMM   05 120 46 00:   INDUCTION LOG DEEP
 SPR .MV     05 010 01 00:   SPONTANEOUS POTENTIAL FROM RES.
 RHOB.G/C3   45 350 01 00:   BULK DENSITY
 DPOR.DEC    45 890 12 00:   DENSITY POROSITY SANDSTONE
 CORR.G/C3   45 356 01 00:   DENSITY CORRECTION
 GRD .GAPI   45 310 01 00:   GAMMA RAY FROM DENSITY LOG
 CALD.IN     45 280 60 00:   CALIPER FROM DENSITY LOG
~PARAMETER INFORMATION
#MNEM.UNIT          VALUE    DESCRIPTION
#----------   ------------   ------------------------------
 PD  .                 GL:   PERMANENT DATUM
 EPD .F              5246:   ELEVATION PERMANENT DATUM
 LMF .                 KB:   LOG MEASURED FROM
 DAPD.F                 4:   FEET ABOVE PERMANENT DATUM
 DMF .                 KB:   DRILLING MEASURED FROM
 EKB .F              5250:   KELLING BUSHING
 EGL .F              5246:   GROUND LEVEL
 DATE.          5-23-1978:   RUN DATE
 RUN .                  1:   RUN NUMBER
 DD  .F               825:   DEPTH DRILLER
 DL  .F               812:   DEPTH LOGGER
 BLI .F               805:   BOTTOM LOG INTERVAL
 TLI .F                40:   TOP LOG INTERVAL
 CS  .IN            8.625:   CASING SIZE
 CBD .F                40:   CASING BOTTOM DRILLER
 BS  .IN            7.875:   BIT SIZE
 BSD .F               825:   BIT SIZE AT DEPTH
 DFT .                KCL:   DRILLING FLUID TYPE
 DFD .                8.6:   DRILLING FLUID DENSITY
 DFV .                 30:   DRILLING FLUID VISCOSITY
 DFPH.                 11:   DRILLING FLUID PH
 DFL .                 14:   DRILLING FLUID LOSS
 MSS .            MUD PIT:   MUD SAMPLE SOURCE
 RMS .OHMM            .32:   RESISTIVITY MUD SAMPLE
 MST .F                72:   MUD SAMPLE TEMPERATURE
 RMF .OHMM            .28:   RESISTIVITY MUD FILTRATE SAMPLE
 MFST.F                72:   MUD FILTRATE SAMPLE TEMPERATURE
 RMC .OHMM            .50:   RESISTIVITY MUD CAKE
 MCST.F                82:   MUD CAKE SAMPLE TEMPERATURE
 MFSS.               MEAS:   MUD FILTRATE SAMPLE SOURCE
 RMB .OHMM            .31:   RESISTIVITY MUD AT BHT
 BHT .F                75:   BOTTOM HOLE TEMPERATURE
 TCS .HRS               2:   TIME CURCULATED STOPPED
 MRT .F                75:   MAXIMUM RECORDED TEMPERATURE
 LUN .               2958:   LOGGING UNIT NUMBER
 LUL .              CSPR.:   LOGGING UNIT LOCATION
 ENGI.             MILLER:   RECORDING ENGINEER
 WITN.            RHOADES:   WITNESSED BY
 CLNT.            A2DTECH:   CLIENT CODE
 ORIG.    1" , 2.5" PRINT:   ORIGIN OF DATA
 UWI .       490251063200:   UNIQUE WELL ID
 DICO. A2D Technologies, Inc.:   DIGITIZING COMPANY
~OTHER INFORMATION
~A   DEPT       SN        ILD        SPR       RHOB       DPOR       CORR         GRD      CALD   
# ...
  668.0000    12.0447    11.3991   -23.8643     2.4395     0.1455     0.0407    63.7702     7.4338
  668.5000    11.4871    10.8720   -23.7055     2.4376     0.1500     0.0402    61.4180     7.4518
  669.0000    10.9548    10.3693   -23.5461     2.4319     0.1540     0.0396    59.1590     7.4737
  669.5000    10.4472     9.8899   -23.3871     2.4296     0.1488     0.0390    56.7685     7.4959
  670.0000    10.1694     9.6419   -23.2284     2.4331     0.1461     0.0386    54.2155     7.4439
  670.5000    10.0895     9.6039   -23.0681     2.4360     0.1448     0.0382    53.7322     7.3538
  671.0000    10.0237     9.5661   -22.9095     2.4390     0.1427     0.0414    55.8951     7.1007
  671.5000     9.9345     9.5285   -22.7523     2.4421     0.1393     0.0445    57.8648     6.7621
  672.0000     9.8589     9.4910   -22.6301     2.4451     0.1360     0.0478    59.8616     6.4398
  672.5000     9.7839     9.4536   -22.5394     2.4481     0.1333     0.0511    60.6929     6.4774
  673.0000     9.7095     9.4164   -22.4440     2.4511     0.1365     0.0543    59.7919     6.6383
  673.5000     9.6357     9.3793   -22.3324     2.4520     0.1392     0.0580    59.1099     6.7918
  674.0000     9.5624     9.3424   -22.4477     2.4480     0.1419     0.0651    58.3805     6.9404
  674.5000     9.4896     9.3056   -22.9846     2.4439     0.1434     0.0744    57.6492     7.0898
  675.0000     9.4174     9.2689   -23.4989     2.4413     0.1428     0.0857    57.1037     7.0696
  675.5000     9.3458     9.2324   -23.8896     2.4421     0.1350     0.0968    57.4620     7.0481
  676.0000     9.2747     9.1961   -23.8924     2.4618     0.1252     0.1100    57.6849     7.0151
  676.5000     9.2042     9.1429   -23.8990     2.4801     0.1212     0.0984    57.8358     6.9812
  677.0000     9.1418     9.1474   -23.8968     2.5003     0.1229     0.0715    56.7151     6.9372
  677.5000     9.2383     9.1602   -23.8965     2.4976     0.1198     0.0699    57.0740     6.9748
  678.0000     9.3261     9.1731   -23.8972     2.4915     0.1132     0.0689    57.4893     7.0077
  678.5000     9.4149     9.1859   -23.8962     2.4878     0.1075     0.0687    56.8736     7.0421
  679.0000     9.5044     9.1985   -23.8958     2.4916     0.1105     0.0681    55.6894     7.0772
  679.5000     9.5948     9.2111   -23.8956     2.4943     0.1162     0.0674    56.0478     7.1124
  680.0000     9.6861     9.2237   -23.8956     2.4956     0.1220     0.0670    58.1097     7.1415
  680.5000     9.7783     9.2363   -23.8956     2.4777     0.1253     0.0665    59.1697     7.1700
  681.0000     9.8438     9.2490   -23.8956     2.4669     0.1247     0.0640    59.0571     7.1941
  681.5000     9.8532     9.2617   -23.8956     2.4651     0.1236     0.0560    59.0673     7.2192
  682.0000     9.8625     9.2744   -23.8956     2.4640     0.1297     0.0483    59.1067     7.2440
  682.5000     9.8718     9.2871   -23.8956     2.4579     0.1364     0.0424    59.0727     7.2686
  683.0000     9.8812     9.2999   -23.8956     2.4477     0.1419     0.0474    59.6223     7.2936
  683.5000     9.8905     9.3127   -23.8956     2.4423     0.1452     0.0482    60.4440     7.3186
  684.0000     9.8999     9.3254   -23.8956     2.4477     0.1382     0.0415    59.8882     7.3405
  684.5000     9.9093     9.3383   -23.8956     2.4529     0.1300     0.0382    58.0542     7.3556
  685.0000     9.9187     9.3511   -23.8956     2.4552     0.1306     0.0404    56.7267     7.3676
  685.5000     9.9281     9.3639   -23.8961     2.4550     0.1318     0.0421    57.9804     7.3784
  686.0000     9.9375     9.3768   -23.8964     2.4550     0.1329     0.0437    59.7551     7.3431
  686.5000     9.9469     9.3897   -23.8963     2.4551     0.1340     0.0455    59.2759     7.3101
  687.0000     9.9562     9.4028   -23.8984     2.4551     0.1340     0.0455    58.8120     7.2253
  687.5000     9.9656     9.4159   -23.8960     2.4550     0.1319     0.0448    58.5547     7.1199
  688.0000     9.9746     9.4290   -23.8969     2.4495     0.1358     0.0441    61.3795     7.0151
  688.5000     9.9842     9.4418   -23.9086     2.4431     0.1478     0.0433    63.3794     6.9128
  689.0000     9.9943     9.4537   -23.7556     2.4298     0.1598     0.0428    61.6770     6.8072
  689.5000    10.0038     9.4650   -23.3457     2.4100     0.1718     0.0422    58.7424     6.8024
  690.0000    10.0134     9.4766   -22.9494     2.3907     0.1815     0.0482    57.3366     6.8385
  690.5000    10.0241     9.5865   -22.5503     2.3713     0.2029     0.0545    57.4697     6.8739
  691.0000    10.1878     9.7526   -22.1489     2.3521     0.2092     0.0707    57.6216     6.9099
  691.5000    10.3790     9.9220   -21.7490     2.3354     0.2030     0.0810    55.5622     6.9392
  692.0000    10.5737    10.0936   -21.3490     2.3379     0.1948     0.0765    51.1979     7.0547
  692.5000    10.7721    10.2671   -20.9495     2.3411     0.1956     0.0683    46.6970     7.2209
  693.0000    10.9743    10.4435   -20.5454     2.3447     0.1978     0.0615    45.3247     7.3852
  693.5000    11.1804    10.6230   -20.1523     2.3428     0.2006     0.0514    47.8844     7.5001
  694.0000    11.3902    10.8056   -19.7505     2.3410     0.2034     0.0532    50.1446     7.5016
  694.5000    11.6041    10.9914   -19.3189     2.3391     0.2048     0.0563    52.3960     7.4693
  695.0000    11.8219    11.1952   -19.0576     2.3390     0.2017     0.0606    54.2694     7.3694
  695.5000    12.0438    11.1182   -19.1134     2.3399     0.1978     0.0587    54.9239     7.2759
  696.0000    12.2752    11.0354   -19.1349     2.3411     0.2004     0.0494    55.4870     7.1795
  696.5000    12.1187    10.9533   -19.1572     2.3421     0.2004     0.0420    56.1031     7.0728
  697.0000    11.8567    10.8717   -19.1872     2.3432     0.1972     0.0387    56.7333     7.0522
  697.5000    11.6005    10.7907   -19.2118     2.3445     0.1997     0.0354    58.8850     7.1785
  698.0000    11.3498    10.7104   -19.2380     2.3423     0.2054     0.0347    61.1269     7.2885
  698.5000    11.1045    10.6306   -19.2645     2.3356     0.2111     0.0366    63.4124     7.4121
  699.0000    10.9908    10.5768   -19.2902     2.3284     0.2140     0.0428    65.7390     7.4570
  699.5000    10.9908    10.5457   -19.3158     2.3272     0.2140     0.0538    65.6619     7.5023
  700.0000    10.9908    10.5147   -19.3415     2.3287     0.1976     0.0638    63.5322     7.5444
  700.5000    10.9908    10.4837   -19.3673     2.3515     0.1805     0.0732    61.3567     7.5899
  701.0000    10.9908    10.4529   -19.3928     2.3707     0.1612     0.0675    61.4959     7.6018
  701.5000    10.9908    10.4222   -19.4184     2.3927     0.1612     0.0616    62.9516     7.5238
  702.0000    10.9908    10.3906   -19.4448     2.4064     0.1665     0.0552    61.7521     7.5026
  702.5000    10.9908    10.3566   -19.4698     2.3976     0.1738     0.0500    60.7250     7.5545
  703.0000    10.9706    10.3227   -19.5392     2.3885     0.1812     0.0485    61.4064     7.6100
  703.5000    10.9064    10.2889   -19.6295     2.3779     0.1811     0.0472    62.4318     7.4674
  704.0000    10.8425    10.2553   -19.7189     2.3772     0.1798     0.0459    63.1737     7.3418
  704.5000    10.7791    10.2217   -19.8078     2.3768     0.1780     0.0445    63.8851     7.0881
  705.0000    10.7164    10.1883   -19.8970     2.3771     0.1793     0.0434    65.3497     7.0859
  705.5000    10.6541    10.1549   -19.9864     2.3754     0.1819     0.0421    67.1493     7.1395
  706.0000    10.5944    10.1217   -20.0756     2.3732     0.1845     0.0461    69.0455     7.2047
  706.5000    10.5942    10.0886   -20.1638     2.3711     0.1860     0.0503    70.7354     7.2563
  707.0000    10.5936    10.0555   -20.2543     2.3722     0.1845     0.0621    72.0677     7.1615
  707.5000    10.5929    10.0226   -20.2834     2.3733     0.1821     0.0738    68.9893     7.0663
  708.0000    10.5924     9.9896   -20.2813     2.3745     0.1804     0.0856    66.2130     6.9889
