~VERSION INFORMATION
 VERS.                2.0:   CWLS LOG ASCII STANDARD - VERSION 2.0
 WRAP.                 NO:   ONE LINE PER DEPTH STEP
~WELL INFORMATION
#MNEM.UNIT      DATA TYPE    INFORMATION
#----------   ------------   ------------------------------
 STRT.F           30.0000:   START DEPTH
 STOP.F          440.0000:   STOP DEPTH
 STEP.F            0.5000:   STEP LENGTH
 NULL.          -999.2500:   NO VALUE
 COMP. LAWRENCE/ALLISON INC:   COMPANY
 WELL. NPR #3 #52-31 SX 10:   WELL
 FLD .             TEAPOT:   FIELD
 LOC .      S10 T38N R78W:   LOCATION
 CNTY.            NATRONA:   COUNTY
 STAT.            WYOMING:   STATE
 CTRY. UNITED STATES OF AMERICA:   COUNTRY
 SRVC.           Gearhart:   SERVICE COMPANY
 DATE.        27-SEP-1988:   LOGDATE
 API .       490251124800:   API NUMBER
~CURVE INFORMATION
#MNEM.UNIT       API CODE    CURVE DESCRIPTION
#----------   ------------   ------------------------------
 DEPT.F                  :   
 GRR .GAPI   07 310 01 00:   GAMMA RAY FROM RES. LOG.
 RLL .OHMM   07 220 00 00:   LATEROLOG RESISTIVITY
 ILD .OHMM   07 120 46 00:   INDUCTION LOG DEEP
 ILM .OHMM   07 120 44 00:   INDUCTION LOG MEDIUM
 SPR .MV     07 010 01 00:   SPONTANEOUS POTENTIAL
~PARAMETER INFORMATION
#MNEM.UNIT          VALUE    DESCRIPTION
#----------   ------------   ------------------------------
 PD  .                 GL:   PERMANENT DATUM
 EPD .F              5179:   ELEVATION PERMANENT DATUM
 LMF .                 KB:   LOG MEASURED FROM
 DAPD.F                 8:   FEET ABOVE PERMANENT DATUM
 DMF .                 KB:   DRILLING MEASURED FROM
 EKB .F              5187:   KELLING BUSHING
 EDF .F              5185:   DRILLING FLOOR
 EGL .F              5179:   GROUND LEVEL
 DATE.            9-27-88:   RUN DATE
 RUN .                  1:   RUN NUMBER
 DD  .F               441:   DEPTH DRILLER
 DL  .F               442:   DEPTH LOGGER
 BLI .F               441:   BOTTOM LOG INTERVAL
 TLI .F                40:   TOP LOG INTERVAL
 CS  .IN            9.625:   CASING SIZE
 CBD .F                50:   CASING BOTTOM DRILLER
 CBL .F                50:   CASING BOTTOM LOGGER
 BS  .IN             8.75:   BIT SIZE
 BSD .F               441:   BIT SIZE AT DEPTH
 DFT .                MUD:   DRILLING FLUID TYPE
 MSS .           MUD TANK:   MUD SAMPLE SOURCE
 RMS .OHMM              2:   RESISTIVITY MUD SAMPLE
 MST .F                64:   MUD SAMPLE TEMPERATURE
 RMF .OHMM            2.4:   RESISTIVITY MUD FILTRATE SAMPLE
 MFST.F                66:   MUD FILTRATE SAMPLE TEMPERATURE
 RMC .OHMM              3:   RESISTIVITY MUD CAKE
 MCST.F                67:   MUD CAKE SAMPLE TEMPERATURE
 MFSS.                  M:   MUD FILTRATE SAMPLE SOURCE
 MCSS.                  M:   MUD CAKE SAMPLE SOURCE
 RMB .OHMM            1.3:   RESISTIVITY MUD AT BHT
 BHT .F                70:   BOTTOM HOLE TEMPERATURE
 TCS .HRS            0910:   TIME CURCULATED STOPPED
 TLAB.HRS            1113:   TIME LOGGER AT BOTTOM
 MRT .F                70:   MAXIMUM RECORDED TEMPERATURE
 LUN .               7597:   LOGGING UNIT NUMBER
 LUL .           GILLETTE:   LOGGING UNIT LOCATION
 ENGI.         WEATHERMON:   RECORDING ENGINEER
 WITN.             STRONG:   WITNESSED BY
 CLNT.            A2DTECH:   CLIENT CODE
 ORIG.       2", 5" PRINT:   ORIGIN OF DATA
 UWI .       490251124800:   UNIQUE WELL ID
 DICO. A2D Technologies, Inc.:   DIGITIZING COMPANY
~OTHER INFORMATION
~A   DEPT       GRR       RLL        ILD        ILM        SPR   
# ...
  396.0000    83.5000    11.7894    13.3088    12.8676   -66.2095
  396.5000    82.0136    11.8506    13.2553    12.9078   -65.9683
  397.0000    80.5321    11.8849    13.2020    12.9216   -65.7354
  397.5000    79.2213    11.7249    13.1489    12.8035   -65.3613
  398.0000    78.3194    11.6153    13.0961    12.7221   -64.9739
  398.5000    79.3339    11.5067    13.0424    12.6412   -64.5885
  399.0000    80.9219    11.3991    12.9398    12.5609   -64.3345
  399.5000    81.3583    11.2925    12.8361    12.4810   -64.6464
  400.0000    81.1097    11.1363    12.7331    12.4017   -64.9467
  400.5000    82.3939    11.1502    12.6514    12.3228   -65.0170
  401.0000    83.8360    11.1771    12.5522    12.2445   -64.8838
  401.5000    84.5186    11.2041    12.4538    12.1666   -64.7475
  402.0000    83.4247    11.2403    12.3561    12.0728   -64.6139
  402.5000    82.3568    11.0328    12.2592    11.9281   -64.4636
  403.0000    83.8305    10.7268    12.1631    11.7852   -63.9692
  403.5000    85.5779    10.5281    12.0678    11.6440   -63.4900
  404.0000    85.1258    10.5014    11.9732    11.5045   -63.0144
  404.5000    83.1772    10.4748    11.8788    11.3667   -62.5396
  405.0000    81.1786    10.4483    11.7882    11.2305   -62.0605
  405.5000    80.3708    10.4218    11.5835    11.0960   -61.5585
  406.0000    80.1235    10.3954    11.3716    10.9630   -61.4271
  406.5000    80.8189    10.3690    11.1627    10.8211   -61.0161
  407.0000    82.6845    10.3428    10.9576    10.6260   -60.5970
  407.5000    85.1605    10.2062    10.7563    10.4362   -60.3665
  408.0000    87.6597    10.0505    10.5587    10.2500   -60.2239
  408.5000    90.1566     9.8971    10.3647    10.0555   -60.0818
  409.0000    92.6679     9.7450    10.1362     9.3075   -59.9362
  409.5000    93.9845     9.5976     9.8471     8.5715   -59.6671
  410.0000    93.7861     8.8479     9.5664     7.8947   -59.2146
  410.5000    92.6131     8.1648     9.0148     7.1764   -58.3420
  411.0000    93.2676     7.5344     8.2081     6.4799   -57.4993
  411.5000    99.0102     6.9527     7.4736     5.8509   -56.8002
  412.0000   104.7128     6.4158     6.8048     5.4952   -56.6759
  412.5000   106.6759     5.9746     6.7310     5.6058   -56.9082
  413.0000   102.2795     6.4542     7.1576     6.1159   -57.2946
  413.5000    96.6834     7.2674     7.8097     6.6725   -57.6905
  414.0000    93.0817     8.1164     8.5196     7.2797   -57.8456
  414.5000    90.8054     8.6354     9.1800     7.9421   -57.8455
  415.0000    89.0022     9.1876     9.7084     8.6648   -57.8327
  415.5000    87.1866     9.5976    10.2624     9.2473   -57.8706
  416.0000    87.0909     9.6898    10.4640     9.5399   -57.5510
  416.5000    88.3947     9.8282    10.6531     9.8279   -57.2254
  417.0000    90.6525     9.9685    10.8456    10.2427   -56.8975
  417.5000    92.8472    10.0935    11.0415    10.1480   -56.5701
  418.0000  -999.2500    10.1933    11.2410    10.4285   -56.2457
  418.5000  -999.2500    10.2941    11.4441    10.6340   -55.9943
  419.0000  -999.2500    10.3959    11.6660    10.8436   -55.8868
  419.5000  -999.2500    10.4986    11.8633    11.0573   -55.7732
  420.0000  -999.2500    10.6025    12.0798    11.2752   -55.6461
  420.5000  -999.2500    10.7073    12.3002    11.4974   -55.7366
  421.0000  -999.2500    10.8130    12.5246    11.7240   -55.5691
  421.5000  -999.2500    10.9201    12.7531    11.9445   -55.3964
  422.0000  -999.2500    11.0333    12.9858    12.1440   -55.2198
  422.5000  -999.2500    11.3006    13.2227    12.3469   -55.0391
  423.0000  -999.2500    11.5885    13.4112    12.5533   -54.9723
  423.5000  -999.2500    11.8837    13.5443    12.7630   -54.8656
  424.0000  -999.2500    12.1864    13.6755    12.9763   -54.7576
  424.5000  -999.2500    12.3350    13.8080    13.1760   -54.6493
  425.0000  -999.2500    12.3350    13.9418    13.2646   -54.5404
  425.5000  -999.2500    12.3350    14.0653    13.3545   -54.4303
  426.0000  -999.2500    12.3609    14.1444    13.4446   -54.3790
  426.5000  -999.2500    12.4207    14.2239    13.5353   -54.3299
  427.0000  -999.2500    12.4807    14.3038    13.6267   -54.2796
  427.5000  -999.2500    12.5408    14.3842    13.7187   -54.2282
  428.0000  -999.2500    12.6030    14.4651    13.8112   -54.1040
  428.5000  -999.2500    12.7943    14.5464    13.9185   -53.8729
  429.0000  -999.2500    12.9886    14.6282    13.7935   -53.6441
  429.5000  -999.2500    13.1634    14.7169    13.6473   -53.3715
  430.0000  -999.2500    12.9182  -999.2500    13.5015   -53.0169
  430.5000  -999.2500    12.6988  -999.2500    13.3576   -52.5827
  431.0000  -999.2500    12.4903  -999.2500    13.2153   -52.1561
  431.5000  -999.2500    12.3358  -999.2500  -999.2500   -51.7292
  432.0000  -999.2500    12.3777  -999.2500  -999.2500   -51.4389
  432.5000  -999.2500    12.4035  -999.2500  -999.2500   -51.6261
  433.0000  -999.2500    12.4295  -999.2500  -999.2500   -51.8018
  433.5000  -999.2500    12.4502  -999.2500  -999.2500   -51.9896
  434.0000  -999.2500    12.2393  -999.2500  -999.2500   -51.5713
  434.5000  -999.2500    12.0670  -999.2500  -999.2500   -50.9628
  435.0000  -999.2500    11.8849  -999.2500  -999.2500  -999.2500
  435.5000  -999.2500    11.8276  -999.2500  -999.2500  -999.2500
  436.0000  -999.2500    11.7661  -999.2500  -999.2500  -999.2500
  436.5000  -999.2500    11.7049  -999.2500  -999.2500  -999.2500
  437.0000  -999.2500    11.6441  -999.2500  -999.2500  -999.2500
  437.5000  -999.2500    11.5835  -999.2500  -999.2500  -999.2500
  438.0000  -999.2500    11.5232  -999.2500  -999.2500  -999.2500
  438.5000  -999.2500    11.4499  -999.2500  -999.2500  -999.2500
  439.0000  -999.2500    11.4523  -999.2500  -999.2500  -999.2500
  439.5000  -999.2500    11.4497  -999.2500  -999.2500  -999.2500
  440.0000  -999.2500    11.4519  -999.2500  -999.2500  -999.2500
