~VERSION INFORMATION
 VERS.                2.0:   CWLS LOG ASCII STANDARD - VERSION 2.0
 WRAP.                 NO:   ONE LINE PER DEPTH STEP
~WELL INFORMATION
#MNEM.UNIT      DATA TYPE    INFORMATION
#----------   ------------   ------------------------------
 STRT.F           30.0000:   START DEPTH
 STOP.F          468.0000:   STOP DEPTH
 STEP.F            0.1000:   STEP LENGTH
 NULL.          -999.2500:   NO VALUE
 COMP. LAWRENCE/ALLISON INC:   COMPANY
 WELL.    72-12 SX #10-10:   WELL
 FLD .             TEAPOT:   FIELD
 LOC .      S10 T38N R78W:   LOCATION
 CNTY.            NATRONA:   COUNTY
 STAT.            WYOMING:   STATE
 CTRY. UNITED STATES OF AMERICA:   COUNTRY
 SRVC.           Gearhart:   SERVICE COMPANY
 DATE.        17-MAY-1988:   LOGDATE
 API .       490251122400:   API NUMBER
~CURVE INFORMATION
#MNEM.UNIT       API CODE    CURVE DESCRIPTION
#----------   ------------   ------------------------------
 DEPT.F                  :   
 GRR .GAPI   07 310 01 00:   GAMMA RAY
 RILD.OHMM   07 120 46 00:   INDUCTION LOG DEEP RESISTIVITY
 RILM.OHMM   07 120 44 00:   INDUCTION LOG MEDIUM RESISTIVITY
~PARAMETER INFORMATION
#MNEM.UNIT          VALUE    DESCRIPTION
#----------   ------------   ------------------------------
 PD  .                 GL:   PERMANENT DATUM
 EPD .F              5166:   ELEVATION PERMANENT DATUM
 LMF .                 KB:   LOG MEASURED FROM
 DAPD.F              10.2:   FEET ABOVE PERMANENT DATUM
 DMF .                 KB:   DRILLING MEASURED FROM
 EKB .F            5176.2:   KELLING BUSHING
 EGL .F              5166:   GROUND LEVEL
 DATE.        17-MAY-1988:   RUN DATE
 RUN .                  1:   RUN NUMBER
 DD  .F               480:   DEPTH DRILLER
 DL  .F               476:   DEPTH LOGGER
 BLI .F               468:   BOTTOM LOG INTERVAL
 TLI .F                47:   TOP LOG INTERVAL
 CS  .IN            9.625:   CASING SIZE
 CBD .F                43:   CASING BOTTOM DRILLER
 CBL .F                47:   CASING BOTTOM LOGGER
 BS  .IN             8.75:   BIT SIZE
 BSD .F               480:   BIT SIZE AT DEPTH
 DFT .                AIR:   DRILLING FLUID TYPE
 TCS .HRS            0630:   TIME CURCULATED STOPPED
 TLAB.HRS            0930:   TIME LOGGER AT BOTTOM
 LUN .               7597:   LOGGING UNIT NUMBER
 LUL .           GILLETTE:   LOGGING UNIT LOCATION
 ENGI.             SLATKY:   RECORDING ENGINEER
 WITN.             STRONG:   WITNESSED BY
 CLNT.            A2DTECH:   CLIENT CODE
 ORIG.           5" PRINT:   ORIGIN OF DATA
 UWI .       490251122400:   UNIQUE WELL ID
 DICO. A2D Technologies, Inc.:   DIGITIZING COMPANY
~OTHER INFORMATION
~A   DEPT      GRR       RILD       RILM   
# ...
  430.4000    81.9079    13.5796    13.5420
  430.5000    82.4397    13.6416    13.6111
  430.6000    82.6622    13.6416    13.6116
  430.7000    82.9072    13.7133    13.6119
  430.8000    83.1523    13.7369    13.6577
  430.9000    83.3974    13.7712    13.7078
  431.0000    83.6670    13.8482    13.7158
  431.1000    83.8875    13.9293    13.8043
  431.2000    84.1325    13.9293    13.8047
  431.3000    84.3776    13.9846    13.8517
  431.4000    84.5879    14.0266    13.9019
  431.5000    84.5912    14.0266    13.9023
  431.6000    84.8097    14.0266    13.9027
  431.7000    84.7453    14.0266    13.9700
  431.8000    84.6000    14.0266    14.0006
  431.9000    84.5376    14.0266    14.0295
  432.0000    84.0004    14.0448    14.0992
  432.1000    83.7893    14.1245    14.0996
  432.2000    83.3976    14.1245    14.0999
  432.3000    83.0083    14.1245    14.1003
  432.4000    82.7385    14.1245    14.1007
  432.5000    82.1973    14.1245    14.1011
  432.6000    81.7766    14.1245    14.1016
  432.7000    81.4463    14.1245    14.1019
  432.8000    81.1176    14.0649    14.1023
  432.9000    80.6366    14.0266    14.1027
  433.0000    80.0913    14.0266    14.1031
  433.1000    79.6746    14.0250    14.1035
  433.2000    79.3422    13.9469    14.1039
  433.3000    79.0155    13.9293    14.1043
  433.4000    78.5345    13.8884    14.1047
  433.5000    77.9853    13.8328    14.1051
  433.6000    77.7802    13.8300    14.1055
  433.7000    77.5412    13.7530    14.1058
  433.8000    77.3879    13.7369    14.1062
  433.9000    77.4896    13.7369    14.1066
  434.0000    78.6065    13.7369    14.1070
  434.1000    79.0203    13.7369    14.1074
  434.2000    79.6520    13.7369    14.1078
  434.3000    80.2139    13.6752    14.1082
  434.4000    80.4816    13.6416    14.1086
  434.5000    81.0459    13.6416    14.1090
  434.6000    81.4557    13.6416    14.1094
  434.7000    81.8002    13.6416    14.1098
  434.8000    82.1268    13.5791    14.1102
  434.9000    82.5934    13.5471    14.1106
  435.0000    82.8793    13.5471    14.1109
  435.1000    82.8818    13.5406    14.1113
  435.2000    82.8848    13.4532    14.1117
  435.3000    82.8879    13.3903    14.1122
  435.4000    82.8909    13.3599    14.1125
  435.5000    82.8945    13.3599    14.1129
  435.6000    82.6974    13.3523    14.1133
  435.7000    82.4584    13.2673    14.1137
  435.8000    82.1418    13.2673    14.1141
  435.9000    81.6774    13.2222    14.1145
  436.0000    81.3945    13.1485    14.1149
  436.1000    81.1994    13.0753    14.1153
  436.2000    80.8238    12.9933    14.1076
  436.3000    80.4939    12.9933    14.0182
  436.4000    80.5115    12.9933    14.0185
  436.5000    80.8036    12.9657    14.0189
  436.6000    81.1973    12.9032    14.0193
  436.7000    81.6843    12.9032    14.0197
  436.8000    82.2448    12.9032    14.0201
  436.9000    82.9739    12.9032    14.0205
  437.0000    83.7031    12.9032    13.9729
  437.1000    84.2386    12.9032    13.9240
  437.2000    84.7257    12.9032    13.9244
  437.3000    85.1412    12.9032    13.9248
  437.4000    85.3758    12.9510    13.9251
  437.5000    85.3788    12.9933    13.8772
  437.6000    85.5734    12.9933    13.8293
  437.7000    85.5574    12.9933    13.8297
  437.8000    85.3879    12.9933    13.8301
  437.9000    85.3909    13.0426    13.7628
  438.0000    85.3939    13.1156    13.7349
  438.1000    85.0180    13.1753    13.7353
  438.2000    84.5370    13.1753    13.7357
  438.3000    84.0560    13.2447    13.7361
  438.4000    83.5686    13.2673    13.7364
  438.5000    82.8454    13.2673    13.6879
  438.6000    82.3098    13.2673    13.6419
  438.7000    81.7025    13.2673    13.6423
  438.8000    80.9795    13.3384    13.6427
  438.9000    80.2564    13.3599    13.6430
  439.0000    79.5334    13.3599    13.5942
  439.1000    79.1812    13.3599    13.5491
  439.2000    78.8177    13.3599    13.5380
  439.3000    78.4002    13.2875    13.4559
  439.4000    78.1636    13.2673    13.4563
  439.5000    78.1667    13.2673    13.4566
  439.6000    78.1697    13.2499    13.4264
  439.7000    78.4176    13.1753    13.3640
  439.8000    78.8432    13.1027    13.3644
  439.9000    79.0883    13.0840    13.3648
  440.0000    79.3333    13.0477    13.3157
  440.1000    79.7598    12.9933    13.2728
  440.2000    80.2469    12.9928    13.2732
  440.3000    80.6152    12.9205    13.2736
  440.4000    80.6182    12.8486    13.2059
  440.5000    81.1020    12.7770    13.1328
  440.6000    81.5892    12.7249    13.0911
  440.7000    82.0762    12.7233    13.0785
  440.8000    82.5058    12.6525    13.0010
  440.9000    82.7546    12.6367    13.0013
  441.0000    82.9960    12.5993    13.0017
  441.1000    83.4184    12.5292    12.9707
  441.2000    83.7891    12.4621    12.8989
  441.3000    84.0341    12.4621    12.8230
  441.4000    84.2849    12.4071    12.7565
  441.5000    84.7606    12.3380    12.7348
  441.6000    85.0723    12.2899    12.7038
  441.7000    85.3174    12.2861    12.6470
  441.8000    85.6158    12.2047    12.6475
  441.9000    86.1183    12.2047    12.5812
  442.0000    86.3556    12.1664    12.5116
  442.1000    86.6006    12.1201    12.4736
  442.2000    86.7333    12.1152    12.4599
  442.3000    86.7877    12.0361    12.3878
  442.4000    87.0425    11.9807    12.3223
  442.5000    87.0455    11.9527    12.3025
  442.6000    87.0485    11.9527    12.2715
  442.7000    87.0515    11.9527    12.2179
  442.8000    87.0545    11.9527    12.2182
  442.9000    87.0577    11.9527    12.1531
  443.0000    87.0277    11.9129    12.0858
  443.1000    86.9962    11.8698    12.0503
  443.2000    86.9646    11.8628    12.0359
  443.3000    86.9331    11.7875    11.9673
  443.4000    86.9015    11.7311    11.9677
  443.5000    86.8700    11.7058    11.9198
  443.6000    86.8384    11.6818    11.8853
  443.7000    86.8069    11.6247    11.8706
  443.8000    86.7365    11.6247    11.8035
  443.9000    86.4820    11.5679    11.7395
  444.0000    86.2586    11.5441    11.6746
  444.1000    86.1849    11.5193    11.6413
  444.2000    86.0836    11.4552    11.6263
  444.3000    85.8446    11.3846    11.5612
  444.4000    85.5881    11.3280    11.4979
  444.5000    85.3667    11.3057    11.4343
  444.6000    85.2909    11.2804    11.3710
  444.7000    85.2939    11.2273    11.3235
  444.8000    85.2970    11.2273    11.3238
  444.9000    85.3002    11.1704    11.2613
  445.0000    85.5252    11.1082    11.1525
  445.1000    85.6091    11.0464    11.0598
  445.2000    85.7123    10.9848    11.0140
  445.3000    85.9574    10.9192    11.0143
  445.4000    86.2245    10.8629    10.9531
  445.5000    86.4474    10.8024    10.8925
  445.6000    86.6925    10.7422    10.8322
  445.7000    87.0358    10.6824    10.7722
  445.8000    87.5228    10.6195    10.7126
  445.9000    88.0579    10.6195    10.6533
  446.0000    88.4969    10.5783    10.6396
  446.1000    88.6697    10.4931    10.6093
  446.2000    88.6727    10.4002    10.5506
  446.3000    88.6758    10.4002    10.4921
  446.4000    88.6791    10.3447    10.4341
  446.5000    88.4657    10.2871    10.4212
  446.6000    88.3818    10.2298    10.3910
  446.7000    88.4790    10.1728    10.3335
  446.8000    88.7571    10.1148    10.2779
  446.9000    89.3003    10.1148    10.2782
  447.0000    89.9454    10.1148    10.1894
  447.1000    90.5214    10.1148    10.1367
  447.2000    91.0085    10.1148    10.1369
  447.3000    91.4956    10.1148    10.1351
  447.4000    92.0428    10.1148    10.0790
  447.5000    92.6818    10.1148    10.0675
  447.6000    93.1087    10.1148    10.0677
  447.7000    93.4438    10.1293    10.0680
  447.8000    93.9018    10.1854    10.0683
  447.9000    94.1792    10.1854    10.0686
  448.0000    94.1818    10.2290    10.0689
  448.1000    94.3339    10.2863    10.0691
  448.2000    94.5790    10.3281    10.0694
  448.3000    94.7970    10.3281    10.0697
  448.4000    94.8004    10.3281    10.0700
  448.5000    94.5950    10.3733    10.0703
