~VERSION INFORMATION
 VERS.                2.0:   CWLS LOG ASCII STANDARD - VERSION 2.0
 WRAP.                 NO:   ONE LINE PER DEPTH STEP
~WELL INFORMATION
#MNEM.UNIT      DATA TYPE    INFORMATION
#----------   ------------   ------------------------------
 STRT.F           64.0000:   START DEPTH
 STOP.F          390.0000:   STOP DEPTH
 STEP.F            0.5000:   STEP LENGTH
 NULL.          -999.2500:   NO VALUE
 COMP. DEPARTMENT OF ENERGY:   COMPANY
 WELL. NPR-3 55-65-SX C-2 #55-3:   WELL
 FLD . TEAPOT NAVAL RESERVE:   FIELD
 LOC .       S3 T38N R78W:   LOCATION
 CNTY.            NATRONA:   COUNTY
 STAT.            WYOMING:   STATE
 CTRY. UNITED STATES OF AMERICA:   COUNTRY
 SRVC.      Dresser Atlas:   SERVICE COMPANY
 DATE.        29-JUN-1985:   LOGDATE
 API .       490251134500:   API NUMBER
~CURVE INFORMATION
#MNEM.UNIT       API CODE    CURVE DESCRIPTION
#----------   ------------   ------------------------------
 DEPT.F                  :   
 CALD.IN     45 280 60 00:   CALIPER FROM DENSITY LOG
 CNC .DEC    42 890 03 00:   NEUTRON POROSITY SANDSTONE
 CORR.G/C3   45 356 01 00:   DENSITY CORRECTION
 GRD .GAPI   45 310 01 00:   GAMMA RAY FROM DENSITY LOG
 PORD.DEC    45 890 12 00:   POROSITY DENSITY SANDSTONE
 RHOB.G/C3   45 350 01 00:   BULK DENSITY
 SPR .MV     07 010 01 00:   SPONTANEOUS POTENTIAL
 ILD .OHMM   06 120 46 00:   INDUCTION LOG DEEP
 ILM .OHMM   07 120 44 00:   INDUCTION LOG MEDIUM
~PARAMETER INFORMATION
#MNEM.UNIT          VALUE    DESCRIPTION
#----------   ------------   ------------------------------
 PD  .                 GL:   PERMANENT DATUM
 EPD .F              5168:   ELEVATION PERMANENT DATUM
 LMF .                 GL:   LOG MEASURED FROM
 DMF .                 GL:   DRILLING MEASURED FROM
 EGL .F              5168:   GROUND LEVEL
 DATE.        29-JUN-1985:   RUN DATE
 RUN .                  1:   RUN NUMBER
 DD  .F               394:   DEPTH DRILLER
 DL  .F               394:   DEPTH LOGGER
 BLI .F               386:   BOTTOM LOG INTERVAL
 CS  .IN                7:   CASING SIZE
 CBD .F                80:   CASING BOTTOM DRILLER
 CBL .F                82:   CASING BOTTOM LOGGER
 BS  .IN            4.875:   BIT SIZE
 BSD .F               394:   BIT SIZE AT DEPTH
 DFT .           FOAM AIR:   DRILLING FLUID TYPE
 TCS .HRS               5:   TIME CURCULATED STOPPED
 MRT .F               238:   MAXIMUM RECORDED TEMPERATURE
 LUN .               6274:   LOGGING UNIT NUMBER
 LUL .               GLTE:   LOGGING UNIT LOCATION
 ENGI.             RAUTIO:   RECORDING ENGINEER
 WITN.           JENNINGS:   WITNESSED BY
 CLNT.            A2DTECH:   CLIENT CODE
 ORIG.           5" PRINT:   ORIGIN OF DATA
 UWI .       490251134500:   UNIQUE WELL ID
 DICO. A2D Technologies, Inc.:   DIGITIZING COMPANY
~OTHER INFORMATION
~A   DEPT     CALD          CNC     CORR        GRD       PORD       RHOB        SPR        ILD        ILM   
# ...
  100.5000     6.4015     0.2493    -0.0428   146.9966     0.1536     2.3979   -84.5475     7.7664     6.8451
  101.0000     6.3798     0.2465    -0.0128   142.4859     0.1506     2.4001   -90.4916     7.7671     6.8375
  101.5000     6.3951     0.2416     0.0233   138.8788     0.1551     2.3956   -91.9970     7.7676     6.7525
  102.0000     6.4103     0.2385     0.0604   140.9639     0.1587     2.3888   -87.1594     7.6612     6.7067
  102.5000     6.4255     0.2402     0.0744   144.5783     0.1606     2.3865   -85.6561     7.5015     6.7079
  103.0000     6.4256     0.2465     0.0759   147.8916     0.1628     2.3842   -86.5575     7.3437     6.7088
  103.5000     6.4258     0.2507     0.0593   148.4940     0.1640     2.3775   -85.6495     7.1994     6.6631
  104.0000     6.4259     0.2520     0.0217   143.0723     0.1602     2.3797   -84.1383     7.1502     6.6179
  104.5000     6.4261     0.2486    -0.0009   140.3374     0.1551     2.3903   -84.4370     7.1014     6.5275
  105.0000     6.4262     0.2483    -0.0084   140.6626     0.1500     2.3978   -85.6407     7.1019     6.4386
  105.5000     6.4264     0.2493    -0.0114   139.7590     0.1466     2.4038   -87.1460     7.1024     6.3507
  106.0000     6.4265     0.2511    -0.0099   138.2530     0.1445     2.4083   -90.1597     7.0537     6.2640
  106.5000     6.4267     0.2514     0.0186   137.0482     0.1446     2.4114   -93.7766     7.0054     6.2143
  107.0000     6.4268     0.2523     0.0607   138.5542     0.1469     2.4097   -93.1703     6.9575     6.1366
  107.5000     6.4270     0.2565     0.0652   141.2651     0.1569     2.3948   -89.8491     6.9100     6.1377
  108.0000     6.4422     0.2589     0.0546   142.1687     0.1599     2.3887   -84.6535     6.9105     6.1385
  108.5000     6.4423     0.2574     0.0351   138.8193     0.1575     2.3902   -81.3545     6.9591     6.0967
  109.0000     6.4425     0.2541     0.0396   136.4458     0.1539     2.3962   -82.9014     6.9595     6.0977
  109.5000     6.4276     0.2529     0.0531   136.7470     0.1557     2.3993   -88.9316     6.9600     6.1410
  110.0000     6.4277     0.2557     0.0501   137.9518     0.1645     2.3797   -94.6602     7.0090     6.1418
  110.5000     6.4279     0.2592     0.0531   136.4458     0.1732     2.3638   -93.1489     7.0095     6.1427
  111.0000     6.4280     0.2599     0.0506   136.1446     0.1744     2.3631   -91.6377     7.0587     6.1435
  111.5000     6.4282     0.2590     0.0200   136.4458     0.1690     2.3708   -90.7298     7.0103     6.1414
  112.0000     6.4283     0.2559     0.0019   136.7470     0.1648     2.3796   -92.2351     6.8666     6.0119
  112.5000     6.4134     0.2538     0.0079   138.5542     0.1608     2.3864   -91.6288     6.6332     5.7740
  113.0000     6.4136     0.2535     0.0184   140.9639     0.1566     2.3924   -90.1176     6.4078     5.4629
  113.5000     6.3986     0.2553     0.0199   139.4578     0.1509     2.4022   -88.3027     6.1899     5.0270
  114.0000     6.3988     0.2598     0.0124   138.5542     0.1463     2.4112   -87.0387     5.9795     4.9239
  114.5000     6.3989     0.2674     0.0394   140.0602     0.1441     2.4105   -85.2278     5.8569     4.9591
  115.0000     6.3991     0.2735     0.0575   143.6747     0.1494     2.4021   -83.7702     5.7767     5.0291
  115.5000     6.3992     0.2795     0.0529   144.8795     0.1562     2.3841   -87.6888     5.6958     5.0648
  116.0000     6.4145     0.2823     0.0258   141.8675     0.1675     2.3637   -90.0999     5.6195     5.0655
  116.5000     6.4177     0.2801     0.0363   140.0602     0.1747     2.3517   -88.8895     5.6591     5.1014
  117.0000     6.4298     0.2756     0.0499   140.0602     0.1798     2.3509   -86.7750     5.6988     5.1398
  117.5000     6.4450     0.2729     0.0423   140.3615     0.1768     2.3690   -84.9621     5.7388     5.2102
  118.0000     6.4301     0.2720     0.0152   140.3615     0.1666     2.3901   -87.0707     5.7791     5.2111
  118.5000     6.4152     0.2723     0.0002   140.3615     0.1587     2.3984   -88.2745     5.7795     5.2118
  119.0000     6.4154     0.2744    -0.0058   141.2651     0.1518     2.3991   -87.9698     5.8201     5.2125
  119.5000     6.4005     0.2771    -0.0166   143.0723     0.1517     2.3889   -87.0478     5.8610     5.2132
  120.0000     6.4006     0.2784    -0.0194   142.4699     0.1591     2.3840   -85.5103     5.9021     5.2868
  120.5000     6.4008     0.2784    -0.0134   141.5663     0.1599     2.3878   -83.4353     5.9436     5.3614
  121.0000     6.4009     0.2790    -0.0089   142.4819     0.1581     2.3885   -81.9241     6.0270     5.4750
  121.5000     6.3860     0.2796    -0.0029   144.9277     0.1590     2.3863   -80.4128     6.0693     5.5909
  122.0000     6.3861     0.2802    -0.0074   146.0843     0.1605     2.3840   -81.6165     6.1544     5.6698
  122.5000     6.3863     0.2796     0.0106   145.4819     0.1593     2.3915   -86.1384     6.1976     5.7499
  123.0000     6.3865     0.2772     0.0151   145.4819     0.1530     2.4021   -88.2471     6.2413     5.7907
  123.5000     6.4015     0.2747    -0.0030   146.6868     0.1466     2.4105   -88.2441     6.2851     5.8320
  124.0000     6.4230     0.2723    -0.0135   150.0000     0.1424     2.4096   -87.3362     6.3732     5.8734
  124.5000     6.4321     0.2711     0.0181   153.0121     0.1449     2.4066   -85.8250     6.4626     5.9151
  125.0000     6.4322     0.2711     0.0376   155.7229     0.1478     2.4081   -81.9005     6.4631     5.9160
  125.5000     6.4324     0.2720     0.0451   157.2289     0.1460     2.4111   -79.1302     6.4635     5.8756
  126.0000     6.4325     0.2726     0.0391   147.5904     0.1451     2.4103   -77.6713     6.4193     5.7956
  126.5000     6.4176     0.2720     0.0360   143.0723     0.1466     2.4073   -81.5892     6.2877     5.6768
  127.0000     6.4178     0.2708     0.0405   141.8675     0.1482     2.4073   -83.9995     6.1587     5.5994
  127.5000     6.4179     0.2696     0.0420   143.9759     0.1478     2.4106   -85.2032     6.0743     5.5230
  128.0000     6.4331     0.2724     0.0044   148.7952     0.1430     2.4253   -84.8986     6.0747     5.5238
  128.5000     6.4333     0.2742    -0.0001   151.2048     0.1346     2.4321   -82.7840     6.0332     5.5245
  129.0000     6.4335     0.2760     0.0360   150.9036     0.1340     2.4261   -79.7645     6.0336     5.5255
  129.5000     6.4336     0.2772     0.0675   149.6747     0.1369     2.4163   -78.5549     6.0341     5.5647
  130.0000     6.4338     0.2741     0.0585   148.4940     0.1421     2.4080   -79.4569     6.0345     5.5268
  130.5000     6.4339     0.2693     0.0570   148.4940     0.1472     2.4020   -82.1689     6.0349     5.5277
  131.0000     6.4340     0.2675     0.0720   148.4940     0.1518     2.3982   -83.3726     6.0354     5.5285
  131.5000     6.4342     0.2666     0.0780   150.0000     0.1566     2.3936   -83.0297     6.0358     5.5292
  132.0000     6.4193     0.2675     0.0690   155.1205     0.1605     2.3914   -82.7634     6.0782     5.5300
  132.5000     6.4194     0.2681     0.0477   157.8313     0.1629     2.3899   -83.6654     6.0365     5.5307
  133.0000     6.4196     0.2678     0.0262   153.6145     0.1642     2.3823   -82.7567     6.0370     5.5315
  133.5000     6.4198     0.2672     0.0058   149.6988     0.1641     2.3778   -80.9438     5.9543     5.4928
  134.0000     6.4199     0.2636    -0.0093   149.7470     0.1619     2.3831   -79.1309     5.9547     5.4145
  134.5000     6.4200     0.2615     0.0027   150.6024     0.1614     2.3853   -77.3180     5.9140     5.3451
  135.0000     6.4202     0.2639     0.0147   140.3615     0.1623     2.3830   -77.9184     5.9144     5.3459
  135.5000     6.4203     0.2651     0.0072   137.6506     0.1608     2.3839   -81.8370     5.9103     5.3466
  136.0000     6.4205     0.2654    -0.0199   139.4578     0.1587     2.3913   -86.0573     5.8743     5.2736
  136.5000     6.4206     0.2658    -0.0244   146.9879     0.1569     2.3928   -85.4510     5.8748     5.2014
