~VERSION INFORMATION
 VERS.                2.0:   CWLS LOG ASCII STANDARD - VERSION 2.0
 WRAP.                 NO:   ONE LINE PER DEPTH STEP
~WELL INFORMATION
#MNEM.UNIT      DATA TYPE    INFORMATION
#----------   ------------   ------------------------------
 STRT.F           48.0000:   START DEPTH
 STOP.F          524.0000:   STOP DEPTH
 STEP.F            0.5000:   STEP LENGTH
 NULL.          -999.2500:   NO VALUE
 COMP. LAWRENCE/ALLISON INC:   COMPANY
 WELL.      41-66 SX #3-3:   WELL
 FLD .             TEAPOT:   FIELD
 LOC .       S3 T38N R78W:   LOCATION
 CNTY.            NATRONA:   COUNTY
 STAT.            WYOMING:   STATE
 CTRY. UNITED STATES OF AMERICA:   COUNTRY
 SRVC.              Welex:   SERVICE COMPANY
 DATE.        22-AUG-1987:   LOGDATE
 API .       490251116200:   API NUMBER
~CURVE INFORMATION
#MNEM.UNIT       API CODE    CURVE DESCRIPTION
#----------   ------------   ------------------------------
 DEPT.F                  :   
 GRR .GAPI   07 310 01 00:   GAMMA RAY
 ILD .OHMM   07 120 46 00:   INDUCTION LOG DEEP
 ILM .OHMM   07 120 44 00:   INDUCTION LOG MEDIUM
~PARAMETER INFORMATION
#MNEM.UNIT          VALUE    DESCRIPTION
#----------   ------------   ------------------------------
 PD  .                 GL:   PERMANENT DATUM
 EPD .F              5123:   ELEVATION PERMANENT DATUM
 LMF .                 KB:   LOG MEASURED FROM
 DAPD.F                 8:   FEET ABOVE PERMANENT DATUM
 DMF .                 KB:   DRILLING MEASURED FROM
 EKB .F              5131:   KELLING BUSHING
 EDF .F              5130:   DRILLING FLOOR
 EGL .F              5123:   GROUND LEVEL
 DATE.        22-AUG-1987:   RUN DATE
 RUN .                  1:   RUN NUMBER
 DD  .F               542:   DEPTH DRILLER
 DL  .F               542:   DEPTH LOGGER
 BLI .F               524:   BOTTOM LOG INTERVAL
 TLI .F                47:   TOP LOG INTERVAL
 CBL .F                48:   CASING BOTTOM LOGGER
 BS  .IN            7.875:   BIT SIZE
 BSD .F               542:   BIT SIZE AT DEPTH
 DFT .                AIR:   DRILLING FLUID TYPE
 TLAB.HRS            0500:   TIME LOGGER AT BOTTOM
 MRT .F                85:   MAXIMUM RECORDED TEMPERATURE
 LUN .              51169:   LOGGING UNIT NUMBER
 LUL .           GILLETTE:   LOGGING UNIT LOCATION
 ENGI.             K.BUNL:   RECORDING ENGINEER
 WITN.             STRONG:   WITNESSED BY
 CLNT.            A2DTECH:   CLIENT CODE
 ORIG.           5" PRINT:   ORIGIN OF DATA
 UWI .       490251116200:   UNIQUE WELL ID
 DICO. A2D Technologies, Inc.:   DIGITIZING COMPANY
~OTHER INFORMATION
~A   DEPT      GRR          ILD       ILM  
# ...
  321.0000   137.6917     7.0100     7.1047
  321.5000   137.7130     7.0571     7.1974
  322.0000   137.1294     7.0548     7.2462
  322.5000   130.8444     7.0579     7.2953
  323.0000   135.9665     7.1057     7.4465
  323.5000   132.9805     7.2458     7.5488
  324.0000   132.6967     7.3448     7.5475
  324.5000   135.1171     7.3932     7.4947
  325.0000   132.7356     7.3913     7.3405
  325.5000   129.1447     7.3889     7.2891
  326.0000   133.0699     7.3362     7.3891
  326.5000   136.7107     7.2839     7.4394
  327.0000   138.8139     7.2820     7.3364
  327.5000   139.4316     7.2801     7.2351
  328.0000   140.9501     7.3286     7.1844
  328.5000   144.2704     7.3773     7.1833
  329.0000   140.3878     7.4263     7.2320
  329.5000   137.0973     7.4752     7.2810
  330.0000   140.7221     7.4215     7.2801
  330.5000   142.5410     7.3180     7.3292
  331.0000   138.6541     7.3161     7.3283
  331.5000   144.3811     7.1154     7.1774
  332.0000   142.2960     6.8689     6.9814
  332.5000   138.7052     6.5923     6.7869
  333.0000   139.6276     6.3237     6.4256
  333.5000   140.2492     6.1080     6.0803
  334.0000   140.5666     5.8997     6.0378
  334.5000   138.7818     5.9389     6.0370
  335.0000   136.0961     5.8962     6.0779
  335.5000   136.4177     5.8140     6.0352
  336.0000   137.0353     5.7726     5.9518
  336.5000   140.3556     5.7291     5.8696
  337.0000   139.1715     5.5739     5.7475
  337.5000   135.5891     5.4584     5.5533
  338.0000   133.8044     5.4195     5.3277
  338.5000   124.5121     5.3809     5.1467
  339.0000   125.7303     5.2691     5.1107
  339.5000   129.7117     5.2316     5.1851
  340.0000   132.0749     5.3028     5.2519
  340.5000   135.9958     5.4872     5.3979
  341.0000   140.5174     5.8802     5.8221
  341.5000   137.7918     6.4699     6.1089
  342.0000   131.5467     6.7877     6.5435
  342.5000   125.2574     6.8662     7.0093
  343.0000   121.6708     6.6785     6.5606
  343.5000   118.6848     6.5408     6.4687
  344.0000   121.7091     6.3186     6.3343
  344.5000   125.0294     6.1038     6.1911
  345.0000   131.0525     5.8157     5.9083
  345.5000   136.4749     5.4977     5.6283
  346.0000   147.6036     5.2432     5.2883
  346.5000   146.7234     5.2066     4.8969
  347.0000   143.7374     5.2059     4.6681
  347.5000   142.5490     5.2860     4.6666
  348.0000   143.4712     5.5755     4.9635
  348.5000   139.5843     5.8101     5.3525
  349.0000   139.9059     6.0545     5.6146
  349.5000   139.3223     6.2697     5.9718
  350.0000   131.8318     6.4843     6.3517
  350.5000   126.1474     6.6646     6.6633
  351.0000   127.0653     6.8029     6.8946
  351.5000   127.9833     6.9921     7.0357
  352.0000   128.9012     7.1369     7.1802
  352.5000   128.6222     7.3354     7.2781
  353.0000   124.4350     7.4364     7.3760
  353.5000   120.5481     7.4866     7.4246
  354.0000   117.5621     7.4854     7.4216
  354.5000   122.7447     7.4844     7.5221
  355.0000   126.9097     7.6399     7.5196
  355.5000   133.5334     7.7447     7.6209
  356.0000   136.8537     7.7969     7.7781
  356.5000   134.1581     7.7424     7.7749
  357.0000   131.1863     7.7414     7.7724
  357.5000   126.9991     7.6873     7.7164
  358.0000   127.6168     7.5808     7.4522
  358.5000   130.0362     7.5799     7.3987
  359.0000   134.8623     7.5789     7.3962
  359.5000   136.9771     7.6303     7.3431
  360.0000   132.1936     7.7351     7.4425
  360.5000   127.0751     7.8954     7.5433
  361.0000   126.0621     8.0039     7.8591
  361.5000   116.6333     8.0582     8.0754
  362.0000   112.4462     7.4424     7.4319
  362.5000   110.3611     7.0920     7.2276
  363.0000   110.9990     6.4845     6.6514
  363.5000   112.2012     5.7283     6.0380
  364.0000   114.6206     5.2738     6.0360
  364.5000   127.5505     5.0602     6.0341
  365.0000   143.1832     5.0255     6.0316
  365.5000   144.7060     5.3469     6.0714
  366.0000   143.5218     6.1792     6.5022
  366.5000   139.0343     6.9950     7.2125
  367.0000   125.8381     7.6574     7.8257
  367.5000   119.2485     8.6602     8.9788
  368.0000   120.7713     9.5371     9.1641
  368.5000   120.1835     9.6030     9.2237
  369.0000   125.3099     9.6030     9.2200
  369.5000   122.4745     9.6030     9.2170
  370.0000   118.4413     9.6030     9.1508
  370.5000   116.9568     9.6030     9.1477
  371.0000   115.4723     9.6694     9.1441
  371.5000   113.6777    10.0082     9.5269
  372.0000   111.6067    10.7961    10.7071
  372.5000    91.3981    12.4765    13.0695
  373.0000    88.1032    13.8347    14.2893
  373.5000    79.7033    15.1308    15.6230
  374.0000    73.7057    17.0107    18.1737
  374.5000    71.6121    20.0876    19.5965
  375.0000    70.4215    21.5003    20.5579
  375.5000    70.4299    22.1009    21.5666
  376.0000    74.9754    23.0336    22.6331
  376.5000    80.6592    23.2142    24.0621
  377.0000    81.8689    23.3531    25.2427
  377.5000    80.9764    23.3531    26.1189
  378.0000    75.5555    22.5624    26.1103
  378.5000    71.6862    22.2537    25.3905
  379.0000    70.1910    22.2537    24.0213
  379.5000    75.0064    22.1009    23.0413
  380.0000    81.3815    21.9492    22.0606
  380.5000    84.0345    20.2077    20.6216
  381.0000    83.7426    19.9312    20.0546
  381.5000    82.5499    19.9312    19.9105
  382.0000    81.6296    19.9312    19.9025
  382.5000    84.0704    19.9312    19.7595
  383.0000    90.9858    19.9312    19.6175
  383.5000    90.3937    19.9312    19.6111
  384.0000    88.4925    20.2077    20.1509
  384.5000    84.1064    20.6297    20.7072
  385.0000    80.8116    21.7985    21.5740
  385.5000    81.7209    23.3531    22.6419
  386.0000    82.9309    23.6771    23.9052
  386.5000    82.0403    24.1715    25.0781
  387.0000    80.2470    24.3386    25.7725
  387.5000    84.7599    24.6762    25.7619
  388.0000    89.5753    24.8468    25.7517
  388.5000    88.6808    24.5068    25.3911
  389.0000    89.2920    23.6771    23.8570
  389.5000    92.6037    22.7080    22.6837
  390.0000    90.8125    21.7985    21.7975
  390.5000    85.4156    21.3527    21.1982
  391.0000    84.5210    20.9159    20.4738
  391.5000    83.9310    20.7533    20.3251
  392.0000    80.6383    20.6297    20.3185
  392.5000    78.2443    20.6297    20.5954
  393.0000    80.0546    20.6297    20.5871
  393.5000    83.0661    20.6297    20.2972
  394.0000    86.0797    20.6297    20.0130
  394.5000    87.5896    20.2077    19.8692
  395.0000    88.7993    20.0690    19.4476
  395.5000    89.1151    18.9929    18.5330
  396.0000    88.5180    17.4860    18.1481
  396.5000    86.4223    17.1283    17.5280
  397.0000    87.6341    17.1283    17.4019
  397.5000    86.4265    16.7780    17.1570
  398.0000    87.0525    16.4348    16.6853
  398.5000    89.1610    16.8940    17.1460
  399.0000    87.0673    16.8940    17.3781
  399.5000    89.5987    17.1915    17.2518
  400.0000    86.2309    17.1892    16.7789
  400.5000    86.8498    17.1869    17.0049
  401.0000    85.0735    17.1846    16.9979
  401.5000    84.1507    17.1823    16.9924
  402.0000    84.8144    17.0617    16.8703
  402.5000    84.8393    16.8262    16.6341
  403.0000    84.8594    16.5939    16.1755
  403.5000    84.2807    16.3649    15.9490
  404.0000    81.9056    16.3627    15.8344
  404.5000    79.5305    16.3605    15.5054
  405.0000    78.9518    16.2456    15.0780
  405.5000    80.1745    16.1320    15.0731
  406.0000    82.2904    16.0193    15.1724
  406.5000    85.2994    15.7981    15.0632
  407.0000    84.4213    15.5801    14.8512
  407.5000    85.3446    15.2591    14.5428
  408.0000    85.9641    14.9453    14.2407
  408.5000    85.9886    14.7390    14.1243
  409.0000    85.1105    14.5355    13.5604
  409.5000    84.8312    14.3349    13.4630
  410.0000    83.6537    14.2347    13.3662
  410.5000    80.9792    14.1189    13.2691
  411.0000    79.5023    13.8439    13.1738
  411.5000    83.7190    13.6528    12.9893
