~VERSION INFORMATION
 VERS.                2.0:   CWLS LOG ASCII STANDARD - VERSION 2.0
 WRAP.                 NO:   ONE LINE PER DEPTH STEP
~WELL INFORMATION
#MNEM.UNIT      DATA TYPE    INFORMATION
#----------   ------------   ------------------------------
 STRT.F           31.0000:   START DEPTH
 STOP.F          662.0000:   STOP DEPTH
 STEP.F            0.5000:   STEP LENGTH
 NULL.          -999.2500:   NO VALUE
 COMP. FENIX & SCISSON INC:   COMPANY
 WELL.   NPR-3 #83SX15-15:   WELL
 FLD .             TEAPOT:   FIELD
 LOC .      S15 T38N R78W:   LOCATION
 CNTY.            NATRONA:   COUNTY
 STAT.            WYOMING:   STATE
 CTRY. UNITED STATES OF AMERICA:   COUNTRY
 SRVC.            Unknown:   SERVICE COMPANY
 DATE.        17-MAY-1978:   LOGDATE
 API .       490251062500:   API NUMBER
~CURVE INFORMATION
#MNEM.UNIT       API CODE    CURVE DESCRIPTION
#----------   ------------   ------------------------------
 DEPT.F                  :   
 SN  .OHMM   07 040 16 00:   SHORT NORMAL 16'
 ILD .OHMM   07 120 46 00:   INDUCTION LOG DEEP
 CALD.IN     45 280 60 00:   CALIPER
 GRD .GAPI   45 310 01 00:   GAMMA RAY FROM DENSITY LOG
 RHOB.G/C3   45 350 01 00:   BULK DENSITY
 DPHI.DEC    45 890 10 00:   DENSITY POROSITY SANDSTONE
 CORR.G/C3   45 356 01 00:   DENSITY CORRECTION
~PARAMETER INFORMATION
#MNEM.UNIT          VALUE    DESCRIPTION
#----------   ------------   ------------------------------
 PD  .                 GL:   PERMANENT DATUM
 EPD .F              5265:   ELEVATION PERMANENT DATUM
 LMF .                 KB:   LOG MEASURED FROM
 DMF .                 KB:   DRILLING MEASURED FROM
 EKB .F              5269:   KELLING BUSHING
 EGL .F              5265:   GROUND LEVEL
 DATE.          5-17-1978:   RUN DATE
 RUN .                  1:   RUN NUMBER
 DD  .F               670:   DEPTH DRILLER
 DL  .F               668:   DEPTH LOGGER
 BLI .F               662:   BOTTOM LOG INTERVAL
 TLI .F                40:   TOP LOG INTERVAL
 CS  .IN            8.625:   CASING SIZE
 CBD .F                40:   CASING BOTTOM DRILLER
 BS  .IN            7.875:   BIT SIZE
 BSD .F               670:   BIT SIZE AT DEPTH
 DFT .                KCL:   DRILLING FLUID TYPE
 DFD .                8.6:   DRILLING FLUID DENSITY
 DFV .                 31:   DRILLING FLUID VISCOSITY
 DFPH.                 10:   DRILLING FLUID PH
 BHT .F                75:   BOTTOM HOLE TEMPERATURE
 TCS .HRS               2:   TIME CURCULATED STOPPED
 MRT .F                75:   MAXIMUM RECORDED TEMPERATURE
 LUN .               3006:   LOGGING UNIT NUMBER
 LUL .                CPR:   LOGGING UNIT LOCATION
 ENGI.             MILLER:   RECORDING ENGINEER
 WITN.           MCGINLEY:   WITNESSED BY
 CLNT.            A2DTECH:   CLIENT CODE
 ORIG.      2" & 5" PRINT:   ORIGIN OF DATA
 UWI .       490251062500:   UNIQUE WELL ID
 DICO. A2D Technologies, Inc.:   DIGITIZING COMPANY
~OTHER INFORMATION
~A   DEPT       SN        ILD       CALD         GRD      RHOB       DPHI       CORR   
# ...
  440.5000     5.2431     4.4764     7.5703    81.7204     2.4791     0.1234     0.0350
  441.0000     5.3593     4.5977     7.5739    83.1895     2.4797     0.1222     0.0351
  441.5000     5.4778     4.7625     7.5774    83.9311     2.4822     0.1210     0.0397
  442.0000     5.5989     4.9337     7.5743    80.5824     2.4903     0.1155     0.0443
  442.5000     5.7226     5.1110     7.5592    78.9111     2.5024     0.1102     0.0450
  443.0000     5.8491     5.2946     7.5443    79.9248     2.5062     0.1049     0.0450
  443.5000     5.9784     5.4847     7.5293    80.2535     2.5088     0.1049     0.0450
  444.0000     6.1106     5.6818     7.5143    80.2009     2.5090     0.1036     0.0450
  444.5000     6.2378     5.8483     7.4994    80.1441     2.5071     0.1025     0.0443
  445.0000     6.2912     5.9024     7.4838    80.3226     2.4999     0.1086     0.0379
  445.5000     6.2461     5.9570     7.4816    81.2849     2.4927     0.1148     0.0345
  446.0000     6.2014     5.9570     7.4942    81.8753     2.4855     0.1179     0.0335
  446.5000     6.1570     5.9570     7.5070    82.3021     2.4795     0.1212     0.0325
  447.0000     6.1129     5.9570     7.5197    81.4191     2.4756     0.1232     0.0315
  447.5000     6.0692     5.9571     7.5323    78.9777     2.4717     0.1256     0.0305
  448.0000     6.0257     5.9578     7.5367    77.3035     2.4679     0.1275     0.0295
  448.5000     5.9826     5.9563     7.5287    78.5753     2.4649     0.1277     0.0289
  449.0000     5.9199     5.8555     7.5210    80.4697     2.4650     0.1291     0.0287
  449.5000     5.8291     5.7293     7.5207    80.6714     2.4650     0.1326     0.0285
  450.0000     5.7396     5.6058     7.5242    81.4025     2.4650     0.1288     0.0283
  450.5000     5.6515     5.4850     7.5276    82.0738     2.4649     0.1279     0.0280
  451.0000     5.5648     5.3667     7.5310    81.6667     2.4583     0.1346     0.0278
  451.5000     5.4804     5.2510     7.5344    81.2561     2.4511     0.1394     0.0276
  452.0000     5.3546     5.0946     7.5377    81.6394     2.4430     0.1442     0.0273
  452.5000     5.1871     4.8919     7.5392    83.7780     2.4311     0.1507     0.0271
  453.0000     5.0235     4.6972     7.5374    85.6490     2.4193     0.1585     0.0295
  453.5000     4.8653     4.5100     7.5356    86.4015     2.4091     0.1658     0.0442
  454.0000     4.7121     4.3304     7.5338    86.1204     2.4281     0.1513     0.0588
  454.5000     4.6029     4.2359     7.5320    85.8343     2.4607     0.1278     0.0582
  455.0000     4.6455     4.3144     7.5302    84.8293     2.4777     0.1173     0.0545
  455.5000     4.7752     4.4040     7.5284    82.8934     2.4949     0.1066     0.0508
  456.0000     5.0252     4.5258     7.5266    81.8863     2.4955     0.1110     0.0459
  456.5000     5.2888     4.7809     7.5248    82.5138     2.4921     0.1130     0.0395
  457.0000     5.5662     5.0503     7.5230    84.1915     2.4888     0.1187     0.0333
  457.5000     5.8584     5.3352     7.5213    85.9256     2.4855     0.1198     0.0287
  458.0000     6.1641     5.6359     7.5195    86.7629     2.4838     0.1187     0.0281
  458.5000     6.3547     5.9536     7.5177    86.8777     2.4833     0.1192     0.0274
  459.0000     6.4524     6.1806     7.5159    86.0675     2.4832     0.1210     0.0267
  459.5000     6.5530     6.2410     7.5141    85.7832     2.4839     0.1191     0.0260
  460.0000     6.6553     6.2368     7.5123    85.6245     2.4846     0.1193     0.0253
  460.5000     6.7590     6.2176     7.5105    85.5688     2.4852     0.1202     0.0246
  461.0000     6.9029     6.1996     7.5087    87.2690     2.4859     0.1166     0.0239
  461.5000     6.8923     6.1817     7.5069    88.9814     2.4861     0.1154     0.0232
  462.0000     6.8758     6.1640     7.5051    89.5029     2.4810     0.1225     0.0225
  462.5000     6.8593     6.1462     7.5033    87.2622     2.4769     0.1260     0.0217
  463.0000     6.8429     6.1286     7.5016    85.6303     2.4784     0.1190     0.0211
  463.5000     6.8265     6.1109     7.4996    86.9202     2.4805     0.1202     0.0226
  464.0000     6.8101     6.0934     7.4971    88.5947     2.4794     0.1222     0.0245
  464.5000     6.7938     6.0760     7.4945    89.7230     2.4784     0.1225     0.0263
  465.0000     6.7775     6.0677     7.4919    88.7700     2.4798     0.1224     0.0281
  465.5000     6.7613     6.0996     7.4893    87.1620     2.4812     0.1222     0.0299
  466.0000     6.7451     6.1234     7.4867    85.5514     2.4837     0.1205     0.0317
  466.5000     6.7289     6.1473     7.4841    84.2734     2.4881     0.1162     0.0336
  467.0000     6.7128     6.1712     7.4815    85.5546     2.4925     0.1154     0.0354
  467.5000     6.6967     6.1953     7.4789    87.9727     2.4940     0.1150     0.0372
  468.0000     6.6806     6.2194     7.4763    90.3848     2.4959     0.1142     0.0390
  468.5000     6.6646     6.2378     7.4737    92.2879     2.4999     0.1080     0.0409
  469.0000     6.6363     6.1994     7.4711    91.7703     2.5009     0.1067     0.0388
  469.5000     6.5771     6.1687     7.4685    87.8720     2.4942     0.1125     0.0362
  470.0000     6.5184     6.1382     7.4659    83.9792     2.4890     0.1134     0.0337
  470.5000     6.4603     6.1077     7.4633    81.7324     2.4873     0.1162     0.0309
  471.0000     6.4027     6.0775     7.4605    84.2194     2.4829     0.1219     0.0233
  471.5000     6.3456     6.0234     7.4654    86.7165     2.4728     0.1269     0.0230
  472.0000     6.2890     5.9585     7.4721    87.0461     2.4720     0.1287     0.0236
  472.5000     6.2330     5.8943     7.4790    87.2486     2.4719     0.1304     0.0253
  473.0000     6.1774     5.8307     7.4824    87.4092     2.4722     0.1292     0.0269
  473.5000     6.1223     5.7679     7.4860    89.3645     2.4770     0.1239     0.0286
  474.0000     6.0677     5.7057     7.4896    92.2072     2.4815     0.1190     0.0302
  474.5000     6.0136     5.5871     7.4932    93.6233     2.4806     0.1226     0.0318
  475.0000     5.9600     5.4502     7.4968    91.9151     2.4829     0.1204     0.0340
  475.5000     5.9068     5.3165     7.4996    90.2407     2.4887     0.1184     0.0383
  476.0000     5.8483     5.1862     7.4949    88.5738     2.4890     0.1193     0.0423
  476.5000     5.8719     5.0591     7.4903    86.8750     2.4896     0.1159     0.0463
  477.0000     5.8985     4.9548     7.4857    85.9212     2.4973     0.1087     0.0475
  477.5000     5.9253     4.9548     7.4811    85.0347     2.5072     0.1014     0.0430
  478.0000     5.9522     4.9546     7.4765    81.6720     2.5086     0.1014     0.0385
  478.5000     5.9792     4.9544     7.4719    78.5308     2.4953     0.1169     0.0349
  479.0000     6.0063     4.9998     7.4673    78.2617     2.4881     0.1174     0.0347
  479.5000     6.0336     5.1424     7.4627    81.3637     2.4887     0.1158     0.0345
  480.0000     6.0609     5.2892     7.4581    84.8048     2.4893     0.1144     0.0343
  480.5000     6.0884     5.4404     7.4535    86.3313     2.4898     0.1114     0.0341
  481.0000     6.1239     5.5955     7.4489    87.4695     2.4857     0.1173     0.0339
  481.5000     6.0121     5.7551     7.4443    88.5650     2.4770     0.1239     0.0337
  482.0000     6.0121     5.8483     7.4397    88.8186     2.4703     0.1248     0.0334
  482.5000     6.0121     5.8483     7.4351    87.9309     2.4686     0.1258     0.0332
  483.0000     5.8825     5.5052     7.4305    87.0419     2.4668     0.1267     0.0330
  483.5000     5.7312     5.1356     7.4259    85.9856     2.4596     0.1339     0.0337
  484.0000     5.5839     4.7855     7.4213    84.1279     2.4483     0.1429     0.0344
  484.5000     5.4403     4.5152     7.4167    81.8316     2.4368     0.1506     0.0371
  485.0000     5.3004     4.5129     7.4121    83.8551     2.4347     0.1453     0.0484
  485.5000     5.1646     4.5038     7.4075    85.8607     2.4526     0.1366     0.0511
