~VERSION INFORMATION
 VERS.                2.0:   CWLS LOG ASCII STANDARD - VERSION 2.0
 WRAP.                 NO:   ONE LINE PER DEPTH STEP
~WELL INFORMATION
#MNEM.UNIT      DATA TYPE    INFORMATION
#----------   ------------   ------------------------------
 STRT.F            8.0000:   START DEPTH
 STOP.F          614.0000:   STOP DEPTH
 STEP.F            0.5000:   STEP LENGTH
 NULL.          -999.2500:   NO VALUE
 COMP. FENIX & SCISSON INC:   COMPANY
 WELL.       SX 10 #34-10:   WELL
 FLD .             TEAPOT:   FIELD
 LOC .      S10 T38N R78W:   LOCATION
 CNTY.            NATRONA:   COUNTY
 STAT.            WYOMING:   STATE
 CTRY. UNITED STATES OF AMERICA:   COUNTRY
 SRVC.            Unknown:   SERVICE COMPANY
 DATE.        29-JUN-1992:   LOGDATE
 API .       490251065800:   API NUMBER
~CURVE INFORMATION
#MNEM.UNIT       API CODE    CURVE DESCRIPTION
#----------   ------------   ------------------------------
 DEPT.F                  :   
 SPR .MV     05 010 01 00:   SPONTANEOUS POTENTIAL
 ILD .OHMM   05 120 46 00:   INDUCTION LOG DEEP
 SN  .OHMM   05 040 16 00:   SHORT NORMAL 16"
 GR  .GAPI   30 310 01 00:   GAMMA RAY
~PARAMETER INFORMATION
#MNEM.UNIT          VALUE    DESCRIPTION
#----------   ------------   ------------------------------
 PD  .                 GL:   PERMANENT DATUM
 EPD .F              5244:   ELEVATION PERMANENT DATUM
 LMF .                 KB:   LOG MEASURED FROM
 DMF .                 KB:   DRILLING MEASURED FROM
 EKB .F              5246:   KELLING BUSHING
 EGL .F              5244:   GROUND LEVEL
 DATE.        29-JUN-1992:   RUN DATE
 RUN .                  1:   RUN NUMBER
 DD  .F               620:   DEPTH DRILLER
 DL  .F               381:   DEPTH LOGGER
 BLI .F               381:   BOTTOM LOG INTERVAL
 TLI .F                 8:   TOP LOG INTERVAL
 BS  .IN            7.875:   BIT SIZE
 BSD .F               620:   BIT SIZE AT DEPTH
 DFT .                KCL:   DRILLING FLUID TYPE
 LUN .                509:   LOGGING UNIT NUMBER
 LUL .           GILLETTE:   LOGGING UNIT LOCATION
 ENGI.          O. METORF:   RECORDING ENGINEER
 WITN.         JEFF CLARK:   WITNESSED BY
 CLNT.            A2DTECH:   CLIENT CODE
 ORIG.           5" PRINT:   ORIGIN OF DATA
 UWI .       490251065800:   UNIQUE WELL ID
 DICO. A2D Technologies, Inc.:   DIGITIZING COMPANY
~OTHER INFORMATION
~A    DEPT     SPR        ILD         SN          GR  
# ...
  373.0000   -55.4032     5.1124     6.8082   117.8411
  373.5000   -55.4018     5.0068     6.7143   119.6402
  374.0000   -55.4004     4.6720     6.5761   121.7391
  374.5000   -55.3989     4.4506     6.5304   125.9370
  375.0000   -55.3973     4.4194     6.4850   121.7391
  375.5000   -55.3957     4.3582     6.3515   120.5397
  376.0000   -55.5442     4.3878     6.1779   122.0390
  376.5000   -55.5427     4.4176     6.0508   123.8381
  377.0000   -55.5413     4.3865     6.0087   125.9370
  377.5000   -55.3899     4.3859     6.0500   127.1364
  378.0000   -55.3883     4.4157     6.1976   127.4843
  378.5000   -55.2368     4.4458     6.3488   127.7361
  379.0000   -55.2353     4.5697     6.5263   120.2399
  379.5000   -55.3838     4.8960     6.7553   118.7406
  380.0000   -55.5323     5.1202     6.8488   122.6387
  380.5000   -55.5308     5.2810     6.8012   125.0375
  381.0000   -55.6791     5.4283     6.7538   122.5969
  381.5000   -55.6775     5.5413     6.7534   120.5397
  382.0000   -55.6761     5.2789     6.7529   121.1394
  382.5000   -55.6746     4.9943     6.7060   116.3418
  383.0000   -55.6732     4.7579     6.5227   116.0420
  383.5000   -55.6718     4.4397     6.3445   116.0420
  384.0000   -55.6702     4.2441     6.0865   117.5412
  384.5000   -55.6685     4.2288     5.8388   120.8792
  385.0000   -55.5172     4.2282     5.6793   121.1394
  385.5000   -55.5157     4.1986     5.6398   121.7391
  386.0000   -55.3643     4.1691     5.6785   125.4413
  386.5000   -54.9131     4.1398     5.7571  -999.2500
  387.0000   -54.1619     4.1392     5.8369  -999.2500
  387.5000   -54.0854     4.2108     6.0417  -999.2500
  388.0000   -54.0089     4.6218     6.3405  -999.2500
  388.5000   -53.8575     5.0554     6.4729  -999.2500
  389.0000   -53.6562     5.3053     6.6080  -999.2500
  389.5000   -53.1800     5.4532     6.7460  -999.2500
  390.0000   -52.9534     5.5667     6.8394  -999.2500
  390.5000   -52.5022     5.6045     7.0549  -999.2500
  391.0000   -52.3508     5.6816     7.2270  -999.2500
  391.5000   -52.1995     5.8400     7.3271  -999.2500
  392.0000   -51.8982     5.8797     7.4800  -999.2500
  392.5000   -52.0465     5.8790     7.6891  -999.2500
  393.0000   -52.1948     5.8782     7.6886  -999.2500
  393.5000   -52.3433     5.8773     7.7414  -999.2500
  394.0000   -52.3418     5.8764     7.7408  -999.2500
  394.5000   -52.4903     5.9164     7.7939  -999.2500
  395.0000   -52.7887     5.9566     7.8475  -999.2500
  395.5000   -52.9370     5.9971     7.8469  -999.2500
  396.0000   -52.9354     5.9963     7.8464  -999.2500
  396.5000   -52.9340     5.9954     7.8458  -999.2500
  397.0000   -52.9325     5.9945     7.8452  -999.2500
  397.5000   -53.0810     6.0353     7.8991  -999.2500
  398.0000   -53.0796     5.9929     7.8986  -999.2500
  398.5000   -53.0779     5.9921     7.8981  -999.2500
  399.0000   -53.2263     6.0329     7.8432  -999.2500
  399.5000   -53.2248     6.0320     7.8426  -999.2500
  400.0000   -53.2234     6.1321     7.8000  -999.2500
  400.5000   -53.2219     6.2422     7.8597  -999.2500
  401.0000   -53.2203     6.5961     7.8410  -999.2500
  401.5000   -53.2190     6.8744     7.8405  -999.2500
  402.0000   -53.3673     6.4146     7.8398  -999.2500
  402.5000   -53.3659     5.7823     7.6256  -999.2500
  403.0000   -53.2143     5.3955     7.3154  -999.2500
  403.5000   -52.6131     4.8137     7.0179  -999.2500
  404.0000   -52.6116     4.6014     6.1967  -999.2500
  404.5000   -52.3103     4.6971     5.7826  -999.2500
  405.0000   -52.1590     4.6965     5.8223  -999.2500
  405.5000   -52.1575     4.6958     6.0684  -999.2500
  406.0000   -52.0061     4.6629     6.1523  -999.2500
  406.5000   -51.6297     4.6946     6.2808  -999.2500
  407.0000   -51.5532     4.9607     7.3114  -999.2500
  407.5000   -51.5516     6.0404     7.8882  -999.2500
  408.0000   -51.5501     6.8147     8.5105  -999.2500
  408.5000   -51.5487     7.5579     8.8091  -999.2500
  409.0000   -51.5472     7.9314     8.9930  -999.2500
  409.5000   -50.7961     7.5559     9.1175  -999.2500
  410.0000   -50.1950     7.1982     9.2119  -999.2500
  410.5000   -49.8937     7.1476     9.3071  -999.2500
  411.0000   -49.7421     7.2964     9.5673  -999.2500
  411.5000   -49.5907     7.5257     9.8347  -999.2500
  412.0000   -48.9894     7.8160    10.2503  -999.2500
  412.5000   -47.7885     8.2022    10.6099  -999.2500
  413.0000   -47.1874     8.7273    10.9821  -999.2500
  413.5000   -46.7361     9.4152    11.6057  -999.2500
  414.0000   -46.4348    10.1573    12.2645  -999.2500
  414.5000   -45.3839    10.7331    12.7823  -999.2500
  415.0000   -44.4829    11.2635    12.8701  -999.2500
  415.5000   -44.3315    11.6981    12.9584  -999.2500
  416.0000   -44.3298    11.9000    12.9576  -999.2500
  416.5000   -44.3282    11.9809    13.0465  -999.2500
  417.0000   -44.1768    11.9793    12.9558  -999.2500
  417.5000   -43.7256    11.4122    12.6454  -999.2500
  418.0000   -43.4243    10.9473    12.2999  -999.2500
  418.5000   -43.1230    10.7956    12.0882  -999.2500
  419.0000   -43.2714    10.7941    12.0874  -999.2500
  419.5000   -43.1200    10.7925    12.0866  -999.2500
  420.0000   -43.1186    10.5695    11.9199  -999.2500
  420.5000   -42.9670    10.3513    11.8371  -999.2500
  421.0000   -42.8155    10.2786    11.5935  -999.2500
  421.5000   -42.6641    10.3485    11.5926  -999.2500
  422.0000   -42.3628    10.4189    11.5519  -999.2500
  422.5000   -42.3613    10.4175    11.2750  -999.2500
  423.0000   -42.5098    10.4161    11.1966  -999.2500
  423.5000   -42.6582    10.4867    11.1187  -999.2500
  424.0000   -42.8067    10.4853    11.1180  -999.2500
  424.5000   -42.9552    10.5564    11.1943  -999.2500
  425.0000   -43.1034    10.7019    11.2712  -999.2500
  425.5000   -43.4017    10.8493    11.3094  -999.2500
  426.0000   -43.4002    11.0751    11.4660  -999.2500
  426.5000   -43.2488    11.3055    11.5048  -999.2500
  427.0000   -43.2474    11.3824    11.5838  -999.2500
  427.5000   -43.3958    11.3807    11.5830  -999.2500
  428.0000   -43.6942    11.3792    11.8248  -999.2500
  428.5000   -43.8427    11.3774    11.9060  -999.2500
  429.0000   -43.9911    11.3759    12.0708  -999.2500
  429.5000   -43.9895    11.2961    12.2803  -999.2500
  430.0000   -43.9879    11.2945    12.4933  -999.2500
  430.5000   -43.9864    11.2930    12.5790  -999.2500
  431.0000   -43.9849    11.2915    12.5782  -999.2500
  431.5000   -43.9835    11.2121    12.5774  -999.2500
  432.0000   -44.1320    11.0567    12.5765  -999.2500
  432.5000   -44.1305    10.9789    12.5757  -999.2500
  433.0000   -44.1290    10.8268    12.5748  -999.2500
  433.5000   -44.1276    10.7508    12.5739  -999.2500
  434.0000   -44.2758    10.6754    12.4864  -999.2500
  434.5000   -44.1243    10.4550    12.3142  -999.2500
  435.0000   -44.1228    10.3816    12.2286  -999.2500
  435.5000   -44.2713    10.4160    12.1436  -999.2500
  436.0000   -44.4198    10.4506    11.8936  -999.2500
  436.5000   -44.7182    10.3771    11.8109  -999.2500
  437.0000   -44.7167    10.2333    11.8102  -999.2500
  437.5000   -44.7152    10.1614    11.7279  -999.2500
  438.0000   -44.7138    10.1601    11.5661  -999.2500
  438.5000   -44.7122    10.1587    11.4857  -999.2500
  439.0000   -44.7107    10.0874    11.3273  -999.2500
  439.5000   -45.0089    10.0861    11.3266  -999.2500
  440.0000   -45.3073    10.1195    11.2478  -999.2500
  440.5000   -45.3058    10.1529    11.2471  -999.2500
  441.0000   -45.4543    10.1516    11.2463  -999.2500
  441.5000   -45.4528    10.1502    11.2455  -999.2500
  442.0000   -45.4514    10.1488    11.2446  -999.2500
  442.5000   -45.5998    10.1475    11.2439  -999.2500
  443.0000   -45.7481    10.2165    11.3996  -999.2500
  443.5000   -45.7467    10.2859    11.4778  -999.2500
  444.0000   -45.8949    10.3557    11.5566  -999.2500
  444.5000   -45.8935    10.3541    11.5559  -999.2500
  445.0000   -45.8920    10.2107    11.5551  -999.2500
  445.5000   -45.8906    10.0692    11.4747  -999.2500
