~VERSION INFORMATION
 VERS.                2.0:   CWLS LOG ASCII STANDARD - VERSION 2.0
 WRAP.                 NO:   ONE LINE PER DEPTH STEP
~WELL INFORMATION
#MNEM.UNIT      DATA TYPE    INFORMATION
#----------   ------------   ------------------------------
 STRT.F            0.0000:   START DEPTH
 STOP.F          484.0000:   STOP DEPTH
 STEP.F            0.5000:   STEP LENGTH
 NULL.          -999.2500:   NO VALUE
 COMP. LAWRENCE/ALLISON INC:   COMPANY
 WELL.  NPR 3 #68-63-SX-3:   WELL
 FLD .             TEAPOT:   FIELD
 LOC .       S3 T38N R78W:   LOCATION
 CNTY.            NATRONA:   COUNTY
 STAT.            WYOMING:   STATE
 CTRY. UNITED STATES OF AMERICA:   COUNTRY
 SRVC.           Gearhart:   SERVICE COMPANY
 DATE.        29-JUN-1988:   LOGDATE
 API .       490251122900:   API NUMBER
~CURVE INFORMATION
#MNEM.UNIT       API CODE    CURVE DESCRIPTION
#----------   ------------   ------------------------------
 DEPT.F                  :   
 GRR .GAPI   07 310 01 00:   GAMMA RAY FROM RES. LOG.
 ILD .OHMM   07 120 46 00:   INDUCTION LOG DEEP
 ILM .OHMM   07 120 44 00:   INDUCTION LOG MEDIUM
 CALI.IN     70 280 01 00:   CALIPER
~PARAMETER INFORMATION
#MNEM.UNIT          VALUE    DESCRIPTION
#----------   ------------   ------------------------------
 PD  .                 GL:   PERMANENT DATUM
 EPD .F              5158:   ELEVATION PERMANENT DATUM
 LMF .                 KB:   LOG MEASURED FROM
 DAPD.F                10:   FEET ABOVE PERMANENT DATUM
 DMF .                 KB:   DRILLING MEASURED FROM
 EKB .F              5168:   KELLING BUSHING
 EGL .F              5158:   GROUND LEVEL
 DATE.            6-29-88:   RUN DATE
 RUN .                  1:   RUN NUMBER
 DD  .F               490:   DEPTH DRILLER
 DL  .F             492.5:   DEPTH LOGGER
 BLI .F               484:   BOTTOM LOG INTERVAL
 TLI .F                49:   TOP LOG INTERVAL
 CS  .IN            9.625:   CASING SIZE
 CBD .F                49:   CASING BOTTOM DRILLER
 CBL .F                49:   CASING BOTTOM LOGGER
 BS  .IN             8.75:   BIT SIZE
 BSD .F               490:   BIT SIZE AT DEPTH
 DFT .                AIR:   DRILLING FLUID TYPE
 TLAB.HRS            1000:   TIME LOGGER AT BOTTOM
 MRT .F                70:   MAXIMUM RECORDED TEMPERATURE
 LUN .               7597:   LOGGING UNIT NUMBER
 LUL .           GILLETTE:   LOGGING UNIT LOCATION
 ENGI.          HUCKFELDT:   RECORDING ENGINEER
 WITN.              FIVAS:   WITNESSED BY
 CLNT.            A2DTECH:   CLIENT CODE
 ORIG.  2", 5", 10" PRINT:   ORIGIN OF DATA
 UWI .       490251122900:   UNIQUE WELL ID
 DICO. A2D Technologies, Inc.:   DIGITIZING COMPANY
~OTHER INFORMATION
~A    DEPT      GRR       ILD        ILM       CALI   
# ...
  219.0000   126.8104     8.3355     8.0269    -0.7293
  219.5000   127.7788     8.3178     8.0165    -0.7678
  220.0000   128.3703     8.3001     8.0061    -0.8286
  220.5000   128.7838     8.2825     7.9992    -0.8886
  221.0000   128.5308     8.2649     8.0103    -0.9092
  221.5000   128.2848     8.2474     8.0199    -0.8767
  222.0000   128.0118     8.2253     8.0295    -0.8352
  222.5000   129.2430     8.2255     8.0392    -0.4337
  223.0000   130.8699     8.2090     8.0488    -0.6350
  223.5000   132.5097     8.1948     8.0584    10.6464
  224.0000   134.1793     8.1806     8.0681  -999.2500
  224.5000   134.5062     8.1664     8.0741  -999.2500
  225.0000   133.5474     8.1523     8.0741  -999.2500
  225.5000   132.3642     7.8859     8.0757  -999.2500
  226.0000   131.1762     7.5699     8.0774  -999.2500
  226.5000   130.0294     7.2678     7.7709  -999.2500
  227.0000   129.6186     7.0937     7.4968  -999.2500
  227.5000   130.5634     6.9587     6.9291  -999.2500
  228.0000   134.8236     6.8243     6.4192  -999.2500
  228.5000   138.9400     6.6926     6.2783  -999.2500
  229.0000   140.5542     6.5630     6.2806  -999.2500
  229.5000   140.0416     6.5184     6.3393  -999.2500
  230.0000   136.7023     6.5804     6.2617  -999.2500
  230.5000   134.8302     6.5796     6.1734  -999.2500
  231.0000   134.5850     6.4375     6.1065  -999.2500
  231.5000   133.5048     6.2773     5.9015  -999.2500
  232.0000   131.4648     6.1077     5.7334  -999.2500
  232.5000   131.2868     6.0511     5.6171  -999.2500
  233.0000   132.3432     6.1399     5.6432  -999.2500
  233.5000   132.6230     6.2226     5.6696  -999.2500
  234.0000   129.9061     6.3393     5.8105  -999.2500
  234.5000   126.3840     6.5447     6.1409  -999.2500
  235.0000   126.5001     6.7740     6.5187  -999.2500
  235.5000   127.5234     7.0015     6.6447  -999.2500
  236.0000   126.7209     7.2366     6.7983  -999.2500
  236.5000   123.4992     7.4949     7.0491  -999.2500
  237.0000   121.4763     7.4949     7.2903  -999.2500
  237.5000   123.0064     7.4949     7.3986  -999.2500
  238.0000   124.8323     7.2481     7.5222  -999.2500
  238.5000   127.2853     6.6562     7.6357  -999.2500
  239.0000   129.0885     6.4583     6.7659  -999.2500
  239.5000   129.3297     6.2485     6.2548  -999.2500
  240.0000   129.4582     5.9939     5.7675  -999.2500
  240.5000   129.6147     5.8846     5.3122  -999.2500
  241.0000   129.1528     5.9071     5.1827  -999.2500
  241.5000   126.3363     5.9233     5.1660  -999.2500
  242.0000   122.3782     5.9396     5.4119  -999.2500
  242.5000   120.3853     6.1786     5.7260  -999.2500
  243.0000   121.2906     6.5038     6.0709  -999.2500
  243.5000   123.8741     6.8874     6.4366  -999.2500
  244.0000   124.3469     7.2926     6.8243  -999.2500
  244.5000   123.7551     7.7079     7.2054  -999.2500
  245.0000   123.8748     8.0205     7.6013  -999.2500
  245.5000   124.6687     8.3361     7.9993  -999.2500
  246.0000   125.4986     8.6631     8.1363  -999.2500
  246.5000   123.6798     8.7792     8.3026  -999.2500
  247.0000   121.4798     8.7970     8.3352  -999.2500
  247.5000   120.1779     8.8106     8.4064  -999.2500
  248.0000   119.9076     8.8246     8.4583  -999.2500
  248.5000   120.5798     8.8386     8.4903  -999.2500
  249.0000   121.8723     8.8526     8.5263  -999.2500
  249.5000   121.3619     8.8666     8.5626  -999.2500
  250.0000   120.8363     8.8807     8.5991  -999.2500
  250.5000   120.3149     8.8947     8.6267  -999.2500
  251.0000   120.8921     8.9088     8.6576  -999.2500
  251.5000   121.5758     8.9229     8.6887  -999.2500
  252.0000   122.2472     8.9441     8.6979  -999.2500
  252.5000   122.6821     8.9178     8.5434  -999.2500
  253.0000   122.5252     8.8658     8.4262  -999.2500
  253.5000   122.3820     8.8143     8.3008  -999.2500
  254.0000   122.0260     8.7792     8.3681  -999.2500
  254.5000   121.4815     8.8427     8.4996  -999.2500
  255.0000   120.9441     8.8914     8.6334  -999.2500
  255.5000   119.3680     8.9441     8.8231  -999.2500
  256.0000   116.9164     8.9441     8.9613  -999.2500
  256.5000   115.2834     7.7611     9.0218  -999.2500
  257.0000   114.3795     7.1285     8.9959  -999.2500
  257.5000   113.8193     6.8528     7.6177  -999.2500
  258.0000   114.6065     6.5187     6.5520  -999.2500
  258.5000   118.5854     6.5268     5.4639  -999.2500
  259.0000   125.1003     6.5420     5.3087  -999.2500
  259.5000   129.6532     6.5573     5.1660  -999.2500
  260.0000   126.8216     6.5716     5.9396  -999.2500
  260.5000   119.2496     6.7901     6.4130  -999.2500
  261.0000   113.1351     7.3968     6.9859  -999.2500
  261.5000   109.8210     8.1401     7.6691  -999.2500
  262.0000   109.5065     8.9552     8.4165  -999.2500
  262.5000   109.9853     9.8520     9.2466  -999.2500
  263.0000   111.3475    10.4042     9.8323  -999.2500
  263.5000   111.8789    10.6270    10.3796  -999.2500
  264.0000   111.1272    10.8546    10.3568  -999.2500
  264.5000   110.7294    11.0864    10.3267  -999.2500
  265.0000   111.7899    11.4070    10.2967  -999.2500
  265.5000   112.8535    12.2096    10.2835  -999.2500
  266.0000   111.7743    13.0976    10.7278  -999.2500
  266.5000   109.5320    14.0739    11.3866  -999.2500
  267.0000   104.6486    15.1998    12.3865  -999.2500
  267.5000    95.3914    16.6890    14.1820  -999.2500
  268.0000    82.9536    18.3806    16.3104  -999.2500
  268.5000    71.1609    20.2438    18.7582  -999.2500
  269.0000    64.9103    22.2960    21.5734  -999.2500
  269.5000    61.7120    24.5655    23.6067  -999.2500
  270.0000    61.4266    26.5677    25.4641  -999.2500
  270.5000    61.0936    27.9414    27.4677  -999.2500
  271.0000    61.6263    29.3797    29.1519  -999.2500
  271.5000    63.8817    29.9970    29.3512  -999.2500
  272.0000    63.5485    30.3807    29.6952  -999.2500
  272.5000    61.9078    31.0328    30.2572  -999.2500
  273.0000    62.0904    31.8881    30.2572  -999.2500
  273.5000    65.5690    32.5950    30.2572  -999.2500
  274.0000    68.7902    33.0172    30.9042  -999.2500
  274.5000    65.0567    33.4475    31.7383  -999.2500
  275.0000    60.1130    33.8833    32.5950  -999.2500
  275.5000    56.8973    34.1470    32.5950  -999.2500
  276.0000    58.0418    33.9617    32.5950  -999.2500
  276.5000    62.1031    33.5176    31.7914  -999.2500
  277.0000    66.6530    34.1041    30.9787  -999.2500
  277.5000    71.3116    34.8457    30.5399  -999.2500
  278.0000    73.6336    35.4417    32.3431  -999.2500
  278.5000    70.9695    35.4417    34.0446  -999.2500
  279.0000    66.7626    35.5606    35.7730  -999.2500
  279.5000    61.6687    36.1174    37.5077  -999.2500
  280.0000    59.4384    36.4448    37.8266  -999.2500
  280.5000    61.1688    36.2945    36.1193  -999.2500
  281.0000    65.2957    36.1477    34.7770  -999.2500
  281.5000    69.4046    36.0015    33.5176  -999.2500
  282.0000    71.9062    35.8559    32.8997  -999.2500
  282.5000    71.1622    35.7730    32.9801  -999.2500
  283.0000    70.4523    36.4448    33.1084  -999.2500
  283.5000    71.6198    37.2243    33.4860  -999.2500
  284.0000    72.7606    38.1828    34.8352  -999.2500
  284.5000    72.9234    38.5759    37.8266  -999.2500
  285.0000    72.4060    38.7397    37.9235  -999.2500
  285.5000    71.7089    38.8973    38.1451  -999.2500
  286.0000    72.4209    38.2912    38.1802  -999.2500
  286.5000    74.1680    37.5839    36.7331  -999.2500
  287.0000    76.0546    36.8897    35.6092  -999.2500
  287.5000    77.9735    36.2083    34.5197  -999.2500
  288.0000    79.3124    35.5395    33.5176  -999.2500
  288.5000    80.1307    34.8830    33.2288  -999.2500
  289.0000    79.9159    34.4864    32.9589  -999.2500
  289.5000    78.8077    33.8145    32.6844  -999.2500
  290.0000    77.7205    32.4999    31.7192  -999.2500
  290.5000    76.7955    31.2504    30.4923  -999.2500
  291.0000    76.5012    30.0450    29.2946  -999.2500
  291.5000    76.9528    29.4205    28.0576  -999.2500
