~VERSION INFORMATION
 VERS.                2.0:   CWLS LOG ASCII STANDARD - VERSION 2.0
 WRAP.                 NO:   ONE LINE PER DEPTH STEP
~WELL INFORMATION
#MNEM.UNIT      DATA TYPE    INFORMATION
#----------   ------------   ------------------------------
 STRT.F          700.0000:   START DEPTH
 STOP.F         2111.0000:   STOP DEPTH
 STEP.F            0.5000:   STEP LENGTH
 NULL.          -999.2500:   NO VALUE
 COMP. FENIX & SCISSON INC:   COMPANY
 WELL.    35 SAX 34 #3-34:   WELL
 FLD .             TEAPOT:   FIELD
 LOC .      S34 T39N R78W:   LOCATION
 CNTY.            NATRONA:   COUNTY
 STAT.            WYOMING:   STATE
 CTRY. UNITED STATES OF AMERICA:   COUNTRY
 SRVC.            Unknown:   SERVICE COMPANY
 DATE.        29-MAY-1978:   LOGDATE
 API .       490251061700:   API NUMBER
~CURVE INFORMATION
#MNEM.UNIT       API CODE    CURVE DESCRIPTION
#----------   ------------   ------------------------------
 DEPT.F                  :   
 CALD.IN     45 280 60 00:   CALIPER FROM DENSITY LOG
 GRD .GAPI   45 310 01 00:   GAMMA RAY FROM DENSITY LOG
 RHOB.G/C3   45 350 01 00:   BULK DENSITY
 DPHI.DEC    45 890 00 00:   DENSITY POROSITY
 CORR.G/C3   45 356 01 00:   DENSITY CORRECTION
~PARAMETER INFORMATION
#MNEM.UNIT          VALUE    DESCRIPTION
#----------   ------------   ------------------------------
 PD  .                 GL:   PERMANENT DATUM
 EPD .F              5105:   ELEVATION PERMANENT DATUM
 LMF .                 KB:   LOG MEASURED FROM
 DAPD.F                10:   FEET ABOVE PERMANENT DATUM
 DMF .                 KB:   DRILLING MEASURED FROM
 EKB .F              5115:   KELLING BUSHING
 EGL .F              5105:   GROUND LEVEL
 DATE.          5-29-1978:   RUN DATE
 RUN .                  1:   RUN NUMBER
 DD  .F              2111:   DEPTH DRILLER
 DL  .F              2118:   DEPTH LOGGER
 BLI .F              2110:   BOTTOM LOG INTERVAL
 TLI .F               720:   TOP LOG INTERVAL
 CS  .IN            9.625:   CASING SIZE
 CBD .F               711:   CASING BOTTOM DRILLER
 CBL .F               721:   CASING BOTTOM LOGGER
 BS  .IN             8.75:   BIT SIZE
 BSD .F              2111:   BIT SIZE AT DEPTH
 DFT .                OIL:   DRILLING FLUID TYPE
 TCS .HRS               1:   TIME CURCULATED STOPPED
 LUN .               2958:   LOGGING UNIT NUMBER
 LUL .               CASP:   LOGGING UNIT LOCATION
 ENGI.             MILLER:   RECORDING ENGINEER
 WITN.           MCGINLEY:   WITNESSED BY
 CLNT.            A2DTECH:   CLIENT CODE
 ORIG.           5" PRINT:   ORIGIN OF DATA
 UWI .       490251061700:   UNIQUE WELL ID
 DICO. A2D Technologies, Inc.:   DIGITIZING COMPANY
~OTHER INFORMATION
~A   DEPT     CALD         GRD      RHOB       DPHI       CORR   
# ...
 2042.0000     8.3056    75.6641     2.3337     0.1292     0.1292
 2042.5000     8.4174    74.7232     2.3379     0.1222     0.1547
 2043.0000     8.5293    72.6015     2.3443     0.1212     0.1797
 2043.5000     8.6342    70.8673     2.3508     0.1245     0.1959
 2044.0000     8.6080    70.8760     2.3525     0.1534     0.1850
 2044.5000     8.5711    71.1046     2.3543     0.1544     0.1715
 2045.0000     8.5766    71.3372     2.3034     0.1550     0.1764
 2045.5000     8.5946    71.5534     2.3012     0.1552     0.1811
 2046.0000     8.5023    70.5973     2.3016     0.1565     0.1858
 2046.5000     8.4135    69.5238     2.3025     0.1641     0.1906
 2047.0000     8.3826    68.4358     2.3028     0.1818     0.1916
 2047.5000     8.3477    67.3843     2.2957     0.2032     0.1916
 2048.0000     8.3126    68.9936     2.2639     0.2298     0.1915
 2048.5000     8.2775    73.2466     2.2270     0.2601     0.1962
 2049.0000     8.2424    77.1302     2.1895     0.2903     0.1977
 2049.5000     8.2165    76.9070     2.1365     0.3008     0.1947
 2050.0000     8.2296    75.1540     2.0653     0.3004     0.2152
 2050.5000     8.2790    73.1476     2.0013     0.3016     0.3026
 2051.0000     8.5869    67.3749     2.0197     0.3015     0.2842
 2051.5000     8.8837    59.3973     2.0396     0.1425     0.2595
 2052.0000     9.6342    51.0567     2.0497     0.1481     0.1886
 2052.5000     9.0888    43.6904     2.2989     0.1497     0.2125
 2053.0000    10.0038    42.1342     2.3197     0.1486     0.2432
 2053.5000     9.2857    42.8294     2.3178     0.1463     0.2739
 2054.0000     9.1603    45.2869     2.3200     0.1397     0.3044
 2054.5000     9.1032    48.2757     2.3268     0.1342     0.3195
 2055.0000     9.0793    52.7175     2.3345     0.1317     0.3272
 2055.5000     9.0560    56.9944     2.3424     0.1309     0.3345
 2056.0000     9.0187    60.2207     2.3459     0.1301     0.3419
 2056.5000     8.9802    60.1811     2.3475     0.1268     0.3380
 2057.0000     8.9575    60.4809     2.3490     0.1234     0.3306
 2057.5000     8.9697    66.0030     2.3513     0.1026     0.3231
 2058.0000     8.9504    71.6729     2.3569     0.1090     0.3156
 2058.5000     8.9101    71.0051     2.3787     0.0987     0.3067
 2059.0000     8.8691    70.2383     2.3859     0.0878     0.2902
 2059.5000     8.8557    69.4632     2.3872     0.1045     0.2740
 2060.0000     8.9046    69.5425     2.4088     0.1278     0.2435
 2060.5000     9.0168    73.1376     2.3903     0.1317     0.2049
 2061.0000     9.0808    76.3099     2.3660     0.1306     0.1753
 2061.5000     9.0953    75.5772     2.3466     0.1295     0.1773
 2062.0000     9.1104    68.2573     2.3481     0.1285     0.2321
 2062.5000     9.1113    66.1728     2.3497     0.1280     0.2478
 2063.0000     9.1084    65.0128     2.3510     0.1277     0.2522
 2063.5000     9.1054    64.6680     2.3514     0.1253     0.2544
 2064.0000     9.1024    64.4977     2.3519     0.1227     0.2561
 2064.5000     9.0995    64.3320     2.3548     0.1200     0.2578
 2065.0000     9.0967    64.2288     2.3580     0.1174     0.2594
 2065.5000     9.0923    64.3757     2.3613     0.1173     0.2596
 2066.0000     9.0594    64.5029     2.3638     0.1251     0.2533
 2066.5000     9.0266    64.1793     2.3628     0.1243     0.2437
 2067.0000     8.9940    62.3817     2.3576     0.1210     0.2463
 2067.5000     8.9614    60.6579     2.3550     0.1235     0.2497
 2068.0000     8.9287    58.9314     2.3558     0.1260     0.2519
 2068.5000     8.9146    56.7671     2.3541     0.1264     0.2389
 2069.0000     8.9143    53.8023     2.3528     0.1214     0.2245
 2069.5000     8.9143    53.2381     2.3537     0.1220     0.2101
 2070.0000     8.9143    60.7879     2.3568     0.1230     0.1957
 2070.5000     8.9143    67.3135     2.3586     0.1239     0.1813
 2071.0000     8.9191    69.4106     2.3572     0.1245     0.1665
 2071.5000     8.9415    67.0378     2.3559     0.1234     0.1638
 2072.0000     8.9634    66.5709     2.3568     0.1223     0.1706
 2072.5000     8.9739    66.0855     2.3578     0.1211     0.1776
 2073.0000     8.9528    65.0466     2.3588     0.1200     0.1810
 2073.5000     8.9298    64.9995     2.3597     0.1207     0.1842
 2074.0000     8.9318    63.9432     2.3584     0.1243     0.1875
 2074.5000     8.9834    62.0590     2.3567     0.1259     0.1907
 2075.0000     9.0338    60.1483     2.3544     0.1248     0.1940
 2075.5000     9.0704    59.4307     2.3528     0.1238     0.1978
 2076.0000     9.0467    61.3670     2.3528     0.1228     0.2023
 2076.5000     9.0402    65.0164     2.3528     0.1244     0.2067
 2077.0000     9.0548    68.4289     2.3528     0.1269     0.2110
 2077.5000     9.0699    69.0104     2.3522     0.1294     0.2151
 2078.0000     9.0479    67.4901     2.3486     0.1313     0.2217
 2078.5000     9.0117    65.4242     2.3456     0.1154     0.2324
 2079.0000     8.9805    64.0272     2.3493     0.1062     0.2430
 2079.5000     8.9929    64.5306     2.3643     0.1058     0.2540
 2080.0000     9.0071    64.7995     2.3797     0.0998     0.2464
 2080.5000     9.0239    63.3971     2.3860     0.1071     0.2299
 2081.0000     9.0408    60.2447     2.3870     0.1180     0.2131
 2081.5000     9.0577    57.7513     2.3804     0.1290     0.1963
 2082.0000     9.0744    58.2516     2.3628     0.1333     0.1810
 2082.5000     9.0900    60.6136     2.3474     0.1330     0.1900
 2083.0000     9.1449    62.3767     2.3410     0.1349     0.2024
 2083.5000     9.2043    67.3874     2.3417     0.1335     0.2147
 2084.0000     9.2356    68.0124     2.3396     0.1294     0.2269
 2084.5000     9.2421    67.6863     2.3408     0.1302     0.2394
 2085.0000     9.2481    67.3377     2.3486     0.1321     0.2417
 2085.5000     9.2564    67.8585     2.3495     0.1277     0.2422
 2086.0000     9.2768    68.6102     2.3491     0.1204     0.2427
 2086.5000     9.2973    67.4223     2.3491     0.1157     0.2432
 2087.0000     9.3153    66.7076     2.3592     0.1150     0.2430
 2087.5000     9.2460    66.2596     2.3690     0.1174     0.2326
 2088.0000     9.1709    66.6618     2.3693     0.1118     0.2261
 2088.5000     9.0541    68.7817     2.3698     0.1094     0.2228
 2089.0000     8.8896    69.2924     2.3737     0.1245     0.2197
 2089.5000     8.7524    62.4712     2.3693     0.1266     0.2209
 2090.0000     8.6857    56.1900     2.3596     0.1220     0.2333
 2090.5000     8.6181    57.7190     2.3521     0.1170     0.2483
 2091.0000     8.6150    60.1842     2.3573     0.1182     0.2571
 2091.5000     8.6158    61.9552     2.3657     0.1165     0.2558
 2092.0000     8.5870    60.0991     2.3687     0.1059     0.2546
 2092.5000     8.5402    59.0279     2.3732     0.0926     0.2535
 2093.0000     8.4932    59.5213     2.3844     0.0794     0.2543
 2093.5000     8.4454    58.9733     2.4026     0.0620     0.2551
 2094.0000     8.3995    57.1407     2.4293     0.0401     0.2556
 2094.5000     8.3140    56.3002     2.4559     0.0251     0.2533
 2095.0000     8.9074    57.9082     2.4884     0.0635     0.2431
 2095.5000     6.0017    57.9865     2.5187     0.0703     0.1980
 2096.0000     5.9775    56.3313     2.4736     0.0727     0.1403
 2096.5000     5.9789    51.7856     2.4390     0.0742     0.1010
 2097.0000     5.9865    58.4105     2.4305     0.0774     0.1098
 2097.5000     5.9725    61.3288     2.4307     0.0812     0.1183
 2098.0000     5.9560    64.1632     2.4274     0.0765     0.1203
 2098.5000     5.9573    68.3120     2.4236     0.0643     0.1244
 2099.0000  -999.2500    70.8441     2.4353     0.0723     0.1334
 2099.5000  -999.2500    71.2973     2.4494     0.0770     0.1309
 2100.0000  -999.2500    73.3201     2.4308     0.0815     0.1286
 2100.5000  -999.2500    73.5037     2.4254     0.0862     0.1263
 2101.0000  -999.2500    68.9160     2.4181     0.0898     0.1240
 2101.5000  -999.2500    66.2005     2.4108     0.0936     0.1219
 2102.0000  -999.2500    72.8300     2.4065     0.0975     0.1255
 2102.5000  -999.2500    71.9463     2.4022     0.0930     0.1281
