~VERSION INFORMATION
 VERS.                2.0:   CWLS LOG ASCII STANDARD - VERSION 2.0
 WRAP.                 NO:   ONE LINE PER DEPTH STEP
~WELL INFORMATION
#MNEM.UNIT      DATA TYPE    INFORMATION
#----------   ------------   ------------------------------
 STRT.F            2.5000:   START DEPTH
 STOP.F          548.0000:   STOP DEPTH
 STEP.F            0.5000:   STEP LENGTH
 NULL.          -999.2500:   NO VALUE
 COMP. LAWRENCE/ALLISON INC:   COMPANY
 WELL.    55-61 SX #10-10:   WELL
 FLD .           N.P.R #3:   FIELD
 LOC .      S10 T38N R78W:   LOCATION
 CNTY.            NATRONA:   COUNTY
 STAT.            WYOMING:   STATE
 CTRY. UNITED STATES OF AMERICA:   COUNTRY
 SRVC.            Unknown:   SERVICE COMPANY
 DATE.        05-SEP-1984:   LOGDATE
 API .       490251098100:   API NUMBER
~CURVE INFORMATION
#MNEM.UNIT       API CODE    CURVE DESCRIPTION
#----------   ------------   ------------------------------
 DEPT.F                  :   
 GRR .GAPI   07 310 01 00:   GAMMA RAY FROM RES
 SPR .MV     07 010 01 00:   SPONTANEOUS POTENTIAL
 RFOC.OHMM   07 220 04 00:   RESISTIVITY FOCUSED LOG
 RILD.OHMM   07 120 46 00:   INDUCTION LOG DEEP RESISTIVITY
 RILM.OHMM   07 120 44 00:   INDUCTION LOG MEDIUM RESISTIVITY
 CALD.IN     45 280 60 00:   CALIPER FROM DENSITY LOG
 DEN .G/C3   45 350 01 00:   COMPENSATED BULK DENSTIY
 CNC .DEC    42 890 03 00:   NEUTRON POROSITY SANDSTONE
 PORD.DEC    45 890 12 00:   POROSITY DENSITY SANDSTONE
 CORR.G/C3   45 356 01 00:   DENSITY CORRECTION
 AC  .US/F   60 520 00 00:   ACCOUSTIC SONIC
~PARAMETER INFORMATION
#MNEM.UNIT          VALUE    DESCRIPTION
#----------   ------------   ------------------------------
 PD  .                 GL:   PERMANENT DATUM
 EPD .F              5191:   ELEVATION PERMANENT DATUM
 LMF .                 KB:   LOG MEASURED FROM
 DAPD.F                12:   FEET ABOVE PERMANENT DATUM
 DMF .                 KB:   DRILLING MEASURED FROM
 EKB .F              5203:   KELLING BUSHING
 EGL .F              5191:   GROUND LEVEL
 DATE.         5-SEP-1984:   RUN DATE
 RUN .                  1:   RUN NUMBER
 DD  .F               540:   DEPTH DRILLER
 DL  .F               550:   DEPTH LOGGER
 BLI .F               548:   BOTTOM LOG INTERVAL
 CS  .IN            8.625:   CASING SIZE
 CBD .F                42:   CASING BOTTOM DRILLER
 CBL .F                54:   CASING BOTTOM LOGGER
 BS  .IN            7.875:   BIT SIZE
 BSD .F               540:   BIT SIZE AT DEPTH
 DFT .        KCL POLYMER:   DRILLING FLUID TYPE
 MSS .           FLOWLINE:   MUD SAMPLE SOURCE
 RMS .OHMM            .79:   RESISTIVITY MUD SAMPLE
 MST .F                74:   MUD SAMPLE TEMPERATURE
 RMF .OHMM            .59:   RESISTIVITY MUD FILTRATE SAMPLE
 MFST.F                74:   MUD FILTRATE SAMPLE TEMPERATURE
 RMC .OHMM            .99:   RESISTIVITY MUD CAKE
 MCST.F                74:   MUD CAKE SAMPLE TEMPERATURE
 MFSS.               CALC:   MUD FILTRATE SAMPLE SOURCE
 MCSS.               CALC:   MUD CAKE SAMPLE SOURCE
 RMB .OHMM            .65:   RESISTIVITY MUD AT BHT
 BHT .F                90:   BOTTOM HOLE TEMPERATURE
 TCS .HRS               3:   TIME CURCULATED STOPPED
 MRT .F                90:   MAXIMUM RECORDED TEMPERATURE
 LUN .               6274:   LOGGING UNIT NUMBER
 LUL .               GLTE:   LOGGING UNIT LOCATION
 ENGI.             RAUTIO:   RECORDING ENGINEER
 WITN.            JOHNSON:   WITNESSED BY
 CLNT.            A2DTECH:   CLIENT CODE
 ORIG. 2", 2.5", 5" PRINT:   ORIGIN OF DATA
 UWI .       490251098100:   UNIQUE WELL ID
 DICO. A2D Technologies, Inc.:   DIGITIZING COMPANY
~OTHER INFORMATION
~A    DEPT      GRR       SPR       RFOC       RILD       RILM       CALD        DEN        CNC       PORD       CORR         AC   
# ...
  246.5000    74.1060    -5.7320    17.1650    17.2100    16.0740     8.0490     2.4310     0.2669     0.1510    -0.0030   118.4970
  247.0000    71.9560    -5.7460    18.6050    18.7820    17.7120     8.0480     2.4110     0.2669     0.1580     0.0030   118.9840
  247.5000    69.7990    -6.1780    19.8780    20.2430    18.9280     8.0470     2.4060     0.2650     0.1630     0.0090   116.8230
  248.0000    67.7230    -6.6060    21.0630    21.5730    19.8540     8.0460     2.4040     0.2690     0.1630     0.0050   115.3230
  248.5000    66.8450    -7.0330    21.9240    22.9030    20.7280     8.0460     2.3940     0.2761     0.1670     0.0050   113.8230
  249.0000    67.7290    -7.4160    20.8070    24.5630    21.6020     8.0480     2.3740     0.2792     0.1760     0.0100   112.6100
  249.5000    70.1060    -7.3800    20.1850    26.5780    22.4770     8.0500     2.3540     0.2742     0.1880     0.0160   111.8130
  250.0000    68.8300    -7.3360    21.2170    28.5940    24.1130     8.0530     2.3430     0.2659     0.1980     0.0150   111.8130
  250.5000    65.9530    -7.2940    24.0600    30.7940    26.0850     8.0550     2.3430     0.2553     0.2020     0.0130   111.8130
  251.0000    61.7360    -7.2550    26.9040    31.0780    28.0570     8.0580     2.3580     0.2593     0.1940     0.0140   111.8130
  251.5000    57.5300    -7.3590    29.7470    30.8560    28.6130     8.0600     2.3600     0.2692     0.1910     0.0350   111.6140
  252.0000    54.9940    -7.8390    31.6540    30.6140    26.6370     8.0630     2.3430     0.2828     0.1980     0.0560   110.7280
  252.5000    57.1230    -8.3050    28.7660    30.3710    25.0630     8.0650     2.3320     0.2979     0.2080     0.0550   110.3450
  253.0000    61.3990    -8.7700    26.3560    30.1290    23.9040     8.0640     2.3350     0.3000     0.2060     0.0450   110.6450
  253.5000    65.7390    -9.2350    24.7890    29.8860    23.1650     8.0630     2.3390     0.2969     0.2030     0.0340   110.8170
  254.0000    66.6150    -9.7070    23.1650    29.6840    23.6000     8.0620     2.3390     0.2890     0.2030     0.0240   109.4880
  254.5000    64.0120   -10.2310    24.1430    29.4120    24.3770     8.0600     2.3400     0.2650     0.2020     0.0150   104.5990
  255.0000    61.5950   -10.9860    25.1580    29.6930    25.1550     8.0590     2.3450     0.2410     0.2010     0.0290    99.7100
  255.5000    59.4960   -11.7180    26.1720    29.9340    25.9320     8.0580     2.3570     0.2170     0.1930     0.0480    93.0880
  256.0000    57.3990   -12.4480    29.0990    30.1740    26.7090     8.0570     2.3980     0.2050     0.1740     0.0540    95.4390
  256.5000    57.1650   -13.1760    33.3490    30.4140    27.3290     8.0550     2.4400     0.2000     0.1440     0.0420    99.0820
  257.0000    60.4280   -13.9030    34.6990    30.6540    27.2850     8.0540     2.4700     0.2130     0.1240     0.0310   103.2470
  257.5000    63.6950   -14.3340    31.6000    31.2740    27.2300     8.0530     2.4540     0.2340     0.1290     0.0200   104.4420
  258.0000    65.3160   -14.1740    29.0400    32.5650    27.1750     8.0520     2.4010     0.2550     0.1560     0.0160   105.2370
  258.5000    65.0950   -14.0220    27.0790    32.6810    27.1210     8.0510     2.3530     0.2730     0.1860     0.0110   106.5700
  259.0000    64.5590   -14.0260    28.6990    32.7970    27.0790     8.0490     2.3410     0.2750     0.2020     0.0070   108.5700
  259.5000    64.6000   -14.3610    30.6350    33.3940    28.2290     8.0480     2.3340     0.2590     0.2060     0.0030   110.8170
  260.0000    65.4470   -14.6940    32.7890    34.6310    29.1550     8.0470     2.3360     0.2470     0.2060     0.0140   109.6900
  260.5000    66.5720   -15.0250    32.4510    35.8690    30.0810     8.0460     2.3380     0.2590     0.2040     0.0180   105.6480
  261.0000    65.9110   -15.3570    32.0020    37.1070    31.0070     8.0440     2.3300     0.2710     0.2080     0.0130   101.6060
  261.5000    63.5680   -15.7700    32.8430    38.3450    31.9330     8.0430     2.3090     0.2840     0.2210     0.0090    97.5650
  262.0000    60.5190   -16.2930    34.3810    39.5820    32.8590     8.0420     2.2780     0.2850     0.2360     0.0190    93.5230
  262.5000    59.6180   -16.8140    33.6860    40.8200    33.9530     8.0410     2.2560     0.2820     0.2500     0.0250    91.7430
  263.0000    60.7110   -17.3310    32.4070    42.0580    35.1220     8.0390     2.2550     0.2750     0.2550     0.0170    97.0510
  263.5000    63.6370   -17.7370    31.1270    43.2960    36.2900     8.0380     2.2800     0.2530     0.2510     0.0090   104.4080
  264.0000    66.2730   -17.8280    30.5130    44.5330    37.4590     8.0370     2.3230     0.2310     0.2250     0.0040   114.2030
  264.5000    64.5920   -17.9220    36.9640    45.1530    38.6270     8.0360     2.3580     0.2200     0.2010    -0.0020   110.0920
  265.0000    61.1750   -18.3590    41.8460    45.6840    39.7960     8.0340     2.3830     0.2310     0.1850     0.0010    99.9400
  265.5000    59.3320   -18.8550    46.9800    46.2150    40.5610     8.0330     2.3890     0.2480     0.1730     0.0060    90.2990
  266.0000    59.0350   -19.3530    44.8720    46.7460    40.0980     8.0320     2.3690     0.2650     0.1760     0.0030    86.7130
  266.5000    61.4760   -19.8500    41.1230    46.9800    39.4590     8.0310     2.3200     0.2750     0.2040    -0.0130    87.5080
  267.0000    62.3440   -20.3500    37.2530    45.9360    39.6360     8.0300     2.2730     0.2810     0.2330    -0.0290    90.0330
  267.5000    62.1950   -20.8540    33.3830    44.8530    39.8230     8.0280     2.2590     0.2810     0.2460    -0.0450    94.5950
  268.0000    62.3770   -21.4750    31.1700    43.7690    38.6140     8.0270     2.2510     0.2800     0.2530    -0.0520    99.1580
  268.5000    65.4960   -21.8670    29.4120    42.6860    37.1650     8.0260     2.2440     0.2800     0.2580    -0.0440   103.0480
  269.0000    68.7000   -22.1400    28.5770    41.0400    35.7150     8.0200     2.2380     0.2770     0.2610    -0.0310    97.1510
  269.5000    70.2390   -22.4140    27.7380    39.3080    34.2660     8.0130     2.2420     0.2710     0.2630    -0.0070    87.1510
  270.0000    70.0120   -22.3820    27.5810    37.5750    32.8170     8.0060     2.2650     0.2650     0.2580     0.0180    83.5260
  270.5000    70.6890   -22.3100    27.5810    35.8430    31.3680     8.0080     2.3000     0.2600     0.2360     0.0110    89.7670
  271.0000    72.1220   -22.5610    26.9400    34.1100    29.9190     8.0110     2.3340     0.2610     0.2160    -0.0020    96.2670
  271.5000    72.8620   -22.8120    26.3430    32.3780    29.2160     8.0130     2.3640     0.2670     0.2000    -0.0070   102.7670
  272.0000    72.1000   -23.0600    26.3430    30.7940    28.6570     8.0160     2.3660     0.2750     0.1880    -0.0090   109.2670
  272.5000    71.5040   -23.1150    27.0650    30.0930    28.0990     8.0190     2.3610     0.2780     0.1860    -0.0120   114.6020
  273.0000    71.7470   -23.1630    28.1150    29.4520    27.5400     8.0210     2.3530     0.2750     0.1936    -0.0100   118.0680
  273.5000    72.4090   -23.2110    28.8770    28.8110    26.9820     8.0240     2.3420     0.2750     0.2020     0.0030   119.5820
  274.0000    73.8380   -23.2580    27.2580    28.1700    26.4230     8.0260     2.3240     0.2850     0.2121     0.0130   119.7130
  274.5000    75.2670   -23.3620    25.2610    27.5290    25.8650     8.0280     2.2990     0.3136     0.2403     0.0380   119.7810
  275.0000    75.5860   -23.5190    23.2630    26.9700    25.3060     8.0290     2.2320     0.3074     0.2730     0.0980   111.8130
  275.5000    74.4170   -23.6740    21.2660    26.6040    24.7480     8.0300     2.1460     0.2943     0.3134     0.1620   107.6130
  276.0000    72.0450   -23.8240    19.1020    26.2390    24.1890     8.0320     2.0450     0.2800     0.3563     0.1900   103.4460
  276.5000    68.5970   -24.1690    18.9560    25.8730    23.9720     8.0330     2.0600     0.2840     0.3564     0.1490   109.4940
