~VERSION INFORMATION
 VERS.                2.0:   CWLS LOG ASCII STANDARD - VERSION 2.0
 WRAP.                 NO:   ONE LINE PER DEPTH STEP
~WELL INFORMATION
#MNEM.UNIT      DATA TYPE    INFORMATION
#----------   ------------   ------------------------------
 STRT.F           20.0000:   START DEPTH
 STOP.F          672.0000:   STOP DEPTH
 STEP.F            0.5000:   STEP LENGTH
 NULL.          -999.2500:   NO VALUE
 COMP.              FENIX:   COMPANY
 WELL.    NPR ##3 23-S-11:   WELL
 FLD .        TEAPOT DOME:   FIELD
 LOC .      S11 T38N R78W:   LOCATION
 CNTY.            NATRONA:   COUNTY
 STAT.            WYOMING:   STATE
 CTRY. UNITED STATES OF AMERICA:   COUNTRY
 SRVC.           BIRDWELL:   SERVICE COMPANY
 DATE.        05-FEB-1978:   LOGDATE
 API .       490251057300:   API NUMBER
~CURVE INFORMATION
#MNEM.UNIT       API CODE    CURVE DESCRIPTION
#----------   ------------   ------------------------------
 DEPT.F                  :   
 ILD .OHMM   05 120 46 00:   INDUCTION LOG DEEP
 SN  .OHMM   05 040 16 00:   SHORT NORMAL 16"
 SPR .MV     05 010 01 00:   SPONTANEOUS POTENTIAL FROM RES.
 CALD.IN     45 280 60 00:   CALIPER FROM DENSITY LOG
 CORR.G/C3   45 356 01 00:   DENSITY CORRECTION
 DPHI.DEC    45 890 10 00:   DENSITY POROSITY LIMESTONE
 GRD .GAPI   45 310 01 00:   GAMMA RAY FROM DENSITY LOG
 RHOB.G/C3   45 350 01 00:   BULK DENSITY
~PARAMETER INFORMATION
#MNEM.UNIT          VALUE    DESCRIPTION
#----------   ------------   ------------------------------
 PD  .                 GL:   PERMANENT DATUM
 EPD .F              5175:   ELEVATION PERMANENT DATUM
 LMF .                 KB:   LOG MEASURED FROM
 DMF .                 KB:   DRILLING MEASURED FROM
 EKB .F              5178:   KELLING BUSHING
 EGL .F              5175:   GROUND LEVEL
 DATE.        05-FEB-1978:   RUN DATE
 RUN .                  1:   RUN NUMBER
 DD  .F               670:   DEPTH DRILLER
 DL  .F               675:   DEPTH LOGGER
 BLI .F               670:   BOTTOM LOG INTERVAL
 TLI .F                40:   TOP LOG INTERVAL
 CS  .IN            8.625:   CASING SIZE
 CBD .F                39:   CASING BOTTOM DRILLER
 CBL .F                40:   CASING BOTTOM LOGGER
 BS  .IN            7.875:   BIT SIZE
 BSD .F               670:   BIT SIZE AT DEPTH
 DFT .                KCL:   DRILLING FLUID TYPE
 DFD .                8.4:   DRILLING FLUID DENSITY
 DFV .                 32:   DRILLING FLUID VISCOSITY
 DFPH.                  8:   DRILLING FLUID PH
 DFL .                8.8:   DRILLING FLUID LOSS
 MSS .           FLOWLINE:   MUD SAMPLE SOURCE
 RMS .OHMM           0.58:   RESISTIVITY MUD SAMPLE
 MST .F                62:   MUD SAMPLE TEMPERATURE
 RMF .OHMM           0.58:   RESISTIVITY MUD FILTRATE SAMPLE
 MFST.F                62:   MUD FILTRATE SAMPLE TEMPERATURE
 RMC .OHMM            0.9:   RESISTIVITY MUD CAKE
 MCST.F                66:   MUD CAKE SAMPLE TEMPERATURE
 MFSS.               MEAS:   MUD FILTRATE SAMPLE SOURCE
 RMB .OHMM           0.55:   RESISTIVITY MUD AT BHT
 BHT .F                72:   BOTTOM HOLE TEMPERATURE
 TCS .HRS               1:   TIME CURCULATED STOPPED
 MRT .F                72:   MAXIMUM RECORDED TEMPERATURE
 LUN .               2958:   LOGGING UNIT NUMBER
 LUL .               CASP:   LOGGING UNIT LOCATION
 ENGI.            POINTER:   RECORDING ENGINEER
 WITN.         HARRINGTON:   WITNESSED BY
 CLNT.            A2DTECH:   CLIENT CODE
 ORIG.           5" PRINT:   ORIGIN OF DATA
 UWI .       490251057300:   UNIQUE WELL ID
 DICO. A2D Technologies, Inc.:   DIGITIZING COMPANY
~OTHER INFORMATION
~A   DEPT      ILD         SN        SPR       CALD       CORR       DPHI         GRD      RHOB   
# ...
  546.5000    11.0417    11.1576   -48.5747     8.0282     0.0147     0.1467    65.5615     2.3996
  547.0000    11.0380    10.9994   -48.4296     8.0280     0.0132     0.1464    65.4148     2.4026
  547.5000    10.8071    10.9189   -48.4388     8.0278     0.0124     0.1464    65.2691     2.4041
  548.0000    10.7287    10.7637   -48.4462     8.0126     0.0154     0.1464    64.8246     2.4049
  548.5000    10.6502    10.7594   -48.4535     8.0125     0.0191     0.1455    64.0792     2.4057
  549.0000    10.6472    10.6806   -48.3066     7.9973     0.0199     0.1407    63.9335     2.4102
  549.5000    10.6431    10.6753   -48.0109     7.9971     0.0199     0.1362    64.3886     2.4177
  550.0000    10.6458    10.6719   -47.8659     7.9970     0.0199     0.1335    65.4423     2.4267
  550.5000    10.6793    10.6704   -47.8001     7.9507     0.0206     0.1293    66.7969     2.4358
  551.0000    10.7110    10.6688   -47.7320     7.9348     0.0236     0.1275    66.6501     2.4388
  551.5000    10.7092    10.6673   -47.4361     7.9340     0.0251     0.1266    65.9058     2.4381
  552.0000    10.9328    10.8249   -47.2926     7.9181     0.0206     0.1275    64.8606     2.4375
  552.5000    11.1612    11.1372   -47.1491     7.9170     0.0146     0.1318    64.2662     2.4365
  553.0000    11.6339    11.5887   -47.1602     7.9162     0.0139     0.1458    63.8206     2.4246
  553.5000    12.2959    12.2487   -47.0145     7.9153     0.0184     0.1467    64.4246     2.4073
  554.0000    12.9957    12.9463   -47.0256     7.9295     0.0274     0.1407    67.1274     2.3983
  554.5000    14.6282    13.7790   -46.8799     7.9134     0.0266     0.1350    68.0323     2.4167
  555.0000    16.3946    15.0780   -46.7386     7.8674     0.0310     0.1328    68.9361     2.4314
  555.5000    18.7607    16.6145   -46.5951     7.8364     0.0566     0.1289    59.4950     2.4284
  556.0000    21.2523    18.2148   -46.1467     7.8205     0.0873     0.1259    52.1529     2.4254
  556.5000    23.7433    20.5967   -45.5459     7.7893     0.0971     0.1238    45.1631     2.4375
  557.0000    26.1608    21.9214   -44.9451     7.7884     0.0573     0.1251    45.0111     2.4420
  557.5000    27.4585    22.8505   -44.4792     7.7725     0.0281     0.1349    46.5216     2.4277
  558.0000    28.2280    23.1676   -43.7457     7.7566     0.0146     0.2290    49.6580     2.3894
  558.5000    27.4511    23.1637   -43.1448     7.7556     0.0116     0.2512    52.0476     2.2632
  559.0000    25.9587    23.1606   -42.5440     7.7547     0.0199     0.2521    53.0942     2.2354
  559.5000    24.5092    22.9973   -41.7907     7.7691     0.0350     0.2476    54.1409     2.2370
  560.0000    23.2316    22.5203   -41.2500     7.7681     0.0409     0.2347    54.7576     2.2415
  560.5000    22.4368    22.0532   -40.7393     7.7670     0.0409     0.2097    55.6337     2.2903
  561.0000    21.5194    21.5952   -40.4434     7.7814     0.0409     0.1835    56.1679     2.3070
  561.5000    20.7831    21.2946   -40.3018     7.7804     0.0409     0.1754    56.8274     2.3129
  562.0000    20.2118    20.9982   -40.4634     7.7795     0.0416     0.1751    57.7242     2.3137
  562.5000    19.7929    20.7060   -40.7774     7.7935     0.0424     0.1751    58.3210     2.3137
  563.0000    19.6534    20.7032   -40.9665     7.8077     0.0469     0.1754    58.3175     2.3129
  563.5000    19.2461    20.7004   -41.4071     7.8069     0.0528     0.1763    58.0148     2.3099
  564.0000    19.1105    20.4123   -41.8733     7.7910     0.0536     0.1766    57.1124     2.3137
  564.5000    18.9753    20.1211   -42.3396     7.7899     0.0469     0.1790    56.1884     2.3137
  565.0000    18.8416    19.6879   -42.6534     7.7891     0.0461     0.1919    55.7567     2.3115
  565.5000    18.8394    19.4357   -43.1197     7.7882     0.0439     0.2025    55.7538     2.3085
  566.0000    18.7063    19.1652   -43.2810     7.7723     0.0386     0.2030    55.9016     2.3078
  566.5000    18.7038    19.0301   -43.5074     7.7712     0.0319     0.2054    56.6587     2.3070
  567.0000    18.7014    19.0275   -43.6038     7.7704     0.0364     0.2066    58.1434     2.3063
  567.5000    18.6987    19.0249   -43.7652     7.7848     0.0394     0.2009    56.3415     2.3071
  568.0000    18.5670    18.8908   -43.7744     7.7988     0.0416     0.1971    55.4398     2.3221
  568.5000    18.5727    18.8883   -43.7852     7.8281     0.0379     0.1672    56.1859     2.3304
  569.0000    18.6910    18.7550   -43.7942     7.8270     0.0303     0.1660    57.1284     2.3327
  569.5000    18.5592    18.6222   -43.8018     7.8262     0.0244     0.1756    58.2784     2.3206
  570.0000    18.5567    18.4909   -43.8120     7.8253     0.0221     0.1811    58.5761     2.3041
  570.5000    18.5539    18.4884   -43.8209     7.8242     0.0206     0.1816    58.7232     2.2996
  571.0000    18.5514    18.2311   -43.8299     7.8234     0.0199     0.1795    58.5697     2.3027
  571.5000    18.2382    17.9773   -43.8384     7.8225     0.0214     0.1777    58.2663     2.3079
  572.0000    18.0389    17.7271   -43.8476     7.8217     0.0236     0.1771    58.1136     2.3149
  572.5000    17.7818    17.4804   -43.8567     7.8206     0.0251     0.1821    57.9608     2.3162
  573.0000    17.4188    17.3535   -43.8659     7.8198     0.0251     0.1897    57.6581     2.3177
  573.5000    17.0578    16.9971   -43.8750     7.8189     0.0244     0.1900    57.2048     2.3350
  574.0000    16.5889    16.6441   -44.0366     7.8181     0.0259     0.1909    56.7522     2.3335
  574.5000    16.1328    16.5268   -44.0457     7.8170     0.0266     0.1870    56.1497     2.3343
  575.0000    15.7985    16.1840   -44.2084     7.8162     0.0289     0.1831    57.3462     2.3403
  575.5000    15.5788    15.9587   -44.2619     7.8153     0.0319     0.1816    58.4098     2.3449
  576.0000    15.3621    15.6278   -44.3787     7.8145     0.0334     0.1786    60.0385     2.3479
  576.5000    15.3593    15.4103   -44.5401     7.8134     0.0409     0.1741    61.2350     2.3539
  577.0000    15.1338    15.3016   -44.6164     7.8125     0.0409     0.1701    61.8326     2.3599
  577.5000    14.8320    15.1937   -44.7104     7.8117     0.0439     0.1719    62.0502     2.3585
  578.0000    14.8126    15.1912   -44.7195     7.7958     0.0506     0.1734    62.4259     2.3525
  578.5000    14.6237    15.1891   -44.7287     7.7947     0.0656     0.1722    63.0228     2.3594
  579.0000    14.5207    15.0820   -44.7394     7.8091     0.0693     0.1704    63.3198     2.3645
  579.5000    14.4184    14.8721   -44.7470     7.7930     0.0618     0.1707    61.5171     2.3660
  580.0000    14.2179    14.7672   -44.7561     7.7771     0.0566     0.1791    60.6147     2.3570
  580.5000    14.0201    14.4219   -44.7662     7.7760     0.0558     0.1800    60.6112     2.3465
  581.0000    13.7270    14.0631   -44.7752     7.7752     0.0566     0.1791    60.6083     2.3473
  581.5000    13.4450    13.8674   -44.6294     7.7894     0.0551     0.1770    60.4556     2.3511
  582.0000    13.3502    13.6743   -44.6406     7.8036     0.0386     0.1728    60.3028     2.3578
  582.5000    13.4413    13.5775   -44.6502     7.8327     0.0281     0.1713    60.1493     2.3603
  583.0000    13.4394    13.4564   -44.5788     7.8622     0.0190     0.1782    60.1465     2.3496
  583.5000    13.3443    13.3646   -44.5152     7.8764     0.0146     0.1764    62.3925     2.3541
  584.0000    13.3425    13.2925   -44.5244     7.8753     0.0139     0.1749    62.0899     2.3586
  584.5000    13.3407    13.1986   -44.5350     7.8291     0.0146     0.1734    60.4148     2.3602
  585.0000    13.2467    13.1969   -44.4699     7.7981     0.0169     0.1719    59.3848     2.3603
  585.5000    13.0625    13.1038   -44.3982     7.7671     0.0215     0.1703    58.7823     2.3617
  586.0000    12.8808    12.9214   -44.4094     7.7813     0.0229     0.1694    58.7794     2.3625
  586.5000    12.8791    12.8299   -44.4183     7.7955     0.0214     0.1691    59.0764     2.3610
