~VERSION INFORMATION
 VERS.                2.0:   CWLS LOG ASCII STANDARD - VERSION 2.0
 WRAP.                 NO:   ONE LINE PER DEPTH STEP
~WELL INFORMATION
#MNEM.UNIT      DATA TYPE    INFORMATION
#----------   ------------   ------------------------------
 STRT.F          149.5000:   START DEPTH
 STOP.F          864.5000:   STOP DEPTH
 STEP.F            0.5000:   STEP LENGTH
 NULL.          -999.2500:   NO VALUE
 COMP. U S NAVY/INTEX OIL CO:   COMPANY
 WELL.    NPR #3 #78-S-27:   WELL
 FLD .             TEAPOT:   FIELD
 LOC .      S27 T39N R78W:   LOCATION
 CNTY.            NATRONA:   COUNTY
 STAT.            WYOMING:   STATE
 CTRY. UNITED STATES OF AMERICA:   COUNTRY
 SRVC. Schlumberger Well Surveying Corp:   SERVICE COMPANY
 DATE.        25-FEB-1961:   LOGDATE
 API .       490250657800:   API NUMBER
~CURVE INFORMATION
#MNEM.UNIT       API CODE    CURVE DESCRIPTION
#----------   ------------   ------------------------------
 DEPT.F                  :   
 SPR .MV     05 010 01 00:   SPONTANEOUS POTENTIAL FROM RES.
 CILD.MMHO   05 110 46 00:   CONDUCTIVITY INDUCTION LOG DEEP
 ASN .OHMM   05 041 16 00:   AMPLIFIED SHORT NORMAL 16"
 ILD .OHMM   05 120 46 00:   INDUCTION LOG DEEP
 GR  .GAPI   81 310 01 00:   GAMMA RAY
~PARAMETER INFORMATION
#MNEM.UNIT          VALUE    DESCRIPTION
#----------   ------------   ------------------------------
 PD  .                 GL:   PERMANENT DATUM
 EPD .F              5038:   ELEVATION PERMANENT DATUM
 LMF .                 KB:   LOG MEASURED FROM
 DAPD.F                 4:   FEET ABOVE PERMANENT DATUM
 DMF .                 KB:   DRILLING MEASURED FROM
 EKB .F              5042:   KELLING BUSHING
 EGL .F              5038:   GROUND LEVEL
 DATE.            2-25-61:   RUN DATE
 RUN .                  1:   RUN NUMBER
 DD  .F               865:   DEPTH DRILLER
 DL  .F               869:   DEPTH LOGGER
 BLI .F               864:   BOTTOM LOG INTERVAL
 TLI .F               150:   TOP LOG INTERVAL
 CBD .F                12:   CASING BOTTOM DRILLER
 BS  .IN            7.875:   BIT SIZE
 BSD .F               865:   BIT SIZE AT DEPTH
 DFT .       OIL EMULSION:   DRILLING FLUID TYPE
 DFD .               10.2:   DRILLING FLUID DENSITY
 DFV .                 48:   DRILLING FLUID VISCOSITY
 DFPH.                8.5:   DRILLING FLUID PH
 DFL .               10.2:   DRILLING FLUID LOSS
 RMS .OHMM            1.7:   RESISTIVITY MUD SAMPLE
 MST .F                57:   MUD SAMPLE TEMPERATURE
 MFSS.                  C:   MUD FILTRATE SAMPLE SOURCE
 MCSS.                  C:   MUD CAKE SAMPLE SOURCE
 RMB .OHMM            1.3:   RESISTIVITY MUD AT BHT
 BHT .F                75:   BOTTOM HOLE TEMPERATURE
 TCS .HRS               1:   TIME CURCULATED STOPPED
 MRT .F                75:   MAXIMUM RECORDED TEMPERATURE
 LUN .               2572:   LOGGING UNIT NUMBER
 LUL .                 NC:   LOGGING UNIT LOCATION
 ENGI.             ROUSER:   RECORDING ENGINEER
 WITN.          JORGENSEN:   WITNESSED BY
 CLNT.            A2DTECH:   CLIENT CODE
 ORIG.       2", 5" PRINT:   ORIGIN OF DATA
 UWI .       490250657800:   UNIQUE WELL ID
 DICO. A2D Technologies, Inc.:   DIGITIZING COMPANY
~OTHER INFORMATION
~A   DEPT      SPR       CILD        ASN        ILD         GR   
# ...
  759.5000   -45.8214    57.0792    19.0586    17.5498    38.0508
  760.0000   -45.8335    56.9232    18.9681    17.5947    39.8022
  760.5000   -45.8462    56.7673    18.7849    17.5593    43.0750
  761.0000   -45.8587    56.6132    18.6187    17.3548    46.3337
  761.5000   -45.8713    57.3559    18.4522    17.1621    49.6818
  762.0000   -45.8837    58.0897    18.2854    16.9732    49.6334
  762.5000   -45.8962    58.8235    18.1199    16.7780    48.8137
  763.0000   -45.9086    59.5574    17.9512    16.5949    50.8286
  763.5000   -45.9211    60.2912    17.7986    16.3850    43.1215
  764.0000   -45.9336    61.0250    17.7839    16.2720    39.2669
  764.5000   -45.9461    61.6232    17.7861    16.2874    41.8821
  765.0000   -45.9587    61.6232    17.7811    16.2795    43.9922
  765.5000   -45.9713    61.6232    17.6484    16.2867    45.7802
  766.0000   -45.9841    61.6232    17.4577    16.2664    43.0159
  766.5000   -45.9948    62.4693    17.2778    16.0744    37.0683
  767.0000   -45.9895    63.1907    17.0926    15.8507    39.3920
  767.5000   -45.9989    63.9122    16.9101    15.6357    43.2087
  768.0000   -45.9300    64.6336    16.7262    15.4137    49.2091
  768.5000   -45.8121    65.3536    16.5427    15.1999    45.3670
  769.0000   -45.7122    66.0751    16.3594    14.9732    46.8912
  769.5000   -45.6046    66.7973    16.1753    14.8665    47.9286
  770.0000   -45.5008    67.5194    15.9920    14.8917    46.3236
  770.5000   -45.3956    68.2408    15.8804    14.7929    51.2751
  771.0000   -45.2897    68.9628    15.7758    14.6447    54.3656
  771.5000   -45.1934    69.6846    15.6688    14.5169    56.0058
  772.0000   -45.1456    70.4069    15.5629    14.3811    49.2236
  772.5000   -45.1043    71.1266    15.4564    14.2495    45.9933
  773.0000   -45.0620    71.8480    15.3501    14.1161    47.4352
  773.5000   -45.0201    72.5695    15.2437    13.9823    47.9276
  774.0000   -44.9780    73.2909    15.1371    13.8503    46.2907
  774.5000   -44.9360    73.6473    15.0312    13.7175    44.0792
  775.0000   -44.8940    73.7384    14.9239    13.6685    49.5337
  775.5000   -44.8519    74.0408    14.8188    13.6127    45.6971
  776.0000   -44.8098    74.3432    14.7118    13.5331    45.0648
  776.5000   -44.7676    74.6457    14.6749    13.4603    42.2351
  777.0000   -44.7256    74.9481    14.6803    13.3839    43.4422
  777.5000   -44.6833    75.2505    14.6771    13.3750    44.8316
  778.0000   -44.6416    75.5529    14.6793    13.3764    42.0965
  778.5000   -44.5950    75.6513    14.6753    13.3760    38.6554
  779.0000   -44.5884    75.6513    14.6994    13.3749    37.8582
  779.5000   -44.5896    75.6513    14.7847    13.3771    44.0551
  780.0000   -44.5901    75.6513    14.8791    13.3721    41.2259
  780.5000   -44.5887    75.6513    14.8832    13.3809    43.9644
  781.0000   -44.5932    75.6513    15.0585    13.3622    46.2414
  781.5000   -44.5718    74.6078    15.2121    13.5054    40.4099
  782.0000   -44.4041    73.0039    15.9895    13.8340    42.9070
  782.5000   -44.2371    71.3999    16.7254    14.1374    46.6885
  783.0000   -44.0710    69.7960    17.4803    14.4566    49.1917
  783.5000   -43.9046    68.1921    18.2487    14.7634    44.8541
  784.0000   -43.7385    66.6333    19.0186    15.0849    49.5711
  784.5000   -43.5714    66.4001    19.4032    15.3591    55.3337
  785.0000   -43.4040    66.1733    18.5510    15.3926    57.9573
  785.5000   -43.3824    65.9464    17.5135    15.3492    55.4137
  786.0000   -43.3871    65.7196    16.4821    14.9741    58.6393
  786.5000   -43.3852    67.0818    15.6767    14.5626    60.9206
  787.0000   -43.3869    69.4580    15.1868    14.1528    61.8651
  787.5000   -43.3862    71.8341    15.0912    13.7532    58.5840
  788.0000   -43.3874    74.2103    14.9147    13.3319    60.1047
  788.5000   -43.3911    75.6513    14.7793    13.1595    57.1352
  789.0000   -43.4799    75.6513    14.7788    13.1816    58.4572
  789.5000   -43.5815    75.6513    14.7784    13.1728    52.1365
  790.0000   -43.5819    75.6513    14.6358    13.1669    53.5315
  790.5000   -43.4296    76.0794    14.4536    13.0435    55.6943
  791.0000   -43.2235    77.2135    14.2711    12.9046    57.8513
  791.5000   -43.0000    78.3476    14.0889    12.7726    55.0716
  792.0000   -42.6719    79.4817    13.9714    12.6296    56.4218
  792.5000   -42.2350    80.6613    13.9959    12.5695    49.8288
  793.0000   -42.1738    80.6613    13.9993    12.5759    46.2279
  793.5000   -42.2009    79.6593    14.0138    12.5748    47.8671
  794.0000   -42.3781    79.6593    14.0221    12.5716    43.6424
  794.5000   -42.5664    79.6593    14.0343    12.6129    40.7779
  795.0000   -42.5952    79.1636    14.0434    12.6993    42.8054
  795.5000   -42.5381    78.6383    14.0563    12.7747    45.2194
  796.0000   -42.1096    78.1131    14.0631    12.8546    46.7570
  796.5000   -41.7056    77.6553    14.0808    12.8793    43.9343
  797.0000   -41.2902    77.6553    14.0268    12.8696    46.5772
  797.5000   -41.2273    77.6553    13.9315    12.7863    49.7115
  798.0000   -41.4319    78.2572    13.8526    12.6830    44.6447
  798.5000   -41.5705    78.9118    13.7666    12.5843    46.2553
  799.0000   -41.5818    79.5663    13.6842    12.4832    47.1391
  799.5000   -41.5865    80.2208    13.6003    12.3834    44.5904
  800.0000   -41.5716    80.8753    13.5163    12.2830    47.2765
  800.5000   -41.7136    81.5298    13.4339    12.1826    48.0292
  801.0000   -41.9639    82.1843    13.3475    12.0808    45.8651
  801.5000   -42.1564    82.8388    13.2820    12.0219    48.6026
  802.0000   -42.1921    83.4933    13.2946    11.9670    45.0036
  802.5000   -42.0323    84.0793    13.3128    11.9103    48.3037
  803.0000   -42.0078    84.6404    13.3293    11.8547    45.7082
  803.5000   -41.7694    85.2015    13.3479    11.7976    43.3755
  804.0000   -41.1946    85.7626    13.3623    11.7427    40.6717
  804.5000   -40.5010    86.3238    13.4081    11.6787    48.4912
  805.0000   -40.4021    86.6733    13.5031    11.6721    56.7520
  805.5000   -41.2455    86.6733    13.5950    11.6670    53.5537
  806.0000   -41.8943    86.6733    13.6927    11.6901    51.3038
  806.5000   -42.0260    86.6733    13.9141    11.8026    54.1113
  807.0000   -41.7319    86.6733    14.0980    12.0342    51.0124
  807.5000   -41.0456    85.4144    14.3289    12.3068    46.6715
  808.0000   -40.3899    83.2997    15.1058    12.6538    45.0706
  808.5000   -39.6497    80.0178    15.7466    12.9802    46.5561
  809.0000   -39.6252    76.7346    16.4348    13.3855    38.9902
  809.5000   -40.2314    73.4517    17.1176    14.4358    41.3495
  810.0000   -40.7268    69.2656    18.3896    15.5072    45.0276
  810.5000   -41.3171    64.0042    19.6094    16.7792    43.1922
  811.0000   -41.5970    58.7465    21.1686    18.2811    49.0167
  811.5000   -41.6391    53.4866    22.6988    19.7633    53.0116
  812.0000   -42.4305    47.6515    24.2302    21.2415    53.7267
  812.5000   -43.1455    45.2795    25.7637    22.6917    49.3890
  813.0000   -43.3285    42.6083    27.2142    24.3319    45.2038
  813.5000   -43.4467    39.9317    27.9959    25.5658    42.4020
  814.0000   -43.5684    37.2597    28.7356    26.2056    49.3001
  814.5000   -43.4356    36.5206    29.3048    26.3019    45.1337
  815.0000   -43.2494    36.9439    29.4088    26.1832    39.5792
  815.5000   -43.1305    37.4489    28.9014    25.7472    35.4195
  816.0000   -43.0310    37.5751    27.4689    25.3153    37.1579
  816.5000   -42.9454    38.5521    26.0365    24.5094    41.0911
  817.0000   -42.8406    41.2575    24.6040    22.9257    43.9242
  817.5000   -42.7826    43.9629    23.5145    21.4228    45.2769
  818.0000   -42.7724    46.6683    22.7585    20.2467    41.4953
  818.5000   -42.5399    49.3737    22.0942    18.9891    43.1068
  819.0000   -42.2648    52.6052    21.7230    18.6655    40.0840
  819.5000   -41.9929    52.6052    21.3999    18.4616    41.3370
  820.0000   -41.7236    52.6052    21.0760    18.2460    43.3276
