~VERSION INFORMATION
 VERS.                2.0:   CWLS LOG ASCII STANDARD - VERSION 2.0
 WRAP.                 NO:   ONE LINE PER DEPTH STEP
~WELL INFORMATION
#MNEM.UNIT      DATA TYPE    INFORMATION
#----------   ------------   ------------------------------
 STRT.F          648.0000:   START DEPTH
 STOP.F         2443.0000:   STOP DEPTH
 STEP.F            0.5000:   STEP LENGTH
 NULL.          -999.2500:   NO VALUE
 COMP.    FENIX & SCISSON:   COMPANY
 WELL.  NPR #3 SHX-11 #22:   WELL
 FLD .             TEAPOT:   FIELD
 LOC .      S11 T38N R78W:   LOCATION
 CNTY.            NATRONA:   COUNTY
 STAT.            WYOMING:   STATE
 CTRY. UNITED STATES OF AMERICA:   COUNTRY
 SRVC.           BIRDWELL:   SERVICE COMPANY
 DATE.        23-APR-1978:   LOGDATE
 API .       490251061300:   API NUMBER
~CURVE INFORMATION
#MNEM.UNIT       API CODE    CURVE DESCRIPTION
#----------   ------------   ------------------------------
 DEPT.F                  :   
 CALD.IN     45 280 60 00:   CALIPER FROM DENSITY LOG
 CORR.G/C3   45 356 01 00:   DENSITY CORRECTION
 DPHI.DEC    45 890 12 00:   DENSITY POROSITY SANDSTONE
 GRD .GAPI   45 310 01 00:   GAMMA RAY FROM DENSITY LOG
 RHOB.G/C3   45 350 01 00:   BULK DENSITY
~PARAMETER INFORMATION
#MNEM.UNIT          VALUE    DESCRIPTION
#----------   ------------   ------------------------------
 PD  .                 GL:   PERMANENT DATUM
 EPD .F              5166:   ELEVATION PERMANENT DATUM
 LMF .                 KB:   LOG MEASURED FROM
 DMF .                 KB:   DRILLING MEASURED FROM
 EKB .F              5176:   KELLING BUSHING
 EGL .F              5166:   GROUND LEVEL
 DATE.        23-APR-1978:   RUN DATE
 RUN .                  1:   RUN NUMBER
 DD  .F              2450:   DEPTH DRILLER
 DL  .F              2450:   DEPTH LOGGER
 BLI .F              2443:   BOTTOM LOG INTERVAL
 TLI .F               670:   TOP LOG INTERVAL
 CS  .IN            9.625:   CASING SIZE
 CBD .F               660:   CASING BOTTOM DRILLER
 CBL .F               670:   CASING BOTTOM LOGGER
 BS  .IN             8.75:   BIT SIZE
 BSD .F              2450:   BIT SIZE AT DEPTH
 DFT .               MIST:   DRILLING FLUID TYPE
 LUN .               2958:   LOGGING UNIT NUMBER
 LUL .             CASPER:   LOGGING UNIT LOCATION
 ENGI.             MILLER:   RECORDING ENGINEER
 WITN.          MC GINLEY:   WITNESSED BY
 CLNT.            A2DTECH:   CLIENT CODE
 ORIG.           5" PRINT:   ORIGIN OF DATA
 UWI .       490251061300:   UNIQUE WELL ID
 DICO. A2D Technologies, Inc.:   DIGITIZING COMPANY
~OTHER INFORMATION
~A   DEPT     CALD       CORR       DPHI        GRD       RHOB   
# ...
 2356.0000     9.0305     0.0083     0.0517   128.3977     2.4610
 2356.5000     9.0309     0.0052     0.0501   130.0413     2.4730
 2357.0000     9.0312     0.0052     0.0486   130.3369     2.4767
 2357.5000     9.0314     0.0036     0.0471   129.5577     2.4699
 2358.0000     9.0317     0.0035     0.0451   124.7757     2.4631
 2358.5000     9.0320     0.0050     0.0514   123.5706     2.4669
 2359.0000     9.0473     0.0110     0.0457   123.2652     2.4638
 2359.5000     9.0626     0.0154     0.0415   122.6209     2.4578
 2360.0000     9.0629     0.0169     0.0403   118.6049     2.4615
 2360.5000     9.0782     0.0168     0.0376   118.1495     2.4766
 2361.0000     9.0784     0.0167     0.0352   118.7435     2.4811
 2361.5000     9.0788     0.0167     0.0343   119.3376     2.4871
 2362.0000     9.0791     0.0166     0.0353   119.4819     2.4878
 2362.5000     9.0794     0.0166     0.0365   118.7253     2.4863
 2363.0000     9.0796     0.0150     0.0386   114.4967     2.4855
 2363.5000     9.0650     0.0165     0.0392   109.5856     2.4825
 2364.0000     9.0653     0.0224     0.0368   105.3637     2.4782
 2364.5000     9.0656     0.0239     0.0222   103.4091     2.4978
 2365.0000     9.0721     0.0238     0.0155   102.2040     2.5132
 2365.5000     9.0811     0.0237     0.0137   106.6948     2.5207
 2366.0000     9.0814     0.0222     0.0125   113.8856     2.5230
 2366.5000     9.0818     0.0176     0.0117   122.2757     2.5237
 2367.0000     9.0821     0.0145     0.0203   125.2686     2.5237
 2367.5000     9.0823     0.0160     0.0225   122.2631     2.5124
 2368.0000     9.0826     0.0219     0.0256   117.9097     2.5056
 2368.5000     9.0829     0.0234     0.0322   113.2564     2.4980
 2369.0000     9.0832     0.0172     0.0337   106.5027     2.4912
 2369.5000     9.0836     0.0037     0.0334   105.5989     2.4882
 2370.0000     9.0838    -0.0024     0.0286   110.5395     2.5010
 2370.5000     9.0776    -0.0010     0.0226   114.8378     2.5010
 2371.0000     9.0695    -0.0010     0.0169   118.1744     2.5039
 2371.5000     9.0698    -0.0011     0.0223   116.2183     2.5114
 2372.0000     9.0701     0.0004     0.0302   106.1677     2.5144
 2372.5000     9.0704     0.0033     0.0311   102.4126     2.4948
 2373.0000     9.0856     0.0063     0.0275    94.0112     2.4941
 2373.5000     9.0710     0.0092     0.0215    89.9576     2.5031
 2374.0000     9.0713     0.0091     0.0125    93.5502     2.5143
 2374.5000     9.0716     0.0091     0.0023    99.5401     2.5211
 2375.0000     9.0719     0.0060    -0.0028    98.4851     2.5234
 2375.5000     9.0722     0.0075    -0.0016   100.5784     2.5267
 2376.0000     9.0725     0.0089     0.0066   102.3956     2.5304
 2376.5000     9.0728     0.0089     0.0220   104.7636     2.5176
 2377.0000     9.0731     0.0118     0.0262   106.5571     2.5116
 2377.5000     9.0734     0.0148     0.0283   106.5515     2.4995
 2378.0000     9.0737     0.0147     0.0226   104.8252     2.4965
 2378.5000     9.0740     0.0146     0.0154    97.5434     2.5003
 2379.0000     9.0743     0.0146     0.0172    97.8376     2.5051
 2379.5000     9.0746     0.0145     0.0227   100.8305     2.5206
 2380.0000     9.0749     0.0114     0.0311   103.3722     2.5130
 2380.5000     9.0752     0.0144     0.0320   105.3156     2.4964
 2381.0000     9.0904     0.0143     0.0317   110.5574     2.4927
 2381.5000     9.0907     0.0158     0.0327   118.8132     2.4910
 2382.0000     9.0911     0.0172     0.0345   122.0889     2.4889
 2382.5000     9.0913     0.0187     0.0384   118.9349     2.4874
 2383.0000     9.0916     0.0186     0.0333   116.8303     2.4843
 2383.5000     9.0919     0.0231     0.0291   116.6747     2.4843
 2384.0000     9.1072     0.0275     0.0267   116.6678     2.4907
 2384.5000     9.1225     0.0154     0.0228   117.1119     2.4993
 2385.0000     9.1228     0.0123     0.0289   125.0523     2.5008
 2385.5000     9.1231     0.0108     0.0388   130.1428     2.5031
 2386.0000     9.1234     0.0152     0.0533   136.5839     2.4827
 2386.5000     9.1237     0.0193     0.0569   141.3759     2.4662
 2387.0000     9.1240     0.0257     0.0578   140.6207     2.4601
 2387.5000     9.1092     0.0286     0.0491   136.7156     2.4511
 2388.0000     9.0796     0.0135     0.0534   133.9753     2.4541
 2388.5000     9.0640     0.0029     0.0567   131.7222     2.4578
 2389.0000     9.0204    -0.0002     0.0582   124.5215     2.4541
 2389.5000     9.0057     0.0013     0.0607   125.1169     2.4465
 2390.0000     8.9761     0.0057     0.0643   130.0591     2.4367
 2390.5000     8.9913     0.0132     0.0607   141.1493     2.4329
 2391.0000     9.0066     0.0192     0.0571   144.2934     2.4329
 2391.5000     9.0219     0.0221     0.0550   144.2892     2.4442
 2392.0000     9.0222     0.0220     0.0576   144.3049     2.4502
 2392.5000     9.0374     0.0205     0.0608   148.3275     2.4494
 2393.0000     9.0527     0.0234     0.0611   150.5721     2.4479
 2393.5000     9.0530     0.0324     0.0563   150.8688     2.4434
 2394.0000     9.0533     0.0429     0.0492   148.9144     2.4471
 2394.5000     9.0686     0.0428     0.0380   148.4603     2.4577
 2395.0000     9.0689     0.0428     0.0464   149.2046     2.4749
 2395.5000     9.0841     0.1240     0.0428   147.7011     2.4817
 2396.0000     9.1144     0.1616     0.0263   140.8002     2.4659
 2396.5000     9.2345     0.1209     0.0151   129.2518     2.5930
 2397.0000     9.4144     0.0380     0.0082   128.3479     2.5622
 2397.5000     9.5045     0.0184     0.0047   128.6435     2.5080
 2398.0000     9.3701     0.0198     0.0008   127.4388     2.5350
 2398.5000     9.1438     0.0198    -0.0025   123.9862     2.5411
 2399.0000     9.0414     0.0122    -0.0040   119.0344     2.5471
 2399.5000     9.0266     0.0046    -0.0012   116.5548     2.5508
 2400.0000     9.0270     0.0030     0.0023   111.9783     2.5508
 2400.5000     9.0274     0.0060     0.0048   108.8256     2.5493
 2401.0000     9.0428     0.0134     0.0069   105.3730     2.5431
 2401.5000     9.0582     0.0104     0.0033   108.3673     2.5380
 2402.0000     9.0737     0.0028     0.0051   119.1565     2.5394
 2402.5000     9.0891     0.0102     0.0093   122.4517     2.5477
 2403.0000     9.1195     0.0177     0.0100   120.9471     2.5402
 2403.5000     9.1349     0.0254     0.0082   114.3461     2.5341
 2404.0000     9.1354     0.0357     0.0046   112.8426     2.5326
 2404.5000     9.1358     0.0356     0.0073   114.7862     2.5349
 2405.0000     9.1213     0.0295     0.0094   124.9769     2.5356
 2405.5000     9.0619     0.0295     0.0046   129.1705     2.5326
 2406.0000     9.0323     0.0328    -0.0026   129.9169     2.5303
 2406.5000     9.0478     0.0354    -0.0029   122.0754     2.5461
 2407.0000     9.0781     0.0308    -0.0013   114.4639     2.5543
 2407.5000     9.1086     0.0247    -0.0013   111.1613     2.5528
 2408.0000     9.1390     0.0246    -0.0016   110.5573     2.5483
 2408.5000     9.1543     0.0291    -0.0025   110.1033     2.5568
 2409.0000     9.2148     0.0320     0.0000   108.7016     2.5648
 2409.5000     9.2451     0.0350     0.0036   106.3455     2.5625
 2410.0000     9.2755     0.0334     0.0072   101.8435     2.5565
 2410.5000     9.2909     0.0304     0.0084    97.4914     2.5460
 2411.0000     9.3064     0.0273     0.0109    97.1873     2.5437
 2411.5000     9.2469     0.0227     0.0124    97.1958     2.5414
 2412.0000     9.1425     0.0272     0.0145    97.9273     2.5331
 2412.5000     9.1130     0.0331     0.0172    99.2723     2.5263
 2413.0000     9.1435     0.0362     0.0253   103.7658     2.5233
 2413.5000     9.1588     0.0496     0.0374   108.7091     2.5118
 2414.0000     9.0844     0.0826     0.0407   118.6645     2.5105
 2414.5000     9.0549     0.0946     0.0124   124.5915     2.4792
 2415.0000     9.0404     0.0765     0.0248   126.6862     2.4950
 2415.5000     9.0858     0.0505     0.0218   127.4326     2.5198
 2416.0000     9.1158     0.0402     0.0079   123.6791     2.5310
 2416.5000     9.1616     0.0402     0.0158   120.4570     2.5310
