~VERSION INFORMATION
 VERS.                2.0:   CWLS LOG ASCII STANDARD - VERSION 2.0
 WRAP.                 NO:   ONE LINE PER DEPTH STEP
~WELL INFORMATION
#MNEM.UNIT      DATA TYPE    INFORMATION
#----------   ------------   ------------------------------
 STRT.F           48.0000:   START DEPTH
 STOP.F          524.0000:   STOP DEPTH
 STEP.F            0.5000:   STEP LENGTH
 NULL.          -999.2500:   NO VALUE
 COMP. LAWRENCE/ALLISON INC:   COMPANY
 WELL.      41-66 SX #3-3:   WELL
 FLD .             TEAPOT:   FIELD
 LOC .       S3 T38N R78W:   LOCATION
 CNTY.            NATRONA:   COUNTY
 STAT.            WYOMING:   STATE
 CTRY. UNITED STATES OF AMERICA:   COUNTRY
 SRVC.              Welex:   SERVICE COMPANY
 DATE.        22-AUG-1987:   LOGDATE
 API .       490251116200:   API NUMBER
~CURVE INFORMATION
#MNEM.UNIT       API CODE    CURVE DESCRIPTION
#----------   ------------   ------------------------------
 DEPT.F                  :   
 GRR .GAPI   07 310 01 00:   GAMMA RAY
 ILD .OHMM   07 120 46 00:   INDUCTION LOG DEEP
 ILM .OHMM   07 120 44 00:   INDUCTION LOG MEDIUM
~PARAMETER INFORMATION
#MNEM.UNIT          VALUE    DESCRIPTION
#----------   ------------   ------------------------------
 PD  .                 GL:   PERMANENT DATUM
 EPD .F              5123:   ELEVATION PERMANENT DATUM
 LMF .                 KB:   LOG MEASURED FROM
 DAPD.F                 8:   FEET ABOVE PERMANENT DATUM
 DMF .                 KB:   DRILLING MEASURED FROM
 EKB .F              5131:   KELLING BUSHING
 EDF .F              5130:   DRILLING FLOOR
 EGL .F              5123:   GROUND LEVEL
 DATE.        22-AUG-1987:   RUN DATE
 RUN .                  1:   RUN NUMBER
 DD  .F               542:   DEPTH DRILLER
 DL  .F               542:   DEPTH LOGGER
 BLI .F               524:   BOTTOM LOG INTERVAL
 TLI .F                47:   TOP LOG INTERVAL
 CBL .F                48:   CASING BOTTOM LOGGER
 BS  .IN            7.875:   BIT SIZE
 BSD .F               542:   BIT SIZE AT DEPTH
 DFT .                AIR:   DRILLING FLUID TYPE
 TLAB.HRS            0500:   TIME LOGGER AT BOTTOM
 MRT .F                85:   MAXIMUM RECORDED TEMPERATURE
 LUN .              51169:   LOGGING UNIT NUMBER
 LUL .           GILLETTE:   LOGGING UNIT LOCATION
 ENGI.             K.BUNL:   RECORDING ENGINEER
 WITN.             STRONG:   WITNESSED BY
 CLNT.            A2DTECH:   CLIENT CODE
 ORIG.           5" PRINT:   ORIGIN OF DATA
 UWI .       490251116200:   UNIQUE WELL ID
 DICO. A2D Technologies, Inc.:   DIGITIZING COMPANY
~OTHER INFORMATION
~A   DEPT      GRR          ILD       ILM  
# ...
  412.0000    89.1283    13.3720    12.7195
  412.5000    90.3460    13.1874    12.3688
  413.0000    92.7613    13.0054    12.1119
  413.5000    93.9831    12.8258    11.8603
  414.0000    95.5011    12.6484    11.7750
  414.5000    97.0182    12.6468    11.6895
  415.0000    98.5353    12.5583    11.6857
  415.5000    99.1542    12.4705    11.6018
  416.0000   100.3719    12.4689    11.5183
  416.5000    99.4621    12.4672    11.6735
  417.0000    96.5248    12.5513    11.7513
  417.5000    92.9521    12.5496    11.9095
  418.0000    91.1758    12.5480    12.0829
  418.5000    89.6989    12.5463    12.2344
  419.0000    89.1198    12.5447    12.3150
  419.5000    89.4960    12.5429    12.3100
  420.0000    92.7582    12.4549    12.1539
  420.5000    96.0717    12.1987    12.1523
  421.0000    97.5888    12.0303    11.9022
  421.5000    95.2136    11.8643    11.6568
  422.0000    90.4433    11.7005    11.4958
  422.5000    87.1308    11.5257    11.1819
  423.0000    86.2919    11.3013    10.8766
  423.5000    91.7062    11.2223    10.5796
  424.0000    95.0197    11.0674    10.2907
  424.5000    97.7344    10.9900    10.0785
  425.0000    98.9521    10.9885     9.9393
  425.5000    97.1808    10.9870     9.8698
  426.0000    96.5971    10.9853     9.8007
  426.5000    96.9216    11.1361     9.7322
  427.0000    98.1393    11.2119     9.7306
  427.5000   100.2552    11.4440     9.9325
  428.0000   101.7723    11.9249    10.2086
  428.5000    98.8034    12.8608    11.1636
  429.0000    93.7336    13.6810    12.0484
  429.5000    88.3645    14.6540    13.2578
  430.0000    83.5942    15.6962    14.6991
  430.5000    78.2250    17.0455    16.2971
  431.0000    76.4487    19.1591    17.8215
  431.5000    76.7732    21.0227    19.2373
  432.0000    79.7873    23.2249    21.7560
  432.5000    78.6098    24.2010    24.2879
  433.0000    77.1329    24.8733    25.8380
  433.5000    75.6560    25.7409    27.1109
  434.0000    73.7725    26.2745    28.4557
  434.5000    69.7081    26.8499    29.0368
  435.0000    71.2252    27.3743    29.8431
  435.5000    70.0477    27.5598    30.4623
  436.0000    72.4680    27.1793    30.8810
  436.5000    75.4821    26.4377    30.8767
  437.0000    75.5030    25.7163    30.4493
  437.5000    74.9235    25.1865    29.6178
  438.0000    78.5414    24.8388    27.8337
  438.5000    81.5555    24.4960    25.0979
  439.0000    78.5187    24.1578    24.7404
  439.5000    77.9371    23.8244    24.0745
  440.0000    78.8638    23.8212    23.5790
  440.5000    77.6890    23.7907    23.7389
  441.0000    73.5202    23.3274    23.4110
  441.5000    76.2434    23.0054    23.0762
  442.0000    74.4698    22.5322    22.4565
  442.5000    75.0914    22.0688    21.8432
  443.0000    76.9107    21.4666    21.3937
  443.5000    78.4969    20.8807    20.6666
  444.0000    81.7525    20.4506    20.1022
  444.5000    84.1648    20.1683    20.3785
  445.0000    81.1993    19.8899    20.2353
  445.5000    77.9287    19.8873    19.9558
  446.0000    76.4272    19.7483    19.5450
  446.5000    75.2798    19.7230    19.6775
  447.0000    73.5062    19.6070    19.4051
  447.5000    81.6186    19.6044    19.5367
  448.0000    84.3360    19.4680    19.9427
  448.5000    86.8233    19.5993    20.0919
  449.0000    91.5730    19.5966    19.3820
  449.5000    94.2905    19.5939    18.9957
  450.0000    94.9064    19.5908    19.3892
  450.5000    90.4022    19.5882    19.7915
  451.0000    90.7661    19.7527    19.9257
  451.5000    89.2977    19.9919    19.3675
  452.0000    87.8178    19.8516    19.2460
  452.5000    91.4391    19.8490    19.5104
  453.0000    93.2584    19.8464    19.6427
  453.5000    94.4788    19.8431    19.5047
  454.0000    92.1121    19.4350    19.0883
  454.5000    91.2368    19.0353    18.5810
  455.0000    89.4632    18.6438    18.5785
  455.5000    85.5938    18.2603    18.3219
  456.0000    84.1196    18.0077    17.9448
  456.5000    84.7412    17.7592    17.6969
  457.0000    80.2788    17.7568    17.5726
  457.5000    79.1040    17.6327    17.4496
  458.0000    76.7316    17.4998    17.3276
  458.5000    69.8623    17.0312    16.9709
  459.0000    67.4958    16.6809    16.6067
  459.5000    71.7160    16.4506    16.1672
  460.0000    82.2178    16.0018    15.8344
  460.5000    87.9293    15.5494    15.4020
  461.0000    94.2396    15.0361    14.9815
  461.5000    98.7534    14.8285    14.7604
  462.0000    95.7879    14.4239    14.4700
  462.5000    94.6132    14.1273    14.1721
  463.0000    92.8339    13.8363    13.9764
  463.5000    94.6588    13.7396    13.6887
  464.0000    91.9927    13.6435    13.4860
  464.5000    86.9258    13.4552    13.0404
  465.0000    85.4516    13.3550    12.9492
  465.5000    83.6780    13.1763    12.7703
  466.0000    80.7305    13.0842    12.6810
  466.5000    82.4153    12.9036    12.5058
  467.0000    91.5366    12.8134    12.5038
  467.5000    94.2541    12.6365    12.5022
  468.0000    98.1691    12.4618    12.4147
  468.5000   100.8866    12.3747    12.3278
  469.0000   100.5269    12.2039    12.0737
  469.5000    94.0517    12.1186    11.9893
  470.0000    91.9787    12.0335    11.9054
  470.5000    91.3970    11.9494    11.7409
  471.0000    95.9166    11.8658    11.6588
  471.5000    99.2705    11.7829    11.5769
  472.0000   101.0578    11.7813    11.6557
  472.5000   100.4818    11.7794    11.6538
  473.0000    95.7142    11.7779    11.6523
  473.5000    86.7550    11.7763    11.5708
  474.0000    82.2868    11.7748    11.5689
  474.5000    85.0100    11.7635    11.5674
  475.0000    89.8232    11.6906    11.5659
  475.5000    95.5347    11.6891    11.6447
  476.0000    99.4497    11.6875    11.7232
  476.5000   103.0119    11.6860    11.7213
  477.0000   100.6987    11.6841    11.7198
  477.5000   100.1227    11.6024    11.7182
  478.0000   100.1455    11.6009    11.7167
  478.5000    97.7732    11.5994    11.7152
  479.0000    97.8184    11.5947    11.7133
  479.5000    96.0281    11.5164    11.6313
  480.0000    92.7518    11.5149    11.5499
  480.5000    93.9780    11.4345    11.5484
  481.0000    91.3062    11.3545    11.5469
  481.5000    92.5439    11.3447    11.5450
  482.0000    91.9506    11.2733    11.5435
  482.5000    88.9852    11.1945    11.4628
  483.0000    87.2059    11.1931    11.2268
  483.5000    90.2284    11.1148    10.5497
  484.0000    93.9520    11.0368    10.4048
  484.5000   102.2559    11.0353    10.6937
  485.0000    99.8835    11.0339    10.7666
  485.5000    98.7030    11.1090    10.6175
  486.0000   100.8273    11.1072    10.6910
  486.5000    99.0050    11.1054    10.9867
  487.0000    94.2862    11.1039    11.0612
  487.5000    98.8057    11.1025    11.1362
  488.0000   100.6250    11.1010    11.1344
  488.5000   102.4442    11.0234    11.1329
  489.0000   102.1657    10.8709    10.8286
  489.5000    99.5015    10.7949    10.7528
  490.0000    98.6205    10.7195    10.6043
  490.5000    97.1520    10.7181    10.6029
  491.0000    97.1748    10.7163    10.6015
  491.5000    99.2935    10.5684    10.2409
  492.0000    99.9208    10.4946    10.1693
  492.5000    97.2490    10.3497    10.1679
  493.0000    96.6674    10.2069    10.2369
  493.5000   101.4863    10.1352    10.2355
  494.0000   105.4013    10.0644    10.3049
  494.5000   112.0167     9.9940    10.0925
  495.0000   115.6324     9.9241     9.9531
  495.5000   117.4459     9.7872     9.7482
  496.0000   113.2828     9.6518     9.7469
  496.5000   101.3296     9.3884     9.2228
  497.0000   100.4542     9.2588     9.1583
  497.5000   102.2379     9.1311     9.1571
  498.0000   108.8888     8.9959     9.1559
  498.5000   108.6065     8.8805     8.9636
  499.0000   107.1381     8.5789     8.2546
  499.5000    99.7713     8.0072     7.7574
  500.0000   100.3032     7.2706     7.2901
  500.5000   103.0206     6.4666     6.8509
  501.0000   107.8339     6.2470     6.1177
  501.5000   119.8328     6.2033     5.4939
  502.0000   134.1076     6.1797     5.1987
  502.5000   141.4410     6.1158     5.4173
