~VERSION INFORMATION
 VERS.                2.0:   CWLS LOG ASCII STANDARD - VERSION 2.0
 WRAP.                 NO:   ONE LINE PER DEPTH STEP
~WELL INFORMATION
#MNEM.UNIT      DATA TYPE    INFORMATION
#----------   ------------   ------------------------------
 STRT.F          103.0000:   START DEPTH
 STOP.F          898.0000:   STOP DEPTH
 STEP.F            0.5000:   STEP LENGTH
 NULL.          -999.2500:   NO VALUE
 COMP. LAWRENCE/ALLISON INC:   COMPANY
 WELL. NPR 3 32-66 SX #2-2:   WELL
 FLD .             TEAPOT:   FIELD
 LOC .       S2 T38N R78W:   LOCATION
 CNTY.            NATRONA:   COUNTY
 STAT.            WYOMING:   STATE
 CTRY. UNITED STATES OF AMERICA:   COUNTRY
 SRVC.      Dresser Atlas:   SERVICE COMPANY
 DATE.        30-JAN-1986:   LOGDATE
 API .       490251106900:   API NUMBER
~CURVE INFORMATION
#MNEM.UNIT       API CODE    CURVE DESCRIPTION
#----------   ------------   ------------------------------
 DEPT.F                  :   
 RILD.OHMM   07 120 46 00:   INDUCTION LOG DEEP RESISTIVITY
 RILM.OHMM   07 120 44 00:   INDUCTION LOG MEDIUM RESISTIVITY
 CALD.IN     45 280 60 00:   CALIPER FROM DENSITY
 GRD .GAPI   45 310 01 00:   GAMMA RAY FROM DENSITY LOG
 CORR.G/C3   45 356 01 00:   DENSITY CORRECTION
 PORD.DEC    45 890 10 00:   POROSITY DENSITY LIMESTONE
 DEN .G/C3   45 350 01 00:   COMPENSATED BULK DENSITY
~PARAMETER INFORMATION
#MNEM.UNIT          VALUE    DESCRIPTION
#----------   ------------   ------------------------------
 PD  .                 GL:   PERMANENT DATUM
 EPD .F              5136:   ELEVATION PERMANENT DATUM
 LMF .                 GL:   LOG MEASURED FROM
 DMF .                 GL:   DRILLING MEASURED FROM
 EGL .F              5136:   GROUND LEVEL
 DATE.        30-JAN-1986:   RUN DATE
 RUN .                  1:   RUN NUMBER
 DD  .F               885:   DEPTH DRILLER
 DL  .F               902:   DEPTH LOGGER
 BLI .F               894:   BOTTOM LOG INTERVAL
 CS  .IN            8.625:   CASING SIZE
 CBD .F               130:   CASING BOTTOM DRILLER
 CBL .F               126:   CASING BOTTOM LOGGER
 BS  .IN             6.25:   BIT SIZE
 BSD .F               885:   BIT SIZE AT DEPTH
 DFT .                AIR:   DRILLING FLUID TYPE
 LUN .            HL-6264:   LOGGING UNIT NUMBER
 LUL .           GILLETTE:   LOGGING UNIT LOCATION
 ENGI.     P. M. FAHLSING:   RECORDING ENGINEER
 WITN.        LINDA FIVAS:   WITNESSED BY
 CLNT.            A2DTECH:   CLIENT CODE
 ORIG.           5" PRINT:   ORIGIN OF DATA
 UWI .       490251106900:   UNIQUE WELL ID
 DICO. A2D Technologies, Inc.:   DIGITIZING COMPANY
 R1  . POROSITY WITH LIMESTONE:   REMARKS 1
~OTHER INFORMATION
~A   DEPT     RILD       RILM       CALD        GRD       CORR       PORD        DEN   
# ...
  512.5000     9.1623     9.0654     7.1423   126.1261     0.0781     0.1457     2.4340
  513.0000     9.0425     9.0741     7.1575   127.6276     0.0826     0.1397     2.4431
  513.5000     9.0511     9.0185     7.1728   131.2312     0.0796     0.1361     2.4521
  514.0000     8.9964     9.0254     7.1880   134.2342     0.0750     0.1349     2.4552
  514.5000     8.9425     8.9081     7.2032   135.1351     0.0720     0.1343     2.4559
  515.0000     8.8889     8.9133     7.2033   135.1351     0.0734     0.1343     2.4551
  515.5000     8.8970     8.7975     7.2035   133.3233     0.0794     0.1349     2.4551
  516.0000     8.9051     8.7435     7.2036   131.4517     0.0945     0.1391     2.4491
  516.5000     8.9132     8.7503     7.2038   128.4985     0.1171     0.1397     2.4476
  517.0000     8.9213     8.7570     7.2039   128.6087     0.1398     0.1349     2.4506
  517.5000     8.9294     8.7638     7.2041   130.4306     0.1518     0.1340     2.4551
  518.0000     8.9375     8.7705     7.1741   135.1351     0.1254     0.1391     2.4490
  518.5000     8.8819     8.7773     7.1743   138.7387     0.0863     0.1440     2.4392
  519.0000     8.8307     8.7841     7.1593   138.7387     0.0655     0.1470     2.4339
  519.5000     8.8387     8.8519     7.1595   136.9369     0.0678     0.1461     2.4339
  520.0000     8.8468     8.8588     7.1596   129.7297     0.0903     0.1410     2.4385
  520.5000     8.8548     8.8656     7.1598   124.6246     0.1068     0.1229     2.4680
  521.0000     8.8629     8.9341     7.1599   121.9219     0.1093     0.1006     2.4973
  521.5000     8.8709     8.9410     7.1601   121.3213     0.1026     0.0978     2.5201
  522.0000     8.8790     8.8844     7.1602   121.9219     0.0685     0.1087     2.5104
  522.5000     8.8871     8.8316     7.1604   123.7237     0.0745     0.1241     2.4717
  523.0000     8.8952     8.7758     7.1605   126.7267     0.1001     0.1313     2.4596
  523.5000     8.7808     8.6617     7.1607   130.6306     0.1107     0.1350     2.4550
  524.0000     8.5487     8.5508     7.1608   131.5315     0.1121     0.1368     2.4520
  524.5000     8.3227     8.3236     7.1610   129.7297     0.1061     0.1374     2.4497
  525.0000     8.1481     8.1953     7.1762   128.5285     0.0970     0.1380     2.4474
  525.5000     7.9350     7.8795     7.1792   127.9279     0.0879     0.1386     2.4497
  526.0000     7.7316     7.6163     7.2067   127.9279     0.0833     0.1404     2.4489
  526.5000     7.5254     7.3178     7.2068   127.9279     0.0788     0.1459     2.4459
  527.0000     7.2777     7.1241     7.2070   128.5285     0.0848     0.1453     2.4368
  527.5000     7.0364     6.9829     7.2071   130.9309     0.0983     0.1405     2.4444
  528.0000     6.8979     6.8921     7.2073   132.1321     0.1149     0.1344     2.4580
  528.5000     6.8564     6.8976     7.2074   129.7297     0.1209     0.1302     2.4640
  529.0000     6.8629     6.9029     7.2076   128.5285     0.1179     0.1281     2.4655
  529.5000     6.9169     7.0533     7.1926   130.3303     0.1088     0.1278     2.4670
  530.0000     7.0685     7.2069     7.1777   132.4324     0.0937     0.1293     2.4655
  530.5000     7.1736     7.3131     7.1779   133.3333     0.0891     0.1290     2.4647
  531.0000     7.2803     7.3696     7.1780   132.4125     0.0906     0.1253     2.4715
  531.5000     7.3375     7.3753     7.1782   131.8318     0.0921     0.1204     2.4814
  532.0000     7.3953     7.4322     7.1783   134.6147     0.0996     0.1176     2.4851
  532.5000     7.4534     7.4897     7.1785   136.7870     0.1011     0.1220     2.4761
  533.0000     7.5121     7.5475     7.1786   139.3393     0.1040     0.1248     2.4730
  533.5000     7.6238     7.6587     7.1788   141.7417     0.1206     0.1242     2.4730
  534.0000     7.7371     7.7179     7.1789   142.9429     0.1357     0.1218     2.4745
  534.5000     7.8522     7.8315     7.1791   138.1381     0.1372     0.1200     2.4791
  535.0000     7.9139     7.8905     7.1641   136.9369     0.1024     0.1224     2.4775
  535.5000     7.9762     7.8421     7.1643   136.3363     0.0782     0.1300     2.4715
  536.0000     7.9834     7.9028     7.1645   136.3363     0.0782     0.1333     2.4616
  536.5000     7.9892     7.9088     7.1646   136.6366     0.0857     0.1309     2.4624
  537.0000     7.9410     7.9149     7.1648   136.9369     0.0963     0.1237     2.4715
  537.5000     7.9484     7.9210     7.1649   138.7387     0.1023     0.1204     2.4805
  538.0000     7.9555     7.9271     7.1651   139.9399     0.0962     0.1198     2.4759
  538.5000     7.9627     7.8785     7.1652   138.7387     0.0856     0.1255     2.4668
  539.0000     7.8603     7.7761     7.1654   137.8378     0.0841     0.1309     2.4615
  539.5000     7.8130     7.7269     7.1505   136.9369     0.0886     0.1285     2.4608
  540.0000     7.8203     7.7344     7.1506   136.3363     0.1142     0.1219     2.4824
  540.5000     7.8274     7.6855     7.1508   135.1351     0.1232     0.1171     2.4904
  541.0000     7.8346     7.6929     7.1660   133.3333     0.1217     0.1123     2.4945
  541.5000     7.7876     7.7523     7.1661   131.5315     0.1126     0.1092     2.5016
  542.0000     7.7947     7.8122     7.1663   130.0300     0.0990     0.1068     2.5062
  542.5000     7.8018     7.8182     7.1664   129.1291     0.0898     0.1053     2.5077
  543.0000     7.8089     7.8786     7.1666   130.0300     0.0838     0.1075     2.5031
  543.5000     7.8703     7.8847     7.1667   135.4354     0.0870     0.1161     2.4870
  544.0000     7.8775     7.8908     7.1819   137.2372     0.0930     0.1238     2.4736
  544.5000     7.8846     7.8969     7.1821   136.0360     0.1059     0.1177     2.4820
  545.0000     7.9466     7.9017     7.1973   134.5345     0.1322     0.1147     2.4881
  545.5000     7.9539     7.9077     7.2125   137.0261     0.1315     0.1144     2.4895
  546.0000     7.9611     7.9138     7.2127   141.1411     0.1254     0.1159     2.4886
  546.5000     7.9684     7.9198     7.2128   138.6787     0.1177     0.1172     2.4863
  547.0000     7.9756     7.9259     7.1828   137.4574     0.1047     0.1190     2.4831
  547.5000     7.9829     7.8771     7.1830   136.3363     0.0926     0.1211     2.4789
  548.0000     7.8150     7.8287     7.1832   135.7357     0.0844     0.1238     2.4751
  548.5000     7.4542     7.5683     7.1833   135.7357     0.0743     0.1262     2.4705
  549.0000     7.3139     7.4170     7.1835   135.7357     0.0623     0.1262     2.4682
  549.5000     7.3206     7.3715     7.1836   135.1351     0.0713     0.1259     2.4720
  550.0000     7.3272     7.3772     7.1687   134.5345     0.0955     0.1256     2.4743
  550.5000     7.3338     7.3107     7.1726   134.9092     0.1196     0.1263     2.4682
  551.0000     7.3395     7.2894     7.1763   135.1351     0.1075     0.1275     2.4667
  551.5000     7.3352     7.2457     7.1799   135.1351     0.1015     0.1272     2.4712
  552.0000     7.2483     7.2525     7.1836   135.1351     0.0954     0.1251     2.4742
  552.5000     7.2007     7.1590     7.1845   135.1351     0.0863     0.1227     2.4757
  553.0000     6.9628     7.0157     7.1847   135.1351     0.0818     0.1215     2.4758
  553.5000     6.5938     6.7853     7.1848   135.1351     0.0773     0.1218     2.4764
  554.0000     6.2867     6.5153     7.1850   135.1351     0.0772     0.1221     2.4771
  554.5000     5.7898     6.0849     7.1851   135.1351     0.0802     0.1221     2.4786
  555.0000     5.5201     5.6438     7.1853   134.2342     0.0802     0.1221     2.4778
  555.5000     5.4852     5.4944     7.1854   133.6336     0.0862     0.1227     2.4701
  556.0000     5.6058     5.5378     7.1856   133.3333     0.0983     0.1277     2.4587
  556.5000     5.6883     5.6592     7.1857   133.3333     0.1164     0.1362     2.4482
  557.0000     5.8526     5.7833     7.1859   132.7327     0.1285     0.1402     2.4467
  557.5000     5.9801     5.9101     7.1860   131.2312     0.1390     0.1408     2.4467
