~VERSION INFORMATION
 VERS.                2.0:   CWLS LOG ASCII STANDARD - VERSION 2.0
 WRAP.                 NO:   ONE LINE PER DEPTH STEP
~WELL INFORMATION
#MNEM.UNIT      DATA TYPE    INFORMATION
#----------   ------------   ------------------------------
 STRT.F            0.0000:   START DEPTH
 STOP.F          860.0000:   STOP DEPTH
 STEP.F            0.5000:   STEP LENGTH
 NULL.          -999.2500:   NO VALUE
 COMP.          U.S. NAVY:   COMPANY
 WELL. NPR #3 TEAPOT DOME #28S-35:   WELL
 FLD .             TEAPOT:   FIELD
 LOC .      S35 T39N R78W:   LOCATION
 CNTY.            NATRONA:   COUNTY
 STAT.            WYOMING:   STATE
 CTRY. UNITED STATES OF AMERICA:   COUNTRY
 SRVC.       Schlumberger:   SERVICE COMPANY
 DATE.        10-NOV-1958:   LOGDATE
 API .       490250649800:   API NUMBER
~CURVE INFORMATION
#MNEM.UNIT       API CODE    CURVE DESCRIPTION
#----------   ------------   ------------------------------
 DEPT.F                  :   
 SPR .MV     01 010 01 00:   SPONTANEOUS POTENTIAL FROM RES.
 ASN .OHMM   01 041 16 00:   AMPLIFIED SHORT NORMAL 16"
 LT18.OHMM   01 070 18 00:   LATERAL 18'
 LN  .OHMM   01 060 64 00:   LONG NORMAL 64"
 GRN .CPS    35 310 30 00:   GAMMA RAY
 NEUT.CPS    35 330 30 00:   NEUTRON
 MCAL.IN     15 280 01 00:   CALIPER FROM MICRO LOG
~PARAMETER INFORMATION
#MNEM.UNIT          VALUE    DESCRIPTION
#----------   ------------   ------------------------------
 LMF .                 KB:   LOG MEASURED FROM
 DMF .                 KB:   DRILLING MEASURED FROM
 EKB .F              5113:   KELLING BUSHING
 EGL .F              5103:   GROUND LEVEL
 DATE.         11-10-1958:   RUN DATE
 RUN .                  1:   RUN NUMBER
 DD  .F               860:   DEPTH DRILLER
 DL  .F               861:   DEPTH LOGGER
 BLI .F               860:   BOTTOM LOG INTERVAL
 TLI .F                90:   TOP LOG INTERVAL
 CBD .F                34:   CASING BOTTOM DRILLER
 BS  .IN             6.75:   BIT SIZE
 BSD .F               860:   BIT SIZE AT DEPTH
 DFT .          OIL ADDED:   DRILLING FLUID TYPE
 DFD .                 10:   DRILLING FLUID DENSITY
 DFV .                 20:   DRILLING FLUID VISCOSITY
 DFPH.                7.5:   DRILLING FLUID PH
 DFL .                4.2:   DRILLING FLUID LOSS
 RMS .OHMM              2:   RESISTIVITY MUD SAMPLE
 MST .F                62:   MUD SAMPLE TEMPERATURE
 RMF .OHMM            1.4:   RESISTIVITY MUD FILTRATE SAMPLE
 MFST.F                72:   MUD FILTRATE SAMPLE TEMPERATURE
 RMC .OHMM            1.9:   RESISTIVITY MUD CAKE
 MCST.F                72:   MUD CAKE SAMPLE TEMPERATURE
 MFSS.                  M:   MUD FILTRATE SAMPLE SOURCE
 MCSS.                  M:   MUD CAKE SAMPLE SOURCE
 RMB .OHMM            1.7:   RESISTIVITY MUD AT BHT
 BHT .F                72:   BOTTOM HOLE TEMPERATURE
 TCS .HRS               1:   TIME CURCULATED STOPPED
 MRT .F                72:   MAXIMUM RECORDED TEMPERATURE
 LUN .               2754:   LOGGING UNIT NUMBER
 LUL .                 NC:   LOGGING UNIT LOCATION
 ENGI.             QUINBY:   RECORDING ENGINEER
 WITN.             MARTIN:   WITNESSED BY
 CLNT.            A2DTECH:   CLIENT CODE
 ORIG.     1", 2.5" PRINT:   ORIGIN OF DATA
 UWI .       490250649800:   UNIQUE WELL ID
 DICO. A2D Technologies, Inc.:   DIGITIZING COMPANY
~OTHER INFORMATION
~A    DEPT     SPR        ASN       LT18         LN          GRN     NEUT       MCAL   
# ...
  546.0000   -23.1884     6.0600     6.9838     6.8234     7.9328   438.9821     6.8402
  546.5000   -23.4601     6.0942     6.9902     6.8281     7.8305   438.9933     6.9388
  547.0000   -23.8325     6.3627     7.1307     6.7749     7.9752   442.1602     6.9058
  547.5000   -24.9101     6.8479     7.2711     6.5659     7.8482   443.5965     6.6797
  548.0000   -24.6290     7.0688     7.5467     6.3660     7.7293   424.8785     6.6798
  548.5000   -24.0762     7.1248     7.5520     6.2294     7.7711   420.7146     6.6526
  549.0000   -24.3386     7.1808     7.6925     6.1725     7.7099   425.9690     6.7074
  549.5000   -24.6010     7.2799     7.6978     6.1782     7.7954   435.5638     6.7895
  550.0000   -24.6150     7.3829     7.7031     6.3187     7.7456   419.2215     6.8443
  550.5000   -24.6608     7.4197     7.7085     6.3234     7.4029   410.4299     6.8444
  551.0000   -24.7066     7.3666     7.7138     6.3280     7.5362   419.0686     6.8445
  551.5000   -24.7524     7.3677     7.7191     6.3327     7.5893   427.6304     6.8174
  552.0000   -24.7982     7.3157     7.7244     6.3374     7.5882   427.0549     6.8168
  552.5000   -24.8166     7.2615     7.7298     6.2062     7.4056   418.1351     6.7903
  553.0000   -24.5353     7.2475     7.7351     6.0749     7.2826   423.8747     6.7870
  553.5000   -24.5258     7.0915     7.6053     6.0796     7.2420   425.1312     6.7632
  554.0000   -24.5470     6.8319     7.6108     6.0843     6.8926   417.7892     6.7634
  554.5000   -25.6340     6.7247     7.6162     6.0890     7.2226   405.5848     6.7635
  555.0000   -26.1286     6.6419     7.6216     6.0938     7.2026   399.4882     6.7637
  555.5000   -25.8465     6.4217     7.6025     5.9624     7.2033   398.7359     6.7738
  556.0000   -25.8369     6.1996     7.3333     5.9474     7.2873   397.9832     6.7912
  556.5000   -26.1005     5.8713     7.0966     5.7000     7.0809   405.6295     6.8187
  557.0000   -25.8179     5.6241     6.9302     5.7051     7.3731   411.8757     6.7776
  557.5000   -25.7111     5.3768     6.6610     5.7099     7.4583   421.0490     6.5482
  558.0000   -25.0417     5.1025     6.5270     5.5781     7.3916   400.8797     6.0268
  558.5000   -24.4307     4.8709     6.1228     5.5836     7.7110   401.5896     6.0543
  559.0000   -24.6929     4.7331     6.0422     5.5883     7.8252   412.1506     6.1364
  559.5000   -24.9552     5.1763     6.0487     5.5931     7.6057   412.5678     6.1911
  560.0000   -24.9456     5.7406     6.0541     5.5978     7.5793   417.4161     6.2732
  560.5000   -24.9361     6.1971     6.1946     5.6026     7.6850   411.9557     6.3553
  561.0000   -24.9248     6.4511     6.2000     5.6074     7.7770   401.1516     6.3828
  561.5000   -24.9154     6.5901     6.2813     5.6918     7.7641   410.2743     6.4649
  562.0000   -25.4496     6.7685     6.3459     5.8895     7.3143   418.8881     6.4924
  562.5000   -25.7120     6.9065     6.4875     6.0300     7.1090   423.4539     6.4925
  563.0000   -25.7026     7.0653     6.6279     6.1705     7.1828   436.3192     6.5199
  563.5000   -25.6933     7.1743     6.6333     6.1752     6.9867   450.0729     6.4928
  564.0000   -25.9557     7.2564     6.6386     6.1798     7.1932   447.0302     6.4605
  564.5000   -26.2180     7.2032     6.5081     6.3204     7.1938   439.4067     6.4110
  565.0000   -26.7522     7.0500     6.5141     6.3250     7.1326   425.6754     6.5164
  565.5000   -27.2863     7.2685     6.5194     6.4656     7.3391   418.8152     6.6117
  566.0000   -27.2770     7.8290     6.5247     6.4702     7.3809   415.0091     6.6404
  566.5000   -26.9959     8.0053     6.5301     6.4749     7.3197   427.2358     6.6848
  567.0000   -26.9864     8.0344     6.5354     6.4797     7.5057   434.9327     6.7123
  567.5000   -27.2489     8.1279     6.6758     6.6293     7.2181   437.5019     6.7541
  568.0000   -26.9674     8.1829     6.6812     6.7609     7.0642   447.8318     6.7946
  568.5000   -26.9229     8.2649     6.6865     6.9015     6.9721   440.1849     6.8493
  569.0000   -26.6322     8.3199     6.6919     6.9062     7.3616   441.3404     6.9041
  569.5000   -26.3954     8.3748     6.6973     6.9110     7.3427   448.5670     6.9589
  570.0000   -26.1141     8.4298     6.8379     6.9157     7.1717   445.1303     7.0137
  570.5000   -25.8329     8.4848     6.8433     6.7839     7.0356   434.9599     7.0411
  571.0000   -25.8234     8.5128     6.8707     6.7423     7.1521   440.5471     7.0139
  571.5000   -26.0872     8.5407     6.9892     6.6574     7.3055   441.8814     7.0141
  572.0000   -26.3496     8.5957     6.9946     6.6630     7.3473   424.8153     6.9869
  572.5000   -26.3383     8.5696     7.0000     6.6044     7.4302   416.4300     6.9597
  573.0000   -26.4492     8.4884     7.1406     6.5367     6.9984   412.1172     6.9309
  573.5000   -26.3193     8.3793     7.1895     6.4056     7.0814   433.5056     6.8450
  574.0000   -26.5815     8.2676     7.2865     6.4103     7.1026   444.2054     6.7331
  574.5000   -27.2645     8.1304     7.2919     6.2792     6.9796   438.8723     6.6542
  575.0000   -27.8079     7.9662     7.2973     6.1489     7.2685   425.9044     6.6052
  575.5000   -27.9117     7.8075     7.3633     5.8818     7.6225   424.3880     6.6053
  576.0000   -27.3571     7.6919     7.3081     5.7500     7.8875   416.7650     6.6328
  576.5000   -26.5325     7.5352     7.3135     5.4835     7.5315   403.0337     6.6602
  577.0000   -25.7079     7.4260     7.3189     5.3519     7.3446   404.7753     6.6604
  577.5000   -25.4269     7.2345     7.3244     5.2208     7.3127   409.1638     6.6605
  578.0000   -25.4175     6.9122     7.3308     4.9540     7.6083   389.3247     6.6607
  578.5000   -25.4082     6.5778     7.3361     4.8227     7.6022   395.0366     6.6495
  579.0000   -25.3988     6.2370     7.2054     4.6916     7.6617   396.9818     6.6610
  579.5000   -25.1177     5.8404     7.0765     4.2852     7.5261   385.2343     6.6611
  580.0000   -25.1084     5.3892     6.9460     4.1575     7.1484   377.1538     6.6612
  580.5000   -24.8273     4.8669     6.6817     4.2982     6.9799   369.8401     6.6614
  581.0000   -24.5462     4.1805     6.4168     4.3030     7.0289   361.7058     6.6615
  581.5000   -24.2649     3.5868     5.8815     4.4436     7.0089   371.0318     6.6889
  582.0000   -23.9837     3.1283     5.6166     4.4791     7.2360   370.2790     6.7164
  582.5000   -23.9448     2.8049     5.0814     4.7248     7.6279   370.7234     6.7712
  583.0000   -23.6929     2.6707     4.4110     4.7296     7.9374   393.2594     6.7707
  583.5000   -23.6835     2.6175     3.8758     4.7344     7.9399   407.7766     6.7421
  584.0000   -23.7319     2.5374     3.2054     4.7916     7.8562   401.6799     6.6863
  584.5000   -23.9373     2.6734     3.0756     4.8218     7.8785   401.5243     6.6578
  585.0000   -24.3523     2.9987     3.2230     4.5493     8.2144   412.3909     6.5605
  585.5000   -25.4488     3.3239     3.5029     4.2770     8.3110   411.6386     5.9764
  586.0000   -25.8114     3.8656     3.7829     4.1404     8.0950   391.7995     5.5887
  586.5000   -26.0738     4.3530     4.0629     3.9477     7.7395   386.4663     5.6469
  587.0000   -26.5642     4.9755     4.3667     3.8174     7.4892   388.7679     6.4745
  587.5000   -26.7436     5.5981     4.7579     3.9580     8.0116   382.0992     6.7578
  588.0000   -25.9095     5.9504     5.1405     3.9626     7.9655   373.5208     6.8139
  588.5000   -25.2187     5.9513     5.2811     4.1032     7.6839   379.7165     6.8851
  589.0000   -25.0562     5.9251     5.3275     4.3796     7.3997   384.9952     6.9916
  589.5000   -24.6544     5.9802     5.4270     4.5201     7.1590   380.2109     7.1283
  590.0000   -23.8298     6.0622     5.4325     4.6606     7.4107   385.0195     7.1558
  590.5000   -23.7319     6.1983     5.4378     4.6653     7.6790   383.4527     7.1559
  591.0000   -23.8125     6.2805     5.4433     4.6700     7.7414   385.5269     7.1560
