~VERSION INFORMATION
 VERS.                2.0:   CWLS LOG ASCII STANDARD - VERSION 2.0
 WRAP.                 NO:   ONE LINE PER DEPTH STEP
~WELL INFORMATION
#MNEM.UNIT      DATA TYPE    INFORMATION
#----------   ------------   ------------------------------
 STRT.F           26.0000:   START DEPTH
 STOP.F          533.5000:   STOP DEPTH
 STEP.F            0.5000:   STEP LENGTH
 NULL.          -999.2500:   NO VALUE
 COMP. BROWN JOHN E&C INC:   COMPANY
 WELL.  NPR 3 #76-531-X-3:   WELL
 FLD .             TEAPOT:   FIELD
 LOC .       S3 T38N R78W:   LOCATION
 CNTY.            NATRONA:   COUNTY
 STAT.            WYOMING:   STATE
 CTRY. UNITED STATES OF AMERICA:   COUNTRY
 SRVC.       Schlumberger:   SERVICE COMPANY
 DATE.        20-SEP-1990:   LOGDATE
 API .       490251130500:   API NUMBER
~CURVE INFORMATION
#MNEM.UNIT       API CODE    CURVE DESCRIPTION
#----------   ------------   ------------------------------
 DEPT.F                  :   
 ILM .OHMM   07 120 44 00:   INDUCTION LOG MEDIUM
 ILD .OHMM   07 120 46 00:   INDUCTION LOG DEEP
 CALD.IN     45 280 60 00:   CALIPER FROM DENSITY LOG
 GRD .GAPI   45 310 01 00:   GAMMA RAY FROM DENSITY LOG
 DPHI.DEC    45 890 12 00:   DENSITY POROSITY SANDSTONE
 RHOB.G/C3   45 350 01 00:   BULK DENSITY
 DRHO.G/C3   45 356 01 00:   DENSITY CORRECTION
~PARAMETER INFORMATION
#MNEM.UNIT          VALUE    DESCRIPTION
#----------   ------------   ------------------------------
 PD  .                 GL:   PERMANENT DATUM
 EPD .F              5148:   ELEVATION PERMANENT DATUM
 LMF .                 KB:   LOG MEASURED FROM
 DAPD.F                10:   FEET ABOVE PERMANENT DATUM
 DMF .                 KB:   DRILLING MEASURED FROM
 EKB .F              5158:   KELLING BUSHING
 EDF .F              5157:   DRILLING FLOOR
 EGL .F              5148:   GROUND LEVEL
 DATE.            9-20-90:   RUN DATE
 RUN .                  1:   RUN NUMBER
 DD  .F               535:   DEPTH DRILLER
 DL  .F               536:   DEPTH LOGGER
 BLI .F               530:   BOTTOM LOG INTERVAL
 TLI .F                49:   TOP LOG INTERVAL
 CBD .F                40:   CASING BOTTOM DRILLER
 CBL .F                49:   CASING BOTTOM LOGGER
 BS  .IN            7.875:   BIT SIZE
 BSD .F               535:   BIT SIZE AT DEPTH
 DFT .                AIR:   DRILLING FLUID TYPE
 TCS .HRS            0315:   TIME CURCULATED STOPPED
 TLAB.HRS            0409:   TIME LOGGER AT BOTTOM
 LUN .               6882:   LOGGING UNIT NUMBER
 LUL .               CODY:   LOGGING UNIT LOCATION
 ENGI.          M. FISHER:   RECORDING ENGINEER
 WITN.          G. STRONG:   WITNESSED BY
 CLNT.            A2DTECH:   CLIENT CODE
 ORIG.   2" 2.5" 5" PRINT:   ORIGIN OF DATA
 UWI .       490251130500:   UNIQUE WELL ID
 DICO. A2D Technologies, Inc.:   DIGITIZING COMPANY
~OTHER INFORMATION
~A   DEPT      ILM        ILD       CALD         GRD      DPHI       RHOB       DRHO   
# ...
  162.5000    12.2097    12.4580     7.9869   112.3547     0.1135     2.4710     0.0065
  163.0000    12.2415    12.6250     7.9864   110.9945     0.1121     2.4765     0.0075
  163.5000    12.2812    12.5424     7.9859   110.4548     0.1108     2.4811     0.0085
  164.0000    12.1631    12.3846     7.9854   112.3230     0.1103     2.4815     0.0094
  164.5000    12.0080    12.2287     7.9849   113.6485     0.1115     2.4772     0.0083
  165.0000    11.8549    12.0748     7.9844   114.3149     0.1126     2.4727     0.0069
  165.5000    11.7037    11.9229     7.9839   115.4784     0.1126     2.4718     0.0055
  166.0000    11.5545    11.7728     7.9834   118.3522     0.1126     2.4708     0.0044
  166.5000    11.4097    11.6247     7.9829   120.5147     0.1151     2.4666     0.0042
  167.0000    11.2927    11.5152     7.9823   121.5620     0.1174     2.4583     0.0040
  167.5000    11.1789    11.4402     7.9818   118.0102     0.1187     2.4542     0.0038
  168.0000    11.0659    11.3306     7.9813   114.3168     0.1177     2.4598     0.0036
  168.5000    10.9677    11.2221     7.9808   112.3927     0.1155     2.4667     0.0034
  169.0000    10.8901    11.1146     7.9803   113.9193     0.1134     2.4714     0.0032
  169.5000    10.8134    11.0081     7.9798   115.9749     0.1142     2.4677     0.0029
  170.0000    10.7371    10.9429     7.9793   117.2957     0.1151     2.4645     0.0026
  170.5000    10.6614    10.8381     7.9788   117.7146     0.1154     2.4641     0.0032
  171.0000    10.5862    10.7642     7.9782   119.8161     0.1148     2.4655     0.0044
  171.5000    10.5116    10.7104     7.9777   121.9482     0.1142     2.4671     0.0057
  172.0000    10.4534    10.6568     7.9772   123.0511     0.1146     2.4634     0.0069
  172.5000    10.3977    10.6035     7.9767   119.4073     0.1177     2.4575     0.0069
  173.0000    10.3422    10.5505     7.9762   115.3844     0.1207     2.4514     0.0057
  173.5000    10.2872    10.4978     7.9757   114.8306     0.1230     2.4464     0.0044
  174.0000    10.2322    10.4453     7.9752   115.1508     0.1216     2.4479     0.0032
  174.5000    10.1907    10.3931     7.9747   115.1151     0.1194     2.4493     0.0020
  175.0000    10.1545    10.3411     7.9741   114.9162     0.1195     2.4506     0.0008
  175.5000    10.1184    10.3118     7.9739   115.2696     0.1197     2.4505    -0.0005
  176.0000    10.0823    10.3115     7.9739   116.3226     0.1198     2.4481    -0.0015
  176.5000    10.0465    10.3114     7.9739   117.2488     0.1221     2.4411    -0.0012
  177.0000    10.0069    10.3113     7.9739   115.7064     0.1251     2.4298    -0.0009
  177.5000     9.9645    10.3111     7.9739   114.0721     0.1278     2.4160    -0.0007
  178.0000     9.9223    10.3109     7.9739   113.9075     0.1284     2.4155    -0.0004
  178.5000     9.8802    10.2380     7.9739   117.9889     0.1265     2.4198    -0.0002
  179.0000     9.8384    10.0954     7.9739   121.0941     0.1245     2.4280     0.0001
  179.5000     9.7967     9.9523     7.9739   122.1928     0.1230     2.4362     0.0004
  180.0000     9.7576     9.7793     7.9739   122.6025     0.1218     2.4378     0.0007
  180.5000     9.3974     9.4991     7.9739   123.2711     0.1220     2.4383     0.0012
  181.0000     9.0690     9.2287     7.9739   124.3102     0.1225     2.4376     0.0016
  181.5000     8.7521     8.9821     7.9739   124.2245     0.1245     2.4300     0.0020
  182.0000     8.4463     8.9158     7.9739   121.3499     0.1266     2.4223     0.0026
  182.5000     8.3447     8.8092     7.9739   118.3825     0.1270     2.4191     0.0058
  183.0000     8.3551     8.7038     7.9739   115.8830     0.1266     2.4339     0.0092
  183.5000     8.4359     8.6575     7.9739   115.4536     0.1183     2.4521     0.0115
  184.0000     8.5175     8.6982     7.9739   114.9544     0.1102     2.4698     0.0115
  184.5000     8.5999     8.7282     7.9739   115.6356     0.1117     2.4689     0.0116
  185.0000     8.6697     8.7639     7.9739   116.7228     0.1144     2.4641     0.0083
  185.5000     8.7095     8.8023     7.9740   119.2067     0.1158     2.4604     0.0044
  186.0000     8.7495     8.8409     7.9745   122.1953     0.1143     2.4616     0.0014
  186.5000     8.7898     8.8797     7.9545   124.7742     0.1130     2.4636     0.0015
  187.0000     8.8219     8.9084     7.9314   127.1474     0.1132     2.4642     0.0035
  187.5000     8.8345     8.9263     7.9085   127.2837     0.1134     2.4637     0.0057
  188.0000     8.8469     8.9442     7.8984   127.1684     0.1126     2.4655     0.0079
  188.5000     8.8595     8.9622     7.9117   126.1169     0.1095     2.4703     0.0101
  189.0000     8.8720     8.9802     7.9246   124.8866     0.1066     2.4746     0.0124
  189.5000     8.8846     9.1334     7.9377   123.6774     0.1063     2.4752     0.0107
  190.0000     8.8972     9.3060     7.9507   122.8407     0.1097     2.4725     0.0081
  190.5000     9.0615     9.4818     7.9637   123.4570     0.1142     2.4640     0.0055
  191.0000     9.2705     9.5997     7.9734   125.1845     0.1174     2.4555     0.0029
  191.5000     9.4837     9.6770     7.9685   126.9003     0.1174     2.4564     0.0014
  192.0000     9.6702     9.7549     7.9640   128.4625     0.1164     2.4624     0.0011
  192.5000     9.6122     9.8334     7.9594   128.8139     0.1145     2.4680     0.0008
  193.0000     9.5546     9.9126     7.9550   128.0268     0.1126     2.4735     0.0005
  193.5000     9.4919     9.9388     7.9468   126.9077     0.1125     2.4738     0.0002
  194.0000     9.4093     9.6291     7.9376   126.0504     0.1132     2.4721    -0.0001
  194.5000     9.3193     9.4254     7.9284   126.5868     0.1139     2.4703    -0.0004
  195.0000     9.2299     9.2335     7.9193   127.0967     0.1138     2.4703    -0.0001
  195.5000     9.1488     9.4050     7.9100   128.9556     0.1134     2.4718     0.0004
  196.0000     9.1595     9.3624     7.9008   131.2790     0.1136     2.4717     0.0009
  196.5000     9.1693     9.3291     7.8940   133.5906     0.1138     2.4705     0.0013
  197.0000     9.1791     9.2959     7.9063   134.9141     0.1138     2.4705     0.0050
  197.5000     9.1889     9.2630     7.9187   132.5192     0.1130     2.4712     0.0092
  198.0000     9.1988     9.2330     7.9309   128.6348     0.1116     2.4774     0.0134
  198.5000     9.2086     9.2465     7.9432   123.2564     0.1100     2.4838     0.0176
  199.0000     9.2185     9.2610     7.9555   122.0771     0.1084     2.4903     0.0218
  199.5000     9.2283     9.2752     7.9676   124.1288     0.1068     2.4967     0.0241
  200.0000     9.2335     9.2895     7.9691   128.8326     0.1054     2.5024     0.0244
  200.5000     9.2335     9.3038     7.9483   133.0830     0.1062     2.4978     0.0195
  201.0000     9.2335     9.3185     7.9284   132.3815     0.1077     2.4926     0.0149
  201.5000     9.2335     9.2860     7.9085   130.8308     0.1092     2.4874     0.0102
  202.0000     9.2336     9.2436     7.8953   129.6261     0.1106     2.4826     0.0087
  202.5000     9.2245     9.2013     7.9044   130.3159     0.1110     2.4820     0.0079
  203.0000     9.2105     9.1592     7.9129   131.2577     0.1114     2.4814     0.0071
  203.5000     9.1964     9.1173     7.9214   131.4854     0.1125     2.4744     0.0058
  204.0000     9.1823     9.0756     7.9298   130.0714     0.1143     2.4668     0.0038
  204.5000     9.1681     9.0295     7.9383   127.1791     0.1150     2.4655     0.0018
  205.0000     9.1544     8.9822     7.9468   124.3465     0.1135     2.4701    -0.0002
  205.5000     9.0330     8.9359     7.9541   122.4070     0.1122     2.4745    -0.0017
  206.0000     8.8466     8.8987     7.9539   124.0485     0.1122     2.4765    -0.0023
  206.5000     8.6641     8.7067     7.9539   126.7561     0.1122     2.4763    -0.0029
  207.0000     8.4853     8.5281     7.9539   129.3698     0.1122     2.4692    -0.0035
  207.5000     8.3102     8.3447     7.9539   127.6644     0.1149     2.4620    -0.0041
