~VERSION INFORMATION
 VERS.                2.0:   CWLS LOG ASCII STANDARD - VERSION 2.0
 WRAP.                 NO:   ONE LINE PER DEPTH STEP
~WELL INFORMATION
#MNEM.UNIT      DATA TYPE    INFORMATION
#----------   ------------   ------------------------------
 STRT.F            0.0000:   START DEPTH
 STOP.F          700.0000:   STOP DEPTH
 STEP.F            0.5000:   STEP LENGTH
 NULL.          -999.2500:   NO VALUE
 COMP. FENIX & SCISSON INC:   COMPANY
 WELL. 37-11 SX 11 WP #11-11:   WELL
 FLD .             TEAPOT:   FIELD
 LOC .      S11 T38N R78W:   LOCATION
 CNTY.            NATRONA:   COUNTY
 STAT.            WYOMING:   STATE
 CTRY. UNITED STATES OF AMERICA:   COUNTRY
 SRVC.      Dresser Atlas:   SERVICE COMPANY
 DATE.        21-AUG-1980:   LOGDATE
 API .       490251084200:   API NUMBER
~CURVE INFORMATION
#MNEM.UNIT       API CODE    CURVE DESCRIPTION
#----------   ------------   ------------------------------
 DEPT.F                  :   
 SPR .MV     07 010 01 00:   SPONTANEOUS POTENTIAL
 RFOC.OHMM   07 220 04 00:   RESISTIVITY FOCUSED LOG
 RILD.OHMM   07 120 46 00:   INDUCTION LOG DEEP RESISTIVITY
 RILM.OHMM   07 120 44 00:   INDUCTION LOG MEDIUM RESISTIVITY
 GRD .GAPI   45 310 01 00:   GAMMA RAY FROM DENSITY LOG
 CALD.IN     45 280 60 00:   CALIPER
 RHOB.G/C3   45 350 01 00:   BULK DENSITY
 CORR.G/C3   45 356 01 00:   DENSITY CORRECTION
 CNC .DEC    42 890 03 00:   NEUTRON POROSITY SANDSTONE
 PORD.DEC    45 890 12 00:   POROSITY DENSITY SANDSTONE
~PARAMETER INFORMATION
#MNEM.UNIT          VALUE    DESCRIPTION
#----------   ------------   ------------------------------
 PD  .                 GL:   PERMANENT DATUM
 EPD .F              5194:   ELEVATION PERMANENT DATUM
 LMF .                 KB:   LOG MEASURED FROM
 DAPD.F                 5:   FEET ABOVE PERMANENT DATUM
 DMF .                 KB:   DRILLING MEASURED FROM
 EKB .F              5199:   KELLING BUSHING
 EDF .F              5198:   DRILLING FLOOR
 EGL .F              5194:   GROUND LEVEL
 DATE.            8-21-80:   RUN DATE
 RUN .                  1:   RUN NUMBER
 DD  .F               695:   DEPTH DRILLER
 DL  .F               700:   DEPTH LOGGER
 BLI .F               699:   BOTTOM LOG INTERVAL
 BS  .IN            7.875:   BIT SIZE
 BSD .F               695:   BIT SIZE AT DEPTH
 DFT .      DISPERSED KCL:   DRILLING FLUID TYPE
 DFD .               2.68:   DRILLING FLUID DENSITY
 DFV .                 50:   DRILLING FLUID VISCOSITY
 DFPH.                 14:   DRILLING FLUID PH
 DFL .                 18:   DRILLING FLUID LOSS
 MSS .           FLOWLINE:   MUD SAMPLE SOURCE
 RMS .OHMM           .256:   RESISTIVITY MUD SAMPLE
 MST .F                70:   MUD SAMPLE TEMPERATURE
 RMF .OHMM           .393:   RESISTIVITY MUD FILTRATE SAMPLE
 MFST.F                66:   MUD FILTRATE SAMPLE TEMPERATURE
 RMC .OHMM           .858:   RESISTIVITY MUD CAKE
 MCST.F                66:   MUD CAKE SAMPLE TEMPERATURE
 MFSS.               MEAS:   MUD FILTRATE SAMPLE SOURCE
 MCSS.               MEAS:   MUD CAKE SAMPLE SOURCE
 RMB .OHMM            .53:   RESISTIVITY MUD AT BHT
 BHT .F                99:   BOTTOM HOLE TEMPERATURE
 TCS .HRS               3:   TIME CURCULATED STOPPED
 MRT .F                99:   MAXIMUM RECORDED TEMPERATURE
 LUN .               9369:   LOGGING UNIT NUMBER
 LUL .       ROCK SPRINGS:   LOGGING UNIT LOCATION
 ENGI.            PAULSON:   RECORDING ENGINEER
 WITN.              SCOTT:   WITNESSED BY
 CLNT.            A2DTECH:   CLIENT CODE
 ORIG.       2", 5" PRINT:   ORIGIN OF DATA
 UWI .       490251084200:   UNIQUE WELL ID
 DICO. A2D Technologies, Inc.:   DIGITIZING COMPANY
~OTHER INFORMATION
~A    DEPT     SPR       RFOC       RILD       RILM        GRD       CALD       RHOB       CORR        CNC         PORD 
    0.0000  -999.2500  -999.2500  -999.2500  -999.2500  -999.2500  -999.2500  -999.2500  -999.2500  -999.2500     0.4927
    0.5000  -999.2500  -999.2500  -999.2500  -999.2500  -999.2500  -999.2500  -999.2500  -999.2500  -999.2500     0.4927
    1.0000  -999.2500  -999.2500  -999.2500  -999.2500  -999.2500  -999.2500  -999.2500  -999.2500  -999.2500     0.4927
    1.5000  -999.2500  -999.2500  -999.2500  -999.2500  -999.2500  -999.2500  -999.2500  -999.2500  -999.2500     0.4936
    2.0000  -999.2500  -999.2500  -999.2500  -999.2500  -999.2500  -999.2500  -999.2500  -999.2500  -999.2500     0.4927
    2.5000  -999.2500  -999.2500  -999.2500  -999.2500  -999.2500  -999.2500  -999.2500  -999.2500  -999.2500     0.4927
    3.0000  -999.2500  -999.2500  -999.2500  -999.2500  -999.2500  -999.2500  -999.2500  -999.2500  -999.2500     0.4927
    3.5000  -999.2500  -999.2500  -999.2500  -999.2500  -999.2500  -999.2500  -999.2500  -999.2500  -999.2500     0.4927
    4.0000  -999.2500  -999.2500  -999.2500  -999.2500  -999.2500  -999.2500  -999.2500  -999.2500  -999.2500     0.4927
    4.5000  -999.2500  -999.2500  -999.2500  -999.2500  -999.2500  -999.2500  -999.2500  -999.2500  -999.2500     0.4927
    5.0000  -999.2500  -999.2500  -999.2500  -999.2500  -999.2500  -999.2500  -999.2500  -999.2500  -999.2500     0.4927
    5.5000  -999.2500  -999.2500  -999.2500  -999.2500  -999.2500  -999.2500  -999.2500  -999.2500  -999.2500     0.4927
    6.0000  -999.2500  -999.2500  -999.2500  -999.2500  -999.2500  -999.2500  -999.2500  -999.2500  -999.2500     0.4927
    6.5000  -999.2500  -999.2500  -999.2500  -999.2500  -999.2500  -999.2500  -999.2500  -999.2500  -999.2500     0.4927
    7.0000  -999.2500  -999.2500  -999.2500  -999.2500  -999.2500  -999.2500  -999.2500  -999.2500  -999.2500     0.4927
    7.5000  -999.2500  -999.2500  -999.2500  -999.2500  -999.2500  -999.2500  -999.2500  -999.2500  -999.2500     0.4927
    8.0000  -999.2500  -999.2500  -999.2500  -999.2500  -999.2500  -999.2500  -999.2500  -999.2500     0.1204     0.4977
    8.5000  -999.2500  -999.2500  -999.2500  -999.2500  -999.2500  -999.2500  -999.2500  -999.2500     0.1435     0.5096
    9.0000  -999.2500  -999.2500  -999.2500  -999.2500  -999.2500  -999.2500  -999.2500  -999.2500     0.1667     0.5204
    9.5000  -999.2500  -999.2500  -999.2500  -999.2500  -999.2500  -999.2500  -999.2500  -999.2500     0.2348     0.5395
   10.0000  -999.2500  -999.2500  -999.2500  -999.2500  -999.2500  -999.2500  -999.2500  -999.2500     0.3070     0.5674
   10.5000  -999.2500  -999.2500  -999.2500  -999.2500    93.7021  -999.2500  -999.2500  -999.2500     0.3528     0.5723
   11.0000  -999.2500  -999.2500  -999.2500  -999.2500    91.3037     9.7699  -999.2500    -0.0372     0.3233     0.5709
   11.5000  -999.2500  -999.2500  -999.2500  -999.2500    89.0390    10.0062  -999.2500    -0.0318     0.1970     0.5721
   12.0000  -999.2500  -999.2500  -999.2500  -999.2500    86.6646    10.1651  -999.2500    -0.0233     0.1449     0.5739
   12.5000  -999.2500  -999.2500  -999.2500  -999.2500    86.8056    10.2131  -999.2500     0.0003     0.1643     0.5630
   13.0000  -999.2500  -999.2500  -999.2500  -999.2500    86.7497    10.1650  -999.2500    -0.0127     0.1823     0.5524
   13.5000  -999.2500  -999.2500  -999.2500  -999.2500    82.6709     9.9979  -999.2500    -0.0271     0.1782     0.5451
   14.0000  -999.2500  -999.2500  -999.2500  -999.2500    76.9256     9.7901  -999.2500    -0.0406     0.1721     0.5461
   14.5000  -999.2500  -999.2500  -999.2500  -999.2500    73.8656     9.5815  -999.2500    -0.0399     0.1737     0.5472
   15.0000  -999.2500  -999.2500  -999.2500  -999.2500    74.2446     9.3729  -999.2500    -0.0360     0.1763     0.5498
   15.5000  -999.2500  -999.2500  -999.2500  -999.2500    73.0114     9.1641  -999.2500    -0.0474     0.1716     0.5507
   16.0000  -999.2500  -999.2500  -999.2500  -999.2500    72.0384     8.9560  -999.2500    -0.0595     0.1569     0.5443
   16.5000  -999.2500  -999.2500  -999.2500  -999.2500    72.4058     8.7795  -999.2500    -0.0686     0.1569     0.5323
   17.0000  -999.2500  -999.2500  -999.2500  -999.2500    74.0189     8.7373  -999.2500    -0.0746     0.1626     0.5270
   17.5000  -999.2500  -999.2500  -999.2500  -999.2500    75.5669     8.7314  -999.2500    -0.0730     0.1689     0.5342
   18.0000  -999.2500  -999.2500  -999.2500  -999.2500    78.0473     8.7694  -999.2500    -0.0688     0.1728     0.5415
   18.5000  -999.2500  -999.2500  -999.2500  -999.2500    80.6809     8.9021  -999.2500    -0.0631     0.1751     0.5476
   19.0000  -999.2500  -999.2500  -999.2500  -999.2500    83.3666     9.0352  -999.2500    -0.0608     0.1740     0.5395
   19.5000  -999.2500  -999.2500  -999.2500  -999.2500    86.0573     9.1024  -999.2500    -0.0662     0.1730     0.5264
   20.0000    -6.4024    56.5182    36.8885    36.5479    88.5891     9.0311  -999.2500    -0.0714     0.1720     0.5222
   20.5000    -6.4024    56.5182    36.8885    36.5479    88.4634     9.0534  -999.2500    -0.0749     0.1585     0.5351
   21.0000    -6.4024    56.5182    36.8885    36.5479    85.1769     9.0607  -999.2500    -0.0653     0.1431     0.5363
   21.5000    -6.4027    57.0437    37.2102    36.8633    79.7224     8.9710  -999.2500    -0.0558     0.1292     0.5309
   22.0000    -6.4066    56.5182    36.8885    36.5479    76.9828     8.9600  -999.2500    -0.0523     0.1292     0.5189
   22.5000    -6.1995    56.5182    36.8885    36.5479    77.0221     8.9459  -999.2500    -0.0563     0.1470     0.5098
   23.0000    -5.9162    53.5234    34.2504    34.0221    79.3531     8.9317  -999.2500    -0.0637     0.1665     0.5120
   23.5000    -5.6323    45.5766    35.0907    29.7029    80.5705     8.9164  -999.2500    -0.0603     0.1868     0.5136
   24.0000    -5.4003    38.7738    30.3492    24.6380    79.3159     8.9448  -999.2500    -0.0527     0.2101     0.5096
   24.5000    -5.5799    33.7073    27.3091    20.0546    77.1575     8.9627  -999.2500    -0.0504     0.2334     0.4845
   25.0000    -5.7550    32.5491    24.5735    16.3029    77.6547     8.8860  -999.2500    -0.0587     0.2567     0.4675
   25.5000    -5.9288    30.4713    22.1120    13.5617    79.7155     8.8830  -999.2500    -0.0670     0.2687     0.4618
   26.0000    -6.1023    27.1875    19.9833    13.2652    82.1064     8.8895  -999.2500    -0.0685     0.2738     0.4632
   26.5000    -6.2759    24.7559    18.1171    12.9481    86.3601     8.8126  -999.2500    -0.0599     0.2738     0.4565
   27.0000    -6.4494    25.1383    16.6434    12.3970    90.4302     8.6956  -999.2500    -0.0507     0.2731     0.4463
   27.5000    -6.6228    25.6321    14.8484    11.8677    90.5064     8.5932  -999.2500    -0.0480     0.2722     0.4346
   28.0000    -6.7956    25.9310    13.2472    11.3290    86.0992     8.5054  -999.2500    -0.0451     0.2718     0.4064
   28.5000    -6.9634    22.5169    11.8151    10.6848    83.4490     8.4932  -999.2500    -0.0353     0.2907     0.3788
   29.0000    -7.5274    20.3629    11.0241    10.0808    84.0093     8.4795  -999.2500    -0.0189     0.2999     0.3635
   29.5000    -8.2065    19.2970    10.3874     9.5083    85.8555     8.4680  -999.2500    -0.0037     0.2998     0.3591
   30.0000    -8.9013    18.4742     9.7884     8.9693    86.9689     8.4615     2.0143     0.0072     0.2989     0.3619
   30.5000    -9.2401    17.6865     9.2248     8.6039    85.6902     8.4551     2.0541     0.0052     0.3088     0.3729
   31.0000    -9.4967    17.5645     8.7656     8.4391    83.9693     8.4487     2.0715     0.0035     0.2921     0.3824
   31.5000    -9.7481    18.3091     8.4180     8.0837    83.8977     8.4423     2.0801    -0.0023     0.2975     0.3808
   32.0000   -10.2538    18.9299     8.0842     7.7540    84.7310     8.4360     2.0638    -0.0092     0.3084     0.3787
   32.5000   -10.9317    19.2716     7.6912     7.4418    85.3228     8.4296     2.0494    -0.0162     0.3198     0.3765
   33.0000   -11.5021    18.5764     7.2382     7.0630    85.6928     8.4232     2.0379    -0.0233     0.3121     0.3782
