~VERSION INFORMATION
 VERS.                2.0:   CWLS LOG ASCII STANDARD - VERSION 2.0
 WRAP.                 NO:   ONE LINE PER DEPTH STEP
~WELL INFORMATION
#MNEM.UNIT      DATA TYPE    INFORMATION
#----------   ------------   ------------------------------
 STRT.F           20.0000:   START DEPTH
 STOP.F          500.0000:   STOP DEPTH
 STEP.F            0.5000:   STEP LENGTH
 NULL.          -999.2500:   NO VALUE
 COMP.    FENIX & SCISSON:   COMPANY
 WELL. RES 3 TEAPOT DOM #81SX10-10:   WELL
 FLD .             TEAPOT:   FIELD
 LOC .      S10 T38N R78W:   LOCATION
 CNTY.            NATRONA:   COUNTY
 STAT.            WYOMING:   STATE
 CTRY. UNITED STATES OF AMERICA:   COUNTRY
 SRVC.           BIRDWELL:   SERVICE COMPANY
 DATE.        22-NOV-1978:   LOGDATE
 API .       490251075100:   API NUMBER
~CURVE INFORMATION
#MNEM.UNIT       API CODE    CURVE DESCRIPTION
#----------   ------------   ------------------------------
 DEPT.F                  :   
 ILD .OHMM   05 120 46 00:   INDUCTION LOG DEEP
 SN  .OHMM   05 040 16 00:   SHORT NORMAL 16"
 SPR .MV     05 010 01 00:   SPONTANEOUS POTENTIAL FROM RES.
 CALD.IN     45 280 60 00:   CALIPER FROM DENSITY LOG
 CORR.G/C3   45 356 01 00:   DENSITY CORRECTION
 DPHI.DEC    45 890 10 00:   DENSITY POROSITY LIMESTONE
 GRD .GAPI   45 310 01 00:   GAMMA RAY FROM DENSITY LOG
 RHOB.G/C3   45 350 01 00:   BULK DENSITY
~PARAMETER INFORMATION
#MNEM.UNIT          VALUE    DESCRIPTION
#----------   ------------   ------------------------------
 PD  .                 GL:   PERMANENT DATUM
 EPD .F              5129:   ELEVATION PERMANENT DATUM
 LMF .                 KB:   LOG MEASURED FROM
 DAPD.F                 4:   FEET ABOVE PERMANENT DATUM
 DMF .                 KB:   DRILLING MEASURED FROM
 EKB .F              5133:   KELLING BUSHING
 EGL .F              5129:   GROUND LEVEL
 DATE.        22-NOV-1978:   RUN DATE
 RUN .                  1:   RUN NUMBER
 DD  .F               500:   DEPTH DRILLER
 DL  .F               500:   DEPTH LOGGER
 BLI .F               500:   BOTTOM LOG INTERVAL
 TLI .F                20:   TOP LOG INTERVAL
 CS  .IN            8.625:   CASING SIZE
 CBD .F                40:   CASING BOTTOM DRILLER
 CBL .F                40:   CASING BOTTOM LOGGER
 BS  .IN            7.875:   BIT SIZE
 BSD .F               500:   BIT SIZE AT DEPTH
 DFT .                KCL:   DRILLING FLUID TYPE
 DFD .                8.7:   DRILLING FLUID DENSITY
 DFV .                 36:   DRILLING FLUID VISCOSITY
 DFPH.               11.2:   DRILLING FLUID PH
 DFL .                 94:   DRILLING FLUID LOSS
 MSS .            MUD PIT:   MUD SAMPLE SOURCE
 RMS .OHMM           0.28:   RESISTIVITY MUD SAMPLE
 MST .F                62:   MUD SAMPLE TEMPERATURE
 RMF .OHMM           0.24:   RESISTIVITY MUD FILTRATE SAMPLE
 MFST.F                66:   MUD FILTRATE SAMPLE TEMPERATURE
 RMC .OHMM           0.31:   RESISTIVITY MUD CAKE
 MCST.F                66:   MUD CAKE SAMPLE TEMPERATURE
 MFSS.               MEAS:   MUD FILTRATE SAMPLE SOURCE
 MCSS.               MEAS:   MUD CAKE SAMPLE SOURCE
 RMB .OHMM            0.3:   RESISTIVITY MUD AT BHT
 BHT .F                58:   BOTTOM HOLE TEMPERATURE
 TCS .HRS               1:   TIME CURCULATED STOPPED
 MRT .F                58:   MAXIMUM RECORDED TEMPERATURE
 LUN .               3029:   LOGGING UNIT NUMBER
 LUL .               CASP:   LOGGING UNIT LOCATION
 ENGI.           REYNOLDS:   RECORDING ENGINEER
 WITN.              AMEND:   WITNESSED BY
 CLNT.            A2DTECH:   CLIENT CODE
 ORIG.           5" PRINT:   ORIGIN OF DATA
 UWI .       490251075100:   UNIQUE WELL ID
 DICO. A2D Technologies, Inc.:   DIGITIZING COMPANY
~OTHER INFORMATION
~A   DEPT      ILD         SN        SPR       CALD       CORR       DPHI         GRD      RHOB   
# ...
  425.0000    13.8638    14.0253   -38.5807     7.5553     0.0464     0.1648    71.7836     2.4103
  425.5000    13.8624    13.9299   -38.8956     7.5699     0.0539     0.1603    74.0296     2.4193
  426.0000    13.7651    13.8953   -38.9607     7.5694     0.0569     0.1606    76.4256     2.4178
  426.5000    13.7636    13.7339   -39.2629     7.5690     0.0464     0.1693    78.8215     2.3856
  427.0000    13.6666    13.5534   -39.2654     7.5686     0.0509     0.1915    79.5762     2.3637
  427.5000    13.6652    13.3685   -39.1181     7.5831     0.0674     0.1929    80.0152     2.3652
  428.0000    13.5693    13.1858   -39.1204     7.5976     0.0988     0.1746    79.5618     2.3810
  428.5000    13.4737    13.0960   -39.1233     7.6122     0.1169     0.1596    76.8603     2.3952
  429.0000    13.2867    12.9170   -39.4255     7.6116     0.1302     0.1530    71.6100     2.4167
  429.5000    13.0102    12.8295   -39.5777     7.6262     0.1467     0.1482    70.5577     2.4425
  430.0000    12.9204    12.8312   -37.4408     7.6407     0.1766     0.1119    70.2549     2.4710
  430.5000    13.1013    13.5539   -32.5269     7.6701     0.2051     0.1010    71.1509     2.5123
  431.0000    12.7436    14.2280   -33.7178     7.6697     0.1759     0.1013    75.1960     2.5132
  431.5000    12.5685    14.1241   -34.4607     7.6693     0.1392     0.1016    78.3416     2.4905
  432.0000    12.3104    14.2180   -34.9500     7.6539     0.1123     0.1127    82.3867     2.4642
  432.5000    12.2259    14.2123   -35.3480     7.6385     0.0838     0.1478    85.3873     2.4447
  433.0000    12.2266    14.2079   -35.5210     7.6231     0.0704     0.1505    84.9290     2.4372
  433.5000    12.0586    14.1041   -35.4795     7.6225     0.0749     0.1382    84.7762     2.4417
  434.0000    11.8931    14.0997   -35.0212     7.6259     0.0793     0.1357    85.9727     2.4514
  434.5000    11.8938    13.9011   -34.7146     7.6516     0.0749     0.1489    82.5216     2.4462
  435.0000    11.8945    13.7996   -34.3266     7.6512     0.0629     0.1489    79.3703     2.4402
  435.5000    11.8950    13.6999   -34.0996     7.6507     0.0449     0.1480    78.7506     2.4372
  436.0000    11.8956    13.5998   -34.2429     7.6353     0.0389     0.1468    78.0145     2.4379
  436.5000    11.8961    13.4083   -34.4084     7.6329     0.0404     0.1438    75.9127     2.4454
  437.0000    11.8968    13.3994   -34.8813     7.6194     0.0419     0.1383    73.5110     2.4567
  437.5000    11.8974    13.3062   -35.5791     7.6190     0.0464     0.1320    72.7585     2.4626
  438.0000    11.8980    13.3020   -36.0129     7.6186     0.0466     0.1311    77.5771     2.4656
  438.5000    11.8985    13.2968   -36.1544     7.6331     0.0389     0.1314    85.3457     2.4649
  439.0000    11.8991    13.2926   -35.9959     7.6177     0.0225     0.1347    88.1915     2.4611
  439.5000    11.8174    13.2883   -35.6892     7.6172     0.0150     0.1395    86.6893     2.4521
  440.0000    11.7363    13.2832   -35.5308     7.6168     0.0075     0.1407    83.8379     2.4461
  440.5000    11.7370    13.2790   -35.5247     7.6313     0.0090     0.1403    83.9849     2.4461
  441.0000    11.6564    13.2738   -35.9645     7.6308     0.0151     0.1400    86.2589     2.4491
  441.5000    11.6571    13.1779   -36.4680     7.6154     0.0180     0.1412    84.1284     2.4491
  442.0000    11.5769    13.1727   -37.0012     7.6149     0.0150     0.1427    80.9771     2.4453
  442.5000    11.4181    13.0775   -37.2942     7.6145     0.0105     0.1448    89.8198     2.4401
  443.0000    11.2613    12.9831   -36.9859     7.6140     0.0075     0.1481    94.7645     2.4340
  443.5000    11.1840    12.8883   -36.4890     7.5987     0.0060     0.1502    97.6102     2.4325
  444.0000    11.1073    12.8842   -36.0720     7.5982     0.0075     0.1525    99.8562     2.4415
  444.5000    11.0311    12.8792   -36.1276     7.5977     0.0090     0.1441    94.9051     2.4498
  445.0000    10.9976    12.8751   -36.4599     7.5973     0.0135     0.1360    92.3535     2.4565
  445.5000    10.9559    12.8711   -37.0984     7.5969     0.0165     0.1318    90.8514     2.4633
  446.0000    10.9565    12.7771   -37.8412     7.5964     0.0210     0.1297    89.7990     2.4663
  446.5000    10.9570    12.6848   -38.4324     7.6109     0.0210     0.1297    89.0355     2.4648
  447.0000    10.9135    12.6798   -38.7254     7.6104     0.0180     0.1296    87.0939     2.4640
  447.5000    10.8824    12.5882   -38.8681     7.6100     0.0165     0.1302    84.0925     2.4625
  448.0000    10.8077    12.5842   -38.8081     7.6096     0.0150     0.1332    81.6909     2.4632
  448.5000    10.7335    12.5793   -38.4701     7.5942     0.0165     0.1320    80.9384     2.4655
  449.0000    10.6598    12.4884   -38.3700     7.5936     0.0195     0.1290    83.1844     2.4670
  449.5000    10.6604    12.4835   -38.0883     7.6083     0.0210     0.1296    87.1944     2.4655
  450.0000    10.4414    12.3814   -37.6301     7.6077     0.0237     0.1287    91.8736     2.4647
  450.5000    10.4419    12.4092   -37.1735     7.6076     0.0329     0.1269    93.6705     2.4700
  451.0000    10.4425    12.4855   -36.7152     7.6225     0.0344     0.1272    91.5710     2.4730
  451.5000    10.4430    12.4017   -36.5592     7.6523     0.0329     0.1271    91.1198     2.4737
  452.0000    10.4435    12.3179   -36.5517     7.6671     0.0268     0.1271    90.6686     2.4672
  452.5000    10.3718    12.2352   -37.0221     7.6819     0.0165     0.1278    90.6797     2.4520
  453.0000    10.4446    12.1536   -37.6253     7.6967     0.0135     0.1367    93.0642     2.4520
  453.5000    10.4679    11.9886   -38.1770     7.6966     0.0135     0.1376    96.3611     2.4520
  454.0000    10.5287    11.9082   -38.3202     7.6964     0.0150     0.1391    99.5081     2.4520
  454.5000    10.3738    11.8282   -38.0878     7.6963     0.0196     0.1403    99.6716     2.4498
  455.0000    10.3027    11.6682   -37.8551     7.6811     0.0225     0.1387    96.6564     2.4520
  455.5000    10.1613    11.5637   -38.0603     7.6810     0.0254     0.1343    94.7059     2.4603
  456.0000    10.1350    11.4325   -38.4539     7.6856     0.0254     0.1307    95.4541     2.4701
  456.5000    10.0919    11.2773   -40.2579     7.6957     0.0254     0.1205    96.6525     2.4791
  457.0000    10.0190    11.1592   -40.4588     7.6955     0.0225     0.1211    95.2863     2.4791
  457.5000     9.9539    10.8979   -40.2886     7.6953     0.0195     0.1211    94.1002     2.4753
  458.0000     9.8857    10.8242   -40.1557     7.6952     0.0150     0.1259    97.2472     2.4716
  458.5000     9.8178    10.6039   -40.0043     7.6951     0.0120     0.1319   102.6431     2.4678
  459.0000     9.7504    10.3877   -40.0030     7.6949     0.0150     0.1325   104.7406     2.4664
  459.5000     9.6167    10.1758   -40.0014     7.6798     0.0165     0.1271   103.7697     2.4686
  460.0000     9.5506    10.0377   -40.2997     7.6796     0.0225     0.1240   100.8393     2.4731
  460.5000     9.3544     9.8228   -40.6844     7.6795     0.0269     0.1211    98.4391     2.4791
  461.0000     9.2902     9.5002   -41.3461     7.6793     0.0225     0.1205    96.1888     2.4829
  461.5000     9.0366     9.2421   -41.9447     7.6792     0.0210     0.1202    94.8381     2.4852
  462.0000     8.7897     8.8059   -42.5426     7.6727     0.0210     0.1226    94.3869     2.4732
  462.5000     8.4906     8.2747   -42.9909     7.6639     0.0225     0.1355   112.3761     2.4506
  463.0000     7.8673     7.6684   -43.4392     7.6638     0.0299     0.1505   126.1678     2.4349
  463.5000     6.6516     7.2059   -43.7451     7.6786     0.0389     0.1583   135.4617     2.4221
  464.0000     5.6794     7.0589   -43.8861     7.6784     0.0479     0.1631   133.4213     2.4131
  464.5000     5.6404     7.0115   -43.7344     7.6633     0.0554     0.1667   106.9728     2.4086
  465.0000     5.6799     7.4134   -43.2832     7.6632     0.0415     0.1487    93.9279     2.4364
