~VERSION INFORMATION
 VERS.                2.0:   CWLS LOG ASCII STANDARD - VERSION 2.0
 WRAP.                 NO:   ONE LINE PER DEPTH STEP
~WELL INFORMATION
#MNEM.UNIT      DATA TYPE    INFORMATION
#----------   ------------   ------------------------------
 STRT.F           20.0000:   START DEPTH
 STOP.F          600.0000:   STOP DEPTH
 STEP.F            0.5000:   STEP LENGTH
 NULL.          -999.2500:   NO VALUE
 COMP. FENIX & SCISSON INC:   COMPANY
 WELL. TEAPOT DOME #23 SX 3-4:   WELL
 FLD .             TEAPOT:   FIELD
 LOC .       S4 T38N R78W:   LOCATION
 CNTY.            NATRONA:   COUNTY
 STAT.            WYOMING:   STATE
 CTRY. UNITED STATES OF AMERICA:   COUNTRY
 SRVC.            Unknown:   SERVICE COMPANY
 DATE.        31-JUL-1978:   LOGDATE
 API .       490251067600:   API NUMBER
~CURVE INFORMATION
#MNEM.UNIT       API CODE    CURVE DESCRIPTION
#----------   ------------   ------------------------------
 DEPT.F                  :   
 CALD.IN     45 280 60 00:   CALIPER FROM DENSITY LOG
 GRD .GAPI   45 310 01 00:   GAMMA RAY FROM DENSITY LOG
 CORR.G/C3   45 356 01 00:   DENSITY CORRECTION
 DPHI.DEC    45 890 12 00:   DENSITY POROSITY SANDSTONE
 RHOB.G/C3   45 350 01 00:   BULK DENSITY
 SPR .MV     07 010 01 00:   SPONTANEOUS POTENTIAL
 ILD .OHMM   07 120 46 00:   INDUCTION LOG DEEP
 SN  .OHMM   07 040 16 00:   SHORT NORMAL 16"
 CILD.MMHO   07 110 46 00:   CONDUCTIVITY INDUCTION LOG DEEP
~PARAMETER INFORMATION
#MNEM.UNIT          VALUE    DESCRIPTION
#----------   ------------   ------------------------------
 PD  .                 GL:   PERMANENT DATUM
 EPD .F              5181:   ELEVATION PERMANENT DATUM
 LMF .                 KB:   LOG MEASURED FROM
 DAPD.F                 4:   FEET ABOVE PERMANENT DATUM
 DMF .                 KB:   DRILLING MEASURED FROM
 EKB .F              5185:   KELLING BUSHING
 EGL .F              5181:   GROUND LEVEL
 DATE.        31-JUL-1978:   RUN DATE
 RUN .                  1:   RUN NUMBER
 DD  .F               595:   DEPTH DRILLER
 DL  .F               606:   DEPTH LOGGER
 BLI .F               600:   BOTTOM LOG INTERVAL
 TLI .F                40:   TOP LOG INTERVAL
 CBL .F                45:   CASING BOTTOM LOGGER
 BS  .IN            7.875:   BIT SIZE
 BSD .F               595:   BIT SIZE AT DEPTH
 DFT .                KCL:   DRILLING FLUID TYPE
 DFD .                9.0:   DRILLING FLUID DENSITY
 DFV .                 36:   DRILLING FLUID VISCOSITY
 DFPH.                9.0:   DRILLING FLUID PH
 DFL .                8.0:   DRILLING FLUID LOSS
 MSS .           FLOWLINE:   MUD SAMPLE SOURCE
 BHT .F                74:   BOTTOM HOLE TEMPERATURE
 TCS .HRS            0500:   TIME CURCULATED STOPPED
 MRT .F                74:   MAXIMUM RECORDED TEMPERATURE
 LUN .               2958:   LOGGING UNIT NUMBER
 LUL .               CASP:   LOGGING UNIT LOCATION
 ENGI.            POINTER:   RECORDING ENGINEER
 WITN.              AMEND:   WITNESSED BY
 CLNT.            A2DTECH:   CLIENT CODE
 ORIG.           5" PRINT:   ORIGIN OF DATA
 UWI .       490251067600:   UNIQUE WELL ID
 DICO. A2D Technologies, Inc.:   DIGITIZING COMPANY
~OTHER INFORMATION
~A   DEPT     CALD        GRD       CORR       DPHI       RHOB        SPR        ILD         SN       CILD   
# ...
  239.0000     7.3061    96.7978     0.0115     0.1065     2.4813   -29.6870    10.6308    10.6310    87.7903
  239.5000     7.3076    94.8854     0.0101     0.1046     2.4784   -30.0891    10.5616    10.6362    87.7153
  240.0000     7.3091    93.5736     0.0094     0.1052     2.4695   -30.3713    10.4941    10.5670    87.6392
  240.5000     7.3256    95.0948     0.0087     0.1109     2.4688   -30.3606    10.3553    10.4994    88.3115
  241.0000     7.3421    97.6670     0.0088     0.1114     2.4637   -30.3500    10.2891    10.4324    88.9838
  241.5000     7.3886    99.5931     0.0089     0.1114     2.4615   -30.3393    10.1396    10.3598    89.6753
  242.0000     7.4198    94.2529     0.0112     0.1090     2.4841   -30.3287    10.0188    10.1582    91.0966
  242.5000     7.4388    96.8251     0.0143     0.1032     2.4825   -30.3180     9.9536    10.0238    93.2479
  243.0000     7.4698   100.8989     0.0144     0.1029     2.4782   -30.4586     9.8230     9.8911    94.6884
  243.5000     7.4992   103.9216     0.0137     0.1091     2.4738   -30.4453     9.6265     9.7604    96.1098
  244.0000     7.5007   100.9383     0.0138     0.1106     2.4679   -30.5859     9.4980     9.6301    97.6479
  244.5000     7.5022    99.6066     0.0138     0.1079     2.4800   -30.5750     9.3724     9.5039    98.9525
  245.0000     7.5037    97.8195     0.0139     0.1102     2.4771   -30.5645     9.5086     9.3782   100.3739
  245.5000     7.5053   101.8982     0.0140     0.1108     2.4704   -30.5539     9.5792     9.3829   101.0487
  246.0000     7.5068   101.3173     0.0141     0.1072     2.4817   -30.5432     9.4513     9.3218   101.7377
  246.5000     7.5083    98.4841     0.0149     0.1011     2.4878   -30.5326     9.3909     9.2622   101.6417
  247.0000     7.5098    97.7481     0.0150     0.1089     2.4744   -30.3733     9.4093     9.2030   101.5650
  247.5000     7.5113   100.1751     0.0150     0.1095     2.4722   -30.3627     9.4655     9.1442   100.7391
  248.0000     7.4977   100.0447     0.0151     0.1097     2.4731   -30.3520     9.4049     9.1487   101.4306
  248.5000     7.4840    99.9093     0.0144     0.1100     2.4747   -30.3413     9.2805     9.0902   103.5819
  249.0000     7.4705   100.5345     0.0137     0.1102     2.4755   -30.3329     9.2851     9.0947   105.1637
  249.5000     7.4570   102.9566     0.0123     0.1117     2.4726   -30.3224     9.1611     9.0992   106.5145
  250.0000     7.5190   106.2796     0.0109     0.1138     2.4629   -30.1634     9.0765     9.1173   107.8652
  250.5000     7.5050   108.7017     0.0102     0.1119     2.4690   -30.4576     8.9236     9.1696   109.2884
  251.0000     7.4917   110.6734     0.0126     0.1095     2.4721   -30.9003     8.7707     8.9246   109.2111
  251.5000     7.5408   110.9895     0.0149     0.1086     2.4759   -30.8973     8.6230     8.7444   109.1350
  252.0000     7.6039   110.3644     0.0165     0.1107     2.4753   -30.8943     8.5039     8.5107   109.8079
  252.5000     7.6622   108.8814     0.0181     0.1094     2.4791   -30.5941     8.4521     8.5143   109.7318
  253.0000     7.6917   107.4124     0.0196     0.1058     2.4844   -30.5910     8.5137     8.5178   109.6557
  253.5000     7.6777   105.3568     0.0197     0.0995     2.4815   -31.3309     8.6949     8.7097   109.5796
  254.0000     7.6495   102.3786     0.0198     0.1117     2.4726   -32.0716     8.8800     9.0150   108.7544
  254.5000     7.6359    99.2452     0.0199     0.1087     2.4772   -31.9192     9.0691     9.1373   108.6783
  255.0000     7.6222    98.4735     0.0199     0.1059     2.4796   -31.6196     9.0098     9.1412   108.6022
  255.5000     7.6386    99.7351     0.0200     0.1084     2.4753   -31.4680     8.8894     9.0820   108.5261
  256.0000     7.6399   100.8059     0.0193     0.1128     2.4700   -31.7682     8.7102     9.0232   108.4500
  256.5000     7.6113   101.8767     0.0186     0.1082     2.4793   -32.2050     8.5339     8.8422   107.6404
  257.0000     7.5827   102.9475     0.0172     0.1056     2.4881   -32.6478     8.4206     8.7237   107.5677
  257.5000     7.5537   104.1685     0.0158     0.1127     2.4694   -32.7935     8.4819     8.6673   110.5246
  258.0000     7.5401   105.2393     0.0136     0.1166     2.4569   -32.9396     8.4848     8.6719   114.1571
  258.5000     7.5418   106.0098     0.0099     0.1210     2.4517   -32.9358     8.5460     8.7356   118.5753
  259.0000     7.5432   107.9815     0.0070     0.1228     2.4443   -33.0821     8.4901     8.6783   121.4955
  259.5000     7.5296   110.2535     0.0041     0.1279     2.4384   -33.0784     8.4308     8.5638   121.4193
  260.0000     7.5309   112.6756     0.0026     0.1311     2.4361   -33.0753     8.3219     8.4499   120.5942
  260.5000     7.5169   113.8966     0.0050     0.1296     2.4536   -33.0723     8.2106     8.3366   121.2862
  261.0000     7.5033   112.8653     0.0073     0.1161     2.4634   -33.0693     8.0451     8.3403   122.7082
  261.5000     7.5050   110.9331     0.0089     0.1137     2.4680   -33.0669     7.8287     8.5807   123.3811
  262.0000     7.5064   109.6015     0.0097     0.1205     2.4501   -33.2125     7.8315     8.8212   123.2860
  262.5000     7.5078   108.8655     0.0045     0.1214     2.4457   -33.2095     7.8342     9.0096   122.4608
  263.0000     7.5089   110.1411     0.0038     0.1292     2.4428   -33.2065     7.8913     9.0134   114.1450
  263.5000     7.5102   113.1096     0.0039     0.1312     2.4436   -33.2034     8.2279     9.0172   114.8180
  264.0000     7.5115   111.7579     0.0040     0.1237     2.4557   -33.2004     9.1289     9.0210   115.4909
  264.5000     7.5129   109.5451     0.0041     0.1228     2.4581   -33.1974    10.0589     9.0248   115.4307
  265.0000     7.5142   107.4628     0.0049     0.1201     2.4604   -33.1943    10.3442     9.0286   115.3558
  265.5000     7.5156   110.3354     0.0057     0.1161     2.4642   -33.1913    10.2060     9.0325   115.2537
  266.0000     7.5170   113.9587     0.0058     0.1152     2.4673   -33.1883    10.1246     9.0363   114.4564
  266.5000     7.5183   112.4770     0.0066     0.1145     2.4644   -33.1852     9.8568     9.0401   114.3803
  267.0000     7.5197   108.1424     0.0074     0.1133     2.4622   -33.1822     9.5300     8.9807   113.5551
  267.5000     7.5211   106.3603     0.0075     0.1121     2.4692   -33.1798     9.3421     8.9227   113.4790
  268.0000     7.5224   103.6774     0.0076     0.1127     2.4721   -33.1768     9.0908     8.8650   112.6538
  268.5000     7.5238   102.9415     0.0077     0.1151     2.4768   -33.1739     8.8463     8.8032   111.8287
  269.0000     7.5251   103.5667     0.0085     0.1081     2.4836   -33.1708     8.6680     8.6304   111.0035
  269.5000     7.5115   105.6886     0.0086     0.1072     2.4837   -33.1678     8.4349     8.3993   110.9274
  270.0000     7.5129   108.5612     0.0094     0.1081     2.4837   -33.1648     8.2648     8.5196   111.6194
  270.5000     7.5142   112.4848     0.0102     0.1096     2.4808   -33.1617     8.2101     8.7619   112.2923
  271.0000     7.5156   118.0552     0.0103     0.1047     2.4832   -33.1587     8.2706     8.8875   112.9653
  271.5000     7.5170   114.4763     0.0104     0.1008     2.4855   -33.1557     8.5052     8.9528   112.8701
  272.0000     7.4884   102.7843     0.0089     0.1098     2.4759   -33.1526     8.5664     9.0187   113.5621
  272.5000     7.4444    98.7500     0.0075     0.1154     2.4647   -33.1496     8.3367     9.0850   114.3449
  273.0000     7.4308   101.7307     0.0068     0.1187     2.4588   -33.1466     8.1118     9.0253   114.9712
  273.5000     7.4475   103.6531     0.0069     0.1190     2.4597   -33.1436     8.0588     9.0301   116.3472
  274.0000     7.3739   105.9318     0.0070     0.1177     2.4605   -33.1412     8.1251     8.9708   117.7528
  274.5000     7.3752   104.8476     0.0071     0.1174     2.4606   -33.1381     8.1766     8.9755   118.4270
  275.0000     7.3613    96.2913     0.0079     0.1201     2.4607   -33.1352     8.1795     8.9785   118.3489
