~VERSION INFORMATION
 VERS.                2.0:   CWLS LOG ASCII STANDARD - VERSION 2.0
 WRAP.                 NO:   ONE LINE PER DEPTH STEP
~WELL INFORMATION
#MNEM.UNIT      DATA TYPE    INFORMATION
#----------   ------------   ------------------------------
 STRT.F            1.0000:   START DEPTH
 STOP.F          886.0000:   STOP DEPTH
 STEP.F            0.5000:   STEP LENGTH
 NULL.          -999.2500:   NO VALUE
 COMP. BROWN JOHN E&C INC:   COMPANY
 WELL. NAVAL PETROLEUM RESERVE 3 SHX-1 #33-2:   WELL
 FLD .             NPR #3:   FIELD
 LOC .       S2 T38N R78W:   LOCATION
 CNTY.            NATRONA:   COUNTY
 STAT.            WYOMING:   STATE
 CTRY. UNITED STATES OF AMERICA:   COUNTRY
 SRVC.      Western Atlas:   SERVICE COMPANY
 DATE.        26-NOV-1991:   LOGDATE
 API .       490252248300:   API NUMBER
~CURVE INFORMATION
#MNEM.UNIT       API CODE    CURVE DESCRIPTION
#----------   ------------   ------------------------------
 DEPT.F                  :   
 RILD.OHMM   07 120 46 00:   INDUCTION LOG DEEP RESISTIVITY
 RILM.OHMM   07 120 44 00:   INDUCTION LOG MEDIUM RESISTIVITY
 RFOC.OHMM   07 220 04 00:   RESISTIVITY FOCUSED LOG
 SPR .MV     07 010 01 00:   SPONTANEOUS POTENTIAL
 GRR .GAPI   07 310 01 00:   GAMMA RAY
~PARAMETER INFORMATION
#MNEM.UNIT          VALUE    DESCRIPTION
#----------   ------------   ------------------------------
 PD  .                 GL:   PERMANENT DATUM
 EPD .F              5133:   ELEVATION PERMANENT DATUM
 LMF .                 KB:   LOG MEASURED FROM
 DAPD.F                10:   FEET ABOVE PERMANENT DATUM
 DMF .                 KB:   DRILLING MEASURED FROM
 EKB .F              5143:   KELLING BUSHING
 EGL .F              5133:   GROUND LEVEL
 DATE.        26-NOV-1991:   RUN DATE
 RUN .                  1:   RUN NUMBER
 DD  .F               892:   DEPTH DRILLER
 DL  .F               889:   DEPTH LOGGER
 BLI .F               837:   BOTTOM LOG INTERVAL
 CS  .IN            8.625:   CASING SIZE
 CBD .F                40:   CASING BOTTOM DRILLER
 CBL .F                55:   CASING BOTTOM LOGGER
 BS  .IN            7.875:   BIT SIZE
 BSD .F               892:   BIT SIZE AT DEPTH
 DFT .            POLYMER:   DRILLING FLUID TYPE
 DFD .                9.8:   DRILLING FLUID DENSITY
 DFV .                 38:   DRILLING FLUID VISCOSITY
 DFPH.                9.5:   DRILLING FLUID PH
 DFL .               10.6:   DRILLING FLUID LOSS
 MSS .           FLOWLINE:   MUD SAMPLE SOURCE
 RMS .OHMM           2.08:   RESISTIVITY MUD SAMPLE
 MST .F                78:   MUD SAMPLE TEMPERATURE
 RMF .OHMM           1.66:   RESISTIVITY MUD FILTRATE SAMPLE
 MFST.F                78:   MUD FILTRATE SAMPLE TEMPERATURE
 RMC .OHMM           2.60:   RESISTIVITY MUD CAKE
 MCST.F                78:   MUD CAKE SAMPLE TEMPERATURE
 MFSS.               MEAS:   MUD FILTRATE SAMPLE SOURCE
 MCSS.               CALC:   MUD CAKE SAMPLE SOURCE
 RMB .OHMM           1.08:   RESISTIVITY MUD AT BHT
 BHT .F               150:   BOTTOM HOLE TEMPERATURE
 TCS .HRS               2:   TIME CURCULATED STOPPED
 MRT .F               150:   MAXIMUM RECORDED TEMPERATURE
 LUN .            HL-6307:   LOGGING UNIT NUMBER
 LUL .         CASPER, WY:   LOGGING UNIT LOCATION
 ENGI.             ZIEGER:   RECORDING ENGINEER
 WITN.             STRONG:   WITNESSED BY
 CLNT.            A2DTECH:   CLIENT CODE
 ORIG.           5" PRINT:   ORIGIN OF DATA
 UWI .       490252248300:   UNIQUE WELL ID
 DICO. A2D Technologies, Inc.:   DIGITIZING COMPANY
~OTHER INFORMATION
~A    DEPT    RILD       RILM       RFOC        SPR         GRR  
# ...
  184.0000     2.0654     1.7815     2.4790   -96.6947   103.6487
  184.5000     2.0508     1.8075     2.1846   -96.7035   101.8241
  185.0000     2.0506     1.9426     2.0242   -97.1648    98.7929
  185.5000     2.1080     2.1931     2.1268   -97.3244    95.4600
  186.0000     2.2125     2.7189     2.9255   -97.7959    93.2609
  186.5000     2.3222     2.8939     3.9140   -98.0983    91.8072
  187.0000     2.6306     3.0376     4.1366   -98.1071    93.3009
  187.5000     3.0427     3.3010     4.0224   -97.9629    96.9062
  188.0000     3.4708     3.5134     3.8577   -97.8208   100.5115
  188.5000     3.8508     3.6879     3.6487   -97.6788   103.5134
  189.0000     3.9889     3.7914     3.4969   -97.5368   105.3088
  189.5000     3.9034     3.8441     3.4027   -97.3967   106.1991
  190.0000     3.7961     3.8975     3.4977   -97.4057   104.6355
  190.5000     3.6917     3.8972     3.6965   -97.4148   102.8480
  191.0000     3.6657     3.9241     3.9066   -97.2725   101.0234
  191.5000     3.6652     3.8967     3.9332   -97.1304    99.1988
  192.0000     3.6902     3.8162     3.7200   -97.1414    98.2792
  192.5000     3.7154     3.7115     3.5677   -97.3011    99.1696
  193.0000     3.6629     3.6848     3.4446   -97.4607   101.2666
  193.5000     3.5274     3.5845     3.3702   -97.6203   102.7603
  194.0000     3.1443     3.4382     3.3264   -97.9308   102.0533
  194.5000     2.8530     3.1854     3.3028   -97.9397   100.3141
  195.0000     2.6067     2.7155     3.3021   -97.9236   101.5061
  195.5000     2.3651     2.3473     3.2560   -97.5069   104.2064
  196.0000     2.2842     2.1300     3.1443   -97.3626   105.4021
  196.5000     2.2369     2.0149     2.7941   -96.9189   105.6891
  197.0000     2.2058     2.0008     2.4149   -96.7769   105.3692
  197.5000     2.2208     2.1185     2.2345   -96.3354   103.8361
  198.0000     2.3471     2.3958     2.4475   -96.3442   101.9245
  198.5000     2.5682     2.7142     3.0340   -96.3530   100.1935
  199.0000     2.7144     3.1179     3.6076   -96.3620    99.2739
  199.5000     2.9908     3.4118     4.0865   -96.3728    98.9576
  200.0000     3.4893     3.5814     4.1718   -96.0784   101.6586
  200.5000     3.8379     3.6928     3.7526   -96.0845   102.5607
  201.0000     4.1130     3.9995     3.6549   -96.0917   103.4627
  201.5000     4.3470     4.1392     3.7054   -96.0975   104.0638
  202.0000     4.3769     4.2253     3.8352   -96.1034   101.0436
  202.5000     4.3459     4.1947     3.9697   -96.2601   100.1356
  203.0000     4.3137     4.1358     4.0244   -96.2660    99.8310
  203.5000     4.2501     4.0778     4.0236   -96.4227    99.8280
  204.0000     4.0249     3.9927     3.9673   -96.4286   102.4314
  204.5000     3.6267     3.8540     3.8848   -96.4344   107.3630
  205.0000     3.1131     3.5274     3.8261   -96.4404   109.7733
  205.5000     2.8443     2.8596     3.6735   -96.4464   110.6761
  206.0000     2.7092     2.4543     3.3561   -96.4535   107.3541
  206.5000     2.6347     2.3536     2.8806   -96.6103   106.7479
  207.0000     2.5978     2.3206     2.5070   -96.9178   106.7449
  207.5000     2.5243     2.3039     2.3063   -97.0745   106.1387
  208.0000     2.5972     2.3517     2.4887   -97.0804   102.5158
  208.5000     2.7642     2.4510     3.1281   -97.0862    98.7844
  209.0000     2.9013     2.6103     3.6228   -96.7905    94.0628
  209.5000     2.9826     2.8428     3.7970   -96.4947    92.8532
  210.0000     3.1088     3.1434     3.5417   -96.1790    96.1685
  210.5000     3.2857     3.3682     3.4680   -95.9031   101.5954
  211.0000     3.4249     3.5594     3.5651   -95.3071   103.1008
  211.5000     3.5746     3.7096     3.6646   -95.1622   104.3045
  212.0000     3.7210     3.8130     3.7409   -94.8649   105.5082
  212.5000     3.7987     3.8385     3.7660   -94.8723   107.3152
  213.0000     3.8247     3.8374     3.7914   -94.8782   108.2172
  213.5000     3.8241     3.7835     3.7906   -94.8840   107.6109
  214.0000     3.8236     3.7563     3.7375   -94.8899   106.4006
  214.5000     3.7704     3.7034     3.6094   -95.0468   104.2861
  215.0000     3.7180     3.6514     3.5343   -95.0540   101.2666
  215.5000     3.6158     3.5752     3.4609   -95.0598    99.1520
  216.0000     3.5121     3.5007     3.4362   -95.2165    99.4507
  216.5000     3.2802     3.3804     3.3882   -95.2224   100.0518
  217.0000     3.0600     3.1971     3.4111   -95.2283   100.6516
  217.5000     2.9349     2.9410     3.4581   -95.2342   100.3469
  218.0000     2.8941     2.7623     3.3626   -95.0890   100.0422
  218.5000     2.8145     2.7045     3.0934   -95.2459   100.9915
  219.0000     2.7562     2.7038     2.8262   -95.2519   103.0522
  219.5000     2.7367     2.7031     2.9051   -95.2579   102.4460
  220.0000     2.7150     2.7213     3.0490   -95.4159    98.8231
  220.5000     2.6796     2.7016     3.2000   -95.4217    96.4069
  221.0000     2.6607     2.6822     3.3123   -95.8801    96.4040
  221.5000     2.6420     2.6815     3.2652   -96.0368    97.9093
  222.0000     2.5872     2.6256     3.0409   -96.0427   100.0180
  222.5000     2.5161     2.5354     2.7832   -96.0486   101.2217
  223.0000     2.4300     2.3977     2.6692   -96.0544   102.4254
  223.5000     2.2512     2.2520     2.6137   -96.0603   102.7241
  224.0000     2.0960     2.0573     2.7054   -96.0664   102.1171
  224.5000     1.9590     1.9323     2.7618   -96.6768   100.9076
  225.0000     1.9452     1.8659     2.4883   -96.9844    99.6980
  225.5000     1.9315     1.8144     2.2420   -97.4428    99.0924
  226.0000     1.9856     1.9042     2.1186   -97.9011   101.2004
  226.5000     2.0697     2.0547     2.0621   -98.2087   102.7057
  227.0000     2.1724     2.1881     2.2718   -98.5162   103.9094
  227.5000     2.2644     2.3102     2.6642   -98.5221   103.5998
  228.0000     2.4117     2.4584     3.1900   -98.5279   100.7783
  228.5000     2.6314     2.7845     3.5886   -98.5339    99.9790
  229.0000     2.9870     3.0890     3.4415   -98.5412   102.6903
  229.5000     3.2011     3.2418     3.3467   -98.3947   104.7990
  230.0000     3.3136     3.2409     3.3460   -98.0990   102.0811
  230.5000     3.3363     3.2400     3.3453   -97.9540   100.8715
  231.0000     3.3127     3.1493     3.3445   -97.8091   102.0752
  231.5000     3.2894     3.0393     3.3207   -97.8164   108.4071
  232.0000     3.1984     2.9581     3.2516   -97.6712   113.2307
  232.5000     3.0386     2.8565     3.1840   -97.6773   116.5460
  233.0000     2.8031     2.7584     3.0963   -97.6833   113.2247
  233.5000     2.6515     2.6636     3.0530   -97.8401   113.5236
  234.0000     2.5080     2.5367     2.9896   -97.9981   112.0116
  234.5000     2.3724     2.3174     2.9683   -98.3056   109.5954
  235.0000     2.2440     2.1318     2.8999   -98.6132   107.7825
  235.5000     2.1523     2.0295     2.7111   -99.0715   110.1928
  236.0000     2.1223     2.0017     2.4941   -99.2282   118.6363
  236.5000     2.1220     2.1299     2.3105   -99.5358   123.4599
  237.0000     2.2118     2.2665     2.2314   -99.8433   124.3740
  237.5000     2.3216     2.4286     2.4244   -99.8492   119.4068
  238.0000     2.5053     2.7508     2.9029   -99.8391   111.9873
  238.5000     2.8184     3.0515     3.7255   -99.7101   109.2695
  239.0000     3.1927     3.3155     3.9372   -99.5651   107.4566
  239.5000     3.5423     3.6022     3.9362   -99.5725   105.9453
  240.0000     3.7699     3.7821     3.9082   -99.5784   106.2440
  240.5000     3.9874     3.9397     3.9620   -99.2811   109.2577
  241.0000     4.1294     4.0776     4.0445   -98.9868   107.1431
  241.5000     4.2398     4.1622     4.0437   -98.6908   104.1236
  242.0000     4.3284     4.3079     4.0149   -98.2444   103.8190
  242.5000     4.4188     4.4587     4.0141   -98.2604   104.1177
  243.0000     4.5424     4.6148     4.1281   -98.5581   104.1141
  243.5000     4.6696     4.7764     4.4049   -98.7160   104.4135
  244.0000     4.7671     4.9094     4.7709   -98.7219   104.7115
  244.5000     4.8672     5.0492     4.9727   -98.4261   105.0109
