~VERSION INFORMATION
 VERS.                2.0:   CWLS LOG ASCII STANDARD - VERSION 2.0
 WRAP.                 NO:   ONE LINE PER DEPTH STEP
~WELL INFORMATION
#MNEM.UNIT      DATA TYPE    INFORMATION
#----------   ------------   ------------------------------
 STRT.F           50.0000:   START DEPTH
 STOP.F         1020.0000:   STOP DEPTH
 STEP.F            0.5000:   STEP LENGTH
 NULL.          -999.2500:   NO VALUE
 COMP. LAWRENCE/ALLISON INC:   COMPANY
 WELL.      28 STX #14-14:   WELL
 FLD .             TEAPOT:   FIELD
 LOC .      S14 T38N R78W:   LOCATION
 CNTY.            NATRONA:   COUNTY
 STAT.            WYOMING:   STATE
 CTRY. UNITED STATES OF AMERICA:   COUNTRY
 SRVC.            Unknown:   SERVICE COMPANY
 DATE.        22-OCT-1984:   LOGDATE
 API .       490251099000:   API NUMBER
~CURVE INFORMATION
#MNEM.UNIT       API CODE    CURVE DESCRIPTION
#----------   ------------   ------------------------------
 DEPT.F                  :   
 SPR .MV     07 010 01 00:   SPONTANEOUS POTENTIAL
 RILD.OHMM   07 120 46 00:   INDUCTION LOG DEEP RESISTIVITY
 RILM.OHMM   07 120 44 00:   INDUCTION LOG MEDIUM RESISTIVITY
 RFOC.OHMM   07 220 04 00:   RESISTIVITY FOCUSED LOG
 GRD .GAPI   45 310 01 00:   GAMMA RAY FROM DENSITY LOG
 CALD.IN     45 280 60 00:   CALIPER
 DEN .G/C3   45 350 01 00:   COMPENSATED BULK DENSTIY
 CORR.G/C3   45 356 01 00:   DENSITY CORRECTION
 PORD.DEC    45 890 12 00:   POROSITY DENSITY SANDSTONE
 CNC .DEC    42 890 03 00:   NEUTRON POROSITY SANDSTONE
 AC  .US/F   60 520 00 00:   ACOUSTIC SONIC
~PARAMETER INFORMATION
#MNEM.UNIT          VALUE    DESCRIPTION
#----------   ------------   ------------------------------
 PD  .                 GL:   PERMANENT DATUM
 EPD .F              5257:   ELEVATION PERMANENT DATUM
 LMF .                 KB:   LOG MEASURED FROM
 DAPD.F                12:   FEET ABOVE PERMANENT DATUM
 DMF .                 KB:   DRILLING MEASURED FROM
 EKB .F              5269:   KELLING BUSHING
 EGL .F              5257:   GROUND LEVEL
 DATE.           10-22-84:   RUN DATE
 RUN .                  1:   RUN NUMBER
 DD  .F              1020:   DEPTH DRILLER
 DL  .F              1019:   DEPTH LOGGER
 BLI .F              1017:   BOTTOM LOG INTERVAL
 TLI .F                52:   TOP LOG INTERVAL
 CS  .IN               16:   CASING SIZE
 CBD .F                40:   CASING BOTTOM DRILLER
 CBL .F                52:   CASING BOTTOM LOGGER
 BS  .IN            12.25:   BIT SIZE
 BSD .F              1020:   BIT SIZE AT DEPTH
 DFT .          GEL/WATER:   DRILLING FLUID TYPE
 DFD .                9.1:   DRILLING FLUID DENSITY
 DFV .                 35:   DRILLING FLUID VISCOSITY
 MSS .           FLOWLINE:   MUD SAMPLE SOURCE
 RMS .OHMM           2.04:   RESISTIVITY MUD SAMPLE
 MST .F                76:   MUD SAMPLE TEMPERATURE
 RMF .OHMM           1.53:   RESISTIVITY MUD FILTRATE SAMPLE
 MFST.F                76:   MUD FILTRATE SAMPLE TEMPERATURE
 RMC .OHMM           2.55:   RESISTIVITY MUD CAKE
 MCST.F                76:   MUD CAKE SAMPLE TEMPERATURE
 MFSS.               CALC:   MUD FILTRATE SAMPLE SOURCE
 MCSS.               CALC:   MUD CAKE SAMPLE SOURCE
 TCS .HRS               3:   TIME CURCULATED STOPPED
 MRT .F               100:   MAXIMUM RECORDED TEMPERATURE
 LUN .            HL 6307:   LOGGING UNIT NUMBER
 LUL .           GILLETTE:   LOGGING UNIT LOCATION
 ENGI.          CROSSBERG:   RECORDING ENGINEER
 WITN.            JOHNSON:   WITNESSED BY
 CLNT.            A2DTECH:   CLIENT CODE
 ORIG.       2", 5" PRINT:   ORIGIN OF DATA
 UWI .       490251099000:   UNIQUE WELL ID
 DICO. A2D Technologies, Inc.:   DIGITIZING COMPANY
~OTHER INFORMATION
~A   DEPT      SPR       RILD       RILM       RFOC        GRD        CALD       DEN       CORR       PORD          CNC       AC   
# ...
  416.0000   -65.2900     7.4863     5.9168     5.7722   104.2029    12.4186     2.4549     0.0223     0.1335     0.2934   101.8873
  416.5000   -64.6301     7.6326     5.9288     5.8274   102.9215    12.4186     2.4600     0.0256     0.1312     0.3290   101.2110
  417.0000   -63.9605     7.7905     5.9412     5.8649   100.7203    12.4186     2.4606     0.0290     0.1295     0.3275   100.7468
  417.5000   -63.2959     7.9516     5.9536     5.8785    99.4156    12.4186     2.4582     0.0273     0.1311     0.3199   100.5589
  418.0000   -62.4517     8.0875     5.9661     5.8920    97.1073    12.4187     2.4557     0.0218     0.1326     0.3109   100.3527
  418.5000   -61.3694     8.0875     5.9713     5.9056    93.1550    12.4186     2.4546     0.0137     0.1336     0.3065   100.1491
  419.0000   -60.2952     8.0668     5.9717     5.9168    89.2165    12.4184     2.4525     0.0009     0.1349     0.3036    99.7315
  419.5000   -60.1129     7.9499     5.9718     5.8445    86.6637    12.4164     2.4480    -0.0119     0.1376     0.3010    99.0798
  420.0000   -60.0732     7.8347     5.9341     5.7836    87.6134    12.4146     2.4476    -0.0254     0.1388     0.2990    98.4247
  420.5000   -60.0362     7.7211     5.8858     5.7234    89.1454    12.4127     2.4499    -0.0073     0.1359     0.2868    98.3333
  421.0000   -59.9978     7.6092     5.8381     5.6638    90.6957    12.4108     2.4519     0.0185     0.1342     0.2746    99.4325
  421.5000   -59.9621     7.4989     5.7909     5.6048    92.2441    12.4089     2.4464     0.0431     0.1376     0.2775   100.4731
  422.0000   -60.0032     7.3902     5.7440     5.5465    93.5176    12.4071     2.4404     0.0306     0.1416     0.2957   101.3285
  422.5000   -60.4284     7.2830     5.6975     5.4887    94.8068    12.4052     2.4371     0.0164     0.1446     0.2969   101.6971
  423.0000   -61.0336     7.1766     5.6510     5.4316    94.7999    12.4033     2.4344     0.0083     0.1460     0.2935   102.0665
  423.5000   -61.6376     7.1877     5.6453     5.3972    92.2728    12.4014     2.4321     0.0182     0.1475     0.2901   102.4755
  424.0000   -62.2427     7.1990     5.6381     5.4442    88.2802    12.3996     2.4322     0.0174     0.1478     0.2972   103.0197
  424.5000   -62.8495     7.2102     5.6309     5.4840    86.3785    12.3977     2.4335     0.0060     0.1462     0.2996   103.5592
  425.0000   -63.4579     7.2215     5.6237     5.5481    87.5890    12.3958     2.4351    -0.0056     0.1447     0.3006   103.5978
  425.5000   -64.0683     7.2328     5.6164     5.5413    91.7887    12.3939     2.4367    -0.0039     0.1432     0.3088   103.4189
  426.0000   -64.3017     7.2441     5.6093     5.5243    93.6188    12.3921     2.4383     0.0052     0.1430     0.3167   103.2235
  426.5000   -64.2276     7.2554     5.6003     5.4973    92.3753    12.3902     2.4409     0.0110     0.1420     0.3245   103.3373
  427.0000   -64.1657     7.2667     5.6320     5.5108    91.4297    12.3883     2.4450     0.0018     0.1387     0.3324   103.4626
  427.5000   -64.1019     7.2781     5.6863     5.5440    92.9644    12.3864     2.4493     0.0076     0.1354     0.3354   103.3334
  428.0000   -64.0381     7.2894     5.7411     5.5774    95.4406    12.3846     2.4583     0.0220     0.1293     0.3154   102.7310
  428.5000   -63.9733     7.3008     5.7965     5.6110    95.1812    12.3828     2.4675     0.0368     0.1244     0.3154   102.1293
  429.0000   -63.8316     7.3236     5.8627     5.6510    94.5551    12.3812     2.4700     0.0429     0.1242     0.3250   101.5277
  429.5000   -63.1925     7.3881     5.7897     5.6022    95.1825    12.3769     2.4674     0.0423     0.1263     0.3286   101.0942
  430.0000   -62.5502     7.4532     5.7015     5.5430    95.5517    12.3183     2.4640     0.0373     0.1286     0.3208   101.0668
  430.5000   -62.0612     7.5189     5.5993     5.4973    92.3040    12.2618     2.4606     0.0323     0.1308     0.3129   101.3450
  431.0000   -61.8693     7.5851     5.6396     5.5406    92.3826    12.2823     2.4623     0.0320     0.1300     0.3003   101.6473
  431.5000   -61.6771     7.6520     5.7049     5.5833    92.5890    12.3371     2.4649     0.0357     0.1272     0.2763   101.5480
  432.0000   -61.4847     7.7194     5.7710     5.6263    93.8512    12.3799     2.4676     0.0380     0.1244     0.2871   101.0499
  432.5000   -61.2943     7.7874     5.8378     5.6697    95.3108    12.3791     2.4685     0.0261     0.1251     0.2985   100.5489
  433.0000   -61.1263     7.8560     5.9054     5.7134    95.6768    12.3789     2.4669     0.0140     0.1274     0.3086   100.0299
  433.5000   -61.1636     7.8676     5.9723     5.7574    95.4237    12.3771     2.4627     0.0026     0.1300     0.3132    99.5124
  434.0000   -61.2035     7.8676     5.9728     5.8090    97.2693    12.3753     2.4583     0.0084     0.1324     0.3136    98.9756
  434.5000   -61.2429     7.8676     5.9730     5.7714    99.4934    12.3734     2.4599     0.0146     0.1307     0.3117    98.5329
  435.0000   -61.2849     7.7072     5.7836     5.6863    99.2231    12.3716     2.4617     0.0145     0.1291     0.3068    98.7806
  435.5000   -61.3259     7.4627     5.6091     5.6025    95.0018    12.3698     2.4620     0.0162     0.1292     0.3041    99.0994
  436.0000   -61.5908     7.2260     5.4397     5.5199    93.6860    12.3680     2.4562     0.0234     0.1322     0.3014    99.8184
  436.5000   -62.0188     6.9968     5.2752     5.4385    95.8722    12.3661     2.4506     0.0301     0.1362     0.2918   100.8204
  437.0000   -62.4497     6.8918     5.1157     5.3583    96.4817    12.3643     2.4450     0.0292     0.1401     0.2922   101.8263
  437.5000   -62.8829     6.8523     5.0503     5.2989    96.8020    12.3625     2.4393     0.0221     0.1439     0.2978   102.3966
  438.0000   -63.3151     6.8130     5.0340     5.2901    97.4765    12.3607     2.4338     0.0149     0.1476     0.2986   102.7252
  438.5000   -63.7509     6.7632     5.0177     5.2817    99.3576    12.3588     2.4281     0.0078     0.1508     0.3037   102.7735
  439.0000   -63.8747     6.7013     5.0015     5.2733   100.4555    12.3570     2.4262     0.0006     0.1513     0.3113   102.6482
  439.5000   -63.7751     6.6398     4.9854     5.2649    99.6884    12.3552     2.4288    -0.0064     0.1498     0.3188   102.4831
  440.0000   -63.4857     6.5720     4.9693     5.2565    97.3531    12.3534     2.4319    -0.0012     0.1477     0.3270   102.3089
  440.5000   -62.9192     6.4968     4.9533     5.2399    94.2957    12.3516     2.4346     0.0123     0.1458     0.3250   102.1346
  441.0000   -62.3565     6.4224     4.9373     5.1998    91.5861    12.3497     2.4344     0.0143     0.1455     0.3126   101.9603
  441.5000   -61.7934     6.3489     4.9214     5.1600    89.7320    12.3479     2.4332     0.0056     0.1461     0.3186   101.8263
  442.0000   -61.2301     6.2762     4.9055     5.1206    89.2057    12.3461     2.4325    -0.0030     0.1458     0.3153   101.8263
  442.5000   -60.6673     6.2523     4.8896     5.0609    91.4224    12.3442     2.4382    -0.0052     0.1432     0.3154   102.6324
  443.0000   -60.1041     6.3871     4.8781     5.0708    94.8138    12.3424     2.4439     0.0149     0.1405     0.3132   103.6025
  443.5000   -59.5340     6.5037     4.9638     5.0921    96.6273    12.3406     2.4490     0.0340     0.1380     0.3107   104.5124
  444.0000   -59.2966     6.6224     5.0639     5.1646    96.1190    12.3393     2.4461     0.0349     0.1395     0.3009   104.3330
  444.5000   -59.1797     6.7436     5.1659     5.3769    93.8996    12.3393     2.4451     0.0327     0.1394     0.2962   103.5361
  445.0000   -59.3556     6.8673     5.2701     5.5980    91.7230    12.3393     2.4476     0.0304     0.1379     0.2922   102.6602
  445.5000   -59.8146     6.9827     5.3763     5.8090    91.0498    12.3393     2.4494     0.0284     0.1368     0.3009   101.8263
  446.0000   -60.2731     7.2182     5.4847     5.7088    92.2506    12.3393     2.4486     0.0304     0.1390     0.2967   101.2931
