~VERSION INFORMATION
 VERS.                2.0:   CWLS LOG ASCII STANDARD - VERSION 2.0
 WRAP.                 NO:   ONE LINE PER DEPTH STEP
~WELL INFORMATION
#MNEM.UNIT      DATA TYPE    INFORMATION
#----------   ------------   ------------------------------
 STRT.F           42.0000:   START DEPTH
 STOP.F          433.5000:   STOP DEPTH
 STEP.F            0.5000:   STEP LENGTH
 NULL.          -999.2500:   NO VALUE
 COMP. BROWN JOHN E&C INC:   COMPANY
 WELL.    SX 10 #74-51-10:   WELL
 FLD .             TEAPOT:   FIELD
 LOC .      S10 T38N R78W:   LOCATION
 CNTY.            NATRONA:   COUNTY
 STAT.            WYOMING:   STATE
 CTRY. UNITED STATES OF AMERICA:   COUNTRY
 SRVC.       Schlumberger:   SERVICE COMPANY
 DATE.        10-SEP-1990:   LOGDATE
 API .       490251132600:   API NUMBER
~CURVE INFORMATION
#MNEM.UNIT       API CODE    CURVE DESCRIPTION
#----------   ------------   ------------------------------
 DEPT.F                  :   
 ILM .OHMM   07 120 44 00:   INDUCTION LOG MEDIUM
 ILD .OHMM   07 120 46 00:   INDUCTION LOG DEEP
 GRR .GAPI   07 310 01 00:   GAMMA RAY FROM RES. LOG.
~PARAMETER INFORMATION
#MNEM.UNIT          VALUE    DESCRIPTION
#----------   ------------   ------------------------------
 PD  .                 GL:   PERMANENT DATUM
 EPD .F              5177:   ELEVATION PERMANENT DATUM
 LMF .                 KB:   LOG MEASURED FROM
 DAPD.F                10:   FEET ABOVE PERMANENT DATUM
 DMF .                 KB:   DRILLING MEASURED FROM
 EKB .F              5187:   KELLING BUSHING
 EGL .F              5177:   GROUND LEVEL
 DATE.        10-SEP-1996:   RUN DATE
 RUN .                  1:   RUN NUMBER
 DD  .F               496:   DEPTH DRILLER
 DL  .F               440:   DEPTH LOGGER
 BLI .F               490:   BOTTOM LOG INTERVAL
 TLI .F               520:   TOP LOG INTERVAL
 CS  .IN            8.625:   CASING SIZE
 CBD .F                42:   CASING BOTTOM DRILLER
 CBL .F                52:   CASING BOTTOM LOGGER
 BS  .IN            7.875:   BIT SIZE
 BSD .F               496:   BIT SIZE AT DEPTH
 DFT .                AIR:   DRILLING FLUID TYPE
 MFSS.               MEAS:   MUD FILTRATE SAMPLE SOURCE
 MCSS.               CALC:   MUD CAKE SAMPLE SOURCE
 BHT .F                69:   BOTTOM HOLE TEMPERATURE
 TLAB.HRS            0146:   TIME LOGGER AT BOTTOM
 MRT .F                69:   MAXIMUM RECORDED TEMPERATURE
 LUN .               8199:   LOGGING UNIT NUMBER
 LUL .             CASPER:   LOGGING UNIT LOCATION
 ENGI.              SPEIL:   RECORDING ENGINEER
 WITN.          G. STRONG:   WITNESSED BY
 CLNT.            A2DTECH:   CLIENT CODE
 ORIG.      2" & 5" PRINT:   ORIGIN OF DATA
 UWI .       490251132600:   UNIQUE WELL ID
 DICO. A2D Technologies, Inc.:   DIGITIZING COMPANY
~OTHER INFORMATION
~A   DEPT      ILM        ILD         GRR  
   42.0000  -999.2500  -999.2500    26.5182
   42.5000  -999.2500  -999.2500    25.6680
   43.0000  -999.2500  -999.2500    26.1134
   43.5000  -999.2500  -999.2500    28.3992
   44.0000  -999.2500  -999.2500    31.2545
   44.5000  -999.2500  -999.2500    33.0815
   45.0000  -999.2500  -999.2500    34.7099
   45.5000  -999.2500  -999.2500    35.9324
   46.0000  -999.2500  -999.2500    37.1069
   46.5000  -999.2500  -999.2500    36.9223
   47.0000  -999.2500  -999.2500    35.3093
   47.5000  -999.2500  -999.2500    33.2330
   48.0000  -999.2500  -999.2500    31.3002
   48.5000  -999.2500  -999.2500    32.2806
   49.0000  -999.2500  -999.2500    34.6816
   49.5000  -999.2500  -999.2500    38.7694
   50.0000  -999.2500  -999.2500    43.7294
   50.5000  -999.2500  -999.2500    49.3544
   51.0000  -999.2500  -999.2500    52.5380
   51.5000  -999.2500  -999.2500    55.3316
   52.0000     8.2551     8.6810    59.7082
   52.5000     9.5708     9.2945    63.7852
   53.0000     9.8443     9.8161    64.5336
   53.5000     1.8370     1.0260    63.8759
   54.0000     1.3806     1.2079    63.7371
   54.5000     1.4910     1.6335    66.1524
   55.0000     1.5553     2.2554    67.7805
   55.5000     1.8098     3.5197    68.9949
   56.0000     2.0948     3.3576    70.1686
   56.5000     2.6210     3.1112    72.4328
   57.0000     3.2545     2.9790    71.2084
   57.5000     4.1413     3.1963    68.7798
   58.0000     5.2935     3.3603    68.4596
   58.5000     6.6091     3.6234    70.7915
   59.0000     6.2494     4.1101    71.8049
   59.5000     5.1282     5.3728    69.8865
   60.0000     4.3962     6.4423    67.7678
   60.5000     5.2023     7.2508    67.4854
   61.0000     6.9936     7.5946    68.4340
   61.5000     6.9918     7.2454    70.9681
   62.0000     5.9058     6.3366    74.6264
   62.5000     5.0752     5.4279    80.1267
   63.0000     4.3155     4.7379    84.5012
   63.5000     3.9133     4.2463    85.7430
   64.0000     3.5550     3.9037    84.0980
   64.5000     3.2959     3.7375    81.8932
   65.0000     3.3997     3.6866    83.5563
   65.5000     3.6064     3.6866    85.6623
   66.0000     3.6855     3.8984    85.8918
   66.5000     3.6186     3.8427    85.0594
   67.0000     3.5688     3.6596    85.0974
   67.5000     3.4640     3.5197    85.4826
   68.0000     3.3345     3.6112    85.8851
   68.5000     3.2082     3.7868    85.8878
   69.0000     3.1493     4.0594    85.5446
   69.5000     3.2381     4.3034    83.2980
   70.0000     3.6703     4.5202    78.5805
   70.5000     4.4641     4.4720    73.8245
   71.0000     4.9590     4.4143    69.7794
   71.5000     4.3139     4.3962    67.6229
   72.0000     3.9316     4.7048    66.7323
   72.5000     4.8632     5.1750    68.3235
   73.0000     7.1889     5.6231    71.5699
   73.5000     9.6635     5.7515    77.2552
   74.0000     8.9023     5.6916    85.3108
   74.5000     6.9601     5.6459    94.7856
   75.0000     6.2228     5.6872   103.4704
   75.5000     5.6648     5.8587   109.5701
   76.0000     5.3903     6.1836   112.4467
   76.5000     5.5334     6.5265   113.8349
   77.0000     5.7758     6.6707   115.1872
   77.5000     6.0384     6.4662   116.5391
   78.0000     6.3460     6.3236   116.8106
   78.5000     6.6694     6.2517   113.8693
   79.0000     7.0092     6.3007   111.2890
   79.5000     7.4552     6.3344   109.3415
   80.0000     7.2030     6.3687   109.1794
   80.5000     6.7328     6.3316   111.0505
   81.0000     6.1953     6.2780   112.9146
   81.5000     5.7044     6.2040   114.7891
   82.0000     5.2913     6.1304   114.6402
   82.5000     5.1681     6.0578   112.5898
   83.0000     5.0988     5.9857   109.7403
   83.5000     5.6242     5.9130   107.7361
   84.0000     6.0518     5.9136   106.7476
   84.5000     6.3099     5.9455   108.4896
   85.0000     6.3414     6.0888   110.4405
   85.5000     6.4188     6.2355   110.7791
   86.0000     6.6012     6.3858   109.0779
   86.5000     6.7888     6.5397   108.9689
   87.0000     6.9870     6.6973   110.6367
   87.5000     7.0411     6.8587   109.8833
   88.0000     7.0791     6.6850   108.0190
   88.5000     7.1177     6.5158   107.2056
   89.0000     7.0839     6.4279   108.4348
   89.5000     7.0335     6.6940   108.2443
   90.0000     6.9834     6.8811   107.5766
   90.5000     6.9337     7.0735   108.3752
   91.0000     6.8843     7.1839   111.5884
   91.5000     6.8353     7.1042   114.8637
   92.0000     6.7867     7.0250   114.0169
   92.5000     6.7384     6.9225   111.4433
   93.0000     6.7328     6.9423   108.6614
   93.5000     6.7649     6.9710   109.2783
   94.0000     6.7897     7.0000   110.5108
   94.5000     6.8110     7.0292   111.1877
   95.0000     6.8313     7.0670   109.5676
   95.5000     6.8517     7.1400   108.6082
   96.0000     6.8587     7.2116   107.6591
   96.5000     7.0311     7.3450   107.0369
   97.0000     7.2580     7.5409   106.4787
   97.5000     7.4921     7.7420   105.9250
   98.0000     7.7364     7.9484   105.7817
   98.5000     7.9783     8.1604   108.1194
   99.0000     8.2301     8.3780   110.2082
   99.5000     8.4899     8.6014   110.8856
  100.0000     8.7579     8.8308   109.5850
  100.5000     8.9568     9.0663   108.3688
  101.0000     9.0867     9.3081   109.9328
  101.5000     9.3022     9.5564   113.0643
  102.0000     9.5754     9.8112   112.2862
  102.5000     9.8637    10.0729   106.8820
  103.0000    10.1490    10.3388   101.3759
  103.5000    10.4716    10.5899    98.9352
  104.0000    10.9588    10.8471    99.6273
  104.5000    11.4692    11.3247   100.0693
  105.0000    12.0041    11.6472    99.8625
  105.5000    12.2960    11.7738    99.6392
  106.0000    12.0702    11.8252    99.3895
  106.5000    11.9048    11.8620   100.4800
  107.0000    11.7303    11.9001   101.7752
  107.5000    11.5899    11.9382   101.7879
  108.0000    11.4935    11.9589    99.2416
  108.5000    11.3980    11.7181    96.5966
  109.0000    11.3035    11.5560    96.0704
  109.5000    11.2078    11.3960    97.8264
  110.0000    11.0328    11.2383    99.5014
  110.5000    10.8575    11.0829   100.5530
  111.0000    10.6852    10.9726    99.4031
  111.5000    10.5922    10.9125    97.6752
  112.0000    10.5624    10.8523    95.3715
  112.5000    10.5326    10.7923    96.3609
  113.0000    10.5039    10.7327    97.6410
  113.5000    10.4654    10.7004    96.8037
  114.0000    10.4071    10.7486    95.3855
  114.5000    10.4790    10.7868    94.0418
  115.0000    10.5732    10.8252    93.7207
  115.5000    10.6658    10.8638    93.3792
  116.0000    10.7004    10.9005    93.0085
  116.5000    10.4782    10.8040    93.8569
  117.0000    10.3263    10.7129    95.3329
  117.5000    10.1765    10.6225    96.9663
  118.0000    10.0284    10.5008    99.9535
  118.5000     9.9488    10.3710   103.3778
  119.0000     9.8695    10.2427   105.4343
  119.5000     9.7704    10.1157   105.6989
  120.0000     9.6628     9.9909   105.3258
  120.5000     9.5646     9.9253   104.7994
  121.0000     9.5074     9.9063   103.5351
  121.5000     9.4505     9.8873   101.4263
  122.0000     9.3986     9.8683    99.8763
  122.5000     9.3580     9.8494    99.3422
  123.0000     9.3114     9.8098   100.5766
  123.5000     9.3128     9.7629   102.2427
  124.0000     9.1616     9.6736   104.2078
  124.5000     9.0370     9.5747   103.4345
  125.0000     8.9365     9.4857    99.9798
  125.5000     8.8611     9.4652    96.5590
  126.0000     8.7864     9.4463    95.0548
  126.5000     8.7271     9.4275    94.4338
  127.0000     8.7523     9.4085    94.1290
  127.5000     8.7732     9.3987    94.5321
  128.0000     8.7944     9.4230    97.4210
  128.5000     8.8082     9.4398   100.4659
  129.0000     8.8660     9.4566   100.7012
  129.5000     8.9276     9.4734    98.4459
  130.0000     9.0004     9.4861    95.4807
  130.5000     9.0570     9.8208    92.7195
  131.0000     8.9487     9.6340    92.0847
  131.5000     8.7598     9.4056    92.6937
  132.0000     8.5750     9.1707    93.8245
  132.5000     8.3940     8.8948    97.5600
