~VERSION INFORMATION
 VERS.                2.0:   CWLS LOG ASCII STANDARD - VERSION 2.0
 WRAP.                 NO:   ONE LINE PER DEPTH STEP
~WELL INFORMATION
#MNEM.UNIT      DATA TYPE    INFORMATION
#----------   ------------   ------------------------------
 STRT.F           26.0000:   START DEPTH
 STOP.F          535.5000:   STOP DEPTH
 STEP.F            0.5000:   STEP LENGTH
 NULL.          -999.2500:   NO VALUE
 COMP. BROWN JOHN E&C INC:   COMPANY
 WELL.       NPR 86 #11-3:   WELL
 FLD .             TEAPOT:   FIELD
 LOC .       S3 T38N R78W:   LOCATION
 CNTY.            NATRONA:   COUNTY
 STAT.            WYOMING:   STATE
 CTRY. UNITED STATES OF AMERICA:   COUNTRY
 SRVC.       Schlumberger:   SERVICE COMPANY
 DATE.        21-SEP-1990:   LOGDATE
 API .       490251130800:   API NUMBER
~CURVE INFORMATION
#MNEM.UNIT       API CODE    CURVE DESCRIPTION
#----------   ------------   ------------------------------
 DEPT.F                  :   
 ILD .OHMM   07 120 46 00:   INDUCTION LOG DEEP
 ILM .OHMM   07 120 44 00:   INDUCTION LOG MEDIUM
 GRD .GAPI   45 310 01 00:   GAMMA RAY FROM DENSITY LOG
 CALD.IN     45 280 60 00:   CALIPER
 DRHO.G/C3   45 356 01 00:   DENSITY CORRECTION
 DPHI.DEC    45 890 00 00:   DENSITY POROSITY
 RHOB.G/C3   45 350 01 00:   BULK DENSITY
~PARAMETER INFORMATION
#MNEM.UNIT          VALUE    DESCRIPTION
#----------   ------------   ------------------------------
 PD  .                 GL:   PERMANENT DATUM
 EPD .F              5144:   ELEVATION PERMANENT DATUM
 LMF .                 KB:   LOG MEASURED FROM
 DAPD.F                10:   FEET ABOVE PERMANENT DATUM
 DMF .                 KB:   DRILLING MEASURED FROM
 EKB .F              5154:   KELLING BUSHING
 EDF .F              5153:   DRILLING FLOOR
 EGL .F              5144:   GROUND LEVEL
 DATE.            9-21-90:   RUN DATE
 RUN .                  1:   RUN NUMBER
 DD  .F               540:   DEPTH DRILLER
 DL  .F               539:   DEPTH LOGGER
 BLI .F               533:   BOTTOM LOG INTERVAL
 TLI .F                49:   TOP LOG INTERVAL
 CS  .IN            8.625:   CASING SIZE
 CBD .F                50:   CASING BOTTOM DRILLER
 CBL .F                48:   CASING BOTTOM LOGGER
 BS  .IN            7.875:   BIT SIZE
 BSD .F               540:   BIT SIZE AT DEPTH
 DFT .                AIR:   DRILLING FLUID TYPE
 TCS .HRS            0315:   TIME CURCULATED STOPPED
 TLAB.HRS            0409:   TIME LOGGER AT BOTTOM
 LUN .               5882:   LOGGING UNIT NUMBER
 LUL .               CODY:   LOGGING UNIT LOCATION
 ENGI.          M. FISHER:   RECORDING ENGINEER
 WITN.          G. STRONG:   WITNESSED BY
 CLNT.            A2DTECH:   CLIENT CODE
 ORIG.   2" 2.5" 5" PRINT:   ORIGIN OF DATA
 UWI .       490251130800:   UNIQUE WELL ID
 DICO. A2D Technologies, Inc.:   DIGITIZING COMPANY
~OTHER INFORMATION
~A   DEPT      ILD        ILM         GRD      CALD       DRHO       DPHI       RHOB   
# ...
  481.0000    12.1931    12.3406   108.0149     7.7066    -0.0055     0.1074     2.4725
  481.5000    12.1023    12.2615   106.8074     7.7066    -0.0050     0.1048     2.4771
  482.0000    12.0538    12.1830   106.7758     7.7066    -0.0065     0.1022     2.4814
  482.5000    12.0050    12.1050   106.4914     7.7066    -0.0080     0.1040     2.4781
  483.0000    11.9563    12.0274   104.9995     7.7066    -0.0095     0.1084     2.4698
  483.5000    11.9078    11.9504   103.5187     7.7066    -0.0095     0.1128     2.4621
  484.0000    11.8596    11.8738   103.2296     7.7066    -0.0086     0.1170     2.4554
  484.5000    11.8115    11.7978   104.0834     7.7066    -0.0076     0.1190     2.4516
  485.0000    11.6940    11.7222   104.0191     7.7066    -0.0066     0.1181     2.4538
  485.5000    11.5836    11.6370   103.5840     7.7066    -0.0060     0.1174     2.4546
  486.0000    11.4202    11.5454   103.9317     7.7066    -0.0060     0.1174     2.4556
  486.5000    11.2857    11.4546   107.1485     7.7066    -0.0060     0.1158     2.4604
  487.0000    11.1527    11.3645   110.8773     7.7066    -0.0075     0.1123     2.4651
  487.5000    11.0223    11.2751   114.5720     7.7066    -0.0093     0.1098     2.4696
  488.0000    10.9255    11.1863   116.7951     7.7066    -0.0108     0.1116     2.4665
  488.5000    10.8660    11.0301   115.7326     7.7066    -0.0075     0.1138     2.4629
  489.0000    10.8054    10.8513   113.3981     7.7066    -0.0082     0.1147     2.4606
  489.5000    10.7568    10.6754   111.0802     7.7066    -0.0105     0.1139     2.4625
  490.0000    10.5224    10.5023   110.8583     7.7066    -0.0042     0.1117     2.4644
  490.5000    10.2924    10.3331   112.6932     7.7066    -0.0011     0.1118     2.4664
  491.0000    10.0672    10.1742   114.5071     7.7066    -0.0009     0.1133     2.4644
  491.5000     9.8468     9.9228   113.5917     7.7066     0.0024     0.1142     2.4625
  492.0000     9.6299     9.6894   111.0445     7.7066     0.0057     0.1146     2.4616
  492.5000     9.3650     9.4818   109.1576     7.7066     0.0090     0.1161     2.4572
  493.0000     9.2554     9.3168   109.9614     7.7066     0.0100     0.1176     2.4529
  493.5000     9.1175     9.1546   111.6341     7.7066     0.0099     0.1190     2.4525
  494.0000     8.9804     8.9956   113.2324     7.7066     0.0080     0.1172     2.4555
  494.5000     8.8452     8.8406   112.6051     7.7066     0.0039     0.1158     2.4583
  495.0000     8.7121     8.6940   111.4675     7.7066    -0.0003     0.1179     2.4532
  495.5000     8.3718     8.3032   113.7685     7.7064    -0.0041     0.1198     2.4461
  496.0000     8.0134     7.9502   118.9425     7.7053    -0.0033     0.1249     2.4308
  496.5000     7.6704     7.4633   123.9814     7.7507     0.0125     0.1506     2.3358
  497.0000     7.3421     7.0268   128.6444     7.8007     0.0285     0.1813     2.2162
  497.5000     6.9621     6.5253   128.7753     7.8512     0.0621     0.2120     2.1041
  498.0000     7.0271     6.3465   125.5636     7.9021     0.0949     0.2208     2.0701
  498.5000     7.1109     6.3465   119.1678     7.8589     0.1269     0.1959     2.1592
  499.0000     7.2265     6.6391   114.6784     7.8055     0.1373     0.1680     2.2845
  499.5000     7.3839     7.0232   116.4673     7.7535     0.1239     0.1401     2.3761
  500.0000     7.6923     7.4294   119.0266     7.7010     0.0948     0.1178     2.4176
  500.5000     8.4559     7.9311   121.6982     7.6496     0.0565     0.1199     2.4451
  501.0000     8.9599     8.5413   121.7739     7.6763     0.0340     0.1229     2.4380
  501.5000     9.5414     9.1984   119.4759     7.7104     0.0298     0.1128     2.4627
  502.0000    10.1757     9.9060   115.5092     7.7446     0.0329     0.0981     2.4943
  502.5000    10.4001    10.5096   111.3888     7.7287     0.0238     0.0868     2.5096
  503.0000    10.6351    10.6950   111.1435     7.7084     0.0127     0.0850     2.5097
  503.5000    10.8754    10.8823   112.1205     7.6881     0.0073     0.0878     2.5059
  504.0000    11.1160    11.0696   113.9852     7.6677     0.0023     0.0906     2.5024
  504.5000    11.3467    11.2610   115.8811     7.6691    -0.0004     0.0920     2.4987
  505.0000    11.5815    11.4558   116.5949     7.6721    -0.0025     0.0926     2.4977
  505.5000    11.8207    11.5728   117.2644     7.6750    -0.0038     0.0946     2.4947
  506.0000    12.0662    11.7671   117.9206     7.6779    -0.0032     0.0966     2.4917
  506.5000    12.1966    11.9646   116.1641     7.6807    -0.0030     0.0966     2.4915
  507.0000    12.3170    12.1378   112.8860     7.6837    -0.0030     0.0978     2.4896
  507.5000    12.4386    12.1716   108.7638     7.6862    -0.0037     0.1003     2.4856
  508.0000    12.5615    12.2054   106.8526     7.6681    -0.0047     0.1030     2.4816
  508.5000    12.7071    12.2393   108.8192     7.6480    -0.0065     0.1026     2.4800
  509.0000    12.6810    12.2733   111.0699     7.6280    -0.0077     0.1013     2.4820
  509.5000    12.6497    12.3074   111.1137     7.6078    -0.0093     0.1021     2.4804
  510.0000    12.6182    12.3416   109.7071     7.5879    -0.0110     0.1051     2.4762
  510.5000    12.5869    12.3759   108.4402     7.5992    -0.0129     0.1078     2.4718
  511.0000    12.5557    12.4102   109.6837     7.6129    -0.0117     0.1078     2.4715
  511.5000    12.5245    12.4445   111.4298     7.6258    -0.0103     0.1071     2.4731
  512.0000    12.4935    12.4729   113.1867     7.6080    -0.0088     0.1047     2.4764
  512.5000    12.4451    12.3473   114.9498     7.5877    -0.0074     0.1001     2.4838
  513.0000    12.3671    12.2386   116.7141     7.5678    -0.0070     0.0952     2.4910
  513.5000    12.2895    12.1308   117.1238     7.5707    -0.0076     0.0938     2.4943
  514.0000    12.2125    12.0240   115.4832     7.5750    -0.0084     0.0974     2.4915
  514.5000    12.1359    11.9182   113.8353     7.5792    -0.0090     0.0974     2.4894
  515.0000    12.0598    11.8132   113.5755     7.5833    -0.0090     0.0950     2.4920
  515.5000    11.9842    11.7092   114.0569     7.5875    -0.0071     0.0934     2.4946
  516.0000    11.9091    11.6061   116.7837     7.5917    -0.0050     0.0934     2.4944
  516.5000    11.8344    11.5040   119.7106     7.5958    -0.0029     0.0920     2.4980
  517.0000    11.7149    11.3780   122.6394     7.6000    -0.0008     0.0900     2.5018
  517.5000    11.4689    11.2664   125.5682     7.6041     0.0015     0.0882     2.5043
  518.0000    11.2281    10.9440   128.5811     7.6028     0.0016     0.0908     2.5003
  518.5000    10.9922    10.6204   128.3472     7.5915     0.0012     0.0943     2.4964
  519.0000    10.7808    10.3064   123.0303     7.5804     0.0000     0.0946     2.4934
  519.5000    10.6007    10.0016   116.7235     7.5690    -0.0014     0.0937     2.4953
  520.0000    10.4239     9.8970   111.1257     7.5669    -0.0028     0.0918     2.4979
  520.5000    10.3274     9.9558   111.2328     7.5668    -0.0042     0.0931     2.4965
  521.0000    10.2296     9.9890   114.2116     7.5669    -0.0056     0.0946     2.4937
  521.5000    10.0920     9.9401   117.3335     7.5669    -0.0070     0.0950     2.4935
  522.0000     9.9583     9.8862   120.4513     7.5720    -0.0081     0.0939     2.4949
  522.5000     9.8748     9.8325   123.4656     7.5857    -0.0089     0.0926     2.4970
  523.0000     9.8370     9.7791   122.5059     7.5992    -0.0090     0.0933     2.4967
  523.5000     9.7984     9.7261   120.7951     7.6127    -0.0090     0.0940     2.4955
  524.0000     9.7600     9.7154   120.8955     7.6262    -0.0090     0.0931     2.4968
  524.5000     9.7217     9.7818   123.6650     7.6398    -0.0079     0.0894     2.5020
  525.0000     9.6835     9.8635   126.3413     7.6534    -0.0057     0.0857     2.5070
  525.5000     9.6456     9.9460   128.0445     7.6658    -0.0036     0.0851     2.5095
  526.0000     9.6077     9.9895   128.4738     7.6508    -0.0020     0.0865     2.5084
