~VERSION INFORMATION
 VERS.                2.0:   CWLS LOG ASCII STANDARD - VERSION 2.0
 WRAP.                 NO:   ONE LINE PER DEPTH STEP
~WELL INFORMATION
#MNEM.UNIT      DATA TYPE    INFORMATION
#----------   ------------   ------------------------------
 STRT.F           16.0000:   START DEPTH
 STOP.F         2438.0000:   STOP DEPTH
 STEP.F            0.5000:   STEP LENGTH
 NULL.          -999.2500:   NO VALUE
 COMP. FENIX & SCISSON INC:   COMPANY
 WELL.      15 SHX #27-27:   WELL
 FLD .             TEAPOT:   FIELD
 LOC .      S27 T39N R78W:   LOCATION
 CNTY.            NATRONA:   COUNTY
 STAT.            WYOMING:   STATE
 CTRY. UNITED STATES OF AMERICA:   COUNTRY
 SRVC.            Unknown:   SERVICE COMPANY
 DATE.        09-JUN-1978:   LOGDATE
 API .       490251064100:   API NUMBER
~CURVE INFORMATION
#MNEM.UNIT       API CODE    CURVE DESCRIPTION
#----------   ------------   ------------------------------
 DEPT.F                  :   
 CALD.IN     45 280 60 00:   CALIPER FROM DENSITY LOG
 GRD .GAPI   45 310 01 00:   GAMMA RAY FROM DENSITY LOG
 CORR.G/C3   45 356 01 00:   DENSITY CORRECTION
 RHOB.G/C3   45 350 01 00:   BULK DENSITY
 DPHI.DEC    45 890 10 00:   DENSITY POROSITY LIMESTONE
~PARAMETER INFORMATION
#MNEM.UNIT          VALUE    DESCRIPTION
#----------   ------------   ------------------------------
 PD  .                 GL:   PERMANENT DATUM
 EPD .F              5062:   ELEVATION PERMANENT DATUM
 LMF .                 KB:   LOG MEASURED FROM
 DAPD.F                10:   FEET ABOVE PERMANENT DATUM
 DMF .                 KB:   DRILLING MEASURED FROM
 EKB .F              5072:   KELLING BUSHING
 EGL .F              5062:   GROUND LEVEL
 DATE.        09-JUN-1978:   RUN DATE
 RUN .                  1:   RUN NUMBER
 DD  .F              2450:   DEPTH DRILLER
 DL  .F              2445:   DEPTH LOGGER
 BLI .F              2438:   BOTTOM LOG INTERVAL
 TLI .F                10:   TOP LOG INTERVAL
 CS  .IN            9.625:   CASING SIZE
 CBD .F               688:   CASING BOTTOM DRILLER
 CBL .F               694:   CASING BOTTOM LOGGER
 BS  .IN             8.75:   BIT SIZE
 BSD .F              2450:   BIT SIZE AT DEPTH
 DFT .           AIR MIST:   DRILLING FLUID TYPE
 TCS .HRS               1:   TIME CURCULATED STOPPED
 LUN .               2958:   LOGGING UNIT NUMBER
 LUL .                CPR:   LOGGING UNIT LOCATION
 ENGI.             MILLER:   RECORDING ENGINEER
 WITN.           MCGINLEY:   WITNESSED BY
 CLNT.            A2DTECH:   CLIENT CODE
 ORIG.           5" PRINT:   ORIGIN OF DATA
 UWI .       490251064100:   UNIQUE WELL ID
 DICO. A2D Technologies, Inc.:   DIGITIZING COMPANY
~OTHER INFORMATION
~A   DEPT     CALD         GRD      CORR       RHOB       DPHI   
# ...
  687.0000  -999.2500    72.2102  -999.2500  -999.2500  -999.2500
  687.5000  -999.2500    73.4570  -999.2500  -999.2500  -999.2500
  688.0000  -999.2500    74.7037  -999.2500  -999.2500  -999.2500
  688.5000  -999.2500    79.0896  -999.2500  -999.2500  -999.2500
  689.0000  -999.2500    81.5027  -999.2500  -999.2500  -999.2500
  689.5000  -999.2500    80.1381  -999.2500  -999.2500  -999.2500
  690.0000  -999.2500    76.0085  -999.2500  -999.2500  -999.2500
  690.5000  -999.2500    69.5748  -999.2500  -999.2500  -999.2500
  691.0000  -999.2500    70.0535  -999.2500  -999.2500  -999.2500
  691.5000  -999.2500    74.3724  -999.2500  -999.2500  -999.2500
  692.0000  -999.2500    80.5347  -999.2500  -999.2500  -999.2500
  692.5000  -999.2500    79.4780  -999.2500  -999.2500  -999.2500
  693.0000  -999.2500    72.7408  -999.2500  -999.2500  -999.2500
  693.5000  -999.2500    67.6895  -999.2500  -999.2500  -999.2500
  694.0000  -999.2500    67.0885  -999.2500  -999.2500    -0.1000
  694.5000    10.9611    68.1861  -999.2500     2.8444    -0.0784
  695.0000    10.4572    73.8875  -999.2500     2.7582     0.0031
  695.5000     9.9989    76.2095  -999.2500     2.6049     0.0296
  696.0000     9.8166    76.5346  -999.2500     2.5041     0.0225
  696.5000     9.7570    76.3989  -999.2500     2.5119     0.0274
  697.0000     9.7593    75.9604  -999.2500     2.5081     0.0314
  697.5000     9.7764    73.9813  -999.2500     2.5027     0.0363
  698.0000     9.7935    72.7658  -999.2500     2.5090     0.0304
  698.5000     9.7795    77.7037  -999.2500     2.5144     0.0215
  699.0000     9.7659    77.1071  -999.2500     2.5160     0.0211
  699.5000     9.7068    75.2817  -999.2500     2.5092     0.0338
  700.0000     9.6779    74.0707  -999.2500     2.5077     0.0251
  700.5000     9.7145    78.0837  -999.2500     2.5155     0.0140
  701.0000     9.7739    79.7898  -999.2500     2.5310     0.0109
  701.5000     9.7604    81.4959  -999.2500     2.5326     0.0109
  702.0000     9.7162    82.1227  -999.2500     2.5334     0.0115
  702.5000     9.6259    76.4596  -999.2500     2.5335     0.0127
  703.0000     9.5966    71.4019  -999.2500     2.5335     0.0111
  703.5000     9.6602    71.9771  -999.2500     2.5336     0.0087
  704.0000     9.7090    74.6697  -999.2500     2.5322     0.0130
  704.5000     9.7408    74.9892  -999.2500     2.5291     0.0169
  705.0000     9.7580    74.0881  -999.2500     2.5276     0.0145
  705.5000     9.7597    73.9468  -999.2500     2.5331     0.0110
  706.0000     9.7304    75.9642  -999.2500     2.5370     0.0098
  706.5000     9.7020    77.9776  -999.2500     2.5363     0.0113
  707.0000     9.7037    78.3214  -999.2500     2.5340     0.0131
  707.5000     9.7055    77.8568  -999.2500     2.5319     0.0131
  708.0000     9.7074    77.8773  -999.2500     2.5342     0.0119
  708.5000     9.7095    77.8937  -999.2500     2.5397     0.0087
  709.0000     9.6802    77.9102  -999.2500     2.5405     0.0060
  709.5000     9.6364    78.8482  -999.2500     2.5368     0.0146
  710.0000     9.5917    79.4750  -999.2500     2.5291     0.0158
  710.5000     9.5628    76.5728  -999.2500     2.5261     0.0170
  711.0000     9.5344    79.8192  -999.2500     2.5245     0.0185
  711.5000     9.5208    83.6759  -999.2500     2.5101     0.0265
  712.0000     9.5073    81.3477  -999.2500     2.5078     0.0302
  712.5000     9.5095    80.3333  -999.2500     2.5079     0.0293
  713.0000     9.5113    79.4281  -999.2500     2.5087     0.0265
  713.5000     9.5131    78.5229  -999.2500     2.5096     0.0258
  714.0000     9.5148    78.2280  -999.2500     2.5089     0.0292
  714.5000     9.5320    78.8629  -999.2500     2.5066     0.0323
  715.0000     9.5644    80.5690  -999.2500     2.5052     0.0329
  715.5000     9.5990    83.9649  -999.2500     2.5045     0.0329
  716.0000     9.6144    85.5174  -999.2500     2.5169     0.0242
  716.5000     9.6162    81.3904  -999.2500     2.5262     0.0153
  717.0000     9.6180    80.4811  -999.2500     2.5293     0.0134
  717.5000     9.5891    83.4202  -999.2500     2.5317     0.0124
  718.0000     9.5755    82.8222  -999.2500     2.5333     0.0127
  718.5000     9.5773    81.4561  -999.2500     2.5349     0.0127
  719.0000     9.5791    78.7076  -999.2500     2.5358     0.0118
  719.5000     9.5660    77.6482  -999.2500     2.5374     0.0114
  720.0000     9.5678    84.7312  -999.2500     2.5382     0.0102
  720.5000     9.5696    85.9765  -999.2500     2.5398     0.0059
  721.0000     9.5713    80.3134  -999.2500     2.5360     0.0126
  721.5000     9.5420    76.1824  -999.2500     2.5261     0.0182
  722.0000     9.5288    78.8102  -999.2500     2.5215     0.0203
  722.5000     9.4847    80.8235  -999.2500     2.5216     0.0215
  723.0000     9.4251    80.9894  -999.2500     2.5201     0.0230
  723.5000     9.3813    74.2511  -999.2500     2.5202     0.0175
  724.0000     9.3524    74.7284  -999.2500     2.5203     0.0181
  724.5000     9.3235    84.0533  -999.2500     2.5211     0.0217
  725.0000     9.3095    86.2820  -999.2500     2.5220     0.0239
  725.5000     9.3117    83.3798  -999.2500     2.5236     0.0195
  726.0000     9.3135    85.8581  -999.2500     2.5159     0.0208
  726.5000     9.3317    87.8714  -999.2500     2.5067     0.0329
  727.0000     9.3789    89.2703  -999.2500     2.5053     0.0290
  727.5000     9.4420    91.1301  -999.2500     2.5069     0.0300
  728.0000     9.4745    93.7578  -999.2500     2.5070     0.0315
  728.5000     9.4763    92.6990  -999.2500     2.5070     0.0324
  729.0000     9.4167    92.2546  -999.2500     2.5071     0.0327
  729.5000     9.2958    91.9679  -999.2500     2.5079     0.0253
  730.0000     9.2975    90.2946  -999.2500     2.5180     0.0197
  730.5000     9.4568    90.4646  -999.2500     2.5181     0.0215
  731.0000     9.5470    92.0171  -999.2500     2.5135     0.0234
  731.5000     9.5487    96.1810  -999.2500     2.5152     0.0231
  732.0000     9.5041    91.2819  -999.2500     2.5152     0.0215
  732.5000     9.4449    88.3798  -999.2500     2.5145     0.0227
  733.0000     9.4309    88.0890  -999.2500     2.5130     0.0294
  733.5000     9.4332    91.2012  -999.2500     2.5077     0.0319
  734.0000     9.4656    91.0445  -999.2500     2.4924     0.0433
  734.5000     9.4678    89.8320  -999.2500     2.4894     0.0414
  735.0000     9.5003    89.5371  -999.2500     2.4941     0.0321
  735.5000     9.5634    92.3226  -999.2500     2.5265     0.0133
  736.0000     9.5805    89.1132  -999.2500     2.5312     0.0121
  736.5000     9.5823    77.7625  -999.2500     2.5112     0.0296
  737.0000     9.5687    74.8602  -999.2500     2.4967     0.0404
  737.5000     9.5245    84.7341  -999.2500     2.4952     0.0410
  738.0000     9.4937    90.8727  -999.2500     2.4976     0.0323
  738.5000     9.4668    91.5036  -999.2500     2.5053     0.0237
  739.0000     9.4383    89.8303  -999.2500     2.5254     0.0150
  739.5000     9.4243    87.0817  -999.2500     2.5332     0.0113
  740.0000     9.4572    86.7868  -999.2500     2.5230     0.0162
  740.5000     9.4743    89.2651  -999.2500     2.5187     0.0212
  741.0000     9.5068    90.9712  -999.2500     2.5165     0.0245
  741.5000     9.5239    92.3727  -999.2500     2.5096     0.0254
  742.0000     9.5261    90.6156  -999.2500     2.5043     0.0300
  742.5000     9.4205    89.7916  -999.2500     2.5044     0.0337
  743.0000     9.3303    93.9596  -999.2500     2.5083     0.0334
  743.5000     9.3628    94.7400  -999.2500     2.5091     0.0318
  744.0000     9.4105    93.5316  -999.2500     2.5068     0.0272
  744.5000     9.4277    93.2367  -999.2500     2.5016     0.0330
  745.0000     9.4448    93.2572  -999.2500     2.5008     0.0327
  745.5000     9.4312    93.5809  -999.2500     2.5140     0.0304
  746.0000     9.4335    93.7512  -999.2500     2.5187     0.0223
  746.5000     9.4352    93.6178  -999.2500     2.5203     0.0197
  747.0000     9.4370    93.3270  -999.2500     2.5158     0.0203
  747.5000     9.4541    91.8073  -999.2500     2.5066     0.0335
