~VERSION INFORMATION
 VERS.                2.0:   CWLS LOG ASCII STANDARD - VERSION 2.0
 WRAP.                 NO:   ONE LINE PER DEPTH STEP
~WELL INFORMATION
#MNEM.UNIT      DATA TYPE    INFORMATION
#----------   ------------   ------------------------------
 STRT.F           90.0000:   START DEPTH
 STOP.F         1032.5000:   STOP DEPTH
 STEP.F            0.5000:   STEP LENGTH
 NULL.          -999.2500:   NO VALUE
 COMP. U S NAVY/INTEX OIL CO:   COMPANY
 WELL. NAVAL PETROLEUM RESERVE 3  #62-S-14:   WELL
 FLD .        TEAPOT DOME:   FIELD
 LOC .      S14 T38N R78W:   LOCATION
 CNTY.            NATRONA:   COUNTY
 STAT.            WYOMING:   STATE
 CTRY. UNITED STATES OF AMERICA:   COUNTRY
 SRVC.       Schlumberger:   SERVICE COMPANY
 DATE.        04-JUL-1962:   LOGDATE
 API .       490250631700:   API NUMBER
~CURVE INFORMATION
#MNEM.UNIT       API CODE    CURVE DESCRIPTION
#----------   ------------   ------------------------------
 DEPT.F                  :   
 GR  .GAPI   30 310 01 00:   GAMMA RAY
 CALM.IN     15 280 01 00:   CALIPER FROM MICRO LOG
 SPR .MV     06 010 01 00:   SPONTANEOUS POTENTIAL FROM RES.
 ASN .OHMM   06 041 16 00:   AMPLIFIED SHORT NORMAL 16"
 ILD .OHMM   06 120 46 00:   INDUCTION LOG DEEP
 CILD.MMHO   06 110 46 00:   CONDUCTIVITY INDUCTION LOG DEEP
~PARAMETER INFORMATION
#MNEM.UNIT          VALUE    DESCRIPTION
#----------   ------------   ------------------------------
 PD  .                 GL:   PERMANENT DATUM
 EPD .F              5246:   ELEVATION PERMANENT DATUM
 LMF .                 KB:   LOG MEASURED FROM
 DAPD.F                 5:   FEET ABOVE PERMANENT DATUM
 DMF .                 KB:   DRILLING MEASURED FROM
 EKB .F              5251:   KELLING BUSHING
 EGL .F              5246:   GROUND LEVEL
 DATE.             7-4-62:   RUN DATE
 RUN .                  1:   RUN NUMBER
 DD  .F              1036:   DEPTH DRILLER
 DL  .F              1033:   DEPTH LOGGER
 BLI .F              1032:   BOTTOM LOG INTERVAL
 TLI .F                90:   TOP LOG INTERVAL
 CBD .F                10:   CASING BOTTOM DRILLER
 BS  .IN             6.75:   BIT SIZE
 BSD .F              1036:   BIT SIZE AT DEPTH
 DFT .                GEL:   DRILLING FLUID TYPE
 DFD .               10.2:   DRILLING FLUID DENSITY
 DFV .                 48:   DRILLING FLUID VISCOSITY
 DFL .                4.8:   DRILLING FLUID LOSS
 MSS .          FLOW LINE:   MUD SAMPLE SOURCE
 RMS .OHMM            5.6:   RESISTIVITY MUD SAMPLE
 MST .F                70:   MUD SAMPLE TEMPERATURE
 RMF .OHMM           5.57:   RESISTIVITY MUD FILTRATE SAMPLE
 MFST.F                70:   MUD FILTRATE SAMPLE TEMPERATURE
 RMC .OHMM           5.32:   RESISTIVITY MUD CAKE
 MCST.F                70:   MUD CAKE SAMPLE TEMPERATURE
 MFSS.                  M:   MUD FILTRATE SAMPLE SOURCE
 MCSS.                  M:   MUD CAKE SAMPLE SOURCE
 RMB .OHMM            4.3:   RESISTIVITY MUD AT BHT
 BHT .F                90:   BOTTOM HOLE TEMPERATURE
 TCS .HRS               1:   TIME CURCULATED STOPPED
 MRT .F                90:   MAXIMUM RECORDED TEMPERATURE
 LUN .               2503:   LOGGING UNIT NUMBER
 LUL .               CSPR:   LOGGING UNIT LOCATION
 ENGI.             KNOBEL:   RECORDING ENGINEER
 WITN.          JORGENSEN:   WITNESSED BY
 CLNT.            A2DTECH:   CLIENT CODE
 ORIG.   1", 2", 5" PRINT:   ORIGIN OF DATA
 UWI .       490250631700:   UNIQUE WELL ID
 DICO. A2D Technologies, Inc.:   DIGITIZING COMPANY
~OTHER INFORMATION
~A   DEPT       GR       CALM        SPR          ASN        ILD      CILD  
# ...
  714.0000  -999.2500  -999.2500   -47.8418    10.8636     9.8228    98.1005
  714.5000  -999.2500  -999.2500   -48.0718    10.8173     9.7672    98.6974
  715.0000  -999.2500  -999.2500   -48.2940    10.7668     9.7116    99.9727
  715.5000  -999.2500  -999.2500   -48.5207    10.6228     9.6561   101.4878
  716.0000  -999.2500  -999.2500   -48.4631    10.4775     9.6005   103.0030
  716.5000  -999.2500  -999.2500   -48.2605    10.3357     9.5450   104.5181
  717.0000  -999.2500  -999.2500   -48.0545    10.2430     9.4894   106.0333
  717.5000  -999.2500  -999.2500   -47.8483    10.2071     9.4335   107.5484
  718.0000  -999.2500  -999.2500   -47.6424    10.1930     9.3765   108.4823
  718.5000  -999.2500  -999.2500   -47.4361    10.1484     9.4074   107.3520
  719.0000  -999.2500  -999.2500   -47.2288    10.1989     9.4542   106.2430
  719.5000  -999.2500  -999.2500   -47.1550    10.2803     9.5013   105.1293
  720.0000  -999.2500  -999.2500   -47.1073    10.4259     9.5483   104.0190
  720.5000  -999.2500  -999.2500   -47.0597    10.6737     9.5951   102.8977
  721.0000  -999.2500  -999.2500   -47.0135    10.6678     9.6409   103.0199
  721.5000  -999.2500  -999.2500   -46.8698    10.6728     9.6234   103.4045
  722.0000  -999.2500  -999.2500   -46.6707    10.0481     9.5090   103.7891
  722.5000  -999.2500  -999.2500   -46.4710    10.1258     9.3960   104.1737
  723.0000  -999.2500  -999.2500   -46.2718    10.2515     9.2828   104.5583
  723.5000  -999.2500  -999.2500   -46.3272    10.0428     9.1695   105.7264
  724.0000  -999.2500  -999.2500   -46.6640     9.8853     9.0563   108.2264
  724.5000  -999.2500  -999.2500   -46.7486     9.6728     8.9431   110.7264
  725.0000  -999.2500  -999.2500   -46.5115     9.5271     8.8299   113.2264
  725.5000  -999.2500  -999.2500   -46.2750     9.4260     8.7167   115.7264
  726.0000  -999.2500  -999.2500   -46.0354     9.3715     8.6033   118.2264
  726.5000  -999.2500  -999.2500   -45.9566     9.3078     8.4886   119.0834
  727.0000  -999.2500  -999.2500   -45.8974     9.2089     8.4372   119.5182
  727.5000  -999.2500  -999.2500   -45.8392     9.1096     8.3995   119.9529
  728.0000  -999.2500  -999.2500   -45.7969     9.0407     8.3622   120.3877
  728.5000  -999.2500  -999.2500   -45.8370     8.9729     8.3247   120.7415
  729.0000  -999.2500  -999.2500   -45.8757     8.9049     8.2872   121.8370
  729.5000  -999.2500  -999.2500   -45.9143     8.8367     8.2497   122.9481
  730.0000  -999.2500  -999.2500   -45.9532     8.7687     8.2121   124.0592
  730.5000  -999.2500  -999.2500   -45.9931     8.7186     8.1741   125.1703
  731.0000  -999.2500  -999.2500   -45.8898     8.6685     8.1492   126.2814
  731.5000  -999.2500  -999.2500   -45.7584     8.6057     8.1271   127.3926
  732.0000  -999.2500  -999.2500   -45.6266     8.4792     8.1051   128.5037
  732.5000  -999.2500  -999.2500   -45.4949     8.3231     8.0830   129.6148
  733.0000  -999.2500  -999.2500   -45.3633     8.2844     8.0610   130.7615
  733.5000  -999.2500  -999.2500   -45.2313     8.2787     8.0389   130.7615
  734.0000  -999.2500  -999.2500   -45.1000     8.2730     8.0168   130.7615
  734.5000  -999.2500  -999.2500   -44.9971     8.2648     7.9948   130.6661
  735.0000  -999.2500  -999.2500   -45.0668     8.1834     7.9727   130.4027
  735.5000  -999.2500  -999.2500   -45.1341     8.1362     7.9507   130.1376
  736.0000  -999.2500  -999.2500   -45.2009     8.2118     7.9286   129.8695
  736.5000  -999.2500  -999.2500   -45.2681     8.2064     7.9069   130.4044
  737.0000  -999.2500  -999.2500   -45.3346     8.1635     7.8847   132.2226
  737.5000  -999.2500  -999.2500   -45.3632     8.1066     7.8367   134.3557
  738.0000  -999.2500  -999.2500   -45.1564     8.0468     7.6363   138.2687
  738.5000  -999.2500  -999.2500   -44.9510     7.9358     7.4358   142.1817
  739.0000  -999.2500  -999.2500   -44.7464     7.7246     7.2356   146.0948
  739.5000  -999.2500  -999.2500   -44.5419     7.4810     7.0350   150.0078
  740.0000  -999.2500  -999.2500   -44.3373     7.2309     6.8352   152.9799
  740.5000  -999.2500  -999.2500   -44.1325     7.0319     6.6649   155.1538
  741.0000  -999.2500  -999.2500   -43.9277     7.0049     6.7172   157.3277
  741.5000  -999.2500  -999.2500   -43.7267     6.9872     6.7661   159.5016
  742.0000  -999.2500  -999.2500   -43.6562     6.9694     6.8142   161.8237
  742.5000  -999.2500  -999.2500   -43.8836     6.9799     6.8623   160.4960
  743.0000  -999.2500  -999.2500   -44.1058     7.1161     6.9104   157.9960
  743.5000  -999.2500  -999.2500   -44.3380     7.1814     6.9585   155.4960
  744.0000  -999.2500  -999.2500   -44.3117     7.1618     7.0066   152.8225
  744.5000  -999.2500  -999.2500   -44.2079     7.1510     7.0547   152.1025
  745.0000  -999.2500  -999.2500   -44.1011     7.2073     7.1028   150.7890
  745.5000  -999.2500  -999.2500   -43.9933     7.2639     7.1509   149.4669
  746.0000  -999.2500  -999.2500   -43.9870     7.3221     7.1990   148.1428
  746.5000  -999.2500  -999.2500   -43.9870     7.3582     7.2471   146.8192
  747.0000  -999.2500  -999.2500   -43.9893     7.3962     7.2952   145.4957
  747.5000  -999.2500  -999.2500   -44.1394     7.3927     7.3433   144.1722
  748.0000  -999.2500  -999.2500   -44.3064     7.4468     7.3914   143.1698
  748.5000  -999.2500  -999.2500   -44.4739     7.5681     7.4395   141.9561
  749.0000  -999.2500  -999.2500   -44.6404     7.6939     7.4875   140.7425
  749.5000  -999.2500  -999.2500   -44.7941     7.7668     7.5357   139.5288
  750.0000  -999.2500  -999.2500   -44.7366     7.8262     7.5839   138.3152
  750.5000  -999.2500  -999.2500   -44.6284     7.8842     7.6313   137.0917
  751.0000  -999.2500  -999.2500   -44.5212     7.9340     7.6630   135.7788
  751.5000  -999.2500  -999.2500   -44.4137     7.9606     7.6346   136.2374
  752.0000  -999.2500  -999.2500   -44.3064     7.9100     7.6067   137.1881
  752.5000  -999.2500  -999.2500   -44.1991     7.8296     7.5788   138.1294
  753.0000  -999.2500  -999.2500   -44.0917     7.7866     7.5509   138.8201
  753.5000  -999.2500  -999.2500   -43.9844     7.7445     7.5230   139.2004
  754.0000  -999.2500  -999.2500   -43.8769     7.7021     7.4950   139.5807
  754.5000  -999.2500  -999.2500   -43.7699     7.6594     7.4661   139.9610
  755.0000  -999.2500  -999.2500   -43.6653     7.6148     7.4454   140.3413
  755.5000  -999.2500  -999.2500   -43.5748     7.6069     7.4244   140.7216
  756.0000  -999.2500  -999.2500   -43.3688     7.7196     7.4033   141.1019
  756.5000  -999.2500  -999.2500   -43.1665     7.8282     7.3821   141.4822
  757.0000  -999.2500  -999.2500   -42.9659     7.8153     7.3610   141.8625
  757.5000  -999.2500  -999.2500   -42.7655     7.7671     7.3398   142.2428
  758.0000  -999.2500  -999.2500   -42.5651     7.6546     7.3187   142.6231
  758.5000  -999.2500  -999.2500   -42.3647     7.6270     7.2976   143.0034
  759.0000  -999.2500  -999.2500   -42.1643     7.6313     7.2764   143.3837
  759.5000  -999.2500  -999.2500   -41.9630     7.6386     7.2553   143.7876
  760.0000  -999.2500  -999.2500   -41.7616     7.6439     7.2341   144.2404
  760.5000  -999.2500  -999.2500   -41.5869     7.5781     7.2130   144.7231
  761.0000  -999.2500  -999.2500   -41.7647     7.5062     7.1919   145.2058
  761.5000  -999.2500  -999.2500   -41.9332     7.4404     7.1707   145.6885
  762.0000  -999.2500  -999.2500   -42.0993     7.4217     7.1496   146.1712
  762.5000  -999.2500  -999.2500   -42.0945     7.4008     7.1285   146.6539
  763.0000  -999.2500  -999.2500   -41.9185     7.3760     7.1074   147.1366
  763.5000  -999.2500  -999.2500   -41.7440     7.3511     7.0864   147.6193
  764.0000  -999.2500  -999.2500   -41.5647     7.3240     7.0638   148.1020
  764.5000  -999.2500  -999.2500   -41.3091     7.2423     7.0043   148.5847
  765.0000  -999.2500  -999.2500   -41.0563     7.1564     6.9415   150.2147
  765.5000  -999.2500  -999.2500   -40.8048     7.0854     6.8790   154.1590
