~VERSION INFORMATION
 VERS.                2.0:   CWLS LOG ASCII STANDARD - VERSION 2.0
 WRAP.                 NO:   ONE LINE PER DEPTH STEP
~WELL INFORMATION
#MNEM.UNIT      DATA TYPE    INFORMATION
#----------   ------------   ------------------------------
 STRT.F           30.0000:   START DEPTH
 STOP.F          458.0000:   STOP DEPTH
 STEP.F            0.5000:   STEP LENGTH
 NULL.          -999.2500:   NO VALUE
 COMP. FENIX & SCISSON INC:   COMPANY
 WELL. NPR 3 #53 SX 10-10:   WELL
 FLD .             TEAPOT:   FIELD
 LOC .      S10 T38N R78W:   LOCATION
 CNTY.            NATRONA:   COUNTY
 STAT.            WYOMING:   STATE
 CTRY. UNITED STATES OF AMERICA:   COUNTRY
 SRVC.              Welex:   SERVICE COMPANY
 DATE.        16-APR-1977:   LOGDATE
 API .       490251033200:   API NUMBER
~CURVE INFORMATION
#MNEM.UNIT       API CODE    CURVE DESCRIPTION
#----------   ------------   ------------------------------
 DEPT.F                  :   
 SPR .MV     07 010 01 00:   SPONTANEOUS POTENTIAL FROM RES.
 ILD .OHMM   07 120 46 00:   INDUCTION LOG DEEP
 ILM .OHMM   07 120 44 00:   INDUCTION LOG MEDIUM
 SGRD.OHMM   07 220 05 00:   SHALLOW GUARD RESISTIVITY
 GRD .GAPI   45 310 01 00:   GAMMA RAY FROM DENSITY LOG
 CALD.IN     45 280 60 00:   CALIPER FROM DENSITY LOG
 CORR.G/C3   45 356 01 00:   DENSITY CORRECTION
 RHOB.G/C3   45 350 01 00:   BULK DENSITY
 DPHI.DEC    45 890 12 00:   DENSITY POROSITY SANDSTONE
~PARAMETER INFORMATION
#MNEM.UNIT          VALUE    DESCRIPTION
#----------   ------------   ------------------------------
 PD  .                 GL:   PERMANENT DATUM
 EPD .F              5180:   ELEVATION PERMANENT DATUM
 LMF .                 GL:   LOG MEASURED FROM
 DMF .                 GL:   DRILLING MEASURED FROM
 EGL .F              5180:   GROUND LEVEL
 DATE.        16-APR-1977:   RUN DATE
 RUN .                  1:   RUN NUMBER
 DD  .F               455:   DEPTH DRILLER
 DL  .F               461:   DEPTH LOGGER
 BLI .F               459:   BOTTOM LOG INTERVAL
 TLI .F                30:   TOP LOG INTERVAL
 CS  .IN            8.625:   CASING SIZE
 BS  .IN            7.875:   BIT SIZE
 BSD .F               455:   BIT SIZE AT DEPTH
 DFT .            KCL MUD:   DRILLING FLUID TYPE
 DFD .                8.9:   DRILLING FLUID DENSITY
 TCS .HRS            0600:   TIME CURCULATED STOPPED
 MRT .F                66:   MAXIMUM RECORDED TEMPERATURE
 ENGI.               DOAK:   RECORDING ENGINEER
 WITN.      B. HARRINGTON:   WITNESSED BY
 CLNT.            A2DTECH:   CLIENT CODE
 ORIG.           5" PRINT:   ORIGIN OF DATA
 UWI .       490251033200:   UNIQUE WELL ID
 DICO. A2D Technologies, Inc.:   DIGITIZING COMPANY
~OTHER INFORMATION
~A   DEPT      SPR        ILD        ILM       SGRD         GRD        CALD      CORR        RHOB     DPHI   
   30.0000  -999.2500  -999.2500  -999.2500  -999.2500    93.7177     8.0152    -0.2425     2.0987  -999.2500
   30.5000  -999.2500  -999.2500  -999.2500  -999.2500    97.4501     8.0316    -0.2301     2.0957  -999.2500
   31.0000  -999.2500  -999.2500  -999.2500  -999.2500   102.8171     8.0185    -0.1993     2.0898  -999.2500
   31.5000  -999.2500  -999.2500  -999.2500  -999.2500   109.3727     8.0202    -0.1500     2.0958  -999.2500
   32.0000  -999.2500  -999.2500  -999.2500  -999.2500   112.3622     8.0373    -0.0895     2.1320  -999.2500
   32.5000  -999.2500  -999.2500  -999.2500  -999.2500   114.1631     8.0391    -0.0304     2.2161  -999.2500
   33.0000  -999.2500  -999.2500  -999.2500  -999.2500   116.5582     8.0409     0.0175     2.3641     0.1530
   33.5000  -999.2500  -999.2500  -999.2500  -999.2500   119.5478     8.0427     0.0297     2.4024     0.1487
   34.0000  -999.2500  -999.2500  -999.2500  -999.2500   120.7498     8.0444     0.0359     2.4085     0.1451
   34.5000   -40.5045     0.4786     2.6772     7.7999   118.9889     8.0462     0.0360     2.4146     0.1412
   35.0000   -40.5045     0.3142     3.5307     8.1364   117.5208     8.0480     0.0346     2.4139     0.1402
   35.5000   -40.6528     0.2555     5.5343     7.7578   116.0527     8.0498     0.0318     2.4095     0.1414
   36.0000   -41.0979     0.3081     5.6522     8.1487   115.6202     8.0515     0.0304     2.4058     0.1441
   36.5000   -41.2463     0.5398     5.4996     9.2356   116.8267     8.0380     0.0291     2.4028     0.1473
   37.0000   -41.2463     1.1087     5.5449     9.5677   114.3229     8.0402     0.0292     2.4029     0.1482
   37.5000   -41.3947     2.6697     5.9793     9.7756   110.6259     8.0420     0.0309     2.4060     0.1428
   38.0000   -41.6914     4.6770     6.3214    10.4834   110.0449     8.0437     0.0325     2.4121     0.1376
   38.5000   -41.6914     4.9666     6.1513     9.1996   114.2276     8.0302     0.0342     2.4204     0.1343
   39.0000   -41.8398     5.1291     6.0267     5.4811   121.5261     8.0473     0.0328     2.4272     0.1318
   39.5000   -41.9881     5.2447     6.0294     7.8587   126.1501     8.0490     0.0315     2.4325     0.1300
   40.0000   -42.1365     5.6325     6.3304    11.1129   128.6939     8.0359     0.0286     2.4394     0.1258
   40.5000   -42.2849     6.1621     6.5746    11.1985   126.4828     8.0223     0.0257     2.4364     0.1266
   41.0000   -42.2849     6.7291     6.7923    11.2069   122.9345     8.0092     0.0214     2.4282     0.1314
   41.5000   -42.2849     6.9180     7.0286    11.2153   119.2375     7.9667     0.0200     2.4208     0.1365
   42.0000   -42.2849     6.9722     7.2782    11.2237   115.8377     7.8348     0.0186     2.4186     0.1394
   42.5000   -42.4332     7.1208     7.1809    11.2322   115.1081     7.7770     0.0203     2.4209     0.1355
   43.0000   -42.7300     7.3251     7.0842    11.1610   112.0099     7.7634     0.0220     2.4307     0.1289
   43.5000   -42.8783     7.4833     7.3365    11.1715   106.0842     7.7656     0.0267     2.4368     0.1285
   44.0000   -42.8783     7.4364     7.7562    14.3399   104.1658     7.7674     0.0268     2.4331     0.1312
   44.5000   -42.8783     7.3388     8.1435    15.1641   107.4570     7.7692     0.0209     2.4212     0.1359
   45.0000   -42.8783     7.0553     8.3740    12.6808   111.9324     7.7858     0.0166     2.4190     0.1371
   45.5000   -42.8783     6.7630     8.6117    14.4720   115.2890     7.7876     0.0152     2.4251     0.1350
   46.0000   -42.8783     6.7672     8.6744    12.7701   117.0199     7.7894     0.0154     2.4312     0.1337
   46.5000   -43.0267     7.0583     8.7377    12.1906   118.8207     7.7912     0.0155     2.4192     0.1325
   47.0000   -43.0267     7.1611     8.8624    13.7389   118.2437     7.7929     0.0172     2.4193     0.1322
   47.5000   -43.0267     7.1655     8.8656    13.2202   117.8158     7.7947     0.0188     2.4223     0.1315
   48.0000   -43.0267     7.1700     8.8687    12.5607   119.7655     7.8114     0.0220     2.4209     0.1381
   48.5000   -43.0267     7.1745     8.7501    13.7528   122.1607     7.8430     0.0237     2.4157     0.1405
   49.0000   -43.0267     7.1790     8.4560    13.2590   124.1101     7.8596     0.0238     2.4143     0.1383
   49.5000   -43.1751     7.3341     8.2212    12.4162   124.2888     7.8614     0.0240     2.4189     0.1344
   50.0000   -43.1751     7.5968     7.9100    14.0835   120.1337     7.8781     0.0256     2.4257     0.1299
   50.5000   -43.1751     7.6016     7.7403    14.0735   119.5571     7.9097     0.0303     2.4348     0.1262
   51.0000   -43.3234     7.3479     7.6388    13.7876   120.7687     7.8965     0.0364     2.4446     0.1226
   51.5000   -43.4718     7.0051     7.7537    13.3311   122.0000     7.8681     0.0366     2.4477     0.1201
   52.0000   -43.6202     7.0581     8.0351    12.8956   124.4051     7.8256     0.0352     2.4312     0.1255
   52.5000   -43.7685     7.1115     8.2051    12.7337   126.6493     7.8120     0.0308     2.4223     0.1297
   53.0000   -44.0653     7.1653     8.2113    12.9288   126.7782     7.7989     0.0294     2.4284     0.1308
   53.5000   -44.2136     7.2196     8.2176    13.8595   121.1946     7.8011     0.0311     2.4314     0.1281
   54.0000   -44.6588     7.4267     8.2808    13.1124   118.4735     7.8029     0.0312     2.4240     0.1293
   54.5000   -44.9555     7.4313     8.4077    11.8321   118.5780     7.8046     0.0314     2.4135     0.1340
   55.0000   -45.2522     7.4876     8.7105    11.8455   119.9406     7.8064     0.0299     2.4113     0.1355
   55.5000   -45.2522     7.4923     9.0172    14.2876   121.9916     7.8082     0.0286     2.4234     0.1316
   56.0000   -45.2522     7.4441     8.7636    14.3005   120.7970     7.8100     0.0287     2.4348     0.1279
   56.5000   -45.2522     7.4500     8.3049    12.8993   118.4374     7.8117     0.0319     2.4468     0.1231
   57.0000   -45.2522     7.5584     8.0208    11.9636   115.6319     7.8139     0.0365     2.4537     0.1206
   57.5000   -45.2522     7.6685     7.8229    14.3306   113.8666     7.8157     0.0382     2.4597     0.1173
   58.0000   -45.2522     7.9432     7.9009    15.1571   112.6957     7.8315     0.0413     2.4621     0.1158
   58.5000   -45.2522     8.5172     8.2900    15.1685   109.2959     7.8184     0.0415     2.4569     0.1172
   59.0000   -45.2522     9.0073     8.7794    15.0750   107.3820     7.8210     0.0386     2.4524     0.1193
   59.5000   -45.2522     9.1385     9.2991    14.8791   112.0060     7.8228     0.0342     2.4465     0.1211
   60.0000   -45.2522     9.0797    10.0721    14.8906   118.1129     7.8246     0.0313     2.4390     0.1240
   60.5000   -45.2522     9.3519    10.7265    14.9017   116.9247     7.8264     0.0254     2.4324     0.1273
   61.0000   -45.1039     9.8202    11.5026    15.3312   114.4141     7.8281     0.0195     2.4287     0.1285
   61.5000   -45.0774    10.1003    11.9159    15.5563   112.1857     7.8141     0.0165     2.4362     0.1251
   62.0000   -44.9555    10.3807    11.9249    15.2484   111.0517     7.8317     0.0153     2.4446     0.1227
   62.5000   -44.9555    10.4592    11.7680    14.9466   111.6642     7.8335     0.0139     2.4431     0.1229
   63.0000   -44.9555    10.5427    11.6958    15.2713   111.5186     7.8352     0.0141     2.4365     0.1253
   63.5000   -44.8071    10.6917    11.7881    16.1520   110.9049     7.8370     0.0142     2.4313     0.1274
   64.0000   -44.8071    10.6984    12.3816    16.7328   107.0124     7.8239     0.0144     2.4283     0.1286
   64.5000   -44.6588    10.5580    12.5634    16.1763   103.8157     7.8103     0.0145     2.4322     0.1273
   65.0000   -44.6588    10.4918    12.3981    15.4207   102.8133     7.7972     0.0161     2.4397     0.1252
   65.5000   -44.6588    10.5713    12.3220    15.9782   101.6399     7.7994     0.0193     2.4481     0.1224
   66.0000   -44.6588    10.5836    12.3337    17.1349   100.4998     7.8012     0.0224     2.4579     0.1188
