~VERSION INFORMATION
 VERS.                2.0:   CWLS LOG ASCII STANDARD - VERSION 2.0
 WRAP.                 NO:   ONE LINE PER DEPTH STEP
~WELL INFORMATION
#MNEM.UNIT      DATA TYPE    INFORMATION
#----------   ------------   ------------------------------
 STRT.F           30.0000:   START DEPTH
 STOP.F          732.0000:   STOP DEPTH
 STEP.F            0.5000:   STEP LENGTH
 NULL.          -999.2500:   NO VALUE
 COMP. FENIX & SCISSON INC:   COMPANY
 WELL.        31-S #31-14:   WELL
 FLD .             TEAPOT:   FIELD
 LOC .      S14 T38N R78W:   LOCATION
 CNTY.            NATRONA:   COUNTY
 STAT.            WYOMING:   STATE
 CTRY. UNITED STATES OF AMERICA:   COUNTRY
 SRVC.              Welex:   SERVICE COMPANY
 DATE.        16-FEB-1977:   LOGDATE
 API .       490251027300:   API NUMBER
~CURVE INFORMATION
#MNEM.UNIT       API CODE    CURVE DESCRIPTION
#----------   ------------   ------------------------------
 DEPT.F                  :   
 CALD.IN     45 280 60 00:   CALIPER FROM DENSITY LOG
 CORR.G/C3   45 356 01 00:   DENSITY CORRECTION
 DPHI.DEC    45 890 12 00:   DENSITY POROSITY SANDSTONE
 GRD .GAPI   45 310 01 00:   GAMMA RAY FROM DENSITY LOG
 RHOB.G/C3   45 350 01 00:   BULK DENSITY
 GURD.OHMM   07 270 05 00:   SHALLOW SHORT GUARD RESISTIVITY
 ILM .OHMM   07 120 44 00:   INDUCTION LOG MEDIUM
 ILD .OHMM   07 120 46 00:   INDUCTION LOG DEEP
 SPR .MV     07 010 01 00:   SPONTANEOUS POTENTIAL
~PARAMETER INFORMATION
#MNEM.UNIT          VALUE    DESCRIPTION
#----------   ------------   ------------------------------
 PD  .                 GL:   PERMANENT DATUM
 EPD .F              5186:   ELEVATION PERMANENT DATUM
 LMF .                 GL:   LOG MEASURED FROM
 DMF .                 GL:   DRILLING MEASURED FROM
 EKB .F              5195:   KELLING BUSHING
 EGL .F              5186:   GROUND LEVEL
 DATE.        16-FEB-1977:   RUN DATE
 RUN .                  1:   RUN NUMBER
 DD  .F               740:   DEPTH DRILLER
 DL  .F               736:   DEPTH LOGGER
 BLI .F               734:   BOTTOM LOG INTERVAL
 TLI .F                30:   TOP LOG INTERVAL
 CS  .IN            8.625:   CASING SIZE
 CBD .F                40:   CASING BOTTOM DRILLER
 CBL .F                44:   CASING BOTTOM LOGGER
 BS  .IN            7.875:   BIT SIZE
 BSD .F               740:   BIT SIZE AT DEPTH
 DFT .   OIL EMULSION MUD:   DRILLING FLUID TYPE
 DFD .                8.3:   DRILLING FLUID DENSITY
 DFV .                 48:   DRILLING FLUID VISCOSITY
 DFPH.               10.5:   DRILLING FLUID PH
 DFL .                7.5:   DRILLING FLUID LOSS
 MSS .           FLOWLINE:   MUD SAMPLE SOURCE
 RMS .OHMM           0.80:   RESISTIVITY MUD SAMPLE
 MST .F                64:   MUD SAMPLE TEMPERATURE
 RMF .OHMM           0.68:   RESISTIVITY MUD FILTRATE SAMPLE
 MFST.F                64:   MUD FILTRATE SAMPLE TEMPERATURE
 RMC .OHMM           1.01:   RESISTIVITY MUD CAKE
 MCST.F                63:   MUD CAKE SAMPLE TEMPERATURE
 MFSS.               MEAS:   MUD FILTRATE SAMPLE SOURCE
 MCSS.               MEAS:   MUD CAKE SAMPLE SOURCE
 RMB .OHMM           0.74:   RESISTIVITY MUD AT BHT
 BHT .F                69:   BOTTOM HOLE TEMPERATURE
 TCS .HRS               5:   TIME CURCULATED STOPPED
 MRT .F                69:   MAXIMUM RECORDED TEMPERATURE
 LUN .               8611:   LOGGING UNIT NUMBER
 LUL .           GILLETTE:   LOGGING UNIT LOCATION
 ENGI.           D.LAWSON:   RECORDING ENGINEER
 WITN.             K.JAPP:   WITNESSED BY
 CLNT.            A2DTECH:   CLIENT CODE
 ORIG.         2.5" PRINT:   ORIGIN OF DATA
 UWI .       490251027300:   UNIQUE WELL ID
 DICO. A2D Technologies, Inc.:   DIGITIZING COMPANY
~OTHER INFORMATION
~A   DEPT       CALD      CORR      DPHI         GRD        RHOB     GURD        ILM        ILD        SPR   
# ...
  614.0000     8.0226     0.1418     0.1140    98.6647     2.4580   956.2099    15.5148    11.4072   -10.8959
  614.5000     8.0217     0.1388     0.1199    97.4777     2.4322   950.4924    15.7296    11.2330   -10.8930
  615.0000     8.0503     0.1354     0.1294    95.6973     2.4173   946.6529    16.1931    11.1145   -10.8902
  615.5000     8.0495     0.1296     0.1366    94.5104     2.4143   941.5217    16.4430    11.1129   -10.8872
  616.0000     8.0486     0.1295     0.1395    94.2137     2.4158   938.5264    16.6170    11.5112   -10.8843
  616.5000     8.0478     0.1294     0.1381    95.1820     2.4188   938.5115    16.2873    12.0634   -10.9856
  617.0000     8.0469     0.1338     0.1346    96.2908     2.4266   935.5140    15.9466    12.3975   -11.1751
  617.5000     8.0460     0.1411     0.1282    95.6900     2.4401   938.4801    15.7293    12.7409   -11.3427
  618.0000     8.0451     0.1440     0.1190    93.8160     2.4680   941.4462    15.9466    12.9153   -11.4659
  618.5000     8.0442     0.1499     0.0981    91.1541     2.5547   953.3534    16.1670    13.0921   -11.4626
  619.0000     8.0433     0.1557     0.0767    88.5757     2.6127   969.0768    17.5819    13.2713   -11.4598
  619.5000     8.0423     0.1587     0.0257    88.2789     2.6214   988.1136    19.9471    13.2693   -11.7537
  620.0000     8.0415     0.1645     0.0174    89.7626     2.6039  1056.4264    21.2743    13.4509   -11.7507
  620.5000     8.0406     0.1644     0.0246    92.4332     2.5752  1185.7621    21.2743    13.4486   -11.7478
  621.0000     8.0398     0.1643     0.0519    95.5142     2.5441  1107.7858    20.7020    13.2636   -12.0420
  621.5000     8.0389     0.1612     0.0765    98.4219     2.5128   978.2388    19.5924    13.0811   -12.0386
  622.0000     8.0307     0.1594     0.0852    98.2829     2.4905   963.0447    18.5457    12.9011   -12.0350
  622.5000     8.0074     0.1550     0.0943    97.3615     2.4801   953.4081    17.3156    12.7235   -12.3289
  623.0000     8.0205     0.1519     0.1005    96.4401     2.4740   942.1923    16.3905    12.7099   -12.3261
  623.5000     8.0353     0.1488     0.1012    95.6973     2.4726   934.6163    15.4847    12.5044   -12.6202
  624.0000     8.0343     0.1427     0.1012    95.9941     2.4741   928.6274    14.6117    12.2052   -12.9140
  624.5000     8.0334     0.1397     0.1012    99.5549     2.4761   928.5992    14.2883    11.9597   -13.0799
  625.0000     8.0326     0.1366     0.1012   101.6320     2.4770   928.5710    14.2883    11.5496   -13.2047
  625.5000     8.0614     0.1365     0.1019   100.1292     2.4754   931.6071    14.2883    11.0823   -13.4038
  626.0000     8.0605     0.1334     0.1039    97.9584     2.4695   937.8707    14.4857    10.7808   -13.7923
  626.5000     8.0596     0.1303     0.1079    96.1534     2.4590   941.1539    14.4857    10.4875   -13.8761
  627.0000     8.0588     0.1272     0.1131    95.3007     2.4501   946.3400    14.2883    10.3389   -14.0831
  627.5000     8.0579     0.1301     0.1155    95.2349     2.4456   944.8895    13.9013    10.3418   -14.3769
  628.0000     8.0865     0.1330     0.1125    96.0217     2.4475   937.3285    13.7118    10.5199   -14.6705
  628.5000     8.0856     0.1358     0.1084    97.7745     2.4580   931.3395    13.5976    10.7737   -14.6771
  629.0000     8.0551     0.1387     0.1037    99.2582     2.4751   925.3507    13.5249    10.9209   -14.9616
  629.5000     8.0543     0.1353     0.1012   100.7418     2.4871   922.3421    13.4416    11.0703   -15.0341
  630.0000     8.0831     0.1290     0.1022   101.3353     2.4841   922.3134    13.2375    10.9177   -15.2527
  630.5000     8.0822     0.1256     0.1060   100.4238     2.4737   922.2836    13.1587    10.6207   -15.3912
  631.0000     8.0813     0.1222     0.1095    99.5025     2.4647   923.0189    13.1587    10.3317   -15.5430
  631.5000     8.1102     0.1203     0.1120    99.1746     2.4602   928.1899    12.9793    10.0458   -15.5396
  632.0000     8.1092     0.1232     0.1138    98.9614     2.4572   931.1352    12.9793     9.9122   -15.8338
  632.5000     8.1380     0.1230     0.1156    99.1073     2.4557   934.0858    13.0047     9.7758   -15.8308
  633.0000     8.1668     0.1259     0.1156    99.8516     2.4576   937.0363    13.1587     9.8244   -16.1247
  633.5000     8.1955     0.1288     0.1115   100.7418     2.4684   937.0038    13.2262     9.9082   -16.1656
  634.0000     8.1946     0.1318     0.1048   101.6320     2.4874   933.9953    13.3405    10.0437   -16.4158
  634.5000     8.2235     0.1376     0.0962   102.5223     2.5076   930.8724    13.3405    10.1811   -16.7097
  635.0000     8.2226     0.1411     0.0906   103.4174     2.5165   927.5289    13.3405    10.4629   -16.7062
  635.5000     8.2217     0.1433     0.0840   104.0059     2.5239   921.9856    13.3405    10.6062   -17.0000
  636.0000     8.2208     0.1432     0.0793   104.0059     2.5190   921.9558    13.3405    10.7514   -17.2938
  636.5000     8.2199     0.1431     0.0774   104.0059     2.5119   923.3716    13.5249    10.8985   -17.5873
  637.0000     8.1891     0.1400     0.0765   103.5796     2.5053   927.8569    13.5249    10.8969   -17.8812
  637.5000     8.1883     0.1369     0.0789   102.4976     2.4978   930.8074    13.5249    10.8954   -18.1751
  638.0000     8.1578     0.1368     0.0837   101.0386     2.4915   933.7579    13.6010    10.8939   -18.4691
  638.5000     8.1569     0.1367     0.0879    99.5549     2.4874   936.7084    13.7118    10.8922   -18.5445
  639.0000     8.1264     0.1366     0.0910    98.6647     2.4850   939.6595    13.9013    10.7423   -18.8714
  639.5000     8.0958     0.1370     0.0934    99.8516     2.4850   939.6291    13.9013    10.7409   -19.1983
  640.0000     8.0950     0.1402     0.0946   102.2652     2.4865   939.5993    13.7118    10.7395   -19.6434
  640.5000     8.0941     0.1464     0.0956   103.1157     2.4879   938.4421    13.7118    10.5917   -19.9373
  641.0000     8.0932     0.1496     0.0962   102.0613     2.4909   933.5791    13.5249    10.5902   -20.2312
  641.5000     8.0624     0.1510     0.0945   100.9253     2.4940   927.5830    13.3020    10.4444   -20.2284
  642.0000     8.0914     0.1479     0.0909   100.3007     2.4971   924.5745    12.9793    10.3889   -20.5361
  642.5000     8.0904     0.1478     0.0850   101.3353     2.5022   918.5856    12.8023    10.1588   -20.8162
  643.0000     8.0896     0.1477     0.0791   103.4125     2.5092   912.5967    12.5320    10.0187   -21.1102
  643.5000     8.0887     0.1506     0.0742   105.7863     2.5232   906.4634    12.4557     9.8808   -21.4041
  644.0000     8.0878     0.1538     0.0726   106.9733     2.5368   903.5970    12.2859     9.8795   -21.5470
  644.5000     8.0869     0.1564     0.0745   106.3763     2.5323   907.3571    12.2859     9.7436   -21.6944
  645.0000     8.0861     0.1464     0.0808   105.4204     2.5174   913.6208    12.1184     9.7423   -21.6910
  645.5000     8.0852     0.1370     0.0959   104.8961     2.5009   919.8848    12.1404     9.6081   -21.6882
  646.0000     8.0841     0.1337     0.1017   107.0643     2.4856   924.3345    12.2859     9.6068   -21.6854
  646.5000     8.0833     0.1350     0.0975   109.0099     2.4801   921.3259    12.2859     9.6055   -21.6825
  647.0000     8.0824     0.1379     0.0898   109.1880     2.4811   921.2977    12.3668     9.5392   -21.6795
  647.5000     8.0816     0.1468     0.0881   108.1602     2.4874   921.2695    12.4557     9.6029   -21.6766
  648.0000     8.0807     0.1527     0.0936   106.3798     2.4936   921.3995    12.8023     9.6014   -21.6736
  648.5000     8.0798     0.1496     0.1007   103.4125     2.4860   927.1737    12.9793     9.7328   -21.3739
  649.0000     8.0493     0.1465     0.1156   100.7418     2.4651   934.7510    13.5249     9.8660   -21.6671
  649.5000     8.0484     0.1434     0.1212    98.2765     2.4503   944.3276    14.5066    10.0087   -21.6643
  650.0000     8.0475     0.1433     0.1237    94.8074     2.4398   959.8656    15.1648    10.1612   -21.9582
