~VERSION INFORMATION
 VERS.                2.0:   CWLS LOG ASCII STANDARD - VERSION 2.0
 WRAP.                 NO:   ONE LINE PER DEPTH STEP
~WELL INFORMATION
#MNEM.UNIT      DATA TYPE    INFORMATION
#----------   ------------   ------------------------------
 STRT.F           40.0000:   START DEPTH
 STOP.F          512.0000:   STOP DEPTH
 STEP.F            0.5000:   STEP LENGTH
 NULL.          -999.2500:   NO VALUE
 COMP. LAWRENCE/ALLISON INC:   COMPANY
 WELL.   65-21 SX F1 #3-3:   WELL
 FLD .             TEAPOT:   FIELD
 LOC .       S3 T38N R78W:   LOCATION
 CNTY.            NATRONA:   COUNTY
 STAT.            WYOMING:   STATE
 CTRY. UNITED STATES OF AMERICA:   COUNTRY
 SRVC.       Schlumberger:   SERVICE COMPANY
 DATE.        14-JUL-1982:   LOGDATE
 API .       490251089600:   API NUMBER
~CURVE INFORMATION
#MNEM.UNIT       API CODE    CURVE DESCRIPTION
#----------   ------------   ------------------------------
 DEPT.F                  :   
 CALD.IN     45 280 60 00:   CALIPER FROM DENSITY LOG
 CORR.G/C3   45 356 01 00:   DENSITY CORRECTION
 DPHI.DEC    45 890 12 00:   DENSITY POROSITY SANDSTONE
 GRD .GAPI   45 310 01 00:   GAMMA RAY FROM DENSITY LOG
 RHOB.G/C3   45 350 01 00:   BULK DENSITY
~PARAMETER INFORMATION
#MNEM.UNIT          VALUE    DESCRIPTION
#----------   ------------   ------------------------------
 PD  .                 GL:   PERMANENT DATUM
 EPD .F              5155:   ELEVATION PERMANENT DATUM
 LMF .                 KB:   LOG MEASURED FROM
 DAPD.F                 9:   FEET ABOVE PERMANENT DATUM
 DMF .                 KB:   DRILLING MEASURED FROM
 EKB .F              5164:   KELLING BUSHING
 EDF .F            5162.5:   DRILLING FLOOR
 EGL .F              5155:   GROUND LEVEL
 DATE.        14-JUL-1982:   RUN DATE
 RUN .                  1:   RUN NUMBER
 DD  .F               500:   DEPTH DRILLER
 DL  .F               515:   DEPTH LOGGER
 BLI .F               512:   BOTTOM LOG INTERVAL
 TLI .F                50:   TOP LOG INTERVAL
 CS  .IN           13.375:   CASING SIZE
 CBD .F                50:   CASING BOTTOM DRILLER
 CBL .F                50:   CASING BOTTOM LOGGER
 BS  .IN            12.25:   BIT SIZE
 BSD .F               500:   BIT SIZE AT DEPTH
 DFT .                KCL:   DRILLING FLUID TYPE
 TCS .HRS            0600:   TIME CURCULATED STOPPED
 TLAB.HRS            1000:   TIME LOGGER AT BOTTOM
 LUN .               8035:   LOGGING UNIT NUMBER
 LUL .             CASPER:   LOGGING UNIT LOCATION
 ENGI.            PERARIS:   RECORDING ENGINEER
 WITN.             TAYLOR:   WITNESSED BY
 CLNT.            A2DTECH:   CLIENT CODE
 ORIG.         2.5" PRINT:   ORIGIN OF DATA
 UWI .       490251089600:   UNIQUE WELL ID
 DICO. A2D Technologies, Inc.:   DIGITIZING COMPANY
~OTHER INFORMATION
~A   DEPT     CALD       CORR       DPHI         GRD      RHOB   
# ...
  467.0000    12.2290    -0.0003     0.1355    81.4925     2.4517
  467.5000    12.2291    -0.0026     0.1347    81.9403     2.4488
  468.0000    12.1994     0.0005     0.1279    77.0149     2.4555
  468.5000    12.1996     0.0042     0.1226    75.2239     2.4651
  469.0000    12.1997     0.0072     0.1196    74.7761     2.4739
  469.5000    12.1700     0.0077     0.1185    76.1194     2.4792
  470.0000    12.1701     0.0041     0.1258    77.0149     2.4726
  470.5000    12.1703    -0.0005     0.1223    77.4627     2.4655
  471.0000    12.1704     0.0040     0.1193    77.9104     2.4728
  471.5000    12.1706     0.0086     0.1177    78.8060     2.4798
  472.0000    12.1707     0.0101     0.1167    77.9104     2.4829
  472.5000    12.1709     0.0100     0.1214    77.9104     2.4807
  473.0000    12.1710     0.0070     0.1288    78.3672     2.4630
  473.5000    12.1712     0.0084     0.1298    79.2537     2.4578
  474.0000    12.1713     0.0160     0.1276    78.7642     2.4685
  474.5000    12.1715     0.0238     0.1248    77.8523     2.4852
  475.0000    12.1716     0.0314     0.1208    77.4627     2.5019
  475.5000    12.1718     0.0357     0.1131    79.4358     2.5095
  476.0000    12.1719     0.0357     0.1046    80.7045     2.5125
  476.5000    12.1721     0.0320     0.1017    81.4925     2.5064
  477.0000    12.1722     0.0269     0.1070    81.4925     2.4912
  477.5000    12.1724     0.0191     0.1192    78.4701     2.4745
  478.0000    12.1726     0.0133     0.1259    75.4985     2.4669
  478.5000    12.1727     0.0112     0.1260    76.2402     2.4715
  479.0000    12.1729     0.0148     0.1180    78.3224     2.4821
  479.5000    12.1730     0.0194     0.1137    79.4761     2.4912
  480.0000    12.1731     0.0232     0.1101    80.1493     2.4988
  480.5000    12.1733     0.0270     0.1077    79.7015     2.5018
  481.0000    12.1734     0.0293     0.1120    81.0448     2.4909
  481.5000    12.1736     0.0066     0.1211    83.2836     2.4785
  482.0000    12.1737     0.0018     0.1223    85.0746     2.4714
  482.5000    12.1739     0.0064     0.1148    86.4179     2.4797
  483.0000    12.1740     0.0109     0.1119    87.3134     2.4890
  483.5000    12.1742     0.0124     0.1100    87.7612     2.4960
  484.0000    12.1743     0.0078     0.1094    86.8657     2.4987
  484.5000    12.1745     0.0017     0.1114    86.8657     2.4932
  485.0000    12.1746     0.0032     0.1144    86.8657     2.4881
  485.5000    12.1748     0.0047     0.1110    87.7612     2.4932
  486.0000    12.1749     0.0046     0.1093    88.2090     2.4947
  486.5000    12.1751     0.0061     0.1077    88.6567     2.4972
  487.0000    12.1752     0.0061     0.1095    87.6984     2.4972
  487.5000    12.1754     0.0076     0.1090    85.4851     2.4972
  488.0000    12.1755     0.0077     0.1068    85.6299     2.4980
  488.5000    12.1757     0.0092     0.1053    86.8657     2.5026
  489.0000    12.1758     0.0110     0.1047    87.7612     2.5047
  489.5000    12.1760     0.0139     0.1047    88.2090     2.5062
  490.0000    12.1761     0.0154     0.1084    88.6567     2.5032
  490.5000    12.1763     0.0165     0.1151    87.6254     2.4956
  491.0000    12.1764     0.0165     0.1139    86.7134     2.4865
  491.5000    12.1766     0.0159     0.1127    85.9701     2.4910
  492.0000    12.1767     0.0149     0.1127    86.6030     2.4925
  492.5000    12.1769     0.0134     0.1139    87.9627     2.4880
  493.0000    12.1770     0.0126     0.1200    88.4268     2.4803
  493.5000    12.1772     0.0110     0.1236    88.4224     2.4758
  494.0000    12.1773     0.0142     0.1224    87.0089     2.4773
  494.5000    12.1775     0.0364     0.1170    83.2836     2.4849
  495.0000    12.1776     0.0588     0.1145    82.9553     2.4910
  495.5000    12.1778     0.0573     0.1159  -999.2500     2.4908
  496.0000    12.1779     0.0268     0.1281  -999.2500     2.4544
  496.5000    12.1781     0.0162     0.1346  -999.2500     2.4514
  497.0000    12.1782     0.0131     0.1312  -999.2500     2.4549
  497.5000    12.1784     0.0146     0.1256  -999.2500     2.4610
  498.0000    12.1803     0.0176     0.1208  -999.2500     2.4705
  498.5000    12.2007     0.0191     0.1167  -999.2500     2.4798
  499.0000    12.2087     0.0206     0.1144  -999.2500     2.4867
  499.5000    12.2088     0.0221     0.1140  -999.2500     2.4883
  500.0000    12.1791     0.0205     0.1099  -999.2500     2.4914
  500.5000    12.1793     0.0190     0.1054  -999.2500     2.5001
  501.0000    12.2093     0.0206     0.1026  -999.2500     2.5073
  501.5000    12.2094     0.0235     0.1010  -999.2500     2.5106
  502.0000    12.2096     0.0149     0.1020  -999.2500     2.5049
  502.5000    12.2097     0.0061     0.1181  -999.2500     2.4772
  503.0000    12.2099     0.0017     0.1320  -999.2500     2.4573
  503.5000    12.2100    -0.0010     0.1296  -999.2500     2.4561
  504.0000    12.2102     0.0040     0.1238  -999.2500     2.4650
  504.5000    12.2103     0.0076     0.1213  -999.2500     2.4726
  505.0000    12.2105     0.0132     0.1189  -999.2500     2.4771
  505.5000    12.1808     0.0169     0.1183  -999.2500     2.4802
  506.0000    12.1809     0.0202     0.1220  -999.2500     2.4817
  506.5000    12.1811     0.0163     0.1335  -999.2500     2.4558
  507.0000    12.1812     0.0095     0.1360  -999.2500     2.4497
  507.5000    12.1813     0.0103     0.1274  -999.2500     2.4619
  508.0000    12.1815     0.0124     0.1177  -999.2500     2.4771
  508.5000    12.1816     0.0124     0.1153  -999.2500     2.4862
  509.0000    12.1811     0.0154     0.1141  -999.2500     2.4923
  509.5000    12.1521     0.0382     0.1141  -999.2500     2.4877
  510.0000    12.1194     0.0701     0.1156  -999.2500     2.4847
  510.5000    12.0123     0.0943     0.1343  -999.2500     2.4801
  511.0000    11.2429     0.1141     0.1601  -999.2500     2.4650
  511.5000    10.2442     0.0867     0.1882  -999.2500     2.3536
  512.0000    10.0334     0.0646     0.2416  -999.2500     2.2612
