~VERSION INFORMATION
 VERS.                2.0:   CWLS LOG ASCII STANDARD - VERSION 2.0
 WRAP.                 NO:   ONE LINE PER DEPTH STEP
~WELL INFORMATION
#MNEM.UNIT      DATA TYPE    INFORMATION
#----------   ------------   ------------------------------
 STRT.F           68.0000:   START DEPTH
 STOP.F          560.0000:   STOP DEPTH
 STEP.F            0.5000:   STEP LENGTH
 NULL.          -999.2500:   NO VALUE
 COMP.               NAVY:   COMPANY
 WELL. RES 3 TEAPOT DOM #24S-11:   WELL
 FLD .             TEAPOT:   FIELD
 LOC .      S11 T38N R78W:   LOCATION
 CNTY.            NATRONA:   COUNTY
 STAT.            WYOMING:   STATE
 CTRY. UNITED STATES OF AMERICA:   COUNTRY
 SRVC.       Schlumberger:   SERVICE COMPANY
 DATE.        16-JUL-1963:   LOGDATE
 API .       490250634300:   API NUMBER
~CURVE INFORMATION
#MNEM.UNIT       API CODE    CURVE DESCRIPTION
#----------   ------------   ------------------------------
 DEPT.F                  :   
 GR  .GAPI   30 310 01 00:   GAMMA RAY
 CALS.IN     60 280 50 00:   CALIPER FROM SONIC LOG
 DT  .US/F   60 520 00 00:   INTERVAL TRANSIT TIME
 SPR .MV     05 010 01 00:   SPONTANEOUS POTENTIAL FROM RES.
 CILD.MMHO   05 110 00 00:   CONDUCTIVITY INDUCTION LOG
 ASN .OHMM   05 041 16 00:   AMPLIFIED SHORT NORMAL 16"
 ILD .OHMM   05 120 46 00:   INDUCTION LOG DEEP
~PARAMETER INFORMATION
#MNEM.UNIT          VALUE    DESCRIPTION
#----------   ------------   ------------------------------
 PD  .                 GL:   PERMANENT DATUM
 EPD .F              5168:   ELEVATION PERMANENT DATUM
 LMF .                 KB:   LOG MEASURED FROM
 DAPD.F                 5:   FEET ABOVE PERMANENT DATUM
 DMF .                 KB:   DRILLING MEASURED FROM
 EKB .F              5173:   KELLING BUSHING
 EGL .F              5168:   GROUND LEVEL
 DATE.            7-16-63:   RUN DATE
 RUN .                  1:   RUN NUMBER
 DD  .F               562:   DEPTH DRILLER
 DL  .F               561:   DEPTH LOGGER
 BLI .F               560:   BOTTOM LOG INTERVAL
 TLI .F                94:   TOP LOG INTERVAL
 CS  .IN            8.625:   CASING SIZE
 CBD .F                10:   CASING BOTTOM DRILLER
 BS  .IN            6.875:   BIT SIZE
 BSD .F               562:   BIT SIZE AT DEPTH
 DFT .            NATURAL:   DRILLING FLUID TYPE
 DFD .                 10:   DRILLING FLUID DENSITY
 DFV .                 65:   DRILLING FLUID VISCOSITY
 MSS .           FLOWLINE:   MUD SAMPLE SOURCE
 RMS .OHMM            3.4:   RESISTIVITY MUD SAMPLE
 MST .F                76:   MUD SAMPLE TEMPERATURE
 RMF .OHMM            1.8:   RESISTIVITY MUD FILTRATE SAMPLE
 MFST.F                75:   MUD FILTRATE SAMPLE TEMPERATURE
 RMC .OHMM            3.4:   RESISTIVITY MUD CAKE
 MCST.F                75:   MUD CAKE SAMPLE TEMPERATURE
 MFSS.                 FP:   MUD FILTRATE SAMPLE SOURCE
 MCSS.                 FP:   MUD CAKE SAMPLE SOURCE
 TCS .HRS               1:   TIME CURCULATED STOPPED
 MRT .F                80:   MAXIMUM RECORDED TEMPERATURE
 LUN .               4507:   LOGGING UNIT NUMBER
 LUL .               CSPR:   LOGGING UNIT LOCATION
 ENGI.            GIFFORD:   RECORDING ENGINEER
 WITN.          JORGENSON:   WITNESSED BY
 CLNT.            A2DTECH:   CLIENT CODE
 ORIG.       2", 5" PRINT:   ORIGIN OF DATA
 UWI .       490250634300:   UNIQUE WELL ID
 DICO. A2D Technologies, Inc.:   DIGITIZING COMPANY
~OTHER INFORMATION
~A   DEPT       GR         CALS       DT        SPR       CILD        ASN        ILD   
# ...
  523.0000    27.4600     6.8297    99.0079   -44.6233    39.3705    26.2218    25.9611
  523.5000    29.0973     6.8080   100.4881   -47.2259    35.5716    30.2871    29.4003
  524.0000    31.9272     6.7885   102.9940   -49.6365    31.8694    35.3965    32.8796
  524.5000    28.4332     6.7531   105.5388   -49.9255    31.1751    37.9855    35.3994
  525.0000    29.1294     6.7364   104.7331   -49.8492    32.1932    38.5107    36.3731
  525.5000    32.3080     6.7741   101.9354   -49.4682    32.9823    36.9419    35.4360
  526.0000    34.0885     6.7765    98.6798   -48.1884    33.5480    34.4702    33.6170
  526.5000    37.1239     6.7763    96.1455   -46.9355    34.1136    33.4029    31.7583
  527.0000    38.6094     6.7762    94.2271   -45.8560    34.7082    32.2177    29.9036
  527.5000    41.6578     6.7763    92.5277   -45.0639    36.7203    30.6700    28.0123
  528.0000    44.4869     6.7762    92.2457   -44.9320    38.8414    29.9763    27.0950
  528.5000    38.2579     6.7677    95.8702   -45.3416    39.9063    29.5174    26.6573
  529.0000    38.4086     6.7211    98.3514   -45.8072    40.1982    29.0567    26.6304
  529.5000    38.2675     6.6971   100.8325   -46.3167    40.4886    28.6004    26.7515
  530.0000    40.6459     6.7383   103.3171   -46.6577    40.7790    28.3558    26.8918
  530.5000    36.5356     6.7765   104.6347   -46.1797    41.0699    28.2472    26.0991
  531.0000    40.6442     6.7520   102.9130   -45.6615    41.3607    27.7697    25.5459
  531.5000  -999.2500     6.7227   101.5742   -45.6728    41.6516    26.7280    25.1389
  532.0000  -999.2500     6.6753   100.1405   -46.0472    41.9482    26.9181    24.8316
  532.5000  -999.2500     6.5981    99.0324   -45.4556    42.2476    27.6417    24.6959
  533.0000  -999.2500     6.6083    98.0933   -44.5551    42.5471    27.0821    24.4842
  533.5000  -999.2500     6.6591    96.6767   -43.6445    43.0624    26.3098    24.0149
  534.0000  -999.2500     6.7295    96.9743   -42.7508    44.0805    25.8222    23.5619
  534.5000  -999.2500     6.7787    97.2810   -42.4529    45.0986    25.2411    23.0987
  535.0000  -999.2500     6.7868    96.4093   -42.5974    46.1547    24.6150    22.7032
  535.5000  -999.2500     6.7950    95.3676   -42.7176    47.2859    24.1064    22.3134
  536.0000  -999.2500     6.8035    96.0111   -42.6451    48.4172    23.9889    21.9258
  536.5000  -999.2500     6.8121    96.0378   -42.4431    49.5484    23.7619    21.5331
  537.0000  -999.2500     6.8206    95.5690   -42.2652    50.6796    23.1192    21.1373
  537.5000  -999.2500     6.8292    95.6697   -42.0835    51.8109    22.4806    20.7398
  538.0000  -999.2500     6.8359    95.4391   -42.0307    49.6292    21.7479    20.3402
  538.5000  -999.2500     6.8267    95.0809   -42.1945    49.4021    21.1669    20.1283
  539.0000  -999.2500     6.8176    94.6626   -41.6728    50.8566    21.1798    19.9007
  539.5000  -999.2500     6.8085    95.2087   -41.0879    52.3110    21.1719    19.6718
  540.0000  -999.2500     6.7995    95.2971   -41.1837    53.7654    20.8892    19.4438
  540.5000  -999.2500     6.7905    94.5841   -41.4207    54.9769    20.2502    19.1669
  541.0000  -999.2500     6.7815    94.6473   -41.5885    55.5272    19.6613    18.8723
  541.5000  -999.2500     6.7739    94.5756   -41.2229    56.0775    19.3505    18.5752
  542.0000  -999.2500     6.7623    93.7035   -40.8577    56.6279    19.1370    18.2767
  542.5000  -999.2500     6.7509    92.8097   -40.4905    57.1782    18.8835    17.9699
  543.0000  -999.2500     6.7395    91.9725   -40.3855    57.7285    18.6287    17.7341
  543.5000  -999.2500     6.7280    91.1279   -40.3837    58.2789    18.3741    17.4932
  544.0000  -999.2500     6.7162    90.2753   -40.3815    58.8531    18.1210    17.2564
  544.5000  -999.2500     6.7184    89.9857   -40.5182    58.9830    17.8977    17.1208
  545.0000  -999.2500     6.7224    90.4461   -40.6985    59.2144    17.7359    17.0758
  545.5000  -999.2500     6.7264    90.9512   -40.8786    59.4458    17.5727    16.9932
  546.0000  -999.2500     6.7304    91.7013   -41.0150    59.6772    17.4098    16.9116
  546.5000  -999.2500     6.7343    92.4485   -41.1440    60.1099    17.2467    16.8317
  547.0000  -999.2500     6.7420    93.0514   -41.2746    61.2846    17.0957    16.7391
  547.5000  -999.2500     6.7520    93.0740   -41.3841    62.4594    16.9610    16.3774
  548.0000  -999.2500     6.7386    93.2234   -41.1611    63.3356    16.8262    16.1134
  548.5000  -999.2500     6.7147    93.4542   -41.0339    64.0469    16.6913    15.9048
  549.0000  -999.2500     6.7487    93.1359   -41.4653    64.7582    16.5565    15.6968
  549.5000  -999.2500     6.7786    92.6637   -41.8770    65.4696    16.4217    15.4888
  550.0000  -999.2500     6.7091    92.1450   -42.2949    66.1809    16.2829    15.3051
  550.5000  -999.2500     6.6531    91.9898   -42.5504    66.8922    16.1495    15.1669
  551.0000  -999.2500     6.6874    91.6415   -42.1454    67.6036    16.0113    15.0320
  551.5000  -999.2500     6.7601    90.7303   -41.7331    68.8518    15.8737    14.8966
  552.0000  -999.2500     6.7995    89.6584   -41.3202    70.5003    15.7077    14.7582
  552.5000  -999.2500     6.8032    88.5952   -40.8946    72.1488    15.5336    14.6641
  553.0000  -999.2500     6.8082    74.7231   -40.6024    73.7973    15.4368    14.5606
  553.5000  -999.2500     6.8131    82.7669   -40.3382    74.9497    15.5363    14.6834
  554.0000  -999.2500     6.8165    88.9952   -40.0757    74.9497    15.6247    14.7237
  554.5000  -999.2500     6.8050    88.9561   -39.8135    74.9497    15.4981    14.6811
  555.0000  -999.2500     6.7963    88.9291   -39.5652    74.9497    15.3879    14.6380
  555.5000  -999.2500     6.7964    88.9224   -39.3448    74.9497    15.2419    14.5946
  556.0000  -999.2500     6.7964    88.9225   -39.1331    74.9497    15.1019    14.5516
  556.5000  -999.2500     6.7964    88.9225   -38.9232    74.9497    14.9115    14.4982
  557.0000  -999.2500     6.7964    88.9225   -38.7611    74.9497    15.0559    14.4410
  557.5000  -999.2500     6.7964    88.9225   -38.7631    74.9497    15.0387    14.3834
  558.0000  -999.2500     6.7964    88.9225   -38.7716    74.9497    15.0398    14.3347
  558.5000  -999.2500  -999.2500  -999.2500   -39.1868    74.9497    15.0407    14.3349
  559.0000  -999.2500  -999.2500  -999.2500   -39.1605    74.9497    15.0077    14.3424
  559.5000  -999.2500  -999.2500  -999.2500   -38.7561    74.9497    14.9557    14.2290
  560.0000  -999.2500  -999.2500  -999.2500   -38.7650    74.9497    14.9398    14.2364
