~VERSION INFORMATION
 VERS.                2.0:   CWLS LOG ASCII STANDARD - VERSION 2.0
 WRAP.                 NO:   ONE LINE PER DEPTH STEP
~WELL INFORMATION
#MNEM.UNIT      DATA TYPE    INFORMATION
#----------   ------------   ------------------------------
 STRT.F           14.0000:   START DEPTH
 STOP.F          623.5000:   STOP DEPTH
 STEP.F            0.5000:   STEP LENGTH
 NULL.          -999.2500:   NO VALUE
 COMP. LAWRENCE/ALLISON INC:   COMPANY
 WELL.   23-61 STX #10-10:   WELL
 FLD .             TEAPOT:   FIELD
 LOC .      S10 T38N R78W:   LOCATION
 CNTY.            NATRONA:   COUNTY
 STAT.            WYOMING:   STATE
 CTRY. UNITED STATES OF AMERICA:   COUNTRY
 SRVC.           Gearhart:   SERVICE COMPANY
 DATE.        02-JUL-1986:   LOGDATE
 API .       490251107700:   API NUMBER
~CURVE INFORMATION
#MNEM.UNIT       API CODE    CURVE DESCRIPTION
#----------   ------------   ------------------------------
 DEPT.F                  :   
 GRR .GAPI   07 310 01 00:   GAMMA RAY FROM RES. LOG
 RILD.OHMM   07 120 46 00:   INDUCTION LOG DEEP RESISTIVITY
 RILM.OHMM   07 120 44 00:   INDUCTION LOG MEDIUM
~PARAMETER INFORMATION
#MNEM.UNIT          VALUE    DESCRIPTION
#----------   ------------   ------------------------------
 PD  .                 GL:   PERMANENT DATUM
 EPD .F              5251:   ELEVATION PERMANENT DATUM
 LMF .                 KB:   LOG MEASURED FROM
 DAPD.F                 5:   FEET ABOVE PERMANENT DATUM
 DMF .                 KB:   DRILLING MEASURED FROM
 EKB .F              5256:   KELLING BUSHING
 EGL .F              5251:   GROUND LEVEL
 DATE.             7-2-86:   RUN DATE
 RUN .                  1:   RUN NUMBER
 DD  .F               648:   DEPTH DRILLER
 DL  .F               633:   DEPTH LOGGER
 BLI .F               623:   BOTTOM LOG INTERVAL
 TLI .F                15:   TOP LOG INTERVAL
 CS  .IN            8.625:   CASING SIZE
 CBD .F                47:   CASING BOTTOM DRILLER
 CBL .F                47:   CASING BOTTOM LOGGER
 BS  .IN            7.875:   BIT SIZE
 BSD .F               648:   BIT SIZE AT DEPTH
 DFT .               FOAM:   DRILLING FLUID TYPE
 BHT .F                82:   BOTTOM HOLE TEMPERATURE
 TCS .HRS            0930:   TIME CURCULATED STOPPED
 TLAB.HRS            1240:   TIME LOGGER AT BOTTOM
 MRT .F                82:   MAXIMUM RECORDED TEMPERATURE
 LUN .               7609:   LOGGING UNIT NUMBER
 LUL .           GILLETTE:   LOGGING UNIT LOCATION
 ENGI.              BAUER:   RECORDING ENGINEER
 WITN.           JENNINGS:   WITNESSED BY
 CLNT.            A2DTECH:   CLIENT CODE
 ORIG.       2", 5" PRINT:   ORIGIN OF DATA
 UWI .       490251107700:   UNIQUE WELL ID
 DICO. A2D Technologies, Inc.:   DIGITIZING COMPANY
~OTHER INFORMATION
~A   DEPT       GRR      RILD       RILM   
# ...
  560.0000    92.6329    13.4998    13.2247
  560.5000    92.7228    13.4391    13.1552
  561.0000    89.9142    13.3788    13.0860
  561.5000    89.4417    13.3187    13.0171
  562.0000    89.8254    13.2589    12.9487
  562.5000    89.7455    13.1993    12.8806
  563.0000    89.1671    13.1400    12.8321
  563.5000    88.5654    13.0751    12.8493
  564.0000    88.3044    13.1027    12.8645
  564.5000    88.1404    13.1423    12.8797
  565.0000    87.9666    13.1819    12.8947
  565.5000    89.3005    13.2217    12.9098
  566.0000    90.7938    13.2617    12.9249
  566.5000    90.1077    13.3019    12.9394
  567.0000    89.2473    13.3217    12.9568
  567.5000    88.7060    13.1649    12.8499
  568.0000    88.4510    13.0614    12.7357
  568.5000    88.2046    12.9587    12.6224
  569.0000    87.9589    12.8568    12.5102
  569.5000    87.7124    12.7557    12.3990
  570.0000    87.4717    12.6554    12.2888
  570.5000    87.2544    12.5559    12.1796
  571.0000    85.5878    12.4572    12.0713
  571.5000    85.5702    12.3592    11.9640
  572.0000    86.1170    12.2620    11.8576
  572.5000    87.7962    12.1656    11.7522
  573.0000    83.5610    12.0700    11.6478
  573.5000    79.2748    11.9751    11.5442
  574.0000    78.3698    11.8631    11.4026
  574.5000    80.4844    11.7106    11.1734
  575.0000    82.6396    11.5613    10.9488
  575.5000    84.9019    11.4134    10.7301
  576.0000    86.2304    11.2672    10.5087
  576.5000    87.1909    11.1230    10.2646
  577.0000    86.7821    10.7965     9.9983
  577.5000    86.4178    10.3038     9.7422
  578.0000    87.9602     9.8797     9.5173
  578.5000    89.6390     9.1861     8.8492
  579.0000    90.7696     8.5980     8.2827
  579.5000    88.9789     7.9440     7.6059
  580.0000    87.2215     7.2992     6.9276
  580.5000    86.6080     6.7067     6.3098
  581.0000    92.5783     6.2804     5.8078
  581.5000   102.7430     6.0219     5.3783
  582.0000   110.4711     5.9659     5.3850
  582.5000   112.0388     6.1354     5.3755
  583.0000    99.1757     6.3643     5.7740
  583.5000    90.2738     6.9703     6.2220
  584.0000    82.1387     7.6361     6.6958
  584.5000    83.2670     8.3506     7.2058
  585.0000    84.7758     9.0285     7.7545
  585.5000    84.1365     9.5746     8.3451
  586.0000    82.1134    10.1672     8.9135
  586.5000    80.1397    10.4923     9.2468
  587.0000    80.3907    10.6961     9.6302
  587.5000    81.4078    10.9038    10.0616
  588.0000    82.4009    11.0670    10.1586
  588.5000    82.8577    11.1189    10.2562
  589.0000    81.6690    11.2234    10.3571
  589.5000    80.5680    11.4537    10.4492
  590.0000    83.7971    11.6887    10.5573
  590.5000    87.2664    11.9284    10.6788
  591.0000    90.7839    12.1731    10.8016
  591.5000    92.7173    12.3349    10.9259
  592.0000    89.6399    12.5115    11.0516
  592.5000    86.5430    12.6906    11.1787
  593.0000    86.5467    12.8723    11.3073
  593.5000    86.7980    13.0727    11.4374
  594.0000    85.8723    13.1555    11.5684
  594.5000    84.8336    13.2420    11.6887
  595.0000    84.1394    13.3306    11.8030
  595.5000    83.4660    13.4198    11.9304
  596.0000    82.7383    13.5097    12.0598
  596.5000    84.0243    13.6007    12.1903
  597.0000    85.8842    13.7012    12.3625
  597.5000    84.7147    13.6998    12.3423
  598.0000    82.9793    13.7316    12.3135
  598.5000    81.2158    13.7498    12.2848
  599.0000    80.2350    13.7682    12.2561
  599.5000    79.3336    13.7866    12.2078
  600.0000    79.1680    13.8051    12.0765
  600.5000    81.2972    13.8244    11.9465
  601.0000    83.2543    13.8289    11.7983
  601.5000    84.5258    13.7654    11.7973
  602.0000    85.8134    13.6773    11.7984
  602.5000    87.1607    13.5899    11.7987
  603.0000    86.1335    13.5029    11.7695
  603.5000    83.1422    13.3878    11.6855
  604.0000    80.1073    13.2209    11.6021
  604.5000    78.1855    13.0560    11.5193
  605.0000    80.4338    12.8813    11.4371
  605.5000    83.4575    12.6894    11.3555
  606.0000    86.6180    12.5002    11.2745
  606.5000    86.8037    12.3139    11.1940
  607.0000    86.8035    12.1303    11.1142
  607.5000    87.6109    11.9495    11.0516
  608.0000    90.9997    11.7714    10.8991
  608.5000    94.3376    11.5960    10.7505
  609.0000  -999.2500    11.4231    10.6040
  609.5000  -999.2500    11.2600    10.4594
  610.0000  -999.2500    11.1333    10.3344
  610.5000  -999.2500    11.0130    10.2638
  611.0000  -999.2500    10.8941    10.1936
  611.5000  -999.2500    10.7764    10.1238
  612.0000  -999.2500    10.6600    10.0546
  612.5000  -999.2500    10.5449     9.9859
  613.0000  -999.2500    10.4310     9.9176
  613.5000  -999.2500    10.3183     9.8497
  614.0000  -999.2500    10.2069     9.7825
  614.5000  -999.2500    10.0967     9.6972
  615.0000  -999.2500     9.9876     9.7244
  615.5000  -999.2500     9.8798     9.7624
  616.0000  -999.2500     9.7730     9.7878
  616.5000  -999.2500     9.6675     9.7263
  617.0000  -999.2500     9.5631     9.6726
  617.5000  -999.2500     9.4598     9.6192
  618.0000  -999.2500     9.3576     9.5661
  618.5000  -999.2500     9.2566     9.5133
  619.0000  -999.2500     9.1566     9.4607
  619.5000  -999.2500     9.0577     9.3984
  620.0000  -999.2500  -999.2500     9.3206
  620.5000  -999.2500  -999.2500     9.2430
  621.0000  -999.2500  -999.2500     9.1687
  621.5000  -999.2500  -999.2500     9.2461
  622.0000  -999.2500  -999.2500     9.3248
  622.5000  -999.2500  -999.2500     9.4035
  623.0000  -999.2500  -999.2500     9.4829
  623.5000  -999.2500  -999.2500     9.5629
