~VERSION INFORMATION
 VERS.                2.0:   CWLS LOG ASCII STANDARD - VERSION 2.0
 WRAP.                 NO:   ONE LINE PER DEPTH STEP
~WELL INFORMATION
#MNEM.UNIT      DATA TYPE    INFORMATION
#----------   ------------   ------------------------------
 STRT.F           94.0000:   START DEPTH
 STOP.F          939.0000:   STOP DEPTH
 STEP.F            0.5000:   STEP LENGTH
 NULL.          -999.2500:   NO VALUE
 COMP. U S NAVY/INTEX OIL CO:   COMPANY
 WELL.    NPR #3 #88-S-27:   WELL
 FLD .             TEAPOT:   FIELD
 LOC .      S27 T39N R78W:   LOCATION
 CNTY.            NATRONA:   COUNTY
 STAT.            WYOMING:   STATE
 CTRY. UNITED STATES OF AMERICA:   COUNTRY
 SRVC.       Schlumberger:   SERVICE COMPANY
 DATE.        30-JUL-1963:   LOGDATE
 API .       490250658100:   API NUMBER
~CURVE INFORMATION
#MNEM.UNIT       API CODE    CURVE DESCRIPTION
#----------   ------------   ------------------------------
 DEPT.F                  :   
 SPR .MV     05 010 01 00:   SPONTANEOUS POTENTIAL FROM RES.
 CILD.MMHO   05 110 46 00:   CONDUCTIVITY INDUCTION LOG DEEP
 ASN .OHMM   05 041 16 00:   AMPLIFIED SHORT NORMAL 16"
 ILD .OHMM   05 120 46 00:   INDUCTION LOG DEEP
 GR  .GAPI   30 310 01 00:   GAMMA RAY
~PARAMETER INFORMATION
#MNEM.UNIT          VALUE    DESCRIPTION
#----------   ------------   ------------------------------
 PD  .                 GL:   PERMANENT DATUM
 EPD .F              5069:   ELEVATION PERMANENT DATUM
 LMF .                 KB:   LOG MEASURED FROM
 DAPD.F                 5:   FEET ABOVE PERMANENT DATUM
 DMF .                 KB:   DRILLING MEASURED FROM
 EKB .F              5074:   KELLING BUSHING
 EGL .F              5069:   GROUND LEVEL
 DATE.          7-30-1969:   RUN DATE
 RUN .                  1:   RUN NUMBER
 DD  .F               940:   DEPTH DRILLER
 DL  .F               940:   DEPTH LOGGER
 BLI .F               939:   BOTTOM LOG INTERVAL
 TLI .F                94:   TOP LOG INTERVAL
 CS  .IN            8.625:   CASING SIZE
 CBD .F                10:   CASING BOTTOM DRILLER
 BS  .IN             6.75:   BIT SIZE
 BSD .F               940:   BIT SIZE AT DEPTH
 DFT .            GEL/OIL:   DRILLING FLUID TYPE
 DFD .                9.6:   DRILLING FLUID DENSITY
 DFV .                 40:   DRILLING FLUID VISCOSITY
 DFPH.                  9:   DRILLING FLUID PH
 DFL .                  6:   DRILLING FLUID LOSS
 MSS .          FLOW LINE:   MUD SAMPLE SOURCE
 RMS .OHMM           2.94:   RESISTIVITY MUD SAMPLE
 MST .F                89:   MUD SAMPLE TEMPERATURE
 RMF .OHMM           2.19:   RESISTIVITY MUD FILTRATE SAMPLE
 MFST.F                87:   MUD FILTRATE SAMPLE TEMPERATURE
 MFSS.           MEASURED:   MUD FILTRATE SAMPLE SOURCE
 TCS .HRS               1:   TIME CURCULATED STOPPED
 LUN .               4507:   LOGGING UNIT NUMBER
 LUL .               CSPR:   LOGGING UNIT LOCATION
 ENGI.            WINKLER:   RECORDING ENGINEER
 WITN.          JORGENSEN:   WITNESSED BY
 CLNT.            A2DTECH:   CLIENT CODE
 ORIG.           5" PRINT:   ORIGIN OF DATA
 UWI .       490250658100:   UNIQUE WELL ID
 DICO. A2D Technologies, Inc.:   DIGITIZING COMPANY
~OTHER INFORMATION
~A   DEPT      SPR        CILD         ASN        ILD       GR   
# ...
  887.0000   -32.0896    88.4963    13.1527    11.2142    33.1753
  887.5000   -32.2774    85.2858    13.3686    11.4261    35.3615
  888.0000   -32.4641    81.1621    13.5714    11.9551    37.4501
  888.5000   -32.6368    77.0383    14.2384    12.6259    35.9727
  889.0000   -32.8633    73.5587    14.9589    13.3028    33.7066
  889.5000   -33.6056    70.7903    15.6774    13.9799    26.2483
  890.0000   -36.5027    68.0219    16.3575    14.6573    17.4480
  890.5000   -40.7081    65.2535    17.1455    15.3338    15.5622
  891.0000   -44.9914    62.4851    19.0613    16.0352    18.4057
  891.5000   -49.2823    59.7168    20.9275    16.7423    15.9930
  892.0000   -53.6619    56.7839    21.6305    17.2330    14.0291
  892.5000   -54.4047    56.7839    21.1307    17.1416    15.0241
  893.0000   -53.9701    57.1357    20.7369    17.0605    12.0141
  893.5000   -55.9019    57.7701    20.3304    16.9779    10.4349
  894.0000   -56.9436    58.4045    20.2520    16.8956    14.2863
  894.5000   -55.3163    58.7940    20.2552    16.8132    17.1369
  895.0000   -52.6682    58.7940    20.0520    16.7307    17.9502
  895.5000   -51.9828    58.7911    19.8202    16.6474    17.0522
  896.0000   -54.2858    58.7964    19.7528    16.6340    16.3913
  896.5000   -53.8844    59.5297    19.7388    16.6327    24.7973
  897.0000   -53.2113    60.2584    19.4909    16.5643    24.9331
  897.5000   -52.9953    61.0050    19.3452    16.2241    24.4207
  898.0000   -51.5002    61.8171    19.2642    15.8924    24.4159
  898.5000   -49.8819    62.6292    18.8898    15.5613    29.6509
  899.0000   -52.6064    63.4412    19.0309    15.2264    20.5743
  899.5000   -54.3035    64.2533    19.1241    15.1269    22.1512
  900.0000   -53.9051    64.8241    18.5622    15.1267    25.7185
  900.5000   -52.2166    65.0764    18.1277    15.0465    29.3731
  901.0000   -50.5722    65.5800    17.9135    14.9346    34.0395
  901.5000   -50.1113    66.0835    17.4630    14.8261    38.1219
  902.0000   -50.1378    66.5871    17.4622    14.7959    38.5336
  902.5000   -48.5976    66.8342    17.6337    14.8261    39.0236
  903.0000   -48.3829    66.1548    17.6392    14.8748    34.6405
  903.5000   -49.5648    65.4088    17.6360    15.0442    30.5627
  904.0000   -49.8338    64.6628    17.7514    15.2123    33.1573
  904.5000   -48.5928    63.9168    17.9092    15.3869    31.1676
  905.0000   -47.3631    63.1708    18.0672    15.4271    28.8092
  905.5000   -46.3223    62.8141    18.0289    15.4268    28.5565
  906.0000   -46.3050    63.5614    17.1483    15.3558    28.0303
  906.5000   -45.0914    64.5943    16.5249    15.1241    28.4841
  907.0000   -42.8238    65.6273    16.5341    14.8952    29.2814
  907.5000   -39.8079    66.6602    17.3065    14.6662    29.2403
  908.0000   -38.9511    67.6931    17.4120    14.4374    30.3516
  908.5000   -40.7069    68.7270    17.0734    14.2081    31.8632
  909.0000   -41.6527    69.7651    16.8332    13.9714    31.8343
  909.5000   -41.2689    70.8543    16.5861    13.9200    30.6246
  910.0000   -40.9409    70.8543    16.5316    13.9189    29.4339
  910.5000   -39.8449    70.8543    16.5998    13.9193    28.6817
  911.0000   -38.6622    70.2777    16.6912    13.9173    27.8219
  911.5000   -38.7231    69.5030    16.7323    14.0223    29.2081
  912.0000   -39.7592    68.7283    16.7994    14.1593    29.7973
  912.5000   -43.2897    67.9536    17.2544    14.2969    27.8898
  913.0000   -43.4827    67.1788    17.6341    14.4329    29.0972
  913.5000   -42.5987    66.7410    17.3206    14.5240    26.1473
  914.0000   -43.2275    66.5731    17.1604    14.5224    23.5174
  914.5000   -44.0178    66.4053    17.2956    14.5228    25.7165
  915.0000   -42.1731    66.2374    17.4297    14.5225  -999.2500
  915.5000   -41.7987    66.0696    17.3345    14.5234  -999.2500
  916.0000   -39.9333    65.9017    17.0466    14.4270  -999.2500
  916.5000   -39.2510    67.0911    17.0281    14.2599  -999.2500
  917.0000   -38.1653    68.6171    16.7917    14.0921  -999.2500
  917.5000   -37.2720    70.1430    16.2167    13.9243  -999.2500
  918.0000   -37.6594    71.6690    16.2297    13.7563  -999.2500
  918.5000   -38.0411    73.1949    16.1789    13.5736  -999.2500
  919.0000   -38.0487    74.7208    15.8535    13.3221  -999.2500
  919.5000   -37.7203    76.2468    15.5310    13.0701  -999.2500
  920.0000   -36.9176    77.7727    15.2092    12.8183  -999.2500
  920.5000   -36.4414    79.2986    14.8874    12.5665  -999.2500
  921.0000   -36.6128    80.8246    14.5653    12.3147  -999.2500
  921.5000   -36.6140    82.3505    14.2423    12.0629  -999.2500
  922.0000   -35.6409    83.8764    13.9333    11.8105  -999.2500
  922.5000   -34.6323    85.4024    13.8120    11.5539  -999.2500
  923.0000   -33.6340    86.9347    13.7051    11.5075  -999.2500
  923.5000   -32.7614    86.9347    13.6624    11.5069  -999.2500
  924.0000   -32.6351    86.9347    13.6220    11.5074  -999.2500
  924.5000   -32.6222    86.8545    13.5818    11.5073  -999.2500
  925.0000   -32.4834    86.4570    13.5416    11.5176  -999.2500
  925.5000   -32.5687    86.0594    13.5055    11.5302  -999.2500
  926.0000   -32.6275    85.6619    13.4759    11.5428  -999.2500
  926.5000   -32.5716    85.2643    13.4459    11.5554  -999.2500
  927.0000   -32.4157    84.8668    13.4190    11.5680  -999.2500
  927.5000   -32.2578    84.4692    13.4531    11.5806  -999.2500
  928.0000   -32.2324    84.0717    13.4894    11.5932  -999.2500
  928.5000   -32.3495    83.9196    13.5256    11.6059  -999.2500
  929.0000   -32.4321    84.2215    13.5615    11.6083  -999.2500
  929.5000   -32.2374    84.7085    13.5963    11.5870  -999.2500
  930.0000   -32.0258    85.1960    13.5628    11.5536  -999.2500
  930.5000   -32.0300    85.6836    13.4291    11.5201  -999.2500
  931.0000   -32.0221    86.1708    13.2970    11.4865  -999.2500
  931.5000   -31.7882    86.6581    13.1635    11.4529  -999.2500
  932.0000   -31.6222    86.9347    13.1378    11.4192  -999.2500
  932.5000   -31.7355    86.9402    13.1876    11.3931  -999.2500
  933.0000   -31.8279    87.6757    13.2380    11.3713  -999.2500
  933.5000   -31.8050  -999.2500    13.2885    11.3493  -999.2500
  934.0000   -31.7420  -999.2500    13.3392    11.3274  -999.2500
  934.5000   -31.6798  -999.2500    13.3888    11.3069  -999.2500
  935.0000   -31.6249  -999.2500    13.3850    11.3064  -999.2500
  935.5000   -31.5975  -999.2500    13.2291    11.3065  -999.2500
  936.0000   -31.4262  -999.2500    13.0771    11.3060  -999.2500
  936.5000   -31.2245  -999.2500    12.9252    11.3048  -999.2500
  937.0000   -30.9588  -999.2500    12.8363    11.3298  -999.2500
  937.5000   -30.6912  -999.2500    12.9102    11.3973  -999.2500
  938.0000   -30.4240  -999.2500    12.9220    11.5045  -999.2500
  938.5000   -30.1564  -999.2500    13.0740    11.4813  -999.2500
  939.0000   -29.8799  -999.2500    13.2138    11.4253  -999.2500
