~VERSION INFORMATION
 VERS.                2.0:   CWLS LOG ASCII STANDARD - VERSION 2.0
 WRAP.                 NO:   ONE LINE PER DEPTH STEP
~WELL INFORMATION
#MNEM.UNIT      DATA TYPE    INFORMATION
#----------   ------------   ------------------------------
 STRT.F           30.0000:   START DEPTH
 STOP.F         2432.5000:   STOP DEPTH
 STEP.F            0.5000:   STEP LENGTH
 NULL.          -999.2500:   NO VALUE
 COMP. FENIX & SCISSON INC:   COMPANY
 WELL.     72 SHX 4 #72-4:   WELL
 FLD .             TEAPOT:   FIELD
 LOC .       S4 T38N R78W:   LOCATION
 CNTY.            NATRONA:   COUNTY
 STAT.            WYOMING:   STATE
 CTRY. UNITED STATES OF AMERICA:   COUNTRY
 SRVC.           BIRDWELL:   SERVICE COMPANY
 DATE.        05-MAR-1979:   LOGDATE
 API .       490251074300:   API NUMBER
~CURVE INFORMATION
#MNEM.UNIT       API CODE    CURVE DESCRIPTION
#----------   ------------   ------------------------------
 DEPT.F                  :   
 SPR .MV     05 010 01 00:   SPONTANEOUS POTENTIAL FROM RES.
 SN  .OHMM   05 040 16 00:   SHORT NORMAL 16"
 ILD .OHMM   05 120 46 00:   INDUCTION LOG DEEP
 CALD.IN     45 280 60 00:   CALIPER
 GRD .GAPI   45 310 01 00:   GAMMA RAY FROM DENSITY LOG
 RHOB.G/C3   45 350 01 00:   BULK DENSITY
 CORR.G/C3   45 356 01 00:   DENSITY CORRECTION
 DPHI.DEC    45 890 12 00:   DENSITY POROSITY SANDSTONE
~PARAMETER INFORMATION
#MNEM.UNIT          VALUE    DESCRIPTION
#----------   ------------   ------------------------------
 PD  .                 GL:   PERMANENT DATUM
 EPD .F              5194:   ELEVATION PERMANENT DATUM
 LMF .                 KB:   LOG MEASURED FROM
 DAPD.F                10:   FEET ABOVE PERMANENT DATUM
 DMF .                 KB:   DRILLING MEASURED FROM
 EKB .F              5204:   KELLING BUSHING
 EGL .F              5194:   GROUND LEVEL
 DATE.             3-5-79:   RUN DATE
 RUN .                  1:   RUN NUMBER
 DD  .F              2560:   DEPTH DRILLER
 DL  .F              2432:   DEPTH LOGGER
 BLI .F              2432:   BOTTOM LOG INTERVAL
 TLI .F               400:   TOP LOG INTERVAL
 CS  .IN            9.625:   CASING SIZE
 CBD .F               685:   CASING BOTTOM DRILLER
 CBL .F               685:   CASING BOTTOM LOGGER
 BS  .IN             8.75:   BIT SIZE
 BSD .F              2560:   BIT SIZE AT DEPTH
 DFT .                AIR:   DRILLING FLUID TYPE
 TCS .HRS               5:   TIME CURCULATED STOPPED
 LUN .               3006:   LOGGING UNIT NUMBER
 LUL .             CASPER:   LOGGING UNIT LOCATION
 ENGI.         B. ROLLINS:   RECORDING ENGINEER
 WITN.           DINSMORE:   WITNESSED BY
 CLNT.            A2DTECH:   CLIENT CODE
 ORIG.           5" PRINT:   ORIGIN OF DATA
 UWI .       490251074300:   UNIQUE WELL ID
 DICO. A2D Technologies, Inc.:   DIGITIZING COMPANY
~OTHER INFORMATION
~A   DEPT      SPR         SN        ILD        CALD       GRD       RHOB         CORR      DPHI  
   30.0000  -999.2500  -999.2500  -999.2500    12.5948   123.7702  -999.2500     0.6151    -0.0159
   30.5000  -999.2500  -999.2500  -999.2500    12.5948   123.5686  -999.2500     0.6151    -0.0159
   31.0000  -999.2500  -999.2500  -999.2500    12.5921   124.1013  -999.2500     0.6151    -0.0159
   31.5000  -999.2500  -999.2500  -999.2500    12.5896   124.6823  -999.2500     0.6151    -0.0159
   32.0000  -999.2500  -999.2500  -999.2500    12.5869   124.0082  -999.2500     0.6151    -0.0159
   32.5000  -999.2500  -999.2500  -999.2500    12.5841   119.7019  -999.2500     0.6151    -0.0159
   33.0000  -999.2500  -999.2500  -999.2500    12.5812   115.7903  -999.2500     0.6151    -0.0159
   33.5000  -999.2500  -999.2500  -999.2500    12.5783   116.0996  -999.2500     0.6151    -0.0159
   34.0000  -999.2500  -999.2500  -999.2500    12.5753   121.0575  -999.2500     0.6151    -0.0435
   34.5000  -999.2500  -999.2500  -999.2500    12.5756   122.4020  -999.2500     0.6151    -0.0479
   35.0000  -999.2500  -999.2500  -999.2500    12.5776   119.7408  -999.2500     0.6149    -0.0479
   35.5000  -999.2500  -999.2500  -999.2500    12.5796   117.0041  -999.2500     0.6146    -0.0399
   36.0000  -999.2500  -999.2500  -999.2500    12.5816   115.8447  -999.2500     0.6143    -0.0075
   36.5000  -999.2500  -999.2500  -999.2500    12.5836   120.2033     2.7409     0.6140     0.0017
   37.0000  -999.2500  -999.2500  -999.2500    12.5856   120.5868     2.7124     0.6138     0.0242
   37.5000  -999.2500  -999.2500  -999.2500    12.5876   119.8009     2.6444     0.6129     0.0632
   38.0000  -999.2500  -999.2500  -999.2500    12.5896   121.1303     2.6474     0.5780     0.1066
   38.5000  -999.2500  -999.2500  -999.2500    12.5916   124.9424     2.5516     0.4789     0.1328
   39.0000  -999.2500  -999.2500  -999.2500    12.5936   126.1175     2.4889     0.4643     0.1294
   39.5000  -999.2500  -999.2500  -999.2500    12.5956   126.7507     2.4873     0.4784     0.1220
   40.0000  -999.2500  -999.2500  -999.2500    12.5976   127.3620     2.5165     0.4950     0.1106
   40.5000  -999.2500  -999.2500  -999.2500    12.5997   127.9852     2.5421     0.5028     0.0992
   41.0000  -999.2500  -999.2500  -999.2500    12.6017   128.0226     2.5586     0.5003     0.1001
   41.5000  -999.2500  -999.2500  -999.2500    12.6037   127.2113     2.5496     0.4973     0.1013
   42.0000  -999.2500  -999.2500  -999.2500    12.6056   123.5167     2.5336     0.4943     0.1045
   42.5000  -999.2500  -999.2500  -999.2500    12.6077   119.5002     2.5173     0.4912     0.1144
   43.0000  -999.2500  -999.2500  -999.2500    12.6097   115.1076     2.5011     0.4961     0.1243
   43.5000  -999.2500  -999.2500  -999.2500    12.6117   108.6277     2.4919     0.5063     0.1312
   44.0000  -999.2500  -999.2500  -999.2500    12.6137   102.0963     2.4927     0.5209     0.1242
   44.5000  -999.2500  -999.2500  -999.2500    12.6157    95.5531     2.4940     0.5356     0.1257
   45.0000  -999.2500  -999.2500  -999.2500    12.6177    89.0367     2.4952     0.5506     0.1272
   45.5000  -999.2500  -999.2500  -999.2500    12.6197    86.3879     2.4877     0.5517     0.1402
   46.0000  -999.2500  -999.2500  -999.2500    12.6217    84.3297     2.4794     0.5479     0.1627
   46.5000  -999.2500  -999.2500  -999.2500    12.6237    83.8449     2.4341     0.4933     0.2133
   47.0000  -999.2500  -999.2500  -999.2500    12.6257    84.1336     2.3806     0.3543     0.2993
   47.5000  -999.2500  -999.2500  -999.2500    12.6277    86.2302     2.1808     0.2215     0.2998
   48.0000  -999.2500  -999.2500  -999.2500    12.6297    87.1888     2.0000     0.0890     0.2993
   48.5000  -999.2500  -999.2500  -999.2500    12.6317    84.3078     2.0013     0.0071     0.2991
   49.0000  -999.2500  -999.2500  -999.2500    12.6337    81.8079     2.0017     0.0560     0.2990
   49.5000  -999.2500  -999.2500  -999.2500    12.6357    82.8803     2.0007     0.1288     0.2989
   50.0000  -999.2500  -999.2500  -999.2500    12.6377    84.1690     2.0000     0.2019     0.2990
   50.5000  -999.2500  -999.2500  -999.2500    12.6397    85.4633     2.1765     0.2536     0.2669
   51.0000  -999.2500  -999.2500  -999.2500    12.6417    86.7677     2.5223     0.2499     0.1696
   51.5000  -999.2500  -999.2500  -999.2500    12.6437    87.3934     2.5187     0.2423     0.1126
   52.0000  -999.2500  -999.2500  -999.2500    12.6457    82.1169     2.5190     0.2345     0.1128
   52.5000  -999.2500  -999.2500  -999.2500    12.6477    81.1193     2.5173     0.2269     0.1139
   53.0000  -999.2500  -999.2500  -999.2500    12.6497    81.6864     2.5162     0.2186     0.1211
   53.5000  -999.2500  -999.2500  -999.2500    12.6517    73.0018     2.4916     0.1968     0.1395
   54.0000  -999.2500  -999.2500  -999.2500    12.6537    63.4294     2.4597     0.1752     0.1614
   54.5000  -999.2500  -999.2500  -999.2500    12.6538    53.7485     2.4277     0.1735     0.1833
   55.0000  -999.2500  -999.2500  -999.2500    12.6464    50.3207     2.3951     0.1723     0.1931
   55.5000  -999.2500  -999.2500  -999.2500    12.6392    60.2684     2.3745     0.1718     0.2013
   56.0000  -999.2500  -999.2500  -999.2500    12.6321    71.4037     2.3578     0.1284     0.2050
   56.5000  -999.2500  -999.2500  -999.2500    12.6249    82.6821     2.3116     0.0857     0.2055
   57.0000  -999.2500  -999.2500  -999.2500    12.6177    84.6771     2.2277     0.0913     0.2282
   57.5000  -999.2500  -999.2500  -999.2500    12.6106    79.9275     2.1441     0.1117     0.2500
   58.0000  -999.2500  -999.2500  -999.2500    12.6034    75.8976     2.0969     0.1264     0.2635
   58.5000  -999.2500  -999.2500  -999.2500    12.5962    72.8970     2.0827     0.1307     0.2700
   59.0000  -999.2500  -999.2500  -999.2500    12.5891    74.7441     2.0626     0.1520     0.2750
   59.5000  -999.2500  -999.2500  -999.2500    12.5819    77.8617     2.0614     0.1818     0.2562
   60.0000   -33.5000     0.2028     9.7956    12.5747    81.0057     2.1962     0.2065     0.2182
   60.5000   -33.5000     0.2028     9.7956    12.5675    84.1472     2.3177     0.2275     0.1802
   61.0000   -33.5000     0.2028     9.7956    12.5604    87.2873     2.4392     0.2748     0.1422
   61.5000   -33.4999     0.2028     9.8408    12.5558    90.4354     2.5146     0.2994     0.1042
   62.0000   -33.5002     0.2028     9.7956    12.5662    93.5796     2.5669     0.2778     0.0916
   62.5000   -33.4995     0.2028     9.7956    12.5764    95.5276     2.5673     0.2508     0.1170
   63.0000   -33.5718     0.2028     9.7948    12.5865    93.9008     2.4977     0.2372     0.1449
   63.5000   -33.6937     0.2028     9.7970    12.5968    92.5098     2.4810     0.2335     0.1728
   64.0000   -32.8472     0.2028     9.7887    12.6069    96.9225     2.4059     0.2533     0.2007
   64.5000   -31.7363     0.4544     9.8806    12.6080   100.8862     2.3228     0.2847     0.2259
   65.0000   -31.6926     5.5425     9.9777    12.5661   101.8800     2.3251     0.3158     0.2259
   65.5000   -31.6988    12.1613     7.8140    12.5251    95.6145     2.3697     0.3146     0.1795
   66.0000   -31.7000    11.8974     6.7246    12.4841    86.3603     2.3988     0.2148     0.2059
   66.5000   -31.6998    11.4999     5.7871    12.4419    76.7359     2.3463     0.1883     0.2322
   67.0000   -31.6988     9.4169     5.3299    12.4377    74.8399     2.2974     0.2241     0.2373
   67.5000   -31.6856     5.7363     5.1360    12.4451    75.3132     2.2458     0.2943     0.2397
   68.0000   -32.1076     1.2284     5.1244    12.4527    74.5431     2.2838     0.5038     0.2124
   68.5000   -32.8701     0.4820     5.1127    12.4601    72.9178     2.3747     0.6125     0.1649
   69.0000   -34.6065     1.6407     5.1012    12.4676    68.5909     2.4667     0.6120     0.1174
   69.5000   -36.3110     1.9015     5.0470    12.4751    64.1608     2.5837     0.5972     0.0944
   70.0000   -37.2809     3.3437     5.5851    12.4826    62.8725     2.5653     0.5596     0.1121
