~VERSION INFORMATION
 VERS.                2.0:   CWLS LOG ASCII STANDARD - VERSION 2.0
 WRAP.                 NO:   ONE LINE PER DEPTH STEP
~WELL INFORMATION
#MNEM.UNIT      DATA TYPE    INFORMATION
#----------   ------------   ------------------------------
 STRT.F           12.0000:   START DEPTH
 STOP.F          296.0000:   STOP DEPTH
 STEP.F            0.5000:   STEP LENGTH
 NULL.          -999.2500:   NO VALUE
 COMP. BROWN JOHN E&C INC:   COMPANY
 WELL.       SX 71 #45-10:   WELL
 FLD .         N P R NO.3:   FIELD
 LOC .      S10 T38N R78W:   LOCATION
 CNTY.            NATRONA:   COUNTY
 STAT.            WYOMING:   STATE
 CTRY. UNITED STATES OF AMERICA:   COUNTRY
 SRVC.            Unknown:   SERVICE COMPANY
 DATE.        08-APR-1993:   LOGDATE
 API .       490251127200:   API NUMBER
~CURVE INFORMATION
#MNEM.UNIT       API CODE    CURVE DESCRIPTION
#----------   ------------   ------------------------------
 DEPT.F                  :   
 GR  .GAPI   81 310 01 00:   GAMMA RAY
 TT  .US/F   81 520 00 00:   TRANSIT TIME
~PARAMETER INFORMATION
#MNEM.UNIT          VALUE    DESCRIPTION
#----------   ------------   ------------------------------
 PD  .                 GL:   PERMANENT DATUM
 EPD .F              5163:   ELEVATION PERMANENT DATUM
 LMF .                 KB:   LOG MEASURED FROM
 DAPD.F                10:   FEET ABOVE PERMANENT DATUM
 DMF .                 KB:   DRILLING MEASURED FROM
 EKB .F              5173:   KELLING BUSHING
 EDF .F              5173:   DRILLING FLOOR
 EGL .F              5163:   GROUND LEVEL
 DATE.             4-8-93:   RUN DATE
 RUN .                  1:   RUN NUMBER
 DD  .F               300:   DEPTH DRILLER
 DL  .F               299:   DEPTH LOGGER
 BLI .F               293:   BOTTOM LOG INTERVAL
 BS  .IN            7.875:   BIT SIZE
 BSD .F               300:   BIT SIZE AT DEPTH
 TCS .HRS            0830:   TIME CURCULATED STOPPED
 TLAB.HRS            0930:   TIME LOGGER AT BOTTOM
 LUN .                509:   LOGGING UNIT NUMBER
 LUL .           GILLETTE:   LOGGING UNIT LOCATION
 ENGI.          R. CLANCY:   RECORDING ENGINEER
 WITN.         R.E. SYLAR:   WITNESSED BY
 CLNT.            A2DTECH:   CLIENT CODE
 ORIG.           5" PRINT:   ORIGIN OF DATA
 UWI .       490251127200:   UNIQUE WELL ID
 DICO. A2D Technologies, Inc.:   DIGITIZING COMPANY
~OTHER INFORMATION
~A   DEPT        GR        TT   
# ...
  133.5000   145.7245   266.8675
  134.0000   151.0022   268.4739
  134.5000   154.7114   308.7952
  135.0000   150.5716   367.2691
  135.5000   146.5441   278.5141
  136.0000   142.4311   277.9748
  136.5000   142.2941   276.5798
  137.0000   147.2737   277.3498
  137.5000   152.2879   268.5453
  138.0000   155.1437   267.6707
  138.5000   155.0428   267.7935
  139.0000   152.7843   267.9140
  139.5000   149.5420   268.0345
  140.0000   145.7399   268.1550
  140.5000   140.7671   268.2755
  141.0000   137.1214   268.3959
  141.5000   139.9385   268.5164
  142.0000   137.8418   268.6373
  142.5000   136.0929   268.7592
  143.0000   140.3264   268.8755
  143.5000   140.7709   268.5772
  144.0000   136.9628   268.2846
  144.5000   133.4704   267.9917
  145.0000   133.7679   267.6983
  145.5000   135.1217   267.4084
  146.0000   134.4751   267.2862
  146.5000   133.5574   267.3258
  147.0000   135.7545   267.3631
  147.5000   139.6604   267.4004
  148.0000   139.4380   267.4376
  148.5000   137.1185   267.4748
  149.0000   135.9379   267.5120
  149.5000   135.2919   267.5492
  150.0000   134.3685   267.5866
  150.5000   133.5119   267.6237
  151.0000   133.5256   267.6609
  151.5000   133.0748   267.4704
  152.0000   131.6699   267.1984
  152.5000   130.5410   266.9264
  153.0000   135.7346   266.6544
  153.5000   135.9597   266.3823
  154.0000   135.1699   266.1103
  154.5000   133.3701   266.1874
  155.0000   131.6711   266.3817
  155.5000   133.2112   266.5760
  156.0000   137.0840   266.7703
  156.5000   139.8078   266.9117
  157.0000   140.7445   267.0574
  157.5000   138.1212   267.2031
  158.0000   138.0197   267.3156
  158.5000   139.3824   267.4006
  159.0000   140.7475   267.4856
  159.5000   141.6644   267.5706
  160.0000   137.6475   267.6519
  160.5000   133.9341   268.0917
  161.0000   136.0264   268.6006
  161.5000   137.1091   269.1109
  162.0000   139.8210   269.2788
  162.5000   143.7674   269.2776
  163.0000   144.0112   269.2771
  163.5000   142.0260   269.2771
  164.0000   138.3445   269.2771
  164.5000   136.7106   269.2771
  165.0000   139.9646   269.2771
  165.5000   137.2556   269.2771
  166.0000   137.0927   268.5535
  166.5000   136.3831   267.8233
  167.0000   138.1834   267.2652
  167.5000   136.5385   267.2691
  168.0000   137.2873   267.2691
  168.5000   137.5591   267.2691
  169.0000   140.0414   267.2691
  169.5000   144.8203   267.2691
  170.0000   147.1860   267.5837
  170.5000   142.8082   267.9237
  171.0000   141.1872   268.0723
  171.5000   141.1748   267.9240
  172.0000   138.1055   267.7327
  172.5000   136.7279   267.5414
  173.0000   138.9999   267.3502
  173.5000   140.9158   267.1589
  174.0000   132.5431   266.9676
  174.5000   128.1420   266.9558
  175.0000   137.6615   267.1413
  175.5000   140.0737   267.3268
  176.0000   144.0629   267.5116
  176.5000   146.8252   267.6725
  177.0000   146.8037   267.6707
  177.5000   143.6842   267.6707
  178.0000   138.4252   267.6707
  178.5000   137.9751   268.4116
  179.0000   137.7279   270.2497
  179.5000   131.7042   273.4783
  180.0000   125.5436   276.7210
  180.5000   119.3456   279.7189
  181.0000   117.4081   278.1125
  181.5000   120.6718   274.1076
  182.0000   124.6257   270.4353
  182.5000   128.6336   267.2691
  183.0000   132.5840   266.8675
  183.5000   134.9402   266.9106
  184.0000   133.3529   267.1656
  184.5000   132.7400   267.4214
  185.0000   131.9238   267.6714
  185.5000   127.9986   267.5593
  186.0000   127.8885   267.4222
  186.5000   127.9112   267.2827
  187.0000   127.9795   267.2861
  187.5000   125.1582   267.6383
  188.0000   127.9547   267.5725
  188.5000   130.7876   267.5067
  189.0000   125.7038   267.4409
  189.5000   126.8101   267.3751
  190.0000   129.4363   267.3092
  190.5000   132.5456   267.6667
  191.0000   133.3112   268.4739
  191.5000   138.3818   268.0723
  192.0000   142.2038   268.0723
  192.5000   139.2088   268.0723
  193.0000   140.7593   268.1488
  193.5000   139.2453   268.2375
  194.0000   141.4599   268.3263
  194.5000   137.9673   268.4162
  195.0000   133.0635   268.4247
  195.5000   133.1371   268.2794
  196.0000   132.4042   268.1337
  196.5000   130.7917   268.0723
  197.0000   132.0600   268.0723
  197.5000   134.2994   268.0723
  198.0000   135.2045   268.0723
  198.5000   137.2459   268.4544
  199.0000   139.3032   268.4826
  199.5000   140.9301   268.4745
  200.0000   136.6484   268.4739
  200.5000   134.3896   268.4739
  201.0000   134.3336   268.4739
  201.5000   134.6489   268.4739
  202.0000   136.7530   268.4739
  202.5000   132.1330   268.4739
  203.0000   127.7347   268.4739
  203.5000   137.5239   268.4739
  204.0000   139.1625   268.4739
  204.5000   139.1780   268.4739
  205.0000   139.1449   268.4739
  205.5000   139.2566   268.4739
  206.0000   141.1195   268.4739
  206.5000   142.4607   268.4739
  207.0000   139.0992   268.4739
  207.5000   134.7194   268.9234
  208.0000   131.0194   269.3924
  208.5000   130.6568   269.6988
  209.0000   129.5456   269.1282
  209.5000   131.8254   268.8199
  210.0000   130.6851   268.4972
  210.5000   122.9776   268.1744
  211.0000   118.7786   268.0723
  211.5000   115.9679   268.0723
  212.0000   116.2138   268.0723
  212.5000   121.9656   268.0723
  213.0000   128.1246   268.0723
  213.5000   134.3088   268.0723
  214.0000   136.0115   268.0397
  214.5000   138.6410   267.9583
  215.0000   141.2163   267.8764
  215.5000   143.7908   267.7945
  216.0000   146.3931   267.7128
  216.5000   147.2263   267.6310
  217.0000   148.1757   267.5492
  217.5000   149.1123   267.4675
  218.0000   149.4023   267.3857
  218.5000   150.9897   267.3040
  219.0000   146.8400   267.3308
  219.5000   143.2180   267.4384
  220.0000   149.1119   267.5460
  220.5000   154.0927   267.6536
  221.0000   159.0611   267.7611
  221.5000   163.2711   267.8687
  222.0000   158.0571   267.9763
  222.5000   149.9356   268.0968
  223.0000   145.2207   268.3240
  223.5000   138.8615   272.7815
  224.0000   137.4502   378.9156
  224.5000   138.1047   281.3253
  225.0000   134.1289   363.3869
  225.5000   130.1580   398.5944
  226.0000   129.9444   398.5944
  226.5000   135.7895   286.5462
  227.0000   140.4550   398.1928
  227.5000   145.0603   339.1566
  228.0000   149.9227   398.1928
  228.5000   144.0783   398.1928
  229.0000   142.8853   398.1928
  229.5000   145.2305   398.1928
  230.0000   146.8029   398.1928
  230.5000   146.7441   359.5649
  231.0000   145.4157   277.7108
  231.5000   143.5332   271.4819
  232.0000   147.8045   270.1968
  232.5000   151.8797   268.7350
  233.0000   151.4154   266.8675
  233.5000   150.8047   268.1410
  234.0000   150.8543   269.6787
  234.5000   153.1820   269.6787
  235.0000   149.3360   269.6298
  235.5000   144.1113   269.5410
  236.0000   141.6901   269.4522
  236.5000   145.3757   269.3638
  237.0000   148.3893   269.2764
  237.5000   150.1673   269.0763
  238.0000   155.0267   268.8816
  238.5000   156.4630   268.6870
  239.0000   155.5814   268.4739
  239.5000   159.0540   268.1996
  240.0000   153.9166   267.8968
  240.5000   150.3638   267.5939
  241.0000   145.6505   267.2911
  241.5000   142.8603   266.9883
  242.0000   154.0775   266.8675
  242.5000   158.8692   267.1056
  243.0000   158.8385   267.3976
  243.5000   158.9040   267.6900
  244.0000   156.6295   267.9824
  244.5000   154.8119   268.0639
  245.0000   152.9308   267.9689
  245.5000   150.6340   267.8742
  246.0000   146.6863   267.7797
  246.5000   146.6939   267.6853
  247.0000   150.1001   267.5909
  247.5000   154.3433   267.4965
  248.0000   156.6374   267.4021
  248.5000   158.1874   267.3077
  249.0000   159.6647   267.2133
  249.5000   155.8744   267.1189
  250.0000   158.2483   267.0245
  250.5000   156.3043   266.9301
  251.0000   155.6918   267.2123
  251.5000   159.3250   268.2382
  252.0000   162.9018   268.8755
  252.5000   160.0430   268.8755
  253.0000   158.3854   268.8755
  253.5000   159.6672   269.1025
  254.0000   160.4136   269.6154
  254.5000   163.3410   269.6787
