~VERSION INFORMATION
 VERS.                2.0:   CWLS LOG ASCII STANDARD - VERSION 2.0
 WRAP.                 NO:   ONE LINE PER DEPTH STEP
~WELL INFORMATION
#MNEM.UNIT      DATA TYPE    INFORMATION
#----------   ------------   ------------------------------
 STRT.F            3.0000:   START DEPTH
 STOP.F          477.0000:   STOP DEPTH
 STEP.F            0.5000:   STEP LENGTH
 NULL.          -999.2500:   NO VALUE
 COMP. BROWN JOHN E&C INC:   COMPANY
 WELL. NAVAL PETROLEUM RESERVE 3 SX-1 #73-4-10:   WELL
 FLD .             TEAPOT:   FIELD
 LOC .      S10 T38N R78W:   LOCATION
 CNTY.            NATRONA:   COUNTY
 STAT.            WYOMING:   STATE
 CTRY. UNITED STATES OF AMERICA:   COUNTRY
 SRVC.     Atlas Wireline:   SERVICE COMPANY
 DATE.        19-SEP-1991:   LOGDATE
 API .       490252244500:   API NUMBER
~CURVE INFORMATION
#MNEM.UNIT       API CODE    CURVE DESCRIPTION
#----------   ------------   ------------------------------
 DEPT.F                  :   
 GRR .GAPI   07 310 01 00:   GAMMA RAY
 RILD.OHMM   07 120 46 00:   INDUCTION LOG DEEP
 RILM.OHMM   07 120 44 00:   RESITIVITY LONG MEDIUM
~PARAMETER INFORMATION
#MNEM.UNIT          VALUE    DESCRIPTION
#----------   ------------   ------------------------------
 PD  .                 GL:   PERMANENT DATUM
 EPD .F              5171:   ELEVATION PERMANENT DATUM
 LMF .                 GL:   LOG MEASURED FROM
 DMF .                 GL:   DRILLING MEASURED FROM
 EGL .F              5171:   GROUND LEVEL
 DATE.        19-SEP-1991:   RUN DATE
 RUN .                  1:   RUN NUMBER
 DD  .F               490:   DEPTH DRILLER
 DL  .F               489:   DEPTH LOGGER
 BLI .F               482:   BOTTOM LOG INTERVAL
 CS  .IN                7:   CASING SIZE
 CBD .F                80:   CASING BOTTOM DRILLER
 BS  .IN             6.25:   BIT SIZE
 BSD .F               490:   BIT SIZE AT DEPTH
 DFT .                AIR:   DRILLING FLUID TYPE
 LUN .            HL 6272:   LOGGING UNIT NUMBER
 LUL .             CASPER:   LOGGING UNIT LOCATION
 ENGI.          OTTERHOLT:   RECORDING ENGINEER
 WITN.             STRONG:   WITNESSED BY
 CLNT.            A2DTECH:   CLIENT CODE
 ORIG.           5" PRINT:   ORIGIN OF DATA
 UWI .       490252244500:   UNIQUE WELL ID
 DICO. A2D Technologies, Inc.:   DIGITIZING COMPANY
~OTHER INFORMATION
~A    DEPT      GRR      RILD       RILM   
# ...
  367.0000    82.6471    23.8549    30.3259
  367.5000    83.2437    25.5775    30.5433
  368.0000    82.6291    26.2921    30.5497
  368.5000    80.8101    26.6667    29.9268
  369.0000    80.1978    26.0912    29.7261
  369.5000    79.5855    25.4185    29.1202
  370.0000    79.5765    24.7298    28.9248
  370.5000    79.8691    24.5639    29.3351
  371.0000    81.6701    25.0890    30.3765
  371.5000    84.0743    25.4464    31.2375
  372.0000    85.5759    25.6306    31.9009
  372.5000    84.9613    25.9957    32.1297
  373.0000    83.1424    26.1820    32.3600
  373.5000    80.7201    26.0082    32.3668
  374.0000    80.1078    25.8373    31.4875
  374.5000    80.7021    25.3122    30.0018
  375.0000    81.8997    24.9687    28.7850
  375.5000    85.2089    24.6315    27.8097
  376.0000    89.1215    24.2989    26.4974
  376.5000    91.2264    23.9707    25.7778
  377.0000    91.2151    23.3229    25.2509
  377.5000    90.9045    22.6910    24.5664
  378.0000    91.1994    21.4722    24.2331
  378.5000    92.6964    21.0358    23.9030
  379.0000    93.5924    21.1880    23.9092
  379.5000    94.4887    21.1939    23.9142
  380.0000    93.5744    20.9076    23.7527
  380.5000    91.7554    20.6253    23.4316
  381.0000    88.7298    20.6312    23.2733
  381.5000    86.0059    20.4940    23.1172
  382.0000    87.5052    20.3580    22.8035
  382.5000    90.2111    20.0830    22.6507
  383.0000    90.2021    20.3705    22.5000
  383.5000    89.5897    20.3761    22.3491
  384.0000    92.0100    20.3817    22.3538
  384.5000    95.9487    20.1051    22.2028
  385.0000    99.2761    19.8350    22.0539
  385.5000   101.6460    19.5671    21.4561
  386.0000   101.9128    19.1695    21.1649
  386.5000   100.9221    18.7786    20.8767
  387.0000    98.4877    16.5804    21.0274
  387.5000    94.8969    16.5850    21.3256
  388.0000    93.7315    17.6580    21.4785
  388.5000    93.1174    18.6706    21.7830
  389.0000    91.9017    19.2011    21.9381
  389.5000    89.4794    18.4235    21.3423
  390.0000    90.0760    16.8397    20.9082
  390.5000    93.6847    15.2857    20.6245
  391.0000    94.5829    14.0689    20.3436
  391.5000    95.4789    13.5931    20.0686
  392.0000    95.7715    13.6915    19.7952
  392.5000    96.9669    13.8866    19.5277
  393.0000    96.6562    14.0949    19.2617
  393.5000    96.0439    14.8195    19.0013
  394.0000    96.9399    15.5293    18.7425
  394.5000    98.4414    15.7514    18.2344
  395.0000    99.6368    15.9758    18.6217
  395.5000    99.9317    16.2034    19.1495
  396.0000    97.8088    16.5486    19.6923
  396.5000    94.7832    16.9011    19.9715
  397.0000    94.7742    17.0234    20.2547
  397.5000    95.3708    17.0281    20.3999
  398.0000    95.0579    16.9139    20.1220
  398.5000    91.1273    16.5713    19.7128
  399.0000    89.9117    16.4602    19.3110
  399.5000    92.3159    16.5804    19.0479
  400.0000    95.6259    16.6992    18.8890
  400.5000    97.4419    16.2409    18.6139
  401.0000    97.3997    16.3517    18.3387
  401.5000    93.8352    16.0122    18.0636
  402.0000    90.2212    15.7895    17.7884
  402.5000    88.1155    15.6782    17.5133
  403.0000    89.6297    15.3533    17.2893
  403.5000    93.5572    15.1397    16.9333
  404.0000    94.4666    14.9292    16.7000
  404.5000    93.8692    14.7215    16.3561
  405.0000    93.8766    14.5167    16.0193
  405.5000    93.8825    13.9231    15.6895
  406.0000    95.3967    13.2615    15.5810
  406.5000    96.6093    12.4573    15.3664
  407.0000    94.7330    12.0311    15.2602
  407.5000    92.6996    12.1975    15.1547
  408.0000    91.8005    12.5447    15.1547
  408.5000    95.4278    12.9916    15.0500
  409.0000    96.9420    13.2507    15.0500
  409.5000    98.7579    13.1568    15.0500
  410.0000   101.1771    13.0641    14.9460
  410.5000   100.5797    13.0623    14.9460
  411.0000    99.9823    13.1519    14.9460
  411.5000    99.9882    12.9685    14.9460
  412.0000    99.9941    12.9668    14.9460
  412.5000   100.0000    12.9650    14.9460
  413.0000   100.9351    12.9632    14.9460
  413.5000   103.7768    12.9614    14.7401
  414.0000   106.6557    12.9597    14.5370
  414.5000   107.2650    12.9579    14.4366
  415.0000   106.6676    12.7777    14.3368
  415.5000   106.0687    12.5999    14.2377
  416.0000   105.4727    12.5111    14.0416
  416.5000   105.7803    12.4229    13.9445
  417.0000   106.0879    12.4209    13.9333
  417.5000   106.3955    12.4192    13.7524
  418.0000   105.1947    12.1618    13.6574
  418.5000   103.3907    11.9926    13.5630
  419.0000   104.3258    11.9081    13.4692
  419.5000   106.4917    11.9065    13.2837
  420.0000   108.2365    11.9048    13.1919
  420.5000   108.5426    11.8210    13.1919
  421.0000   105.8350    11.7377    13.1919
  421.5000   103.1260    11.7361    13.1919
  422.0000   101.6222    11.5728    13.1919
  422.5000   109.4727    11.5712    13.1805
  423.0000   110.6838    11.5696    13.1007
  423.5000   108.2779    11.5680    13.1007
  424.0000   107.0769    11.4068    13.1007
  424.5000   107.6864    11.3264    13.0102
  425.0000   109.2006    11.2466    13.0102
  425.5000   108.6032    11.4025    13.0102
  426.0000   107.4025    11.4005    12.9203
  426.5000   107.1067    11.3990    12.8310
  427.0000   107.4158    11.3974    12.8310
  427.5000   109.5333    11.2389    12.6542
  428.0000   113.4608    11.2374    12.6425
  428.5000   112.8634    11.1582    12.4799
  429.0000   111.0594    11.0795    12.3936
  429.5000   110.4605    11.0015    12.1384
  430.0000   113.4845    10.8484    11.9712
  430.5000   114.6970    10.7720    11.8063
  431.0000   114.7029    10.6221    11.5632
  431.5000   113.7918    10.4740    11.3251
  432.0000   110.9864    10.4726    11.1691
  432.5000   108.6875    10.3988    10.8635
  433.0000   111.4098    10.1833    10.7102
  433.5000   115.9406     9.9033    10.4932
  434.0000   112.6283     9.4984    10.2061
  434.5000   112.0294     9.1100     9.9960
  435.0000   113.8467     8.8595     9.6553
  435.5000   118.3775     8.3802     9.1977
  436.0000   121.0984     7.8176     8.2317
  436.5000   123.5176     7.0933     7.1655
  437.0000   127.1434     6.5259     6.3246
  437.5000   127.1493     5.7195     5.9008
  438.0000   128.5308     5.4452     5.6997
  438.5000   138.1059     5.4469     5.8219
  439.0000   148.5863     5.4084     6.0731
  439.5000   150.4022     5.4453     6.5025
  440.0000   147.6932     5.6759     6.9213
  440.5000   139.2527     6.0406     7.4700
  441.0000   132.9237     6.3403     8.2317
  441.5000   116.3384     6.8419     9.1977
  442.0000   107.8979     7.5910     9.9960
  442.5000   105.7907     8.6591    10.4932
  443.0000   106.7030     9.1518    10.7884
  443.5000   111.2338     9.4735    10.8635
  444.0000   120.9410     9.6713    10.9391
  444.5000   125.4237     9.8051    11.0274
  445.0000   123.3194    10.0099    11.1691
  445.5000   121.5154    10.1530    11.3251
  446.0000   120.3147    10.2981    11.5632
  446.5000   119.7158    10.4309    11.8063
  447.0000   123.3431    10.5748    12.0545
  447.5000   124.5556    10.7214    12.2229
  448.0000   124.8617    10.8693    12.4799
  448.5000   120.9476    11.0200    12.6542
  449.0000   117.6352    11.1724    12.8310
  449.5000   114.9262    11.3269    13.0102
  450.0000   114.5533    11.4357    13.1919
  450.5000   119.7587    11.6437    13.1919
  451.0000   121.2670    11.7247    13.3762
  451.5000   120.9653    11.9009    13.4692
  452.0000   118.5520    12.0545    13.5630
  452.5000   114.9321    12.1384    13.6574
  453.0000   112.2022    12.3080    13.7524
  453.5000   110.0603    12.3936    13.8481
  454.0000   110.1860    12.4799    13.9445
  454.5000   111.0106    12.4799    13.9445
  455.0000   111.3122    12.4799    13.9445
  455.5000   112.2172    12.5667    13.9445
  456.0000   114.3288    12.6542    13.9445
  456.5000   115.5354    12.5667    13.8481
  457.0000   114.6305    12.4799    13.6574
  457.5000   113.1222    12.3936    13.5630
