~VERSION INFORMATION
 VERS.                2.0:   CWLS LOG ASCII STANDARD - VERSION 2.0
 WRAP.                 NO:   ONE LINE PER DEPTH STEP
~WELL INFORMATION
#MNEM.UNIT      DATA TYPE    INFORMATION
#----------   ------------   ------------------------------
 STRT.F           67.0000:   START DEPTH
 STOP.F          812.0000:   STOP DEPTH
 STEP.F            0.5000:   STEP LENGTH
 NULL.          -999.2500:   NO VALUE
 COMP. U S NAVY-INTEX OIL:   COMPANY
 WELL.  N.P.R. #3 #48-S-2:   WELL
 FLD .             TEAPOT:   FIELD
 LOC .       S2 T38N R78W:   LOCATION
 CNTY.            NATRONA:   COUNTY
 STAT.            WYOMING:   STATE
 CTRY. UNITED STATES OF AMERICA:   COUNTRY
 SRVC.      NL McCullough:   SERVICE COMPANY
 DATE.        11-AUG-1961:   LOGDATE
 API .       490250639200:   API NUMBER
~CURVE INFORMATION
#MNEM.UNIT       API CODE    CURVE DESCRIPTION
#----------   ------------   ------------------------------
 DEPT.F                  :   
 GRN .MG/TON 35 310 01 00:   GAMMA RAY
 NEUT.CPS    35 330 30 00:   NEUTRON
~PARAMETER INFORMATION
#MNEM.UNIT          VALUE    DESCRIPTION
#----------   ------------   ------------------------------
 PD  .                 GL:   PERMANENT DATUM
 EPD .F              5168:   ELEVATION PERMANENT DATUM
 LMF .                 KB:   LOG MEASURED FROM
 DAPD.F                 6:   FEET ABOVE PERMANENT DATUM
 DMF .                 KB:   DRILLING MEASURED FROM
 EKB .F              5174:   KELLING BUSHING
 EGL .F              5168:   GROUND LEVEL
 DATE.          8-11-1961:   RUN DATE
 RUN .                  1:   RUN NUMBER
 DD  .F               810:   DEPTH DRILLER
 DL  .F            813.75:   DEPTH LOGGER
 BLI .F               812:   BOTTOM LOG INTERVAL
 TLI .F                80:   TOP LOG INTERVAL
 BSD .F               810:   BIT SIZE AT DEPTH
 DFT .       OIL EMULSION:   DRILLING FLUID TYPE
 TCS .HRS               1:   TIME CURCULATED STOPPED
 ENGI.            JACKSON:   RECORDING ENGINEER
 WITN.          JORGENSON:   WITNESSED BY
 CLNT.            A2DTECH:   CLIENT CODE
 ORIG.        2" 5" PRINT:   ORIGIN OF DATA
 UWI .       490250639200:   UNIQUE WELL ID
 DICO. A2D Technologies, Inc.:   DIGITIZING COMPANY
~OTHER INFORMATION
~A   DEPT        GRN     NEUT   
# ...
  188.5000     5.5887   324.7637
  189.0000     5.6458   324.3841
  189.5000     5.7024   333.1976
  190.0000     5.7594   342.0428
  190.5000     5.8224   350.8585
  191.0000     5.8164   361.1158
  191.5000     5.8102   348.1817
  192.0000     5.8023   330.1526
  192.5000     5.8338   326.9685
  193.0000     5.8682   323.1349
  193.5000     5.9049   319.3104
  194.0000     5.9389   315.4775
  194.5000     5.9819   311.6535
  195.0000     6.0155   307.8142
  195.5000     6.0602   303.2097
  196.0000     6.1089   302.8721
  196.5000     5.7592   302.4998
  197.0000     5.6761   302.0745
  197.5000     5.5973   301.7186
  198.0000     5.5144   301.1879
  198.5000     5.4171   300.6630
  199.0000     5.4542   299.7723
  199.5000     5.5073   295.9836
  200.0000     5.5565   282.9771
  200.5000     5.6091   273.3425
  201.0000     5.6587   286.3015
  201.5000     5.7536   297.1537
  202.0000     5.7527   289.5035
  202.5000     5.7535   277.4006
  203.0000     5.8022   281.5335
  203.5000     5.8322   285.5885
  204.0000     5.8608   289.0529
  204.5000     5.9252   293.1414
  205.0000     6.0005   296.5884
  205.5000     5.9969   300.3552
  206.0000     5.9924   353.9582
  206.5000     6.0012   347.4530
  207.0000     6.1368   335.0874
  207.5000     6.2663   323.2659
  208.0000     6.3278   311.0689
  208.5000     6.2474   313.8318
  209.0000     6.0856   316.1932
  209.5000     6.0442   318.8650
  210.0000     6.1348   313.5351
  210.5000     6.2266   299.2014
  211.0000     6.2684   284.7142
  211.5000     6.1741   277.0778
  212.0000     6.0703   279.0096
  212.5000     5.9678   281.2563
  213.0000     5.9372   278.3561
  213.5000     6.0357   275.1301
  214.0000     6.1324   271.2461
  214.5000     6.2311   280.2544
  215.0000     6.2579   291.0046
  215.5000     6.1282   301.9081
  216.0000     5.9954   315.1589
  216.5000     5.8334   319.4862
  217.0000     5.7873   324.8801
  217.5000     5.7996   329.2482
  218.0000     5.8320   354.8988
  218.5000     5.8692   364.5089
  219.0000     5.9015   369.1405
  219.5000     5.9328   373.1499
  220.0000     6.2576   363.4230
  220.5000     6.1883   352.1690
  221.0000     6.1240   357.0352
  221.5000     6.0641   361.4044
  222.0000     5.9997   373.0386
  222.5000     5.9396   389.6450
  223.0000     5.9415   406.2124
  223.5000     5.9966   422.0453
  224.0000     5.9781   420.0616
  224.5000     5.9008   416.3713
  225.0000     5.8221   412.6902
  225.5000     5.8323   408.9970
  226.0000     5.8419   403.1949
  226.5000     5.8518   395.0253
  227.0000     5.8615   386.8988
  227.5000     5.8721   378.1165
  228.0000     5.9408   376.7656
  228.5000     6.0150   375.1241
  229.0000     6.0580   369.5133
  229.5000     6.0509   363.2138
  230.0000     5.9647   356.9319
  230.5000     5.8657   350.6384
  231.0000     5.7657   343.2025
  231.5000     5.6671   343.2019
  232.0000     5.5665   347.9317
  232.5000     5.5369   353.8352
  233.0000     5.6820   359.7299
  233.5000     5.8300   365.6268
  234.0000     5.9405   371.5161
  234.5000     5.9666   377.4214
  235.0000     5.9839   386.8033
  235.5000     6.0059   397.6267
  236.0000     6.0230   408.4308
  236.5000     6.0421   413.8570
  237.0000     6.3562   416.5528
  237.5000     6.4902   419.2578
  238.0000     6.5382   421.9592
  238.5000     6.5905   421.3724
  239.0000     6.6346   418.6221
  239.5000     6.4886   416.0562
  240.0000     6.3500   418.1631
  240.5000     6.2148   420.0703
  241.0000     6.0766   402.7664
  241.5000     5.9418   386.1469
  242.0000     5.9408   381.1919
  242.5000     5.9416   376.2861
  243.0000     6.0071   371.1557
  243.5000     6.1492   357.9608
  244.0000     6.2543   343.1894
  244.5000     6.3130   339.1028
  245.0000     6.3718   334.1912
  245.5000     6.3615   332.2287
  246.0000     6.2447   348.5656
  246.5000     6.1098   367.1586
  247.0000     5.9289   385.6551
  247.5000     5.7153   407.5463
  248.0000     5.5030   436.0234
  248.5000     5.2894   464.6032
  249.0000     5.0295   493.0773
  249.5000     4.9720   520.6845
  250.0000     4.8991   545.5841
  250.5000     4.8801   545.1426
  251.0000     4.8803   536.0300
  251.5000     4.8803   526.9343
  252.0000     4.9486   517.8360
  252.5000     5.0290   500.8046
  253.0000     5.1899   480.1644
  253.5000     5.3269   459.4735
  254.0000     5.4633   438.8551
  254.5000     5.6004   429.0509
  255.0000     5.7368   416.6584
  255.5000     5.7965   420.4163
  256.0000     5.8022   434.5435
  256.5000     5.7481   448.5279
  257.0000     5.6970   462.0908
  257.5000     5.3767   489.3055
  258.0000     5.0473   515.6526
  258.5000     4.9302   541.9080
  259.0000     4.8510   547.8808
  259.5000     4.8604   553.6900
  260.0000     4.9239   559.6720
  260.5000     4.9357   565.8885
  261.0000     4.8828   552.6229
  261.5000     4.8292   536.9329
  262.0000     4.7764   535.1901
  262.5000     4.7227   533.1964
  263.0000     4.6623   531.2431
  263.5000     4.7241   528.9617
  264.0000     4.7970   532.6099
  264.5000     4.8692   536.9464
  265.0000     4.9105   541.9417
  265.5000     4.8788   548.5232
  266.0000     4.8404   555.0668
  266.5000     4.9600   561.6464
  267.0000     5.0783   568.1904
  267.5000     5.0435   570.1777
  268.0000     5.0156   570.5023
  268.5000     4.9877   570.8339
  269.0000     5.0329   574.2304
  269.5000     5.1112   578.9997
  270.0000     5.0667   583.7930
  270.5000     4.9594   587.9028
  271.0000     4.9195   585.9295
  271.5000     4.9197   582.9685
  272.0000     4.9927   580.3775
  272.5000     5.1149   577.7170
  273.0000     5.1194   575.1361
  273.5000     5.0348   572.4574
  274.0000     4.9502   569.9616
  274.5000     4.8401   577.9965
  275.0000     4.7066   585.9468
  275.5000     4.5732   593.7216
  276.0000     4.5291   601.9349
  276.5000     4.5832   604.4820
  277.0000     4.6373   607.3775
  277.5000     4.6915   616.6097
  278.0000     4.7455   634.9297
  278.5000     4.7997   652.8704
  279.0000     4.8602   671.2131
  279.5000     4.9193   691.6104
  280.0000     4.9859   677.2440
  280.5000     5.0534   660.1649
  281.0000     5.1355   638.4010
  281.5000     5.2510   605.9977
  282.0000     5.3656   566.9857
  282.5000     5.4811   566.2778
  283.0000     5.6235   565.6566
  283.5000     5.4615   564.8182
  284.0000     5.2462   564.1740
  284.5000     5.2769   562.1758
  285.0000     5.3993   559.8840
  285.5000     5.5225   557.9063
  286.0000     5.6238   556.9628
  286.5000     5.6078   538.9221
  287.0000     5.5935   523.6232
  287.5000     5.5800   515.8907
  288.0000     5.6408   512.6425
  288.5000     5.7487   509.3106
  289.0000     5.8557   506.0781
  289.5000     5.9637   502.9523
  290.0000     5.9857   478.5389
  290.5000     5.9416   470.6752
  291.0000     5.8964   475.6456
  291.5000     5.8527   480.5125
  292.0000     5.8418   477.4007
  292.5000     5.8430   466.0490
  293.0000     5.9898   454.7681
  293.5000     6.1433   443.4330
  294.0000     6.2936   432.1375
  294.5000     6.4473   420.8111
  295.0000     6.5476   405.1758
  295.5000     6.5521   383.2091
  296.0000     6.5110   361.2321
  296.5000     6.4739   348.1813
  297.0000     6.6645   350.9343
  297.5000     6.5782   354.1826
  298.0000     6.4708   359.0238
  298.5000     6.4494   366.1625
  299.0000     6.6172   364.6804
  299.5000     6.7877   359.5031
  300.0000     6.9279   354.3026
  300.5000     6.9882   349.1269
  301.0000     7.0321   345.1720
  301.5000     7.0960   346.3108
  302.0000     7.1459   347.1908
  302.5000     7.1974   348.1189
  303.0000     7.1608   348.9912
  303.5000     7.0370   349.9225
  304.0000     6.8903   364.6041
  304.5000     6.7750   384.9270
  305.0000     6.8288   401.0605
  305.5000     6.8744   400.1201
  306.0000     6.9190   398.0275
  306.5000     6.9200   396.3796
  307.0000     6.8998   394.6223
  307.5000     6.8840   392.9697
  308.0000     6.9766   391.2184
  308.5000     7.0427   389.5599
  309.0000     6.9747   388.0887
  309.5000     6.8726   392.5309
