~VERSION INFORMATION
 VERS.                2.0:   CWLS LOG ASCII STANDARD - VERSION 2.0
 WRAP.                 NO:   ONE LINE PER DEPTH STEP
~WELL INFORMATION
#MNEM.UNIT      DATA TYPE    INFORMATION
#----------   ------------   ------------------------------
 STRT.F           36.0000:   START DEPTH
 STOP.F          557.0000:   STOP DEPTH
 STEP.F            0.5000:   STEP LENGTH
 NULL.          -999.2500:   NO VALUE
 COMP. FENIX & SCISSON U.S. NAVY:   COMPANY
 WELL.        NPR #62-S-3:   WELL
 FLD .             TEAPOT:   FIELD
 LOC .       S3 T38N R78W:   LOCATION
 CNTY.            NATRONA:   COUNTY
 STAT.            WYOMING:   STATE
 CTRY. UNITED STATES OF AMERICA:   COUNTRY
 SRVC.              Welex:   SERVICE COMPANY
 DATE.        07-MAY-1977:   LOGDATE
 API .       490251035000:   API NUMBER
~CURVE INFORMATION
#MNEM.UNIT       API CODE    CURVE DESCRIPTION
#----------   ------------   ------------------------------
 DEPT.F                  :   
 SPR .MV     07 010 01 00:   SPONTANEOUS POTENTIAL
 ILD .OHMM   07 120 46 00:   INDUCTION LOG DEEP
 ILM .OHMM   07 120 44 00:   INDUCTION LOG MEDIUM
 SGRD.OHMM   07 221 05 00:   SHALLOW SHORT GUARD RESISTIVITY
 GRD .GAPI   45 310 01 00:   GAMMA RAY FROM DENSITY LOG
 CALD.IN     45 280 60 00:   CALIPER FROM DENSITY LOG
 CORR.G/C3   45 356 01 00:   DENSITY CORRECTION
 RHOB.G/C3   45 350 01 00:   BULK DENSITY
 DPHI.DEC    45 890 12 00:   DENSITY POROSITY SANDSTONE
 NEUT.NAPI   35 330 01 00:   NEUTRON
~PARAMETER INFORMATION
#MNEM.UNIT          VALUE    DESCRIPTION
#----------   ------------   ------------------------------
 PD  .                 GL:   PERMANENT DATUM
 EPD .F              5136:   ELEVATION PERMANENT DATUM
 LMF .                 GL:   LOG MEASURED FROM
 DMF .                 GL:   DRILLING MEASURED FROM
 EGL .F              5136:   GROUND LEVEL
 DATE.        07-MAY-1977:   RUN DATE
 RUN .                  1:   RUN NUMBER
 DD  .F               560:   DEPTH DRILLER
 DL  .F               560:   DEPTH LOGGER
 BLI .F               558:   BOTTOM LOG INTERVAL
 TLI .F                35:   TOP LOG INTERVAL
 CS  .IN            8.625:   CASING SIZE
 CBD .F                40:   CASING BOTTOM DRILLER
 CBL .F                42:   CASING BOTTOM LOGGER
 BS  .IN            7.875:   BIT SIZE
 BSD .F               560:   BIT SIZE AT DEPTH
 DFT .             KCLMUD:   DRILLING FLUID TYPE
 DFD .                8.8:   DRILLING FLUID DENSITY
 MSS .           FLOWLINE:   MUD SAMPLE SOURCE
 RMS .OHMM           0.24:   RESISTIVITY MUD SAMPLE
 MST .F                60:   MUD SAMPLE TEMPERATURE
 RMF .OHMM           0.20:   RESISTIVITY MUD FILTRATE SAMPLE
 MFST.F                60:   MUD FILTRATE SAMPLE TEMPERATURE
 RMC .OHMM           0.29:   RESISTIVITY MUD CAKE
 MCST.F                60:   MUD CAKE SAMPLE TEMPERATURE
 MFSS.               MEAS:   MUD FILTRATE SAMPLE SOURCE
 MCSS.               MEAS:   MUD CAKE SAMPLE SOURCE
 RMB .OHMM             17:   RESISTIVITY MUD AT BHT
 BHT .F                71:   BOTTOM HOLE TEMPERATURE
 TCS .HRS            0230:   TIME CURCULATED STOPPED
 MRT .F                71:   MAXIMUM RECORDED TEMPERATURE
 LUN .               8611:   LOGGING UNIT NUMBER
 LUL .           GILLETTE:   LOGGING UNIT LOCATION
 ENGI.            C. DOCK:   RECORDING ENGINEER
 WITN.           ROB LYON:   WITNESSED BY
 CLNT.            A2DTECH:   CLIENT CODE
 ORIG.           5" PRINT:   ORIGIN OF DATA
 UWI .       490251035000:   UNIQUE WELL ID
 DICO. A2D Technologies, Inc.:   DIGITIZING COMPANY
~OTHER INFORMATION
~A   DEPT      SPR        ILD        ILM       SGRD        GRD       CALD       CORR       RHOB       DPHI       NEUT   
# ...
   69.5000   -33.9860     8.3924     8.4985    13.1129   109.8968     7.8046    -0.0005     2.4859     0.1103  -999.2500
   70.0000   -33.9786     8.2222     8.1591    12.4966   114.6893     7.7908     0.0011     2.4913     0.1093  -999.2500
   70.5000   -33.8222     8.2840     7.9985    12.7682   117.8400     7.7927     0.0012     2.4950     0.1096  -999.2500
   71.0000   -33.6658     8.3461     8.0019    13.2260   120.2445     7.7942     0.0013     2.4965     0.1071  -999.2500
   71.5000   -33.6584     8.4677     8.1785    13.7956   121.7535     7.7956     0.0021     2.4965     0.1041  -999.2500
   72.0000   -33.6510     8.6554     8.3539    13.5190   120.5759     7.7971     0.0030     2.5026     0.0990  -999.2500
   72.5000   -33.6436     8.7774     8.5263    13.2461   119.3983     7.7986     0.0023     2.5094     0.0998  -999.2500
   73.0000   -33.4871     8.8433     8.5966    13.4404   119.7132     7.8001     0.0016     2.5005     0.1073  -999.2500
   73.5000   -33.4797     8.9721     8.6522    13.3549   121.5206     7.8016     0.0001     2.4878     0.1130  -999.2500
   74.0000   -33.4723     8.9765     8.5283    13.1764   123.3281     7.8031    -0.0005     2.4849     0.1133  -999.2500
   74.5000   -33.4649     8.9091     8.4230    13.0021   124.8371     7.8046    -0.0012     2.4850     0.1117  -999.2500
   75.0000   -33.4575     8.7275     8.3108    13.0111   126.1968     7.8210    -0.0011     2.4888     0.1090  -999.2500
   75.5000   -33.5992     8.6808     8.2569    12.9265   127.1087     7.8374    -0.0010     2.4963     0.1075  -999.2500
   76.0000   -33.5918     8.8084     8.5032    13.2074   127.4195     7.8539    -0.0010     2.5031     0.1081  -999.2500
   76.5000   -34.0314     9.1900     8.9911    13.4925   125.3505     7.8553    -0.0009     2.4927     0.1098  -999.2500
   77.0000   -34.1731     9.2590     9.7605    13.9763   124.3221     7.8415    -0.0008     2.4913     0.1137  -999.2500
   77.5000   -34.3147     9.2635    10.3200    14.4775   123.4430     7.8434    -0.0007     2.4899     0.1140  -999.2500
   78.0000   -34.3070     9.2680    11.0634    14.3834   122.7132     7.8449    -0.0007     2.4862     0.1101  -999.2500
   78.5000   -34.1227     9.4690    12.1089    14.4935   121.5356     7.8464    -0.0006     2.4982     0.1061  -999.2500
   79.0000   -33.8436     9.7421    12.9812    15.0132   120.0595     7.8326    -0.0013     2.5035     0.1043  -999.2500
   79.5000   -33.5381     9.8841    13.7252    14.8146   116.7923     7.8345    -0.0012     2.5036     0.1031  -999.2500
   80.0000   -33.5307    10.0984    14.8161    14.4152   114.4206     7.8206    -0.0011     2.5059     0.0994  -999.2500
   80.5000   -33.5233    10.3173    15.7739    14.4252   109.6609     7.8225    -0.0003     2.5097     0.0952  -999.2500
   81.0000   -33.5159    10.4677    16.4489    18.0197   103.7072     7.8240     0.0005     2.5158     0.0916  -999.2500
   81.5000   -33.6594    10.5462    16.0068    22.8211   102.9733     7.8553     0.0021     2.5249     0.0876  -999.2500
   82.0000   -33.8010    10.6253    15.6831    16.2572   107.6206     7.8718     0.0030     2.5317     0.0846  -999.2500
   82.5000   -33.9426    10.6305    15.4741    15.2819   109.2789     7.8882     0.0038     2.5347     0.0861  -999.2500
   83.0000   -34.0824    10.6357    15.5895    15.5039   108.8475     7.8893     0.0054     2.5318     0.0884  -999.2500
   83.5000   -34.0750    10.6409    15.7042    15.6205   108.2628     7.8833     0.0062     2.5199     0.0911  -999.2500
   84.0000   -34.2166    10.4239    15.7107    15.7379   110.3729     7.8782     0.0070     2.5162     0.0944  -999.2500
   84.5000   -34.2092    10.3564    15.6072    15.6373   112.3296     7.8730     0.0079     2.5148     0.0971  -999.2500
   85.0000   -34.0528    10.1465    15.3993    15.6464   113.3867     7.8679     0.0087     2.5096     0.1004  -999.2500
   85.5000   -34.0454     9.9420    15.2995    15.6550   112.2132     7.8669     0.0072     2.5029     0.1039  -999.2500
   86.0000   -34.0380     9.8076    15.3074    15.5551   113.1251     7.8688     0.0073     2.5045     0.1066  -999.2500
   86.5000   -34.0306     9.6762    15.5270    15.3494   114.6341     7.8703     0.0074     2.5046     0.1063  -999.2500
   87.0000   -34.0232     9.6135    15.7497    15.3581   116.4415     7.8867     0.0075     2.4986     0.1078  -999.2500
   87.5000   -34.1667     9.6194    15.8656    15.3666   117.2042     7.8729     0.0075     2.4897     0.1131  -999.2500
   88.0000   -34.3083     9.6915    15.8721    15.4821   118.2654     7.8748     0.0068     2.4838     0.1134  -999.2500
   88.5000   -34.4481     9.8327    15.7677    15.7070   119.0281     7.8762     0.0062     2.4868     0.1104  -999.2500
   89.0000   -34.4407     9.9760    15.3439    15.7157   119.7908     7.8628     0.0047     2.4937     0.1040  -999.2500
   89.5000   -34.5823    10.1923    14.7279    15.1884   119.5087     7.8643     0.0041     2.4997     0.1013  -999.2500
   90.0000   -34.5749    10.2688    14.1352    14.5774   117.8833     7.8505     0.0026     2.5020     0.1097  -999.2500
   90.5000   -34.5675    10.4914    13.3801    14.6922   118.6460     7.8524     0.0019     2.4879     0.1169  -999.2500
   91.0000   -34.7094    10.4965    12.2349    15.3195   121.0505     7.8539     0.0005     2.4729     0.1217  -999.2500
   91.5000   -35.0000    10.5753    11.1877    14.3956   119.5744     7.8553    -0.0002     2.4670     0.1268  -999.2500
   92.0000   -35.1416    10.5804     9.8825    14.6098   114.8147     7.8718    -0.0008     2.4581     0.1300  -999.2500
   92.5000   -35.5811    10.6598     8.9125    14.8307   111.9953     7.8733    -0.0015     2.4552     0.1318  -999.2500
   93.0000   -35.7228    10.6650     8.1497    14.9335   112.4594     7.8748    -0.0014     2.4545     0.1327  -999.2500
   93.5000   -36.0134    10.5946     7.5039    14.9418   115.6102     7.8762    -0.0021     2.4538     0.1342  -999.2500
   94.0000   -36.1550    10.6011     6.9572    14.7306   118.9102     7.8777    -0.0028     2.4486     0.1368  -999.2500
   94.5000   -36.2966    10.5322     6.7702    14.0242   122.2102     7.8792    -0.0035     2.4405     0.1389  -999.2500
   95.0000   -36.2891    10.3911     6.7256    13.7712   124.0177     7.8807    -0.0041     2.4390     0.1401  -999.2500
   95.5000   -36.2817    10.1806     6.6820    14.4200   124.9296     7.8822    -0.0041     2.4443     0.1374  -999.2500
   96.0000   -36.2742     9.9741     6.7319    15.5137   125.9908     7.8837    -0.0040     2.4526     0.1316  -999.2500
   96.5000   -36.2886     9.9095     6.9235    14.9933   126.9027     7.8699    -0.0039     2.4617     0.1265  -999.2500
   97.0000   -36.5577     9.9840     7.2699    14.7929   126.7699     7.8718    -0.0031     2.4648     0.1216  -999.2500
   97.5000   -36.8465     9.9946     7.7399    15.0098   124.8460     7.8434    -0.0030     2.4738     0.1162  -999.2500
   98.0000   -37.1390     9.7183     8.3550    15.1227   122.9221     7.8449    -0.0022     2.4889     0.1105  -999.2500
   98.5000   -37.2806     9.5212     9.0816    14.8194   121.4419     7.8311    -0.0014     2.4942     0.1104  -999.2500
   99.0000   -37.4223     9.5259     9.1484    14.2233   124.8953     7.8177    -0.0005     2.4875     0.1113  -999.2500
   99.5000   -37.1150     9.5974     9.2157    13.9381   126.5535     7.8195    -0.0005     2.4823     0.1128  -999.2500
  100.0000   -37.1220     9.0168    10.6872    13.9439   126.0284     7.8260    -0.0004     2.4876     0.1125  -999.2500
  100.5000   -37.1943     8.8026    11.4291    13.8529   123.1531     7.8583    -0.0003     2.4892     0.1106  -999.2500
  101.0000   -37.2381     8.5934    11.8354    14.0624   122.8692     7.8830    -0.0002     2.4886     0.1115  -999.2500
  101.5000   -37.8214     8.5289    11.2829    14.3517   124.8323     7.8842    -0.0002     2.4856     0.1124  -999.2500
  102.0000   -38.2582     8.4113    10.9803    13.9648   126.6420     7.9003    -0.0001     2.4880     0.1111  -999.2500
  102.5000   -38.5486     8.1942    10.6123    13.3076   127.4070     7.8866     0.0007     2.4918     0.1102  -999.2500
