~VERSION INFORMATION
 VERS.                2.0:   CWLS LOG ASCII STANDARD - VERSION 2.0
 WRAP.                 NO:   ONE LINE PER DEPTH STEP
~WELL INFORMATION
#MNEM.UNIT      DATA TYPE    INFORMATION
#----------   ------------   ------------------------------
 STRT.F           29.0000:   START DEPTH
 STOP.F          642.0000:   STOP DEPTH
 STEP.F            0.5000:   STEP LENGTH
 NULL.          -999.2500:   NO VALUE
 COMP. FENIX & SCISSON INC:   COMPANY
 WELL.    NPR-3 SX #21-10:   WELL
 FLD .  TEAPOT DOME NPR 3:   FIELD
 LOC .      S10 T38N R78W:   LOCATION
 CNTY.            NATRONA:   COUNTY
 STAT.            WYOMING:   STATE
 CTRY. UNITED STATES OF AMERICA:   COUNTRY
 SRVC.            Unknown:   SERVICE COMPANY
 DATE.        03-JUL-1978:   LOGDATE
 API .       490251065400:   API NUMBER
~CURVE INFORMATION
#MNEM.UNIT       API CODE    CURVE DESCRIPTION
#----------   ------------   ------------------------------
 DEPT.F                  :   
 SPR .MV     05 010 01 00:   SPONTANEOUS POTENTIAL FROM RES.
 SN  .OHMM   05 040 16 00:   SHORT NORMAL 16"
 ILD .OHMM   05 120 46 00:   INDUCTION LOG DEEP
 CALD.IN     45 280 60 00:   CALIPER FROM DENSITY
 GRD .GAPI   45 310 01 00:   GAMMA RAY FROM DENSITY LOG
 CORR.G/C3   45 356 01 00:   DENSITY CORRECTION
 DPHI.DEC    45 890 12 00:   DENSITY POROSITY SANDSTONE
 DEN .G/C3   45 350 01 00:   COMPENSATED BULK DENSTIY
~PARAMETER INFORMATION
#MNEM.UNIT          VALUE    DESCRIPTION
#----------   ------------   ------------------------------
 PD  .                 GL:   PERMANENT DATUM
 EPD .F              5253:   ELEVATION PERMANENT DATUM
 LMF .                 KB:   LOG MEASURED FROM
 DAPD.F                 4:   FEET ABOVE PERMANENT DATUM
 DMF .                 KB:   DRILLING MEASURED FROM
 EKB .F              5257:   KELLING BUSHING
 EGL .F              5253:   GROUND LEVEL
 DATE.           7-3-1978:   RUN DATE
 RUN .                  1:   RUN NUMBER
 DD  .F               650:   DEPTH DRILLER
 DL  .F               648:   DEPTH LOGGER
 BLI .F               642:   BOTTOM LOG INTERVAL
 TLI .F                40:   TOP LOG INTERVAL
 CS  .IN            8.625:   CASING SIZE
 CBD .F                40:   CASING BOTTOM DRILLER
 CBL .F                40:   CASING BOTTOM LOGGER
 BS  .IN            7.875:   BIT SIZE
 BSD .F               650:   BIT SIZE AT DEPTH
 DFT .                KCL:   DRILLING FLUID TYPE
 DFD .                8.6:   DRILLING FLUID DENSITY
 DFV .                 32:   DRILLING FLUID VISCOSITY
 DFPH.                  9:   DRILLING FLUID PH
 MSS .           FLOWLINE:   MUD SAMPLE SOURCE
 RMS .OHMM            .24:   RESISTIVITY MUD SAMPLE
 MST .F                88:   MUD SAMPLE TEMPERATURE
 RMF .OHMM            .24:   RESISTIVITY MUD FILTRATE SAMPLE
 MFST.F                94:   MUD FILTRATE SAMPLE TEMPERATURE
 RMC .OHMM            .46:   RESISTIVITY MUD CAKE
 MCST.F                96:   MUD CAKE SAMPLE TEMPERATURE
 MFSS.               MEAS:   MUD FILTRATE SAMPLE SOURCE
 MCSS.               MEAS:   MUD CAKE SAMPLE SOURCE
 TCS .HRS               2:   TIME CURCULATED STOPPED
 LUN .               2958:   LOGGING UNIT NUMBER
 LUL .               CASP:   LOGGING UNIT LOCATION
 CLNT.            A2DTECH:   CLIENT CODE
 ORIG.           5" PRINT:   ORIGIN OF DATA
 UWI .       490251065400:   UNIQUE WELL ID
 DICO. A2D Technologies, Inc.:   DIGITIZING COMPANY
~OTHER INFORMATION
~A   DEPT      SPR         SN        ILD       CALD        GRD       CORR       DPHI        DEN   
# ...
  191.0000   -17.0151     9.0149     9.1742     8.1886   111.6519     0.0072     0.1358     2.4551
  191.5000   -17.4424     9.0249     8.9881     8.1587   111.7994    -0.0005     0.1343     2.4783
  192.0000   -17.4226     8.9689     8.9269     8.1587   111.0345    -0.0048     0.1508     2.4773
  192.5000   -17.5483     8.9788     8.7621     8.1587   108.8496    -0.0080     0.1483     2.4574
  193.0000   -17.5292     8.9231     8.7680     8.1587   109.9135    -0.0093     0.1448     2.4505
  193.5000   -17.6637     8.9329     8.7739     8.1587   111.4219    -0.0048     0.1545     2.4628
  194.0000   -17.7934     8.9408     8.7798     8.1587   112.1219     0.0026     0.1589     2.4445
  194.5000   -17.9183     8.8873     8.7857     8.1737   112.5369     0.0115     0.1407     2.4392
  195.0000   -17.8992     8.8952     8.7298     8.1886   112.6844     0.0175     0.1359     2.4736
  195.5000   -18.0337     8.8420     8.7372     8.2036   112.6844     0.0175     0.1263     2.4930
  196.0000   -18.0099     8.8498     8.7431     8.2036   112.6844     0.0129     0.1197     2.5035
  196.5000   -18.1444     8.8576     8.7490     8.2036   112.5369     0.0099     0.1275     2.4885
  197.0000   -18.1205     8.8654     8.7550     8.2036   108.7021     0.0069     0.1197     2.4945
  197.5000   -18.1014     8.8732     8.7622     8.2036   105.4572     0.0069     0.1215     2.5019
  198.0000   -18.2359     8.8811     8.7681     8.2036   112.2419     0.0068     0.1344     2.4810
  198.5000   -18.3616     8.8891     8.7740     8.2186   114.3068     0.0068     0.1359     2.4810
  199.0000   -18.3418     8.8986     8.7799     8.2335   114.7493     0.0053     0.1362     2.4757
  199.5000   -18.3227     8.9064     8.8464     8.2485   114.7493     0.0008     0.1344     2.4720
  200.0000   -18.4524     8.9172     8.9750     8.2635   115.2213    -0.0026     0.1323     2.4754
  200.5000   -18.5116     8.9804     8.9810     8.2338   115.6359    -0.0053     0.1338     2.4824
  201.0000   -18.7015     8.9240     8.9871     8.2341   116.0799    -0.0053     0.1491     2.4644
  201.5000   -18.8270     8.6873     9.0552     8.2344   121.8336    -0.0053     0.1458     2.4540
  202.0000   -18.8036     8.6329     9.0613     8.2347   122.2771    -0.0039     0.1396     2.4554
  202.5000   -18.7798     8.5135     9.0676     8.2500   121.2465    -0.0024     0.1432     2.4704
  203.0000   -18.7513     8.4101     9.0750     8.2503   117.5607     0.0006     0.1480     2.4719
  203.5000   -18.8769     8.3575     9.0811     8.2656   117.1193    -0.0025     0.1414     2.4487
  204.0000   -18.8536     8.2471     8.8391     8.2659   117.2686    -0.0055     0.1357     2.4644
  204.5000   -18.8303     8.1955     8.5474     8.2662   118.3025    -0.0070     0.1390     2.4763
  205.0000   -18.9616     8.0884     8.3785     8.2665   122.8763    -0.0070     0.1519     2.4494
  205.5000   -19.0872     8.0378     8.2129     8.2651   123.0249    -0.0056     0.1390     2.4463
  206.0000   -19.2127     7.8256     7.9337     8.2521   118.3069    -0.0041     0.1378     2.4703
  206.5000   -19.1836     7.7234     7.6781     8.2504   112.4087    -0.0026     0.1543     2.4688
  207.0000   -19.3095     7.6224     7.5251     8.2377   112.1148    -0.0057     0.1528     2.4486
  207.5000   -19.2857     7.4201     7.3776     8.2530   113.8866     0.0003     0.1504     2.4426
  208.0000   -19.4266     7.4247     7.3307     8.2383   116.5429     0.0003     0.1504     2.4530
  208.5000   -19.6857     7.4302     7.3369     8.2386   121.1166    -0.0042     0.1514     2.4567
  209.0000   -19.6566     7.5377     7.4949     8.2389   122.5930    -0.0073     0.1529     2.4537
  209.5000   -19.6333     7.6467     7.5517     8.2392   122.7420    -0.0058     0.1532     2.4492
  210.0000   -19.6100     7.8109     7.7143     8.2396   123.1859    -0.0058     0.1517     2.4553
  210.5000   -19.5867     7.9239     7.9349     8.2548   123.6295    -0.0014     0.1460     2.4612
  211.0000   -19.5634     8.0940     8.1648     8.2551   121.4190     0.0001     0.1433     2.4585
  211.5000   -19.5401     8.2678     8.3461     8.2554   119.6501     0.0001     0.1385     2.4522
  212.0000   -19.5168     8.4453     8.4601     8.2557   120.7394     0.0000     0.1376     2.4731
  212.5000   -19.4936     8.5087     8.4658     8.2410   117.1461     0.0000     0.1397     2.4754
  213.0000   -19.4702     8.3972     8.4120     8.2263   112.4278     0.0000     0.1425     2.4775
  213.5000   -19.4464     8.3450     8.3026     8.2267   111.2119    -0.0031     0.1428     2.4654
  214.0000   -19.4179     8.2928     8.2512     8.2270   116.1180    -0.0031     0.1377     2.4617
  214.5000   -19.3946     8.2991     8.2582     8.2423   118.0369    -0.0016     0.1365     2.4693
  215.0000   -19.3713     8.3041     8.2057     8.2426   117.4484    -0.0001     0.1398     2.4715
  215.5000   -19.3480     8.3092     8.2126     8.2429   114.7950    -0.0002     0.1422     2.4640
  216.0000   -19.4794     8.3142     8.2748     8.2581   115.9764     0.0043     0.1440     2.4655
  216.5000   -19.4503     8.3192     8.2851     8.2584   117.3053     0.0057     0.1356     2.4789
  217.0000   -19.4270     8.3243     8.5174     8.2587   117.1455     0.0057     0.1365     2.4707
  217.5000   -19.4037     8.3293     8.7621     8.2440   111.5167     0.0042     0.1324     2.4669
  218.0000   -19.3804     8.2772     9.0126     8.2293   108.3127    -0.0048     0.1294     2.4856
  218.5000   -19.3571     8.2822     9.0186     8.2146   108.4941    -0.0063     0.1417     2.4826
  219.0000   -19.3333     8.2874     8.9621     8.2150   109.8181    -0.0064     0.1399     2.4669
  219.5000   -19.3095     8.2925     8.7842     8.2153   111.0054    -0.0094     0.1333     2.4721
  220.0000   -19.2814     8.2404     8.7916     8.2156   112.2321    -0.0079     0.1399     2.4788
  220.5000   -19.4128     8.2467     9.0429     8.2159   115.6150    -0.0065     0.1438     2.4706
  221.0000   -19.5383     8.1938     8.9868     8.2162   115.9911    -0.0035     0.1426     2.4721
  221.5000   -19.6638     8.2000     8.8085     8.2165   115.9926    -0.0005     0.1381     2.4638
  222.0000   -19.6347     8.2050     8.6886     8.2168   114.0770    -0.0006     0.1369     2.4698
  222.5000   -19.6114     8.2100     8.6410     8.2171   112.1610    -0.0006     0.1387     2.4720
  223.0000   -19.5882     8.2150     8.7681     8.2174   111.8672    -0.0006     0.1390     2.4698
  223.5000   -19.5649     8.2199     8.8345     8.2177   111.8690    -0.0007     0.1387     2.4720
  224.0000   -19.5416     8.2249     8.8405     8.2180   111.8705    -0.0007     0.1391     2.4757
  224.5000   -19.5179     8.2300     8.8464     8.2183   111.4295    -0.0007     0.1406     2.4697
  225.0000   -19.4940     8.2351     8.7902     8.2186   111.2831    -0.0022     0.1418     2.4690
  225.5000   -19.4659     8.1834     8.7976     8.2339   111.7274    -0.0068     0.1424     2.4742
  226.0000   -19.4426     8.1896     8.7429     8.2491   113.0563    -0.0083     0.1412     2.4644
  226.5000   -19.4193     8.1945     8.8094     8.2344   112.4678    -0.0068     0.1382     2.4704
  227.0000   -19.3961     8.2561     8.8153     8.2197   109.0769    -0.0039     0.1406     2.4749
  227.5000   -19.3728     8.2611     8.6411     8.2201   109.5209    -0.0009     0.1391     2.4726
  228.0000   -19.3495     8.2661     8.5302     8.2054   115.2745    -0.0009     0.1358     2.4689
  228.5000   -19.3262     8.2711     8.4179     8.1908   115.4235    -0.0084     0.1343     2.4733
  229.0000   -19.3029     8.2761     8.3672     8.1761   112.3276    -0.0129     0.1335     2.4778
  229.5000   -19.2796     8.2811     8.3728     8.1764   108.9368    -0.0115     0.1448     2.4800
  230.0000   -19.2560     8.2862     8.3785     8.1767   109.3807    -0.0070     0.1392     2.4621
  230.5000   -19.2321     8.2913     8.3252     8.1919   111.2996    -0.0071     0.1389     2.4658
  231.0000   -19.2039     8.2974     8.3322     8.1922   114.2509    -0.0146     0.1305     2.4867
