~VERSION INFORMATION
 VERS.                2.0:   CWLS LOG ASCII STANDARD - VERSION 2.0
 WRAP.                 NO:   ONE LINE PER DEPTH STEP
~WELL INFORMATION
#MNEM.UNIT      DATA TYPE    INFORMATION
#----------   ------------   ------------------------------
 STRT.F           80.0000:   START DEPTH
 STOP.F          739.0000:   STOP DEPTH
 STEP.F            0.5000:   STEP LENGTH
 NULL.          -999.2500:   NO VALUE
 COMP. U S NAVY-INTEX OIL:   COMPANY
 WELL.        NPR #36-S-2:   WELL
 FLD .             TEAPOT:   FIELD
 LOC .       S2 T38N R78W:   LOCATION
 CNTY.            NATRONA:   COUNTY
 STAT.            WYOMING:   STATE
 CTRY. UNITED STATES OF AMERICA:   COUNTRY
 SRVC.       Schlumberger:   SERVICE COMPANY
 DATE.        23-JUN-1962:   LOGDATE
 API .       490250641800:   API NUMBER
~CURVE INFORMATION
#MNEM.UNIT       API CODE    CURVE DESCRIPTION
#----------   ------------   ------------------------------
 DEPT.F                  :   
 ASN .OHMM   05 041 16 00:   AMPLIFIED SHORT NORMAL 16"
 ILD .OHMM   05 120 46 00:   INDUCTION LOG DEEP
 CILD.MMHO   05 110 46 00:   CONDUCTIVITY INDUCTION LOG DEEP
 SPR .MV     05 010 01 00:   SPONTANEOUS POTENTIAL FROM RES.
 GR  .GAPI   30 310 01 00:   GAMMA RAY
~PARAMETER INFORMATION
#MNEM.UNIT          VALUE    DESCRIPTION
#----------   ------------   ------------------------------
 PD  .                 KB:   PERMANENT DATUM
 EPD .F              5143:   ELEVATION PERMANENT DATUM
 EKB .F              5143:   KELLING BUSHING
 EGL .F              5138:   GROUND LEVEL
 DATE.        23-JUN-1962:   RUN DATE
 RUN .                  1:   RUN NUMBER
 DD  .F               738:   DEPTH DRILLER
 DL  .F               740:   DEPTH LOGGER
 BLI .F               739:   BOTTOM LOG INTERVAL
 TLI .F                80:   TOP LOG INTERVAL
 BS  .IN             6.75:   BIT SIZE
 BSD .F               738:   BIT SIZE AT DEPTH
 DFT .       OIL EMULSION:   DRILLING FLUID TYPE
 DFD .               10.0:   DRILLING FLUID DENSITY
 DFV .                 53:   DRILLING FLUID VISCOSITY
 DFL .                3.8:   DRILLING FLUID LOSS
 RMS .OHMM            3.9:   RESISTIVITY MUD SAMPLE
 MST .F                66:   MUD SAMPLE TEMPERATURE
 RMF .OHMM            2.9:   RESISTIVITY MUD FILTRATE SAMPLE
 MFST.F                66:   MUD FILTRATE SAMPLE TEMPERATURE
 RMC .OHMM            4.4:   RESISTIVITY MUD CAKE
 MCST.F                66:   MUD CAKE SAMPLE TEMPERATURE
 TCS .HRS               1:   TIME CURCULATED STOPPED
 LUN .               2503:   LOGGING UNIT NUMBER
 LUL .               CSPR:   LOGGING UNIT LOCATION
 ENGI.             DANNER:   RECORDING ENGINEER
 WITN.          JORGENSON:   WITNESSED BY
 CLNT.            A2DTECH:   CLIENT CODE
 ORIG.           5" PRINT:   ORIGIN OF DATA
 UWI .       490250641800:   UNIQUE WELL ID
 DICO. A2D Technologies, Inc.:   DIGITIZING COMPANY
~OTHER INFORMATION
~A   DEPT        ASN        ILD      CILD       SPR         GR   
# ...
  263.0000     8.3751     8.3170   127.6276   -47.4577  -999.2500
  263.5000     9.0062     8.5445   129.8799   -47.6010  -999.2500
  264.0000     8.5862     8.6964   133.6336   -47.5935  -999.2500
  264.5000     8.2714     8.2487   138.1381   -47.8860  -999.2500
  265.0000     8.0616     7.7255   142.0422   -48.3278  -999.2500
  265.5000     7.8969     7.5770   145.7757   -48.4725  -999.2500
  266.0000     7.8071     7.5799   147.1471   -47.7188  -999.2500
  266.5000     7.7926     7.6572   145.4653   -47.7128  -999.2500
  267.0000     7.8382     7.8096   141.0016   -47.7068  -999.2500
  267.5000     7.9287     8.0371   138.1381   -47.5515  -999.2500
  268.0000     8.0643     8.1145   137.3874   -46.6515  -999.2500
  268.5000     8.1849     8.1918   136.6366   -47.3918  -999.2500
  269.0000     8.2604     8.1941   136.6366   -47.3843  -999.2500
  269.5000     8.2609     8.1207   136.6366   -47.6768  -999.2500
  270.0000     8.0511     8.0479   138.1381   -47.5216  -999.2500
  270.5000     7.8113     7.9006   139.6396   -46.7693  -999.2500
  271.0000     7.5715     7.6776   141.8919   -46.6141  -999.2500
  271.5000     7.4068     7.6042   146.3964   -46.7589  -999.2500
  272.0000     7.3321     7.5314   149.3994   -47.1991  -999.2500
  272.5000     7.2726     7.4586   151.6517   -47.9394  -999.2500
  273.0000     7.2579     7.3858   153.9039   -48.0842  -999.2500
  273.5000     7.2434     7.3881   155.4054   -47.7782  -999.2500
  274.0000     7.2439     7.3904   156.9069   -47.3244  -999.2500
  274.5000     7.2443     7.4677   157.6577   -47.4677  -999.2500
  275.0000     7.2447     7.4700   157.6577   -47.6124  -999.2500
  275.5000     7.2602     7.3972   158.4084   -47.9035  -999.2500
  276.0000     7.2156     7.3994   159.1592   -48.0482  -999.2500
  276.5000     7.1396     7.2515   159.9099   -47.2945  -999.2500
  277.0000     7.0642     7.1786   160.6607   -46.9900  -999.2500
  277.5000     6.9760     7.1058   160.6607   -46.9840  -999.2500
  278.0000     6.9321     7.1082   160.6607   -47.2765  -999.2500
  278.5000     6.9476     7.1105   159.1592   -47.8690  -999.2500
  279.0000     6.9931     7.1127   157.6577   -47.8615  -999.2500
  279.5000     7.0987     7.1901   155.4054   -46.8108  -999.2500
  280.0000     7.2192     7.3425   153.1532   -46.6269  -999.2500
  280.5000     7.3848     7.4198   150.1501   -46.3244  -999.2500
  281.0000     7.5204     7.6473   147.1471   -46.0477  -999.2500
  281.5000     7.6110     7.7247   144.1441   -46.0418  -999.2500
  282.0000     7.6264     7.8020   141.1411   -46.0358  -999.2500
  282.5000     7.6269     7.8043   139.6396   -45.7313  -999.2500
  283.0000     7.7024     7.8065   138.8889   -45.7254  -999.2500
  283.5000     7.8080     7.8088   138.8889   -46.0181  -999.2500
  284.0000     7.8685     7.8111   138.8889   -46.0120  -999.2500
  284.5000     7.8539     7.8134   139.6396   -46.0060  -999.2500
  285.0000     7.7793     7.7405   139.6396   -46.0000  -999.2500
  285.5000     7.7047     7.7428   139.7196   -46.1593  -999.2500
  286.0000     7.7051     7.7451   141.9521   -46.7344  -999.2500
  286.5000     7.7206     7.7473   144.2242   -46.5791  -999.2500
  287.0000     7.6910     7.6740   147.1875   -46.5732  -999.2500
  287.5000     7.4963     7.5261   150.1501   -46.4179  -999.2500
  288.0000     7.4367     7.4533   153.1532   -47.1582  -999.2500
  288.5000     7.4220     7.3805   154.6546   -46.8537  -999.2500
  289.0000     7.3925     7.3077   154.6546   -46.5492  -999.2500
  289.5000     7.3629     7.3105   153.9039   -46.3940  -999.2500
  290.0000     7.3634     7.3123   152.4024   -46.3880  -999.2500
  290.5000     7.3639     7.3146   150.1501   -46.2327  -999.2500
  291.0000     7.4694     7.4029   146.3964   -46.0775  -999.2500
  291.5000     7.6651     7.6284   141.8919   -45.9222  -999.2500
  292.0000     7.9058     7.8538   136.6366   -45.9162  -999.2500
  292.5000     8.1765     8.0843   130.6306   -45.9102  -999.2500
  293.0000     8.3872     8.3799   124.6246   -46.0537  -999.2500
  293.5000     8.6429     8.6794   121.6216   -46.4955  -999.2500
  294.0000     8.7634     8.8318   120.8709   -47.0866  -999.2500
  294.5000     8.8089     8.8341   122.3724   -47.8266  -999.2500
  295.0000     8.7644     8.7613   124.6246   -47.8206  -999.2500
  295.5000     8.4345     8.6884   128.3784   -47.2176  -999.2500
  296.0000     8.2256     8.5405   131.3814   -47.0623  -999.2500
  296.5000     8.0075     8.2426   135.1351   -47.5056  -999.2500
  297.0000     7.8288     8.0196   139.6396   -47.0504  -999.2500
  297.5000     7.6687     7.7966   143.3934   -46.7459  -999.2500
  298.0000     7.5301     7.6488   147.8979   -46.7399  -999.2500
  298.5000     7.4000     7.5754   151.6517   -46.8831  -999.2500
  299.0000     7.3558     7.5026   154.6546   -47.0279  -999.2500
  299.5000     7.3269     7.4298   156.1562   -47.6174  -999.2500
  300.0000     7.3123     7.4476   154.3908   -47.9114  -999.2500
  300.5000     7.4133     7.5396   151.2500   -47.3864  -999.2500
  301.0000     7.5228     7.6317   148.1092   -47.0118  -999.2500
  301.5000     7.7182     7.7238   144.9684   -46.8611  -999.2500
  302.0000     7.8385     7.8138   143.4832   -46.8596  -999.2500
  302.5000     7.8686     7.8153   141.9545   -46.8581  -999.2500
  303.0000     7.8237     7.8168   140.4652   -46.7073  -999.2500
  303.5000     7.8088     7.8183   138.2953   -46.7059  -999.2500
  304.0000     7.9592     7.8949   137.4874   -46.8536  -999.2500
  304.5000     7.9893     7.9718   135.9988   -46.8521  -999.2500
  305.0000     7.9594     8.0483   133.8581   -46.8506  -999.2500
  305.5000     7.9746     8.1249   133.1298   -46.6999  -999.2500
  306.0000     8.0949     8.1264   132.4015   -46.9973  -999.2500
  306.5000     8.2002     8.2030   131.6732   -47.5928  -999.2500
  307.0000     8.2904     8.3546   130.9449   -47.5909  -999.2500
  307.5000     8.3506     8.4312   130.2166   -47.5894  -999.2500
  308.0000     8.3808     8.5828   130.2447   -48.0357  -999.2500
  308.5000     8.3960     8.6594   130.2671   -48.1838  -999.2500
  309.0000     8.3961     8.5858   131.0403   -47.4357  -999.2500
  309.5000     8.3812     8.3621   133.3150   -46.9865  -999.2500
  310.0000     8.2613     8.1380   134.8389   -46.8357  -999.2500
  310.5000     8.0512     7.8392   137.1137   -47.4312  -999.2500
  311.0000     7.8712     7.8410   140.1391   -47.8779  -999.2500
  311.5000     7.7212     7.8425   141.6631   -47.8760  -999.2500
  312.0000     7.6012     7.7686   143.1870   -47.7253  -999.2500
  312.5000     7.6164     7.7704   145.4617   -47.5745  -999.2500
  313.0000     7.6616     7.6965   146.2349   -47.2745  -999.2500
  313.5000     7.7218     7.6229   146.2573   -46.8253  -999.2500
  314.0000     7.7520     7.5493   146.2798   -46.3760  -999.2500
  314.5000     7.7521     7.5512   146.3022   -46.2253  -999.2500
  315.0000     7.7372     7.6277   146.3247   -46.3734  -999.2500
  315.5000     7.6924     7.7794   146.3471   -46.5212  -999.2500
  316.0000     7.6174     7.8560   145.6132   -46.3701  -999.2500
  316.5000     7.7377     7.8574   144.8849   -46.0701  -999.2500
  317.0000     7.7379     7.8589   144.1566   -46.3675  -999.2500
  317.5000     7.7230     7.8604   143.4283   -46.9626  -999.2500
  318.0000     7.7231     7.8619   143.4564   -47.1107  -999.2500
  318.5000     7.7233     7.8634   141.9773   -47.1089  -999.2500
  319.0000     7.7234     7.8649   141.2434   -47.1074  -999.2500
  319.5000     7.7386     7.8664   140.5151   -47.1059  -999.2500
  320.0000     7.7838     7.8679   139.0360   -46.9552  -999.2500
  320.5000     7.8290     7.8694   139.0641   -46.6552  -999.2500
  321.0000     7.8442     8.0210   138.3302   -46.6537  -999.2500
  321.5000     7.8743     8.0976   137.6019   -46.6522  -999.2500
  322.0000     7.9496     8.1011   136.8792   -46.9492  -999.2500
  322.5000     8.0248     8.1757   136.1453   -47.1243  -999.2500
  323.0000     8.0850     8.1771   134.6718   -46.6477  -999.2500
  323.5000     8.0851     8.2610   134.6943   -46.6462  -999.2500
