~VERSION INFORMATION
 VERS.                2.0:   CWLS LOG ASCII STANDARD - VERSION 2.0
 WRAP.                 NO:   ONE LINE PER DEPTH STEP
~WELL INFORMATION
#MNEM.UNIT      DATA TYPE    INFORMATION
#----------   ------------   ------------------------------
 STRT.F           12.5000:   START DEPTH
 STOP.F          688.0000:   STOP DEPTH
 STEP.F            0.5000:   STEP LENGTH
 NULL.          -999.2500:   NO VALUE
 COMP. FENIX & SCISSON INC:   COMPANY
 WELL. 26-66 SX 11 WO #26-11:   WELL
 FLD .             TEAPOT:   FIELD
 LOC .      S11 T38N R78W:   LOCATION
 CNTY.            NATRONA:   COUNTY
 STAT.            WYOMING:   STATE
 CTRY. UNITED STATES OF AMERICA:   COUNTRY
 SRVC.      Dresser Atlas:   SERVICE COMPANY
 DATE.        28-AUG-1980:   LOGDATE
 API .       490251084700:   API NUMBER
~CURVE INFORMATION
#MNEM.UNIT       API CODE    CURVE DESCRIPTION
#----------   ------------   ------------------------------
 DEPT.F                  :   
 SFL .OHMM   07 220 01 00:   SHALLOW FOCUSED LOG RESISTIVITY
 ILD .OHMM   07 120 46 00:   INDUCTION LOG DEEP
 ILM .OHMM   07 120 44 00:   INDUCTION LOG MEDIUM
 SPR .MV     07 010 01 00:   SPONTANEOUS POTENTIAL
 CORR.G/C3   45 356 01 00:   DENSITY CORRECTION
 RHOB.G/C3   45 350 01 00:   BULK DENSITY
 DPOR.DEC    45 890 12 00:   DENSITY POROSITY SANDSTONE
 NPOR.DEC    42 890 03 00:   NEUTRON POROSITY SANDSTONE
 GRD .GAPI   45 310 01 00:   GAMMA RAY FROM DENSITY LOG
~PARAMETER INFORMATION
#MNEM.UNIT          VALUE    DESCRIPTION
#----------   ------------   ------------------------------
 PD  .                 GL:   PERMANENT DATUM
 EPD .F              5194:   ELEVATION PERMANENT DATUM
 LMF .                 KB:   LOG MEASURED FROM
 DAPD.F                 5:   FEET ABOVE PERMANENT DATUM
 DMF .                 KB:   DRILLING MEASURED FROM
 EKB .F              5199:   KELLING BUSHING
 EGL .F              5194:   GROUND LEVEL
 DATE.          8-28-1980:   RUN DATE
 RUN .                  1:   RUN NUMBER
 DD  .F               700:   DEPTH DRILLER
 DL  .F               689:   DEPTH LOGGER
 BLI .F               688:   BOTTOM LOG INTERVAL
 TLI .F                14:   TOP LOG INTERVAL
 BS  .IN             8.75:   BIT SIZE
 BSD .F               700:   BIT SIZE AT DEPTH
 DFT .                KCL:   DRILLING FLUID TYPE
 DFD .                8.8:   DRILLING FLUID DENSITY
 DFV .                 55:   DRILLING FLUID VISCOSITY
 DFPH.                 11:   DRILLING FLUID PH
 DFL .                  8:   DRILLING FLUID LOSS
 MSS .           FLOWLINE:   MUD SAMPLE SOURCE
 RMS .OHMM            .72:   RESISTIVITY MUD SAMPLE
 MST .F                66:   MUD SAMPLE TEMPERATURE
 RMF .OHMM            .21:   RESISTIVITY MUD FILTRATE SAMPLE
 MFST.F                66:   MUD FILTRATE SAMPLE TEMPERATURE
 RMC .OHMM           1.24:   RESISTIVITY MUD CAKE
 MCST.F                66:   MUD CAKE SAMPLE TEMPERATURE
 MFSS.               MEAS:   MUD FILTRATE SAMPLE SOURCE
 MCSS.               MEAS:   MUD CAKE SAMPLE SOURCE
 BHT .F               100:   BOTTOM HOLE TEMPERATURE
 TCS .HRS               2:   TIME CURCULATED STOPPED
 MRT .F               100:   MAXIMUM RECORDED TEMPERATURE
 LUN .               6240:   LOGGING UNIT NUMBER
 LUL .               RYTN:   LOGGING UNIT LOCATION
 ENGI.           J. GETTY:   RECORDING ENGINEER
 WITN.              FIVAS:   WITNESSED BY
 CLNT.            A2DTECH:   CLIENT CODE
 ORIG.      1" 2.5" PRINT:   ORIGIN OF DATA
 UWI .       490251084700:   UNIQUE WELL ID
 DICO. A2D Technologies, Inc.:   DIGITIZING COMPANY
~OTHER INFORMATION
~A   DEPT      SFL        ILD        ILM        SPR       CORR       RHOB       DPOR         NPOR      GRD   
# ...
  231.5000    10.1891     8.8512     9.1881   -69.4675     0.0196     2.4207     0.1506     0.2911   131.6000
  232.0000    10.1066     8.7366     9.1180   -69.4941     0.0111     2.4132     0.1562     0.2864   130.8971
  232.5000    10.0750     8.5671     8.9139   -69.6240     0.0046     2.4176     0.1562     0.2904   131.4078
  233.0000    10.0750     8.4008     8.7144   -69.7524     0.0240     2.4367     0.1490     0.3054   135.5634
  233.5000    10.0750     8.2376     8.5194   -69.8825     0.0489     2.4659     0.1187     0.3114   139.1170
  234.0000    10.0710     8.0776     8.3287   -70.0129     0.0591     2.4950     0.0972     0.3131   142.8794
  234.5000    10.0781     7.9209     8.1423   -70.1427     0.0525     2.5125     0.1027     0.3136   142.3113
  235.0000     9.5292     7.7674     7.9600   -70.2732     0.0483     2.5025     0.1099     0.3147   139.7267
  235.5000     9.0414     7.6168     7.7734   -70.4030     0.0484     2.4933     0.1119     0.3207   137.2626
  236.0000     8.5786     7.4693     7.6838   -70.5316     0.0481     2.4834     0.1173     0.3270   138.1422
  236.5000     8.0612     7.3373     7.5901   -70.6626     0.0482     2.4731     0.1227     0.3321   140.3153
  237.0000     8.0720     7.2602     7.4976   -70.6682     0.0487     2.4715     0.1190     0.3259   140.9350
  237.5000     8.0610     7.1839     7.3541   -70.6285     0.0499     2.4855     0.1093     0.3194   141.0726
  238.0000     8.0661     7.1084     7.4168   -70.5883     0.0509     2.4989     0.1051     0.3033   141.3241
  238.5000     8.0661     7.0338     7.5902   -70.5498     0.0520     2.4990     0.1089     0.2910   140.1429
  239.0000     8.4285     6.9598     7.7678   -70.5110     0.0508     2.4929     0.1126     0.2789   134.6759
  239.5000     9.2272     6.8867     7.9498   -70.4719     0.0493     2.4865     0.1165     0.2876   130.6133
  240.0000    10.2634     6.8144     8.1359   -70.4329     0.0476     2.4818     0.1331     0.2988   129.4977
  240.5000    10.0098     8.0746     8.3263   -70.3940     0.0464     2.4543     0.1307     0.3036   130.3914
  241.0000     9.5301     8.2170     8.3704   -70.3549     0.0448     2.4667     0.1185     0.2908   130.4033
  241.5000     9.4985     8.2170     8.3705   -70.3158     0.0582     2.4918     0.1041     0.2892   127.1622
  242.0000     9.4690     8.2170     8.3706   -70.2768     0.0789     2.5176     0.0900     0.2900   124.2362
  242.5000     9.4396     8.2170     8.3707   -70.2377     0.0736     2.5256     0.0947     0.2892   123.8159
  243.0000     9.4104     8.2170     8.3708   -70.1986     0.0569     2.5002     0.1114     0.2852   123.6339
  243.5000     9.3812     8.2170     8.3708   -70.1596     0.0413     2.4743     0.1299     0.2797   122.7797
  244.0000     9.3551     8.2170     8.3709   -70.1206     0.0290     2.4591     0.1248     0.2900   121.2234
  244.5000     9.1834     8.2170     8.3709   -70.0817     0.0341     2.4802     0.1187     0.2939   120.6318
  245.0000     9.5744     8.2170     8.3709   -70.0430     0.0360     2.4729     0.1239     0.2959   121.4405
  245.5000    10.2634     8.2170     8.3985   -70.0034     0.0273     2.4569     0.1315     0.3005   125.6174
  246.0000     9.7625     8.2170     8.4263   -69.9647     0.0143     2.4535     0.1315     0.3006   128.7819
  246.5000     9.1834     8.2170     8.4546   -69.9269     0.0187     2.4615     0.1235     0.3006   130.6092
  247.0000     9.1834     8.2170     8.4819   -69.8876     0.0372     2.4834     0.1106     0.3007   129.3471
  247.5000     9.1834     8.2170     8.5100   -69.9887     0.0551     2.5039     0.0968     0.3185   130.3881
  248.0000     9.1834     8.2702     8.5272   -70.1320     0.0568     2.5243     0.0877     0.3252   132.5336
  248.5000     9.1834     8.3430     8.6522   -70.2841     0.0610     2.5347     0.0821     0.3112   131.1024
  249.0000     9.1834     8.4164     8.7746   -70.4354     0.0591     2.5508     0.0765     0.2931   127.2445
  249.5000     9.1834     8.4905     8.8987   -70.5590     0.0555     2.5602     0.0707     0.2749   123.6385
  250.0000    10.0439     8.5652     9.0246   -70.6612     0.0487     2.5591     0.0698     0.2542   119.5536
  250.5000    11.9072     8.6406     9.1678   -69.9922     0.0414     2.5178     0.0963     0.2550   117.1406
  251.0000    14.8682     8.7166     9.1379   -69.4133     0.0327     2.4849     0.1367     0.2586   116.3546
  251.5000    13.8821     8.8319     9.0785   -69.0609     0.0303     2.4500     0.1349     0.2712   117.0023
  252.0000    11.3478     8.7961     9.0147   -69.1794     0.0273     2.4525     0.1327     0.3012   119.9270
  252.5000     9.0147     8.6066     8.8915   -69.2798     0.0255     2.4556     0.1305     0.3080   124.7718
  253.0000     8.5272     8.4212     8.7597   -69.3638     0.0207     2.4604     0.1291     0.3153   127.2472
  253.5000     8.7905     8.2399     8.6299   -69.4569     0.0222     2.4624     0.1291     0.3147   127.4386
  254.0000     9.0955     8.0661     8.5020   -69.5505     0.0239     2.4622     0.1291     0.3075   126.7529
  254.5000     9.4114     8.0577     8.3707   -69.6431     0.0238     2.4554     0.1334     0.2958   126.0645
  255.0000     9.5194     8.0494     8.3954   -69.7329     0.0173     2.4468     0.1385     0.2763   125.4181
  255.5000     9.4859     8.0412     8.4212   -69.8177     0.0108     2.4382     0.1434     0.2745   125.5198
  256.0000     9.4531     8.0329     8.4471   -70.0242     0.0059     2.4338     0.1443     0.3006   129.2500
  256.5000     9.4205     8.0247     8.4731   -70.3773     0.0035     2.4316     0.1450     0.3077   133.3441
  257.0000     9.3880     8.0165     8.4992   -70.7063     0.0075     2.4339     0.1450     0.3202   134.4251
  257.5000     9.3551     8.0083     8.5272   -71.0810     0.0159     2.4482     0.1347     0.3177   133.2004
  258.0000     9.6403     8.0001     8.5140   -70.9872     0.0262     2.4664     0.1227     0.3147   132.4731
  258.5000    10.0750     7.9919     8.4915   -70.8706     0.0362     2.4847     0.1107     0.3134   132.8913
  259.0000     9.5996     7.9837     8.4683   -70.7307     0.0398     2.4989     0.1068     0.3111   133.1195
  259.5000     9.3551     7.9755     8.4453   -70.8233     0.0321     2.4934     0.1114     0.3008   133.5677
  260.0000     9.4073     7.9674     8.4225   -71.2682     0.0240     2.4786     0.1210     0.2892   132.6388
  260.5000     9.6260     7.9592     8.3998   -71.7093     0.0199     2.4642     0.1299     0.2876   127.1848
  261.0000    10.0653     7.9511     8.3771   -71.9442     0.0202     2.4565     0.1298     0.2876   124.5457
  261.5000     9.4978     7.9429     8.3544   -71.9448     0.0294     2.4709     0.1204     0.2876   127.4641
  262.0000     9.3512     7.9347     8.3319   -71.6058     0.0405     2.4885     0.1099     0.3064   134.3194
  262.5000     9.3581     7.9269     8.3094   -70.6383     0.0515     2.5067     0.1003     0.3143   136.4576
  263.0000     9.3548     7.9185     8.2870   -69.9233     0.0474     2.4984     0.1075     0.3095   135.8566
  263.5000     9.3557     7.9182     8.2646   -70.0916     0.0433     2.4818     0.1177     0.2999   132.7040
  264.0000     9.3560     7.9180     8.2423   -70.2361     0.0386     2.4649     0.1289     0.2932   129.7251
  264.5000     9.6448     7.9180     8.2200   -70.7262     0.0336     2.4563     0.1298     0.2966   128.2251
  265.0000     9.8900     7.9180     8.1979   -71.3571     0.0345     2.4708     0.1212     0.3004   129.2087
  265.5000     9.6782     7.9180     8.1758   -71.9830     0.0388     2.4840     0.1135     0.3101   132.4412
  266.0000     9.5301     7.9180     8.1538   -72.6255     0.0436     2.4994     0.1052     0.3207   135.6918
  266.5000     9.8900     7.9181     8.1316   -72.4833     0.0352     2.4996     0.1052     0.3299   136.5042
  267.0000     9.7643     7.9182     8.1102   -71.8237     0.0240     2.4754     0.1252     0.3396   137.2805
  267.5000     9.5125     7.9180     8.0892   -71.1751     0.0123     2.4502     0.1428     0.3505   137.8154
