~VERSION INFORMATION
 VERS.                2.0:   CWLS LOG ASCII STANDARD - VERSION 2.0
 WRAP.                 NO:   ONE LINE PER DEPTH STEP
~WELL INFORMATION
#MNEM.UNIT      DATA TYPE    INFORMATION
#----------   ------------   ------------------------------
 STRT.F           95.0000:   START DEPTH
 STOP.F          862.0000:   STOP DEPTH
 STEP.F            0.5000:   STEP LENGTH
 NULL.          -999.2500:   NO VALUE
 COMP. U S NAVY INTEX OIL:   COMPANY
 WELL. RES 3 TEAMPT DOME #13-S-35:   WELL
 FLD .        TEAPOT DOME:   FIELD
 LOC .      S35 T39N R78W:   LOCATION
 CNTY.            NATRONA:   COUNTY
 STAT.            WYOMING:   STATE
 CTRY. UNITED STATES OF AMERICA:   COUNTRY
 SRVC.       Schlumberger:   SERVICE COMPANY
 DATE.        27-JUL-1963:   LOGDATE
 API .       490250655000:   API NUMBER
~CURVE INFORMATION
#MNEM.UNIT       API CODE    CURVE DESCRIPTION
#----------   ------------   ------------------------------
 DEPT.F                  :   
 SPR .MV     05 010 01 00:   SPONTANEOUS POTENTIAL FROM RES.
 ILD .OHMM   05 120 46 00:   INDUCTION LOG DEEP
 ASN .OHMM   05 041 18 00:   AMPLIFIED SHORT NORMAL 18"
 CILD.MMHO   05 110 46 00:   CONDUCTIVITY INDUCTION LOG DEEP
 GR  .GAPI   30 310 01 00:   GAMMA RAY
~PARAMETER INFORMATION
#MNEM.UNIT          VALUE    DESCRIPTION
#----------   ------------   ------------------------------
 PD  .                 GL:   PERMANENT DATUM
 EPD .F              5100:   ELEVATION PERMANENT DATUM
 LMF .                 KB:   LOG MEASURED FROM
 DAPD.F               5.0:   FEET ABOVE PERMANENT DATUM
 DMF .                 KB:   DRILLING MEASURED FROM
 EKB .F              5105:   KELLING BUSHING
 EGL .F              5100:   GROUND LEVEL
 DATE.        27-JUL-1963:   RUN DATE
 RUN .                  1:   RUN NUMBER
 DD  .F               862:   DEPTH DRILLER
 DL  .F               863:   DEPTH LOGGER
 BLI .F               862:   BOTTOM LOG INTERVAL
 TLI .F               100:   TOP LOG INTERVAL
 CS  .IN            8.625:   CASING SIZE
 CBD .F                10:   CASING BOTTOM DRILLER
 BS  .IN             6.75:   BIT SIZE
 BSD .F               862:   BIT SIZE AT DEPTH
 DFT . NATURAL- GEL ADDED:   DRILLING FLUID TYPE
 DFD .                9.0:   DRILLING FLUID DENSITY
 DFV .                 38:   DRILLING FLUID VISCOSITY
 DFPH.                8.5:   DRILLING FLUID PH
 DFL .                5.6:   DRILLING FLUID LOSS
 MSS .           FLOWLINE:   MUD SAMPLE SOURCE
 RMS .OHMM            4.6:   RESISTIVITY MUD SAMPLE
 MST .F                83:   MUD SAMPLE TEMPERATURE
 RMF .OHMM            3.8:   RESISTIVITY MUD FILTRATE SAMPLE
 MFST.F                83:   MUD FILTRATE SAMPLE TEMPERATURE
 RMC .OHMM            4.8:   RESISTIVITY MUD CAKE
 MCST.F                83:   MUD CAKE SAMPLE TEMPERATURE
 MFSS.                 FP:   MUD FILTRATE SAMPLE SOURCE
 MCSS.                 FP:   MUD CAKE SAMPLE SOURCE
 TCS .HRS               1:   TIME CURCULATED STOPPED
 LUN .               2523:   LOGGING UNIT NUMBER
 LUL .               CSPR:   LOGGING UNIT LOCATION
 ENGI.            GIFFORD:   RECORDING ENGINEER
 WITN.          JORGENSON:   WITNESSED BY
 CLNT.            A2DTECH:   CLIENT CODE
 ORIG.           5" PRINT:   ORIGIN OF DATA
 UWI .       490250655000:   UNIQUE WELL ID
 DICO. A2D Technologies, Inc.:   DIGITIZING COMPANY
~OTHER INFORMATION
~A   DEPT      SPR        ILD        ASN       CILD         GR   
# ...
  583.0000   -32.6817     9.9654    11.0548    99.5952  -999.2500
  583.5000   -32.8336     9.8139    10.9792   102.6054  -999.2500
  584.0000   -32.8351     9.6625    10.8287   103.3733  -999.2500
  584.5000   -32.9867     9.5865    10.7532   104.1231  -999.2500
  585.0000   -32.9881     9.5105    10.6027   104.8810  -999.2500
  585.5000   -33.4400     9.5098    10.4521   105.6390  -999.2500
  586.0000   -33.8919     9.5090    10.3765   105.6461  -999.2500
  586.5000   -34.1940     9.5081    10.3010   105.6533  -999.2500
  587.0000   -34.1954     9.5829    10.3004   105.6606  -999.2500
  587.5000   -34.0464     9.5820    10.2998   105.6695  -999.2500
  588.0000   -33.4476     9.5060    10.2993   105.6767  -999.2500
  588.5000   -32.8484     9.5052    10.2985   106.4346  -999.2500
  589.0000   -32.5496     9.4292    10.2980   107.1926  -999.2500
  589.5000   -32.8517     9.2777    10.2974   107.9505  -999.2500
  590.0000   -33.4537     9.2017    10.2968   108.7087  -999.2500
  590.5000   -33.7554     9.1257    10.2962   109.4682  -999.2500
  591.0000   -34.2073     8.9743    10.2957   110.2262  -999.2500
  591.5000   -34.5091     8.8983    10.2950   110.9841  -999.2500
  592.0000   -34.6607     8.8223    10.1445   111.7420  -999.2500
  592.5000   -34.5120     8.8214    10.1439   113.2507  -999.2500
  593.0000   -34.2135     8.8207    10.0683   113.2582  -999.2500
  593.5000   -33.7644     8.7446    10.0678   114.0177  -999.2500
  594.0000   -32.7148     8.6686     9.9921   114.7756  -999.2500
  594.5000   -31.9655     8.5173    10.3065   114.7828  -999.2500
  595.0000   -32.1171     8.3660    10.2608   114.7900  -999.2500
  595.5000   -33.0198     8.2145    10.1403   116.3566  -999.2500
  596.0000   -33.6219     8.0631     9.9898   118.5599  -999.2500
  596.5000   -34.2239     8.0624     9.7914   120.8193  -999.2500
  597.0000   -34.8259     8.0617     9.6437   122.3280  -999.2500
  597.5000   -34.9775     8.0610     9.7480   123.0860  -999.2500
  598.0000   -34.8288     7.9849     9.8376   123.0932  -999.2500
  598.5000   -33.1790     7.9840     9.5220   123.8513  -999.2500
  599.0000   -33.0299     7.9080     9.5364   123.8601  -999.2500
  599.5000   -33.7825     7.8320     9.6258   123.8673  -999.2500
  600.0000   -34.6844     8.0572     9.5598   123.1231  -999.2500
  600.5000   -33.3316     8.0565     9.4896   123.1231  -999.2500
  601.0000   -32.7296     7.9803     9.3691   123.8739  -999.2500
  601.5000   -33.6291     7.9796     9.2336   123.8739  -999.2500
  602.0000   -34.3784     7.9788     9.4278   123.8739  -999.2500
  602.5000   -34.2017     7.9028     9.3972   123.8739  -999.2500
  603.0000   -33.1739     7.9021     9.2167   123.1231  -999.2500
  603.5000   -32.5718     7.7507     9.1262   123.8739  -999.2500
  604.0000   -31.9698     7.3644     9.0808   126.8769  -999.2500
  604.5000   -32.1189     6.8455     9.1100   131.3814  -999.2500
  605.0000   -32.5675     6.5436     8.9236   138.1381  -999.2500
  605.5000   -33.4670     6.3169     8.6140   145.6456  -999.2500
  606.0000   -34.0861     6.2409     8.2536   153.2930  -999.2500
  606.5000   -34.3650     6.2402     7.9831   156.9069  -999.2500
  607.0000   -32.7115     6.2395     7.8027   157.6577  -999.2500
  607.5000   -30.6080     6.1634     7.7273   157.6577  -999.2500
  608.0000   -30.1564     6.2380     7.7577   156.9069  -999.2500
  608.5000   -31.8063     6.3124     7.6660   156.1562  -999.2500
  609.0000   -32.7157     6.3871     7.8901   153.9039  -999.2500
  609.5000   -33.6052     6.5368     8.1145   152.3120  -999.2500
  610.0000   -33.9037     6.5361     8.2340   147.8979  -999.2500
  610.5000   -33.7521     6.5354     8.2332   143.3934  -999.2500
  611.0000   -33.6005     6.7666     8.2327   143.3934  -999.2500
  611.5000   -33.2987     7.1362     8.2321   142.6426  -999.2500
  612.0000   -32.9970     7.3613     8.2647   142.6426  -999.2500
  612.5000   -32.6826     7.3606     8.4856   141.8919  -999.2500
  613.0000   -32.2430     7.2093     8.4401   140.3904  -999.2500
  613.5000   -32.0914     7.1332     8.3795   138.8889  -999.2500
  614.0000   -32.0899     7.0572     8.3190   137.3874  -999.2500
  614.5000   -32.2386     6.9812     8.3036   136.6366  -999.2500
  615.0000   -32.3873     6.9803     8.4528   135.1351  -999.2500
  615.5000   -32.3859     6.9795     8.6054   133.6336  -999.2500
  616.0000   -32.3844     7.1294     8.7513   132.8829  -999.2500
  616.5000   -32.3826     7.3546     8.8557   131.3814  -999.2500
  617.0000   -32.3812     7.5045     8.9301   130.6306  -999.2500
  617.5000   -32.5302     7.5037     8.9746   129.8799  -999.2500
  618.0000   -32.6789     7.5783     9.0489   129.8799  -999.2500
  618.5000   -32.6771     7.5774     9.0932   129.1291  -999.2500
  619.0000   -32.6757     7.5767     9.0927   129.8799  -999.2500
  619.5000   -32.3736     7.5007     9.0770   132.9228  -999.2500
  620.0000   -31.9217     7.4246     8.7016   136.6366  -999.2500
  620.5000   -31.9202     7.2733     8.4311   138.8889  -999.2500
  621.0000   -32.3692     7.1220     8.5955   140.3904  -999.2500
  621.5000   -33.2687     7.1212     8.7448   140.3904  -999.2500
  622.0000   -34.1681     7.1205     8.6093   140.3904  -999.2500
  622.5000   -34.7673     7.1196     8.4738   139.6396  -999.2500
  623.0000   -34.6153     7.0436     8.6380   139.6396  -999.2500
  623.5000   -33.5628     7.0428     8.7873   138.8889  -999.2500
  624.0000   -32.9608     7.1174     8.9217   138.8889  -999.2500
  624.5000   -32.6590     7.1167     8.9512   137.3874  -999.2500
  625.0000   -32.8077     7.2666     8.8006   136.6366  -999.2500
  625.5000   -33.4069     7.3411     8.7400   135.8859  -999.2500
  626.0000   -34.3465     7.3402     8.7095   136.6366  -999.2500
  626.5000   -34.1544     7.1889     8.7539   139.7198  -999.2500
  627.0000   -33.2520     7.1129     8.7232   141.8919  -999.2500
  627.5000   -32.9507     7.0368     8.6326   141.8919  -999.2500
  628.0000   -33.6996     7.0361     8.4821   142.6426  -999.2500
  628.5000   -33.9985     7.0354     8.3466   142.6426  -999.2500
  629.0000   -33.6967     6.9503     8.3010   142.6426  -999.2500
  629.5000   -32.9441     6.8078     8.2705   142.6426  -999.2500
  630.0000   -32.6424     6.7318     8.3149   143.3934  -999.2500
  630.5000   -32.7915     6.6558     8.3441   143.3934  -999.2500
  631.0000   -32.9402     6.5045     8.3136   143.3934  -999.2500
  631.5000   -32.9384     6.4284     8.2530   144.8949  -999.2500
  632.0000   -32.9369     6.2771     8.1625   146.3964  -999.2500
  632.5000   -32.9355     6.1936     7.8771   150.9009  -999.2500
  633.0000   -32.7835     5.9743     7.7396   156.9365  -999.2500
  633.5000   -32.3316     5.8982     7.6958   166.1560  -999.2500
  634.0000   -31.2791     5.8975     7.6203   173.4234  -999.2500
  634.5000   -30.5269     5.7462     7.3948   180.9309  -999.2500
  635.0000   -30.5255     5.5948     6.9895   184.6847  -999.2500
  635.5000   -30.6742     5.5941     6.7340   186.1862  -999.2500
  636.0000   -30.6727     5.5121     6.6433   186.1862  -999.2500
  636.5000   -30.6709     5.4421     6.7329   186.1862  -999.2500
  637.0000   -30.6695     5.5166     6.5522   184.6847  -999.2500
  637.5000   -30.9683     5.5912     6.7016   182.4324  -999.2500
  638.0000   -31.7176     5.7409     7.1358   177.9279  -999.2500
  638.5000   -32.4669     5.8908     7.3151   170.4204  -999.2500
  639.0000   -33.0661     5.9653     7.4495   159.9099    84.8399
  639.5000   -33.5151     6.1198     7.5538   155.4054    86.4828
  640.0000   -33.2130     6.2649     7.6452   152.3526    81.2804
  640.5000   -32.7611     6.3397     7.6876   150.9009    81.8815
  641.0000   -32.3092     6.3388     7.6869   150.9009    82.9291
  641.5000   -32.1576     6.3380     7.7163   150.9009    78.1731
  642.0000   -32.1561     6.3373     7.8057   150.9009    75.7966
  642.5000   -32.3048     6.2613     7.7601   150.9009    80.8635
  643.0000   -32.3030     6.1852     7.7445   151.6517    81.1656
  643.5000   -32.3016     6.1090     7.7269   153.2231    82.9587
