~VERSION INFORMATION
 VERS.                2.0:   CWLS LOG ASCII STANDARD - VERSION 2.0
 WRAP.                 NO:   ONE LINE PER DEPTH STEP
~WELL INFORMATION
#MNEM.UNIT      DATA TYPE    INFORMATION
#----------   ------------   ------------------------------
 STRT.F           16.0000:   START DEPTH
 STOP.F         1254.0000:   STOP DEPTH
 STEP.F            0.5000:   STEP LENGTH
 NULL.          -999.2500:   NO VALUE
 COMP. FENIX & SCISSON INC:   COMPANY
 WELL. NAVAL PET RESERVE 3   75-S-14 #75-14:   WELL
 FLD .             TEAPOT:   FIELD
 LOC .      S14 T38N R78W:   LOCATION
 CNTY.            NATRONA:   COUNTY
 STAT.            WYOMING:   STATE
 CTRY. UNITED STATES OF AMERICA:   COUNTRY
 SRVC.              Welex:   SERVICE COMPANY
 DATE.        17-FEB-1977:   LOGDATE
 API .       490251027400:   API NUMBER
~CURVE INFORMATION
#MNEM.UNIT       API CODE    CURVE DESCRIPTION
#----------   ------------   ------------------------------
 DEPT.F                  :   
 SGRD.OHMM   07 220 05 00:   SHALLOW RESISTIVITY
 ILM .OHMM   07 120 44 00:   INDUCTION LOG MEDIUM
 SPR .MV     07 010 01 00:   SPONTANEOUS POTENTIAL
 ILD .OHMM   07 120 46 00:   INDUCTION LOG DEEP
 CALD.IN     45 280 60 00:   CALIPER
 GRD .GAPI   45 310 01 00:   GAMMA RAY FROM DENSITY LOG
 DPHI.DEC    45 890 12 00:   DENSITY POROSITY SANDSTONE
 RHOB.G/C3   45 350 01 00:   BULK DENSITY
 CORR.G/C3   45 356 01 00:   DENSITY CORRECTION
~PARAMETER INFORMATION
#MNEM.UNIT          VALUE    DESCRIPTION
#----------   ------------   ------------------------------
 PD  .                 GL:   PERMANENT DATUM
 EPD .F              5336:   ELEVATION PERMANENT DATUM
 LMF .                 GL:   LOG MEASURED FROM
 DMF .                 GL:   DRILLING MEASURED FROM
 EKB .F              5341:   KELLING BUSHING
 EGL .F              5336:   GROUND LEVEL
 DATE.          2-17-1977:   RUN DATE
 RUN .                  1:   RUN NUMBER
 DD  .F              1260:   DEPTH DRILLER
 DL  .F              1258:   DEPTH LOGGER
 BLI .F              1256:   BOTTOM LOG INTERVAL
 TLI .F                30:   TOP LOG INTERVAL
 CS  .IN            8.625:   CASING SIZE
 CBD .F                42:   CASING BOTTOM DRILLER
 CBL .F                42:   CASING BOTTOM LOGGER
 BS  .IN            7.875:   BIT SIZE
 BSD .F              1260:   BIT SIZE AT DEPTH
 DFT .          KCL WATER:   DRILLING FLUID TYPE
 DFD .                9.5:   DRILLING FLUID DENSITY
 DFV .                 34:   DRILLING FLUID VISCOSITY
 MSS .          FLOW LINE:   MUD SAMPLE SOURCE
 RMS .OHMM            .30:   RESISTIVITY MUD SAMPLE
 MST .F                43:   MUD SAMPLE TEMPERATURE
 RMF .OHMM            .28:   RESISTIVITY MUD FILTRATE SAMPLE
 MFST.F                43:   MUD FILTRATE SAMPLE TEMPERATURE
 RMC .OHMM            .40:   RESISTIVITY MUD CAKE
 MCST.F                43:   MUD CAKE SAMPLE TEMPERATURE
 MFSS.           MEASURED:   MUD FILTRATE SAMPLE SOURCE
 MCSS.           MEASURED:   MUD CAKE SAMPLE SOURCE
 RMB .OHMM            .13:   RESISTIVITY MUD AT BHT
 BHT .F               101:   BOTTOM HOLE TEMPERATURE
 TCS .HRS               5:   TIME CURCULATED STOPPED
 MRT .F               101:   MAXIMUM RECORDED TEMPERATURE
 LUN .               8611:   LOGGING UNIT NUMBER
 LUL .           GILLETTE:   LOGGING UNIT LOCATION
 ENGI.             LAWSON:   RECORDING ENGINEER
 WITN.         STUEBINGER:   WITNESSED BY
 CLNT.            A2DTECH:   CLIENT CODE
 ORIG.       2", 5" PRINT:   ORIGIN OF DATA
 UWI .       490251027400:   UNIQUE WELL ID
 DICO. A2D Technologies, Inc.:   DIGITIZING COMPANY
~OTHER INFORMATION
~A   DEPT     SGRD        ILM        SPR        ILD       CALD         GRD      DPHI       RHOB       CORR   
# ...
  271.5000     8.8991     7.0451   -40.3883     5.1240     8.2607   107.2006     0.1367     2.4211     0.0499
  272.0000     8.6575     7.0982   -40.4347     5.1164     8.2788   105.9332     0.1347     2.4266     0.0492
  272.5000     9.1520     7.1518   -40.4811     5.0955     8.2809   103.9538     0.1343     2.4288     0.0478
  273.0000     9.8076     7.2023   -40.5274     5.0750     8.2809   102.8580     0.1345     2.4273     0.0463
  273.5000    10.0307     7.2023   -40.5738     5.0544     8.2809   104.1815     0.1347     2.4262     0.0481
  274.0000     8.9343     7.1299   -40.6202     5.0340     8.2809   106.4189     0.1319     2.4322     0.0507
  274.5000     8.5782     7.0289   -40.6666     5.0137     8.2817   108.6571     0.1290     2.4395     0.0533
  275.0000     9.2335     6.9293   -40.7130     4.9934     8.2858   110.6466     0.1261     2.4469     0.0559
  275.5000     9.0595     6.8155   -40.7593     4.9732     8.2898   110.2341     0.1246     2.4503     0.0582
  276.0000     8.8998     6.8749   -40.8057     4.9531     8.2938   109.7432     0.1269     2.4447     0.0581
  276.5000     9.0695     6.9464   -40.8521     4.9388     8.2978   109.2590     0.1293     2.4385     0.0581
  277.0000     9.1999     7.0186   -40.8985     4.9389     8.2996   108.7734     0.1316     2.4324     0.0581
  277.5000     9.2335     7.0923   -40.9448     4.9785     8.2933   108.2905     0.1340     2.4261     0.0581
  278.0000     8.7375     7.1361   -40.9914     5.0210     8.2872   108.0190     0.1338     2.4300     0.0581
  278.5000     9.5796     7.0584   -41.0441     5.0638     8.2812   109.5613     0.1308     2.4380     0.0583
  279.0000     9.1489     7.0024   -41.1059     5.1070     8.2751   111.1981     0.1279     2.4462     0.0599
  279.5000     9.5796     6.9421   -41.1676     5.1506     8.2690   112.8240     0.1249     2.4543     0.0615
  280.0000     9.4249     6.9421   -41.2293     5.1715     8.2628   113.9268     0.1220     2.4624     0.0631
  280.5000     9.2129     6.9428   -41.2911     5.1040     8.2629   113.2134     0.1190     2.4705     0.0647
  281.0000     9.0057     6.8148   -41.3528     5.0757     8.2657   112.5462     0.1161     2.4744     0.0678
  281.5000     8.8031     6.6865   -41.4146     5.0482     8.2686   111.8793     0.1130     2.4729     0.0712
  282.0000     8.6575     6.5667   -41.4763     5.0208     8.2715   111.2103     0.1136     2.4623     0.0721
  282.5000     8.9573     6.6823   -41.5380     4.9935     8.2744   110.5524     0.1169     2.4517     0.0693
  283.0000     9.1489     6.7561   -41.5998     4.9665     8.2770   110.0236     0.1201     2.4412     0.0664
  283.5000     8.7703     6.8330   -41.6615     4.9390     8.2788   111.6556     0.1234     2.4307     0.0635
  284.0000     8.4967     6.8816   -41.7233     4.9390     8.3001   113.9236     0.1266     2.4202     0.0607
  284.5000     8.3418     6.8121   -41.7850     4.8489     8.2959   116.1878     0.1299     2.4096     0.0578
  285.0000     8.8498     6.8192   -41.8467     4.7914     8.2662   115.9801     0.1330     2.3990     0.0557
  285.5000     9.2335     6.6690   -41.9085     4.7384     8.2365   114.1241     0.1303     2.3982     0.0547
  286.0000     8.8074     6.5704   -41.9702     4.6854     8.2070   112.2186     0.1270     2.4155     0.0555
  286.5000     8.3650     6.4734   -42.0320     4.6329     8.1805   110.3209     0.1239     2.4365     0.0615
  287.0000     8.1925     6.3779   -42.0937     4.5810     8.1824   109.4690     0.1249     2.4320     0.0625
  287.5000     8.2821     6.2838   -42.1554     4.5297     8.1904   110.3623     0.1269     2.4244     0.0597
  288.0000     8.4851     6.1911   -42.2172     4.4787     8.1984   111.9030     0.1288     2.4169     0.0568
  288.5000     8.2995     6.0997   -42.2789     4.4457     8.2064   113.4538     0.1308     2.4094     0.0541
  289.0000     7.9139     6.0097   -42.3408     4.4198     8.2146   115.0817     0.1327     2.4019     0.0532
  289.5000     7.5463     5.9355   -42.4040     4.3943     8.2202   114.6288     0.1347     2.3944     0.0524
  290.0000     7.2689     5.9281   -42.4142     4.3689     8.2451   113.5118     0.1358     2.3883     0.0531
  290.5000     7.4131     5.9207   -42.3816     4.3436     8.2516   112.3799     0.1331     2.3962     0.0550
  291.0000     7.5915     5.9133   -42.3480     4.3185     8.2598   111.2469     0.1304     2.4044     0.0568
  291.5000     7.7743     5.9059   -42.3147     4.2935     8.2678   110.2443     0.1277     2.4126     0.0578
  292.0000     7.9695     5.8986   -42.2813     4.2687     8.2757   110.0130     0.1249     2.4207     0.0561
  292.5000     7.6780     5.8912   -42.2478     4.2238     8.2836   110.2580     0.1226     2.4289     0.0544
  293.0000     7.3849     5.8825   -42.2155     4.3096     8.2916   111.4408     0.1234     2.4332     0.0545
  293.5000     7.3361     5.9649   -42.2429     4.3835     8.2995   112.6102     0.1246     2.4308     0.0550
  294.0000     7.6705     6.0967   -42.2764     4.4586     8.3075   113.1732     0.1240     2.4288     0.0555
  294.5000     7.9492     6.2314   -42.3098     4.5350     8.3153   111.8067     0.1213     2.4280     0.0561
  295.0000     8.2379     6.3691   -42.3431     4.6127     8.3207   110.5007     0.1187     2.4323     0.0588
  295.5000     8.5371     6.5098   -42.3766     4.6917     8.3130   109.1965     0.1160     2.4416     0.0618
  296.0000     8.8475     6.6537   -42.4118     4.7721     8.3048   109.1561     0.1134     2.4509     0.0648
  296.5000     9.1685     6.8007   -42.3540     4.8539     8.2966   110.6374     0.1107     2.4602     0.0678
  297.0000     9.4919     6.8785   -42.2802     4.9370     8.2884   112.1084     0.1081     2.4695     0.0671
  297.5000     9.2817     6.6720   -42.2062     5.0219     8.2802   113.5826     0.1096     2.4655     0.0659
  298.0000     8.9920     6.2738   -42.1325     5.1725     8.2720   115.4034     0.1154     2.4599     0.0646
  298.5000     8.7113     6.4936   -42.0587     5.1710     8.2639   119.0816     0.1190     2.4567     0.0634
  299.0000     8.3482     6.7295   -41.9850     5.1831     8.2556   122.7338     0.1174     2.4653     0.0622
  299.5000     8.7772     6.9739   -41.9112     5.1946     8.2475   124.3436     0.1159     2.4737     0.0610
  300.0000     9.5145     7.0710   -41.8334     5.2061     8.2393   121.3670     0.1168     2.4731     0.0592
  300.5000    10.1289     7.0710   -41.8661     5.2177     8.2311   120.6319     0.1204     2.4639     0.0554
  301.0000     9.6417     7.0817   -41.9352     5.2294     8.2227   121.9979     0.1241     2.4549     0.0518
  301.5000     9.1523     7.1411   -42.0051     5.2410     8.2211   121.7069     0.1259     2.4456     0.0482
  302.0000     8.8964     7.2010   -42.0748     5.2527     8.2211   119.4428     0.1251     2.4447     0.0466
  302.5000     8.9876     7.2613   -42.1444     5.2679     8.2211   117.2254     0.1234     2.4622     0.0477
  303.0000     9.7887     7.3358   -42.2140     5.2672     8.2230   115.5775     0.1119     2.4744     0.0495
  303.5000    10.3114     7.2972   -42.2836     5.2313     8.2257   112.9314     0.1011     2.4866     0.0571
  304.0000     9.8639     7.2474   -42.3532     5.1940     8.2285   110.3063     0.0904     2.4989     0.0617
  304.5000     9.4391     7.1978   -42.4228     5.1570     8.2312   111.7243     0.0802     2.5117     0.0665
  305.0000     9.0325     7.1481   -42.4925     5.1202     8.2339   113.4427     0.0866     2.4999     0.0682
  305.5000     8.6440     7.0842   -42.5620     5.0837     8.2367   115.1161     0.0964     2.4850     0.0653
  306.0000     8.4153     6.9905   -42.6160     5.0475     8.2394   116.0587     0.1062     2.4699     0.0619
  306.5000     9.5814     6.8984   -42.6155     5.0115     8.2410   114.6708     0.1160     2.4550     0.0587
  307.0000     9.1444     6.8076   -42.6198     4.9758     8.2343   113.3072     0.1198     2.4429     0.0561
  307.5000     8.5449     6.7180   -42.5687     4.9390     8.2179   111.9420     0.1135     2.4506     0.0565
