~VERSION INFORMATION
 VERS.                2.0:   CWLS LOG ASCII STANDARD - VERSION 2.0
 WRAP.                 NO:   ONE LINE PER DEPTH STEP
~WELL INFORMATION
#MNEM.UNIT      DATA TYPE    INFORMATION
#----------   ------------   ------------------------------
 STRT.F           68.0000:   START DEPTH
 STOP.F          560.0000:   STOP DEPTH
 STEP.F            0.5000:   STEP LENGTH
 NULL.          -999.2500:   NO VALUE
 COMP.               NAVY:   COMPANY
 WELL. RES 3 TEAPOT DOM #24S-11:   WELL
 FLD .             TEAPOT:   FIELD
 LOC .      S11 T38N R78W:   LOCATION
 CNTY.            NATRONA:   COUNTY
 STAT.            WYOMING:   STATE
 CTRY. UNITED STATES OF AMERICA:   COUNTRY
 SRVC.       Schlumberger:   SERVICE COMPANY
 DATE.        16-JUL-1963:   LOGDATE
 API .       490250634300:   API NUMBER
~CURVE INFORMATION
#MNEM.UNIT       API CODE    CURVE DESCRIPTION
#----------   ------------   ------------------------------
 DEPT.F                  :   
 GR  .GAPI   30 310 01 00:   GAMMA RAY
 CALS.IN     60 280 50 00:   CALIPER FROM SONIC LOG
 DT  .US/F   60 520 00 00:   INTERVAL TRANSIT TIME
 SPR .MV     05 010 01 00:   SPONTANEOUS POTENTIAL FROM RES.
 CILD.MMHO   05 110 00 00:   CONDUCTIVITY INDUCTION LOG
 ASN .OHMM   05 041 16 00:   AMPLIFIED SHORT NORMAL 16"
 ILD .OHMM   05 120 46 00:   INDUCTION LOG DEEP
~PARAMETER INFORMATION
#MNEM.UNIT          VALUE    DESCRIPTION
#----------   ------------   ------------------------------
 PD  .                 GL:   PERMANENT DATUM
 EPD .F              5168:   ELEVATION PERMANENT DATUM
 LMF .                 KB:   LOG MEASURED FROM
 DAPD.F                 5:   FEET ABOVE PERMANENT DATUM
 DMF .                 KB:   DRILLING MEASURED FROM
 EKB .F              5173:   KELLING BUSHING
 EGL .F              5168:   GROUND LEVEL
 DATE.            7-16-63:   RUN DATE
 RUN .                  1:   RUN NUMBER
 DD  .F               562:   DEPTH DRILLER
 DL  .F               561:   DEPTH LOGGER
 BLI .F               560:   BOTTOM LOG INTERVAL
 TLI .F                94:   TOP LOG INTERVAL
 CS  .IN            8.625:   CASING SIZE
 CBD .F                10:   CASING BOTTOM DRILLER
 BS  .IN            6.875:   BIT SIZE
 BSD .F               562:   BIT SIZE AT DEPTH
 DFT .            NATURAL:   DRILLING FLUID TYPE
 DFD .                 10:   DRILLING FLUID DENSITY
 DFV .                 65:   DRILLING FLUID VISCOSITY
 MSS .           FLOWLINE:   MUD SAMPLE SOURCE
 RMS .OHMM            3.4:   RESISTIVITY MUD SAMPLE
 MST .F                76:   MUD SAMPLE TEMPERATURE
 RMF .OHMM            1.8:   RESISTIVITY MUD FILTRATE SAMPLE
 MFST.F                75:   MUD FILTRATE SAMPLE TEMPERATURE
 RMC .OHMM            3.4:   RESISTIVITY MUD CAKE
 MCST.F                75:   MUD CAKE SAMPLE TEMPERATURE
 MFSS.                 FP:   MUD FILTRATE SAMPLE SOURCE
 MCSS.                 FP:   MUD CAKE SAMPLE SOURCE
 TCS .HRS               1:   TIME CURCULATED STOPPED
 MRT .F                80:   MAXIMUM RECORDED TEMPERATURE
 LUN .               4507:   LOGGING UNIT NUMBER
 LUL .               CSPR:   LOGGING UNIT LOCATION
 ENGI.            GIFFORD:   RECORDING ENGINEER
 WITN.          JORGENSON:   WITNESSED BY
 CLNT.            A2DTECH:   CLIENT CODE
 ORIG.       2", 5" PRINT:   ORIGIN OF DATA
 UWI .       490250634300:   UNIQUE WELL ID
 DICO. A2D Technologies, Inc.:   DIGITIZING COMPANY
~OTHER INFORMATION
~A   DEPT       GR         CALS       DT        SPR       CILD        ASN        ILD   
# ...
  386.5000    62.4646     6.4847   100.4060   -35.1098   127.1223     8.4065     7.8306
  387.0000    56.0724     6.4524   100.8773   -35.0695   131.5934     8.1224     7.5776
  387.5000    55.1126     6.5008   101.1434   -35.0299   136.4327     7.7227     7.1340
  388.0000    61.1759     6.4412   101.2839   -34.9905   152.0362     7.3204     6.6264
  388.5000    60.1635     6.3405   101.9526   -34.9521   167.1429     6.9098     6.0577
  389.0000    61.8421     6.2695   102.6228   -34.9273   188.6318     6.4746     5.3297
  389.5000    64.1098     6.3348   103.5183   -34.5645   214.8169     6.0185     4.6160
  390.0000    60.3984     6.4113   104.5953   -34.1191   242.9577     5.5616     4.1139
  390.5000    52.7194     6.4775   105.6723   -33.6713   282.4816     5.1051     3.5251
  391.0000    49.8808     6.5325   106.7494   -33.2261   322.7990     4.6479     3.0483
  391.5000    56.5414     6.5346   108.7950   -32.8720   363.1165     4.1921     2.7671
  392.0000    48.2090     6.5343   110.9193   -32.8080   396.2374     3.8846     2.5910
  392.5000    46.8037     6.5343   114.4539   -32.7401   420.2379     3.6127     2.4190
  393.0000    54.1123     6.5342   117.7241   -32.6715   438.2926     3.4790     2.3556
  393.5000    64.4742     6.5342   123.9078   -32.6028   441.3026     3.2826     2.3139
  394.0000    67.4411     6.5552   126.6699   -32.5368   432.1771     3.2621     2.2697
  394.5000    67.7332     6.5500   129.3626   -32.5937   401.9597     3.3981     2.4451
  395.0000    72.6473     6.3453   127.0091   -32.9153   352.8974     3.6564     2.7381
  395.5000    69.6504     6.1507   126.0826   -33.2540   306.8692     4.1400     3.2476
  396.0000    65.9448     6.1154   126.6868   -32.6565   277.5681     4.5830     3.7583
  396.5000    70.8092     6.2118   119.1652   -32.3352   248.2669     4.8622     4.2735
  397.0000    68.2265     6.4406   115.5090   -32.5461   219.9235     5.3404     4.8124
  397.5000    72.8070     6.6334   111.5811   -32.7621   195.8034     5.9411     5.3553
  398.0000    72.4564     6.6939   111.8832   -32.9760   173.1705     6.3225     5.9016
  398.5000    72.0858     6.6368   109.1092   -32.9966   157.5171     6.5570     6.2574
  399.0000    70.9640     6.7181   106.0423   -32.7552   153.5614     6.5974     6.4954
  399.5000    70.6559     6.8437   106.4874   -33.1155   152.4145     6.6124     6.4685
  400.0000    71.2092     6.7854   106.9738   -33.7667   158.9364     6.6648     6.4209
  400.5000    66.5814     6.6852   107.3515   -33.6840   170.8025     6.7152     6.2856
  401.0000    69.3393     6.6014   106.9343   -33.0864   185.7143     6.7201     5.5787
  401.5000    70.1590     6.5653   106.5458   -32.3931   200.2683     6.5592     5.1775
  402.0000    77.2909     6.5736   106.3988   -32.0610   208.1712     6.1498     4.8918
  402.5000    81.0329     6.8276   105.7402   -31.9654   215.0905     5.6770     4.7896
  403.0000    79.8081     6.8495   107.4608   -31.8675   221.1871     5.6988     4.6751
  403.5000    70.9624     6.8559   110.4733   -32.4078   227.2837     5.6077     4.5475
  404.0000    69.3148     6.8444   111.1851   -32.9672   229.8793     5.4328     4.4788
  404.5000    65.4599     6.8102   111.5811   -33.4767   225.3119     5.4175     4.4722
  405.0000    66.7415     6.6820   112.1312   -33.1311   215.8988     5.9251     4.7154
  405.5000    69.7350     6.6240   113.3462   -32.7599   204.1314     6.2188     5.0495
  406.0000    77.0895     6.6452   113.4945   -32.4844   192.3906     6.2108     5.3901
  406.5000    77.0709     6.6715   108.6445   -32.5767   180.6512     6.4536     5.7634
  407.0000    71.2617     6.7589   107.6536   -32.9571   168.9135     6.9409     6.1876
  407.5000    66.4866     6.8237   107.6520   -33.3249   157.1758     7.3959     6.6129
  408.0000    68.4389     6.7062   107.0072   -33.6506   150.4886     7.5979     7.0318
  408.5000    69.4227     6.5896   105.0084   -33.9468   144.4948     7.8553     7.3185
  409.0000    65.9510     6.4777   104.1053   -34.2395   138.2853     8.1973     7.5658
  409.5000    70.3593     6.4863   103.7797   -34.5383   133.5908     8.4857     7.8010
  410.0000    71.1243     6.5004   103.5247   -34.8662   129.5990     8.6482     7.9351
  410.5000    64.1368     6.5162   101.9405   -34.7054   125.2515     8.7650     8.0520
  411.0000    66.9380     6.5790   101.6196   -34.4785   125.2515     8.7624     8.1623
  411.5000    68.7415     6.6425   101.4238   -34.2541   125.5131     8.7515     8.2793
  412.0000    66.5246     6.6878   101.3107   -34.0324   127.5453     8.6748     8.1129
  412.5000    60.7211     6.6823   101.5509   -33.9019   129.8146     8.5615     7.9162
  413.0000    59.9814     6.6553   101.9160   -33.8036   133.4435     8.4529     7.7592
  413.5000    63.3904     6.6283   102.4134   -33.7033   137.0724     8.3441     7.6047
  414.0000    71.6407     6.6008   102.9676   -33.6040   140.7014     8.2184     7.4511
  414.5000    67.3617     6.6146   103.4220   -33.5046   144.3662     8.0870     7.2889
  415.0000    62.0670     6.6717   103.6985   -33.4046   150.0671     7.9549     6.9418
  415.5000    66.3524     6.7314   103.9732   -33.3049   155.8250     7.8060     6.6086
  416.0000    66.6859     6.7206   104.2423   -33.2589   161.5090     7.5856     6.2302
  416.5000    67.2410     6.7043   104.5102   -33.2065   175.9998     7.3440     5.7921
  417.0000    69.0580     6.6764   104.7767   -33.1586   190.3483     7.0277     5.3551
  417.5000    71.2547     6.6324   105.0469   -33.0645   204.6206     6.6794     4.9368
  418.0000    72.2730     6.5896   105.4312   -32.5421   213.7412     6.2748     4.8544
  418.5000    78.7392     6.6251   106.2058   -32.2612   214.7820     5.9031     4.8179
  419.0000    72.2701     6.7008   107.9403   -31.9895   211.5292     5.7771     4.7828
  419.5000    67.7025     6.5424   110.6377   -31.7218   208.7525     5.9506     4.8034
  420.0000    65.9705     6.4432   113.4945   -31.8576   202.5277     6.1034     4.9096
  420.5000    71.6948     6.6193   113.2145   -32.2544   194.3109     6.2757     5.1440
  421.0000    69.8446     6.7369   112.5297   -32.6386   183.6418     6.7169     5.6430
  421.5000    70.2518     6.7428   110.9950   -32.9970   169.6848     7.3084     6.2222
  422.0000    70.3539     6.7483   109.0950   -33.3414   152.6232     7.7798     6.8677
  422.5000    70.0293     6.7537   105.7413   -33.6895   143.9809     8.0046     7.4112
  423.0000    73.0402     6.7779   103.6072   -33.6757   137.9366     8.1863     7.5556
  423.5000    71.6112     6.7846   103.4816   -33.6310   132.4447     8.3469     7.6994
  424.0000    73.1431     6.7922   103.7142   -33.5874   130.9859     8.5084     7.7635
  424.5000    73.6659     6.8001   103.9275   -33.5437   129.2924     8.6291     7.8779
  425.0000    71.9519     6.8080   103.9275   -33.5031   127.5998     8.7416     7.9936
  425.5000    66.6364     6.8159   103.9275   -33.5611   126.2458     8.8538     8.1088
  426.0000    67.2029     6.8238   103.7325   -33.8838   126.2572     8.9639     8.2007
  426.5000    66.1780     6.8314   103.1218   -34.2026   126.2551     9.0535     8.2273
  427.0000    67.0551     6.8240   102.2204   -34.3670   126.2576     9.0898     8.2612
  427.5000    72.5918     6.7862   102.1777   -34.4546   126.5090     9.1182     8.2949
  428.0000    72.1333     6.7347   102.8197   -34.5044   127.5251     9.1454     8.2802
  428.5000    71.0287     6.6152   102.3830   -34.2692   128.5412     9.1639     8.1889
  429.0000    73.7559     6.5707   102.3631   -34.0396   129.5573     9.1301     8.1004
  429.5000    73.4838     6.5552   102.6018   -33.8106   130.2817     9.0904     8.0118
  430.0000    72.4462     6.5839   102.8406   -33.7055   130.2817     9.0516     7.9195
  430.5000    67.8933     6.6126   103.0528   -33.8249   130.2817     9.0107     7.9044
  431.0000    67.7394     6.6410   103.2541   -34.0441   130.2817     8.9672     7.9651
  431.5000    71.1358     6.6862   103.4543   -34.2631   130.2817     8.9243     8.0272
