~VERSION INFORMATION
 VERS.                2.0:   CWLS LOG ASCII STANDARD - VERSION 2.0
 WRAP.                 NO:   ONE LINE PER DEPTH STEP
~WELL INFORMATION
#MNEM.UNIT      DATA TYPE    INFORMATION
#----------   ------------   ------------------------------
 STRT.F          100.0000:   START DEPTH
 STOP.F          874.0000:   STOP DEPTH
 STEP.F            0.5000:   STEP LENGTH
 NULL.          -999.2500:   NO VALUE
 COMP. U S NAVY-INTEX OIL:   COMPANY
 WELL.     NPR #3 #45-S-2:   WELL
 FLD .             TEAPOT:   FIELD
 LOC .       S2 T38N R78W:   LOCATION
 CNTY.            NATRONA:   COUNTY
 STAT.            WYOMING:   STATE
 CTRY. UNITED STATES OF AMERICA:   COUNTRY
 SRVC.       Schlumberger:   SERVICE COMPANY
 DATE.        15-JUL-1962:   LOGDATE
 API .       490250642400:   API NUMBER
~CURVE INFORMATION
#MNEM.UNIT       API CODE    CURVE DESCRIPTION
#----------   ------------   ------------------------------
 DEPT.F                  :   
 ASN .OHMM   05 041 16 00:   AMPLIFIED SHORT NORMAL 16"
 CILD.MMHO   05 110 46 00:   CONDUCTIVITY INDUCTION LOG DEEP
 ILD .OHMM   05 120 46 00:   INDUCTION LOG DEEP
 SPR .MV     05 010 01 00:   SPONTANEOUS POTENTIAL FROM RES.
 GR  .GAPI   30 310 01 00:   GAMMA RAY
~PARAMETER INFORMATION
#MNEM.UNIT          VALUE    DESCRIPTION
#----------   ------------   ------------------------------
 LMF .                 KB:   LOG MEASURED FROM
 DMF .                 KB:   DRILLING MEASURED FROM
 EKB .F              5149:   KELLING BUSHING
 EGL .F              5144:   GROUND LEVEL
 DATE.        15-JUL-1962:   RUN DATE
 RUN .                  1:   RUN NUMBER
 DD  .F               875:   DEPTH DRILLER
 DL  .F               875:   DEPTH LOGGER
 BLI .F               874:   BOTTOM LOG INTERVAL
 TLI .F               100:   TOP LOG INTERVAL
 BS  .IN             6.75:   BIT SIZE
 BSD .F               875:   BIT SIZE AT DEPTH
 DFT .           OIL EMUL:   DRILLING FLUID TYPE
 DFD .               10.2:   DRILLING FLUID DENSITY
 DFV .                 42:   DRILLING FLUID VISCOSITY
 DFL .                4.6:   DRILLING FLUID LOSS
 RMS .OHMM            6.0:   RESISTIVITY MUD SAMPLE
 MST .F                64:   MUD SAMPLE TEMPERATURE
 RMF .OHMM            5.8:   RESISTIVITY MUD FILTRATE SAMPLE
 MFST.F                64:   MUD FILTRATE SAMPLE TEMPERATURE
 RMC .OHMM            5.2:   RESISTIVITY MUD CAKE
 MCST.F                66:   MUD CAKE SAMPLE TEMPERATURE
 TCS .HRS             0.5:   TIME CURCULATED STOPPED
 LUN .               2503:   LOGGING UNIT NUMBER
 LUL .               CSPR:   LOGGING UNIT LOCATION
 ENGI.           ELLERMAN:   RECORDING ENGINEER
 WITN.          JORGENSON:   WITNESSED BY
 CLNT.            A2DTECH:   CLIENT CODE
 ORIG.           5" PRINT:   ORIGIN OF DATA
 UWI .       490250642400:   UNIQUE WELL ID
 DICO. A2D Technologies, Inc.:   DIGITIZING COMPANY
~OTHER INFORMATION
~A   DEPT        ASN      CILD       ILD        SPR         GR   
# ...
  527.0000     8.1487   127.3914     7.8780   -38.3226  -999.2500
  527.5000     8.1945   126.9002     7.9572   -38.3182  -999.2500
  528.0000     8.2402   125.3840     8.0364   -38.6128  -999.2500
  528.5000     8.3161   125.3254     8.0407   -38.7763  -999.2500
  529.0000     8.3770   125.2727     8.1200   -39.2010  -999.2500
  529.5000     8.4378   125.2121     8.1243   -39.3472  -999.2500
  530.0000     8.4836   125.1496     8.1287   -39.4924  -999.2500
  530.5000     8.5294   125.0909     8.1341   -39.3375  -999.2500
  531.0000     8.5451   125.0303     8.1385   -39.3331  -999.2500
  531.5000     8.5458   124.9591     8.2173   -39.1793  -999.2500
  532.0000     8.5165   124.9005     7.9971   -39.0254  -999.2500
  532.5000     8.4855   124.8419     7.7021   -38.5716  -999.2500
  533.0000     8.4429   125.5555     7.5567   -38.2684  -999.2500
  533.5000     8.4136   126.2545     7.5622   -37.8156  -999.2500
  534.0000     8.3993   127.6970     7.5665   -37.3628  -999.2500
  534.5000     8.4152   128.3954     7.6457   -36.7606  -999.2500
  535.0000     8.4460   128.3221     7.7250   -36.9057  -999.2500
  535.5000     8.4767   128.2635     7.8790   -37.3553  -999.2500
  536.0000     8.4621   127.4473     7.9582   -38.2413  -999.2500
  536.5000     8.4459   125.8736     8.0374   -38.9843  -999.2500
  537.0000     8.4985   124.2998     8.1168   -39.4295  -999.2500
  537.5000     8.6637   122.7261     8.1969   -39.7241  -999.2500
  538.0000     8.7688   121.3106     8.3510   -39.7187  -999.2500
  538.5000     8.9189   118.8063     8.5050   -39.7145  -999.2500
  539.0000     9.0991   117.2326     8.5842   -39.7100  -999.2500
  539.5000     9.2650   114.9012     8.7383   -39.7055  -999.2500
  540.0000     9.3569   112.5699     8.8498   -39.4013  -999.2500
  540.5000     9.5195   110.2386     9.0464   -39.2180  -999.2500
  541.0000     9.6847   107.1497     9.2048   -38.7947  -999.2500
  541.5000     9.8198   105.5681     9.4305   -38.4412  -999.2500
  542.0000     9.9850   103.1315     9.5845   -38.0387  -999.2500
  542.5000    10.0489   100.8986     9.6813   -37.8848  -999.2500
  543.0000    10.2043   100.0873     9.8926   -37.5815  -999.2500
  543.5000    10.3870    99.2711    10.0467   -37.7256  -999.2500
  544.0000    10.5016    97.6771    10.2325   -37.7220  -999.2500
  544.5000    10.6524    94.6061    10.3548   -37.7546  -999.2500
  545.0000    10.8784    91.5049    10.5164   -37.8632  -999.2500
  545.5000    11.1112    89.9311    10.8137   -38.0083  -999.2500
  546.0000    11.4055    88.3574    10.9678   -38.3018  -999.2500
  546.5000    11.6315    86.7836    11.0470   -38.6029  -999.2500
  547.0000    11.7073    85.2099    11.2010   -39.3384  -999.2500
  547.5000    11.7829    85.1513    11.2802   -39.9320  -999.2500
  548.0000    11.7087    85.0909    11.2846   -40.5256  -999.2500
  548.5000    11.7095    85.0194    11.2890   -40.8213  -999.2500
  549.0000    11.5602    85.7184    11.2121   -40.8158  -999.2500
  549.5000    11.4858    86.4320    10.9994   -40.9611  -999.2500
  550.0000    11.4113    88.6315    10.8535   -40.8072  -999.2500
  550.5000    11.4122    89.3460    10.8556   -40.8057  -999.2500
  551.0000    11.3378    90.8170    10.7081   -40.5050  -999.2500
  551.5000    11.1135    91.5304    10.5606   -40.2046  -999.2500
  552.0000    11.0390    92.2437    10.4130   -39.9042  -999.2500
  552.5000    11.0399    92.1885    10.4157   -39.4543  -999.2500
  553.0000    11.0406    92.1515    10.3430   -39.0045  -999.2500
  553.5000    11.0413    92.1001    10.2698   -38.4051  -999.2500
  554.0000    11.0420    92.0559    10.2725   -38.4033  -999.2500
  554.5000    10.8928    92.0117    10.2747   -38.4019  -999.2500
  555.0000    10.7433    91.9675    10.2774   -38.2509  -999.2500
  555.5000    10.6688    91.9233    10.2795   -37.9505  -999.2500
  556.0000    10.5945    91.8788    10.2817   -37.7399  -999.2500
  556.5000    10.5203    91.8333    10.2838   -37.4992  -999.2500
  557.0000    10.4626    92.5482    10.2860   -37.3483  -999.2500
  557.5000    10.4042    93.2506    10.1385   -37.1970  -999.2500
  558.0000    10.3457    93.2064    10.0658   -37.4946  -999.2500
  558.5000    10.2873    93.1622     9.8439   -38.5394  -999.2500
  559.0000    10.2288    94.6442     9.7707   -38.6878  -999.2500
  559.5000    10.1704    96.8616     9.6980   -38.0881  -999.2500
  560.0000    10.1119    99.0902     9.7007   -37.4888  -999.2500
  560.5000    10.0535   100.5611     9.6280   -37.4873  -999.2500
  561.0000    10.0164   102.0321     9.6302   -37.7849  -999.2500
  561.5000     9.9573   103.4920     9.5575   -38.3810  -999.2500
  562.0000     9.8979   104.2164     9.4853   -38.6788  -999.2500
  562.5000     9.8530   104.9298     9.4121   -39.2749  -999.2500
  563.0000     9.7792   106.3939     9.3394   -39.5725  -999.2500
  563.5000     9.7350   107.8717     9.2672   -39.5560  -999.2500
  564.0000     9.6907   108.5758     9.1946   -38.9267  -999.2500
  564.5000     9.6298   109.2879     9.1219   -38.0730  -999.2500
  565.0000     9.5572   109.6464     8.9744   -37.7726  -999.2500
  565.5000     9.5127   109.9565     8.9017   -37.6217  -999.2500
  566.0000     9.4235   110.6699     8.8290   -37.6203  -999.2500
  566.5000     9.3191   110.7239     8.6820   -37.7683  -999.2500
  567.0000     9.1997   111.3333     8.6841   -37.9163  -999.2500
  567.5000     9.1254   111.2879     8.6864   -38.2135  -999.2500
  568.0000     9.0811   111.2424     8.6890   -38.3619  -999.2500
  568.5000     9.0968   111.1970     8.7370   -38.3601  -999.2500
  569.0000     9.2178   111.1512     8.7682   -38.2092  -999.2500
  569.5000     9.3237   111.1061     8.7703   -37.9088  -999.2500
  570.0000     9.3845   110.3016     8.8473   -37.7578  -999.2500
  570.5000     9.3702   110.2576     8.8496   -37.5845  -999.2500
  571.0000     9.1157   110.2058     8.9266   -37.4557  -999.2500
  571.5000     8.8761   109.4040     8.9292   -37.3047  -999.2500
  572.0000     9.1361   110.1284     8.9314   -37.6022  -999.2500
  572.5000     9.4784   112.3459     8.9335   -38.1987  -999.2500
  573.0000     9.3590   116.0896     8.7111   -38.6457  -999.2500
  573.5000     9.0594   119.0757     8.4139   -38.6442  -999.2500
  574.0000     8.7899   122.1413     8.1172   -37.8951  -999.2500
  574.5000     8.3702   127.3096     7.8948   -37.2957  -999.2500
  575.0000     8.0914   131.0532     7.7467   -36.8459  -999.2500
  575.5000     8.0023   133.2818     7.5249   -36.5455  -999.2500
  576.0000     7.8983   136.2679     7.5270   -36.2451  -999.2500
  576.5000     7.7792   137.7499     7.4543   -36.0942  -999.2500
  577.0000     7.7051   138.4632     7.4566   -35.9432  -999.2500
  577.5000     7.6909   138.4080     7.4592   -35.9417  -999.2500
  578.0000     7.8115   136.8382     7.4614   -35.9402  -999.2500
  578.5000     7.9021   134.4345     7.4633   -35.9387  -999.2500
  579.0000     7.9327   132.2037     7.4656   -35.9372  -999.2500
  579.5000     7.9183   131.4019     7.5036   -35.9357  -999.2500
  580.0000     7.9192   131.3577     7.5449   -35.9342  -999.2500
  580.5000     7.9499   130.5560     7.6224   -35.9327  -999.2500
  581.0000     7.9957   130.5118     7.7133   -36.0808  -999.2500
  581.5000     8.0561   129.3699     7.8513   -36.0792  -999.2500
  582.0000     8.1169   128.1506     7.9283   -36.2274  -999.2500
  582.5000     8.1775   126.3216     8.0053   -36.3755  -999.2500
  583.0000     8.2081   125.3536     8.0829   -36.5232  -999.2500
  583.5000     8.3001   124.1287     8.1594   -36.8206  -999.2500
  584.0000     8.4193   121.9022     8.2369   -37.1182  -999.2500
  584.5000     8.5099   121.1004     8.3139   -37.1164  -999.2500
  585.0000     8.5705   120.2986     8.3161   -37.4139  -999.2500
  585.5000     8.6161   120.2544     8.3182   -37.8609  -999.2500
  586.0000     8.6466   120.2102     8.3204   -37.8594  -999.2500
  586.5000     8.6025   120.1660     8.3226   -36.6622  -999.2500
  587.0000     8.6332   120.8794     8.3249   -36.0628  -999.2500
  587.5000     8.6490   120.8333     8.3274   -36.0610  -999.2500
