~VERSION INFORMATION
 VERS.                2.0:   CWLS LOG ASCII STANDARD - VERSION 2.0
 WRAP.                 NO:   ONE LINE PER DEPTH STEP
~WELL INFORMATION
#MNEM.UNIT      DATA TYPE    INFORMATION
#----------   ------------   ------------------------------
 STRT.F            0.0000:   START DEPTH
 STOP.F          416.0000:   STOP DEPTH
 STEP.F            0.5000:   STEP LENGTH
 NULL.          -999.2500:   NO VALUE
 COMP. DEPARTMENT OF ENERGY:   COMPANY
 WELL. NPR 3 #55-61 SX 3 C1:   WELL
 FLD . TEAPOT NAVAL RESERVE:   FIELD
 LOC .       S3 T38N R78W:   LOCATION
 CNTY.            NATRONA:   COUNTY
 STAT.            WYOMING:   STATE
 CTRY. UNITED STATES OF AMERICA:   COUNTRY
 SRVC.      Dresser Atlas:   SERVICE COMPANY
 DATE.        26-JUN-1985:   LOGDATE
 API .       490251134400:   API NUMBER
~CURVE INFORMATION
#MNEM.UNIT       API CODE    CURVE DESCRIPTION
#----------   ------------   ------------------------------
 DEPT.F                  :   
 RILD.OHMM   07 120 46 00:   INDUCTION LOG DEEP RESISTIVITY
 RILM.OHMM   07 120 44 00:   INDUCTION LOG MEDIUM RESISTIVITY
 GRD .GAPI   45 310 01 00:   GAMMA RAY FROM DENSITY LOG
 NPHI.DEC    42 890 03 00:   NEUTRON POROSITY SANDSTONE
~PARAMETER INFORMATION
#MNEM.UNIT          VALUE    DESCRIPTION
#----------   ------------   ------------------------------
 PD  .                 GL:   PERMANENT DATUM
 EPD .F            5160.8:   ELEVATION PERMANENT DATUM
 LMF .                 GL:   LOG MEASURED FROM
 DMF .                 GL:   DRILLING MEASURED FROM
 EGL .F            5160.8:   GROUND LEVEL
 DATE.        26-JUN-1985:   RUN DATE
 RUN .                  1:   RUN NUMBER
 DD  .F               420:   DEPTH DRILLER
 DL  .F               420:   DEPTH LOGGER
 BLI .F               416:   BOTTOM LOG INTERVAL
 CS  .IN            8.625:   CASING SIZE
 CBD .F                79:   CASING BOTTOM DRILLER
 CBL .F                79:   CASING BOTTOM LOGGER
 BS  .IN            4.875:   BIT SIZE
 BSD .F               420:   BIT SIZE AT DEPTH
 DFT .           FOAM AIR:   DRILLING FLUID TYPE
 TCS .HRS               2:   TIME CURCULATED STOPPED
 MRT .F                60:   MAXIMUM RECORDED TEMPERATURE
 LUN .            HL 6274:   LOGGING UNIT NUMBER
 LUL .           GILLETTE:   LOGGING UNIT LOCATION
 ENGI.             RAUTIO:   RECORDING ENGINEER
 WITN.             TAYLOR:   WITNESSED BY
 CLNT.            A2DTECH:   CLIENT CODE
 ORIG.           5" PRINT:   ORIGIN OF DATA
 UWI .       490251134400:   UNIQUE WELL ID
 DICO. A2D Technologies, Inc.:   DIGITIZING COMPANY
~OTHER INFORMATION
~A    DEPT    RILD       RILM         GRD      NPHI   
# ...
  219.0000     7.7627     7.9823   144.5720     0.1012
  219.5000     7.7098     7.8728   147.0282     0.1000
  220.0000     7.5512     7.7649   148.5220     0.0994
  220.5000     7.3448     7.6168   144.9084     0.1007
  221.0000     7.2440     7.5009   140.0864     0.1039
  221.5000     7.1444     7.2956   138.8868     0.1066
  222.0000     7.0465     7.1955   138.9015     0.1096
  222.5000     6.8538     6.9502   140.7231     0.1123
  223.0000     6.5282     6.7130   138.6230     0.1138
  223.5000     6.1320     6.3941   138.9369     0.1138
  224.0000     5.7166     6.0480   142.2720     0.1135
  224.5000     5.3728     5.5633   146.8580     0.1144
  225.0000     5.1176     5.2622   147.4320     0.1163
  225.5000     4.8406     5.1182   146.5399     0.1192
  226.0000     4.7079     4.9758   145.6424     0.1283
  226.5000     4.6434     4.8420   144.7509     0.1374
  227.0000     4.6390     4.8426   143.8563     0.1495
  227.5000     4.7100     4.9803   142.0554     0.1522
  228.0000     4.8810     5.1937   140.5537     0.1385
  228.5000     5.1226     5.5695   144.1938     0.1152
  229.0000     5.3422     5.9725   144.5257     0.1088
  229.5000     5.6494     6.3160   142.9869     0.1079
  230.0000     6.0581     6.7259   140.9060     0.1070
  230.5000     6.5419     7.0691   144.8482     0.1082
  231.0000     6.9665     7.2138   151.8086     0.1100
  231.5000     7.1645     7.3161   154.8416     0.1124
  232.0000     7.3682     7.3683   150.9259     0.1142
  232.5000     7.4209     7.4207   147.0102     0.1133
  233.0000     7.4219     7.4218   144.9072     0.1096
  233.5000     7.4229     7.4748   144.6139     0.1072
  234.0000     7.4239     7.5281   144.9308     0.1054
  234.5000     7.4769     7.5845   144.9426     0.1054
  235.0000     7.4779     7.6894   143.9879     0.1054
  235.5000     7.4789     7.6906   139.2290     0.1060
  236.0000     7.4800     7.6917   136.8209     0.1069
  236.5000     7.4292     7.6927   139.8568     0.1087
  237.0000     7.3783     7.5872   145.0045     0.1102
  237.5000     7.3796     7.5882   147.7354     0.1117
  238.0000     7.3806     7.5893   150.1641     0.1129
  238.5000     7.3816     7.5375   149.5717     0.1144
  239.0000     7.4342     7.4862   147.1665     0.1174
  239.5000     7.4873     7.4875   146.8671     0.1198
  240.0000     7.5407     7.5409   149.6475     0.1201
  240.5000     7.5613     7.5947   152.7886     0.1189
  241.0000     7.4385     7.5957   155.3738     0.1167
  241.5000     7.2853     7.3878   156.5940     0.1134
  242.0000     7.0859     7.1356   155.3974     0.1109
  242.5000     6.7967     6.9403   150.5753     0.1109
  243.0000     6.5647     6.7960   146.0554     0.1109
  243.5000     6.3389     6.5588   143.0461     0.1112
  244.0000     6.1609     6.3417   141.5468     0.1130
  244.5000     6.0405     6.2545   147.2993     0.1284
  245.0000     5.9991     6.1261   153.3837     0.1269
  245.5000     6.0001     6.0421   156.1239     0.1224
  246.0000     5.9590     6.0007   157.3045     0.1187
  246.5000     5.8775     6.0017   153.3917     0.1329
  247.0000     5.7166     6.0025   147.9655     0.1332
  247.5000     5.3698     5.9168   142.5392     0.1301
  248.0000     5.0088     5.5225   143.1552     0.1262
  248.5000     4.8717     5.2969   147.3966     0.1290
  249.0000     5.0102     5.1519   151.0338     0.1335
  249.5000     5.1526     5.1526   153.7646     0.1516
  250.0000     5.1533     5.1894   157.0997     0.1595
  250.5000     5.1946     5.2998   155.8449     0.1604
  251.0000     5.3750     5.4885   154.1021     0.1437
  251.5000     5.6054     5.6854   155.3254     0.1210
  252.0000     5.9278     5.9444   157.1498     0.1185
  252.5000     6.2687     6.4012   158.9743     0.1167
  253.0000     6.7693     6.7694   161.4031     0.1140
  253.5000     7.0104     7.0105   158.7594     0.1119
  254.0000     6.9626     7.0605   153.9461     0.1100
  254.5000     6.7589     7.0121   147.8943     0.1082
  255.0000     6.1862     6.8204   143.6355     0.1070
  255.5000     5.7303     6.2738   141.9232     0.1055
  256.0000     5.3080     5.7605   142.5531     0.1049
  256.5000     5.0558     5.2353   141.9643     0.1059
  257.0000     4.8833     5.0213   141.6828     0.1092
  257.5000     4.8163     4.8840   145.6360     0.1301
  258.0000     4.7835     4.8847   153.2094     0.1443
  258.5000     4.9248     4.8853   158.6680     0.1442
  259.0000     5.0242     4.9546   155.9336     0.1269
  259.5000     5.0249     5.0600   151.2738     0.1182
  260.0000     5.2770     5.3138   147.2545     0.1212
  260.5000     5.6984     5.7974   145.4624     0.1194
  261.0000     6.1534     6.5521   144.2745     0.1124
  261.5000     6.5987     6.8584   143.3836     0.1060
  262.0000     6.9801     7.0701   142.2008     0.1033
  262.5000     7.1445     7.2818   142.2214     0.0993
  263.0000     7.2800     7.4075   142.2420     0.0953
  263.5000     7.4488     7.4095   142.2625     0.0914
  264.0000     7.5388     7.4115   139.1582     0.0926
  264.5000     7.5926     7.4135   136.2665     0.0947
  265.0000     7.5406     7.4156   135.3756     0.0962
  265.5000     7.5418     7.4180   136.9119     0.0974
  266.0000     7.4902     7.3680   142.3705     0.0977
  266.5000     7.4394     7.3705   147.8291     0.0979
  267.0000     7.4404     7.3725   150.8708     0.0985
  267.5000     7.4415     7.3228   146.0576     0.0946
  268.0000     7.4427     7.2739   144.8697     0.0939
  268.5000     7.4437     7.2257   144.2912     0.0939
  269.0000     7.3930     7.2783   141.2906     0.0939
  269.5000     7.3424     7.3841   140.0975     0.0936
  270.0000     7.1916     7.4363   143.1444     0.0933
  270.5000     7.1424     7.5960   145.8840     0.0966
  271.0000     7.3456     7.7586   144.6961     0.0984
  271.5000     7.6081     7.8697   143.5082     0.0979
  272.0000     7.8782     8.0382   142.0182     0.0932
  272.5000     7.7164     7.9840   135.5435     0.0862
  273.0000     7.3498     7.7131   129.6778     0.0725
  273.5000     6.6672     7.3477   126.3751     0.0677
  274.0000     5.9642     6.4378   124.5829     0.0652
  274.5000     5.4103     5.2471   125.5098     0.0664
  275.0000     5.1533     4.5298   128.2495     0.0815
  275.5000     4.9774     4.3909   134.9165     0.1049
  276.0000     4.9781     4.6121   145.5111     0.1369
  276.5000     5.0138     4.9464   153.3926     0.1190
  277.0000     4.9794     5.4551   155.5220     0.0751
  277.5000     5.2660     6.2295   140.4420     0.0611
  278.0000     5.7663     7.0153   132.3055     0.0675
  278.5000     6.4477     7.6830   127.7943     0.0729
  279.0000     7.4654     8.2977   129.0233     0.0671
  279.5000     8.2896     8.5405   132.3672     0.0653
  280.0000     8.5252     8.7180   134.8047     0.0674
  280.5000     8.5860     8.8428   135.1273     0.0701
  281.0000     8.7080     8.9071   135.7603     0.0704
  281.5000     8.8315     9.0347   138.9215     0.0685
  282.0000     9.0825     9.2281   143.9555     0.0676
  282.5000     9.6048     9.7601   147.6015     0.0688
  283.0000    10.2282    10.4678   148.2211     0.0706
  283.5000    10.7413    11.2267   143.1109     0.0743
  284.0000    11.5185    11.9638   133.4637     0.0808
  284.5000    12.1894    12.7699   115.9616     0.0657
  285.0000    13.0928    13.8509   105.1061     0.0433
  285.5000    14.1058    14.8551    91.6794    -0.0043
  286.0000    14.8133    15.3863    80.5923    -0.0246
  286.5000    15.3409    15.6065    74.0551    -0.0156
  287.0000    15.6673    15.8289    71.9609     0.0044
  287.5000    15.3451    15.7232    71.6742     0.0204
  288.0000    14.6161    15.2960    71.0956     0.0285
  288.5000    14.1173    14.9834    70.8090     0.0346
  289.0000    13.8269    14.5693    74.4600     0.0382
  289.5000    13.7327    14.2775    79.3144     0.0419
  290.0000    14.1235    14.1821    82.6583     0.0455
  290.5000    14.5249    14.2862    81.1734     0.0491
  291.0000    14.4259    14.4908    79.3813     0.0481
  291.5000    14.0306    14.6982    76.9849     0.0415
