~VERSION INFORMATION
 VERS.                2.0:   CWLS LOG ASCII STANDARD - VERSION 2.0
 WRAP.                 NO:   ONE LINE PER DEPTH STEP
~WELL INFORMATION
#MNEM.UNIT      DATA TYPE    INFORMATION
#----------   ------------   ------------------------------
 STRT.F           60.0000:   START DEPTH
 STOP.F         1143.0000:   STOP DEPTH
 STEP.F            0.5000:   STEP LENGTH
 NULL.          -999.2500:   NO VALUE
 COMP. U S NAVY-INTEX OIL:   COMPANY
 WELL.    N.P.R . 3 #63-2:   WELL
 FLD .             TEAPOT:   FIELD
 LOC .       S2 T38N R78W:   LOCATION
 CNTY.            NATRONA:   COUNTY
 STAT.            WYOMING:   STATE
 CTRY. UNITED STATES OF AMERICA:   COUNTRY
 SRVC. Schlumberger Well Surveying Corp:   SERVICE COMPANY
 DATE.        24-MAY-1964:   LOGDATE
 API .       490250645500:   API NUMBER
~CURVE INFORMATION
#MNEM.UNIT       API CODE    CURVE DESCRIPTION
#----------   ------------   ------------------------------
 DEPT.F                  :   
 SPR .MV     05 010 01 00:   SPONTANEOUS POTENTIAL FROM RES.
 ASN .OHMM   05 041 16 00:   AMPLIFIED SHORT NORMAL 16"
 ILD .OHMM   05 120 46 00:   INDUCTION LOG DEEP
 CILD.MMHO   05 110 46 00:   CONDUCTIVITY INDUCTION LOG DEEP
 CALS.IN     60 280 50 00:   CALIPER FROM SONIC LOG
 DT  .US/F   60 520 33 00:   INTERVAL TRANSIT TIME
~PARAMETER INFORMATION
#MNEM.UNIT          VALUE    DESCRIPTION
#----------   ------------   ------------------------------
 PD  .                 GL:   PERMANENT DATUM
 EPD .F              5181:   ELEVATION PERMANENT DATUM
 LMF .                 KB:   LOG MEASURED FROM
 DAPD.F                 5:   FEET ABOVE PERMANENT DATUM
 DMF .                 KB:   DRILLING MEASURED FROM
 EKB .F              5186:   KELLING BUSHING
 EGL .F              5181:   GROUND LEVEL
 DATE.        24-MAY-1964:   RUN DATE
 RUN .                  1:   RUN NUMBER
 DD  .F              1140:   DEPTH DRILLER
 DL  .F              1144:   DEPTH LOGGER
 BLI .F              1143:   BOTTOM LOG INTERVAL
 TLI .F                82:   TOP LOG INTERVAL
 CS  .IN            8.625:   CASING SIZE
 CBD .F                10:   CASING BOTTOM DRILLER
 BS  .IN            7.875:   BIT SIZE
 BSD .F              1140:   BIT SIZE AT DEPTH
 DFT .            GEL/OIL:   DRILLING FLUID TYPE
 DFD .                9.0:   DRILLING FLUID DENSITY
 DFV .                 63:   DRILLING FLUID VISCOSITY
 DFPH.                8.0:   DRILLING FLUID PH
 DFL .                7.6:   DRILLING FLUID LOSS
 MSS .           FLOWLINE:   MUD SAMPLE SOURCE
 RMS .OHMM           0.87:   RESISTIVITY MUD SAMPLE
 MST .F                84:   MUD SAMPLE TEMPERATURE
 RMF .OHMM           0.43:   RESISTIVITY MUD FILTRATE SAMPLE
 MFST.F                84:   MUD FILTRATE SAMPLE TEMPERATURE
 RMC .OHMM           1.52:   RESISTIVITY MUD CAKE
 MCST.F                84:   MUD CAKE SAMPLE TEMPERATURE
 MFSS.                 FP:   MUD FILTRATE SAMPLE SOURCE
 MCSS.                 FP:   MUD CAKE SAMPLE SOURCE
 TCS .HRS               2:   TIME CURCULATED STOPPED
 LUN .               4507:   LOGGING UNIT NUMBER
 LUL .               CSPR:   LOGGING UNIT LOCATION
 ENGI.             DANNER:   RECORDING ENGINEER
 WITN.          JORGENSEN:   WITNESSED BY
 CLNT.            A2DTECH:   CLIENT CODE
 ORIG.       2", 5" PRINT:   ORIGIN OF DATA
 UWI .       490250645500:   UNIQUE WELL ID
 DICO. A2D Technologies, Inc.:   DIGITIZING COMPANY
~OTHER INFORMATION
~A   DEPT      SPR          ASN        ILD      CILD      CALS         DT   
# ...
  268.0000   -42.6687     7.6258     5.7808   184.2784  -999.2500  -999.2500
  268.5000   -42.5173     7.4002     5.7808   188.3962  -999.2500  -999.2500
  269.0000   -42.5166     7.3223     5.7057   191.1596  -999.2500  -999.2500
  269.5000   -42.6663     7.2805     5.7057   192.6081  -999.2500  -999.2500
  270.0000   -42.7310     7.2734     5.5881   192.3695  -999.2500  -999.2500
  270.5000   -42.8155     7.2183     5.4666   191.1300  -999.2500  -999.2500
  271.0000   -42.9147     6.9652     5.4054   190.3916  -999.2500  -999.2500
  271.5000   -43.0065     6.9253     5.3737   190.4066  -999.2500  -999.2500
  272.0000   -43.2650     6.9049     5.2523   191.1766  -999.2500  -999.2500
  272.5000   -43.2643     6.9048     5.1308   193.3232  -999.2500  -999.2500
  273.0000   -43.2635     6.9019     5.1051   198.8856  -999.2500  -999.2500
  273.5000   -43.2627     6.8595     5.0300   204.2471  -999.2500  -999.2500
  274.0000   -43.2620     6.7610     5.0300   206.2952  -999.2500  -999.2500
  274.5000   -43.2613     6.5838     5.0201   206.3113  -999.2500  -999.2500
  275.0000   -43.2605     6.4093     4.9550   206.3253  -999.2500  -999.2500
  275.5000   -43.1092     6.2956     4.9734   206.3404  -999.2500  -999.2500
  276.0000   -42.9577     6.2741     5.0544   206.3579  -999.2500  -999.2500
  276.5000   -42.8926     6.4128     5.1354   205.0905  -999.2500  -999.2500
  277.0000   -42.8057     6.6340     5.2164   203.3738  -999.2500  -999.2500
  277.5000   -42.7058     6.7833     5.2974   199.0590  -999.2500  -999.2500
  278.0000   -42.5030     6.8548     5.3784   195.2708  -999.2500  -999.2500
  278.5000   -42.5022     6.9183     5.4594   189.8662  -999.2500  -999.2500
  279.0000   -42.3509     6.9816     5.5404   186.6418  -999.2500  -999.2500
  279.5000   -42.3501     7.0264     5.6214   185.3761  -999.2500  -999.2500
  280.0000   -42.3493     7.0375     5.7057   185.3916  -999.2500  -999.2500
  280.5000   -42.3486     7.0374     5.5892   186.3730  -999.2500  -999.2500
  281.0000   -42.4985     7.0372     5.4677   188.4347  -999.2500  -999.2500
  281.5000   -42.5848     7.0371     5.4054   190.3689  -999.2500  -999.2500
  282.0000   -42.6767     7.0369     5.3749   192.4300  -999.2500  -999.2500
  282.5000   -42.7975     7.0272     5.3284   195.2584  -999.2500  -999.2500
  283.0000   -42.7967     6.9125     5.2070   197.0532  -999.2500  -999.2500
  283.5000   -42.9466     6.7216     5.1605   199.0514  -999.2500  -999.2500
  284.0000   -42.9458     6.6616     5.1051   201.0240  -999.2500  -999.2500
  284.5000   -42.9451     6.6296     5.1051   202.0914  -999.2500  -999.2500
  285.0000   -43.0948     6.6162     5.1051   196.0859  -999.2500  -999.2500
  285.5000   -43.0942     6.6214     5.1802   189.4728  -999.2500  -999.2500
  286.0000   -42.9428     6.6609     5.3568   184.6688  -999.2500  -999.2500
  286.5000   -42.9419     6.9076     5.4805   179.5662  -999.2500  -999.2500
  287.0000   -42.9413     7.1637     5.5998   177.6204  -999.2500  -999.2500
  287.5000   -42.9405     7.4550     5.7214   174.3231  -999.2500  -999.2500
  288.0000   -42.8534     7.5706     5.8559   172.0282  -999.2500  -999.2500
  288.5000   -42.7884     7.6346     6.0060   169.7214  -999.2500  -999.2500
  289.0000   -42.7876     7.6494     6.1610   167.5925  -999.2500  -999.2500
  289.5000   -42.7869     7.6447     6.3063   167.3167  -999.2500  -999.2500
  290.0000   -42.6356     7.6192     6.1111   169.1265  -999.2500  -999.2500
  290.5000   -42.5371     7.4877     5.7808   181.7789  -999.2500  -999.2500
  291.0000   -42.4835     7.2346     5.4347   190.5427  -999.2500  -999.2500
  291.5000   -42.4826     6.9816     5.1051   198.5405  -999.2500  -999.2500
  292.0000   -42.3314     6.6890     4.9550   204.8793  -999.2500  -999.2500
  292.5000   -42.3306     6.5291     4.8505   208.5466  -999.2500  -999.2500
  293.0000   -42.3297     6.3395     4.8033   212.2139  -999.2500  -999.2500
  293.5000   -42.3291     6.1499     4.6547   215.8813  -999.2500  -999.2500
  294.0000   -42.3283     6.0888     4.5796   218.1934  -999.2500  -999.2500
  294.5000   -42.3276     6.1719     4.7297   216.9654  -999.2500  -999.2500
  295.0000   -42.3268     6.3312     4.8774   213.3286  -999.2500  -999.2500
  295.5000   -42.3260     6.4904     5.0376   207.6978  -999.2500  -999.2500
  296.0000   -42.3876     6.6496     5.2553   202.0880  -999.2500  -999.2500
  296.5000   -42.4795     6.8089     5.4562   195.6105  -999.2500  -999.2500
  297.0000   -42.6250     6.9681     5.7057   189.1329  -999.2500  -999.2500
  297.5000   -42.7750     7.1372     5.7921   182.6554  -999.2500  -999.2500
  298.0000   -42.7740     7.3116     5.9454   176.1778  -999.2500  -999.2500
  298.5000   -42.8469     7.4643     6.0811   170.5496  -999.2500  -999.2500
  299.0000   -42.9387     7.6015     6.1562   167.8163  -999.2500  -999.2500
  299.5000   -43.0730     7.6578     6.2348   166.4032  -999.2500  -999.2500
  300.0000   -42.8714     7.6912     6.3063   166.2142  -999.2500  -999.2500
  300.5000   -42.6197     7.7093     6.1792   168.9048  -999.2500  -999.2500
  301.0000   -42.7048     7.7040     6.0192   171.5953  -999.2500  -999.2500
  301.5000   -42.7689     7.5995     5.8592   174.5547  -999.2500  -999.2500
  302.0000   -42.7680     7.4360     5.6992   179.9854  -999.2500  -999.2500
  302.5000   -42.9179     7.2597     5.5391   186.5029  -999.2500  -999.2500
  303.0000   -42.9172     7.0570     5.4037   192.4476  -999.2500  -999.2500
  303.5000   -42.9164     6.8533     5.2345   197.6645  -999.2500  -999.2500
  304.0000   -42.9157     6.6461     5.0861   202.8815  -999.2500  -999.2500
  304.5000   -42.9149     6.4161     4.8799   208.0984  -999.2500  -999.2500
  305.0000   -42.9141     6.2661     4.7323   213.3153  -999.2500  -999.2500
  305.5000   -42.9134     6.1761     4.5796   217.2892  -999.2500  -999.2500
  306.0000   -42.9125     6.1760     4.6547   218.5139  -999.2500  -999.2500
  306.5000   -42.9119     6.2217     4.7544   216.1640  -999.2500  -999.2500
  307.0000   -42.9111     6.3133     4.9550   208.3879  -999.2500  -999.2500
  307.5000   -42.9104     6.4681     5.1890   197.3456  -999.2500  -999.2500
  308.0000   -42.9096     6.6855     5.4314   188.3835  -999.2500  -999.2500
  308.5000   -42.9088     6.9000     5.7057   182.1619  -999.2500  -999.2500
  309.0000   -42.8383     7.2280     5.8111   176.2729  -999.2500  -999.2500
  309.5000   -42.7568     7.5248     6.0060   172.5763  -999.2500  -999.2500
  310.0000   -42.6053     7.5997     6.0060   170.2558  -999.2500  -999.2500
  310.5000   -42.6047     7.6746     6.0060   170.2604  -999.2500  -999.2500
  311.0000   -42.4533     7.7195     6.0060   170.5221  -999.2500  -999.2500
  311.5000   -42.4526     7.6552     5.9309   171.0204  -999.2500  -999.2500
  312.0000   -42.3012     7.4645     5.8559   172.9720  -999.2500  -999.2500
  312.5000   -42.3004     7.3557     5.8559   175.1065  -999.2500  -999.2500
  313.0000   -42.2997     7.2984     5.8559   177.8091  -999.2500  -999.2500
  313.5000   -42.2990     7.2693     5.8559   179.6587  -999.2500  -999.2500
  314.0000   -42.2982     7.2923     5.8559   180.0753  -999.2500  -999.2500
  314.5000   -42.2975     7.3292     5.8559   180.0798  -999.2500  -999.2500
  315.0000   -42.2966     7.4040     5.9309   178.8528  -999.2500  -999.2500
  315.5000   -42.2959     7.5026     5.9608   177.0747  -999.2500  -999.2500
  316.0000   -42.3132     7.6438     6.0060   174.3073  -999.2500  -999.2500
  316.5000   -42.4450     7.7352     6.0532   171.5374  -999.2500  -999.2500
  317.0000   -42.5949     7.8835     6.1562   168.0502  -999.2500  -999.2500
  317.5000   -42.5941     8.0083     6.2312   166.3406  -999.2500  -999.2500
  318.0000   -42.7440     8.1053     6.3063   164.2570  -999.2500  -999.2500
  318.5000   -42.7432     8.1981     6.3880   162.5365  -999.2500  -999.2500
  319.0000   -42.7424     8.2411     6.4565   161.0693  -999.2500  -999.2500
  319.5000   -42.8248     8.2430     6.5554   159.0326  -999.2500  -999.2500
