~VERSION INFORMATION
 VERS.                2.0:   CWLS LOG ASCII STANDARD - VERSION 2.0
 WRAP.                 NO:   ONE LINE PER DEPTH STEP
~WELL INFORMATION
#MNEM.UNIT      DATA TYPE    INFORMATION
#----------   ------------   ------------------------------
 STRT.F           50.0000:   START DEPTH
 STOP.F         1561.5000:   STOP DEPTH
 STEP.F            0.5000:   STEP LENGTH
 NULL.          -999.2500:   NO VALUE
 COMP. FENIX & SCISSON INC:   COMPANY
 WELL.  72 SH 3 STX #72-3:   WELL
 FLD .             TEAPOT:   FIELD
 LOC .       S3 T38N R78W:   LOCATION
 CNTY.            NATRONA:   COUNTY
 STAT.            WYOMING:   STATE
 CTRY. UNITED STATES OF AMERICA:   COUNTRY
 SRVC.           BIRDWELL:   SERVICE COMPANY
 DATE.        31-JUL-1979:   LOGDATE
 API .       490251078600:   API NUMBER
~CURVE INFORMATION
#MNEM.UNIT       API CODE    CURVE DESCRIPTION
#----------   ------------   ------------------------------
 DEPT.F                  :   
 CALD.IN     45 280 60 00:   CALIPER FROM DENSITY LOG
 GRD .GAPI   45 310 01 00:   GAMMA RAY FROM DENSITY LOG
 RHOB.G/C3   45 350 01 00:   BULK DENSITY
 CORR.G/C3   45 356 01 00:   DENSITY CORRECTION
 DPHI.DEC    45 890 12 00:   DENSITY POROSITY SANDSTONE
 GR  .GAPI   81 310 01 00:   GAMMA RAY
~PARAMETER INFORMATION
#MNEM.UNIT          VALUE    DESCRIPTION
#----------   ------------   ------------------------------
 PD  .                 GL:   PERMANENT DATUM
 EPD .F              5165:   ELEVATION PERMANENT DATUM
 LMF .                 KB:   LOG MEASURED FROM
 DAPD.F                10:   FEET ABOVE PERMANENT DATUM
 DMF .                 KB:   DRILLING MEASURED FROM
 EKB .F              5175:   KELLING BUSHING
 EGL .F              5165:   GROUND LEVEL
 DATE.            7-31-79:   RUN DATE
 RUN .                  1:   RUN NUMBER
 DD  .F              1564:   DEPTH DRILLER
 DL  .F              1560:   DEPTH LOGGER
 BLI .F              1560:   BOTTOM LOG INTERVAL
 TLI .F               700:   TOP LOG INTERVAL
 CS  .IN            9.625:   CASING SIZE
 CBD .F               691:   CASING BOTTOM DRILLER
 CBL .F               680:   CASING BOTTOM LOGGER
 BS  .IN            7.875:   BIT SIZE
 BSD .F              1564:   BIT SIZE AT DEPTH
 DFT .                OIL:   DRILLING FLUID TYPE
 BHT .F                92:   BOTTOM HOLE TEMPERATURE
 TCS .HRS               2:   TIME CURCULATED STOPPED
 MRT .F                92:   MAXIMUM RECORDED TEMPERATURE
 LUN .               3029:   LOGGING UNIT NUMBER
 LUL .                CPR:   LOGGING UNIT LOCATION
 ENGI.             MILLER:   RECORDING ENGINEER
 WITN.           DINSMORE:   WITNESSED BY
 CLNT.            A2DTECH:   CLIENT CODE
 ORIG.       2", 5" PRINT:   ORIGIN OF DATA
 UWI .       490251078600:   UNIQUE WELL ID
 DICO. A2D Technologies, Inc.:   DIGITIZING COMPANY
~OTHER INFORMATION
~A   DEPT     CALD        GRD       RHOB       CORR       DPHI          GR  
# ...
 1350.0000     8.8428    87.3724     2.5104     0.0275     0.0186    89.4317
 1350.5000     8.8485    90.0276     2.5157     0.0390     0.0163    87.6476
 1351.0000     8.8543    92.4668     2.5213     0.0471     0.0141    85.7495
 1351.5000     8.8600    91.5585     2.5184     0.0446     0.0157    86.3998
 1352.0000     8.8657    88.5562     2.5128     0.0419     0.0188    85.6709
 1352.5000     8.8713    85.5538     2.5070     0.0391     0.0220    83.7074
 1353.0000     8.8779    85.1453     2.5013     0.0298     0.0252    82.6983
 1353.5000     8.9325    85.2482     2.4955     0.0195     0.0272    84.6894
 1354.0000     8.9929    86.3856     2.4911     0.0173     0.0255    86.9256
 1354.5000     9.0537    89.7424     2.4979     0.0156     0.0257    89.1739
 1355.0000     9.1152    93.0723     2.5046     0.0139     0.0282    87.8967
 1355.5000     9.1129    96.4707     2.5114     0.0121     0.0257    86.2425
 1356.0000     9.0935    97.5876     2.5182     0.0104     0.0222    87.4315
 1356.5000     9.0745    97.5689     2.5167     0.0086     0.0187    89.5925
 1357.0000     9.0557    97.5083     2.5107     0.0068     0.0179    90.2728
 1357.5000     9.0369    97.3630     2.5053     0.0053     0.0195    90.5492
 1358.0000     9.0181    93.5419     2.5185     0.0235     0.0193    91.6368
 1358.5000     8.9992    92.6612     2.5337     0.0436     0.0058    94.5406
 1359.0000     8.9804    93.1598     2.5258     0.0637     0.0083    96.5497
 1359.5000     8.9616    93.6870     2.5197     0.0838     0.0112    96.2162
 1360.0000     8.9421    94.1930     2.5429     0.1038     0.0074    91.3253
 1360.5000     8.9379    93.6678     2.5677     0.1240    -0.0091    89.7389
 1361.0000     8.9378    89.7401     2.5833     0.1326    -0.0205    92.1004
 1361.5000     8.9379    86.4100     2.5673     0.1159    -0.0185    93.5921
 1362.0000     8.9379    88.9492     2.5645     0.0976    -0.0138    88.7491
 1362.5000     8.9355    92.3425     2.5700     0.0794    -0.0092    82.1489
 1363.0000     8.9187    94.6324     2.5577     0.0611    -0.0046    75.3162
 1363.5000     8.9019    94.2852     2.5472     0.0429    -0.0026    73.9563
 1364.0000     8.8852    94.7879     2.5503     0.0249    -0.0016    79.1137
 1364.5000     8.8684    99.9526     2.5547     0.0121    -0.0027    84.0535
 1365.0000     8.8517    99.9598     2.5517     0.0100    -0.0049    85.4528
 1365.5000     8.8373    94.8886     2.5483     0.0077    -0.0072    86.9186
 1366.0000     8.8376    92.8075     2.5605     0.0055    -0.0045    88.3908
 1366.5000     8.8377    92.3899     2.5510     0.0033     0.0021    88.9320
 1367.0000     8.8377    93.2063     2.5360     0.0010     0.0087    87.8639
 1367.5000     8.8377    93.5216     2.5207    -0.0032     0.0147    86.5745
 1368.0000     8.8377    92.3345     2.5169    -0.0075     0.0129    87.8035
 1368.5000     8.8377    89.6317     2.5262    -0.0104     0.0096    91.4152
 1369.0000     8.8377    91.6693     2.5352    -0.0060     0.0064    93.2319
 1369.5000     8.8377    93.6416     2.5379    -0.0017     0.0048    90.8930
 1370.0000     8.8377    95.5704     2.5402     0.0026     0.0052    86.9508
 1370.5000     8.8377    94.4948     2.5426     0.0069     0.0021    86.1168
 1371.0000     8.8377    94.9763     2.5373     0.0112     0.0036    86.5033
 1371.5000     8.8377    95.5121     2.5270     0.0130     0.0123    83.9603
 1372.0000     8.8377    92.3412     2.5166     0.0130     0.0189    83.5218
 1372.5000     8.8377    88.8810     2.5061     0.0130     0.0243    88.9912
 1373.0000     8.8377    90.1974     2.4954     0.0130     0.0286    95.1713
 1373.5000     8.8377    91.4385     2.4934     0.0130     0.0268   100.5284
 1374.0000     8.8377    89.7102     2.4995     0.0115     0.0237   101.4031
 1374.5000     8.8377    88.3572     2.5094     0.0100     0.0207    98.1643
 1375.0000     8.8377    89.5388     2.5155     0.0086     0.0176    94.7563
 1375.5000     8.8377    90.4420     2.5149     0.0071     0.0163    91.3885
 1376.0000     8.8377    87.8903     2.5162     0.0056     0.0151    89.0280
 1376.5000     8.8377    91.1996     2.5256     0.0046     0.0104    91.2792
 1377.0000     8.8377    95.4767     2.5350     0.0037     0.0058    93.4881
 1377.5000     8.8377    95.8363     2.5334     0.0027     0.0078    93.9257
 1378.0000     8.8377    89.8948     2.5296     0.0018     0.0098    90.7236
 1378.5000     8.8371    92.9562     2.5258     0.0018     0.0118    88.4597
 1379.0000     8.8364    98.3113     2.5243     0.0061     0.0125    88.1982
 1379.5000     8.8356    99.7723     2.5291     0.0104     0.0103    90.9428
 1380.0000     8.8349    97.4445     2.5336     0.0146     0.0043    93.6179
 1380.5000     8.8342    94.6097     2.5382     0.0189    -0.0022    93.1857
 1381.0000     8.8335    96.8171     2.5428     0.0229     0.0005    91.8887
 1381.5000     8.8328   101.1185     2.5431     0.0220     0.0031    90.6686
 1382.0000     8.8320   101.7317     2.5416     0.0165     0.0046    91.0954
 1382.5000     8.8313    97.4703     2.5406     0.0111     0.0009    92.0104
 1383.0000     8.8306    98.0345     2.5451     0.0068    -0.0027    92.9938
 1383.5000     8.8299    97.7225     2.5538     0.0105    -0.0063    90.6405
 1384.0000     8.8291    97.3517     2.5684     0.0080    -0.0099    87.4313
 1384.5000     8.8284   100.3615     2.5701     0.0055    -0.0134    87.4751
 1385.0000     8.8277   100.4107     2.5602    -0.0006    -0.0096    86.3592
 1385.5000     8.8270    97.5155     2.5500    -0.0072    -0.0038    83.7255
 1386.0000     8.8263    96.0163     2.5368    -0.0099     0.0069    82.2112
 1386.5000     8.8255    97.7431     2.5208    -0.0074     0.0139    85.5230
 1387.0000     8.8248    99.8323     2.5204    -0.0049     0.0109    88.8403
 1387.5000     8.8241   101.9388     2.5232    -0.0024     0.0080    92.1555
 1388.0000     8.8234   102.7141     2.5361     0.0002     0.0050    93.0306
 1388.5000     8.8226    98.7948     2.5452     0.0032     0.0022    87.3831
 1389.0000     8.8219    95.3343     2.5428     0.0005     0.0026    87.7307
 1389.5000     8.8212    96.5267     2.5405    -0.0034     0.0044    88.1678
 1390.0000     8.8205    98.1726     2.5384    -0.0072     0.0049    88.5512
 1390.5000     8.8197    97.4963     2.5414     0.0016     0.0029    89.6770
 1391.0000     8.8190    95.4742     2.5443     0.0117     0.0009    91.1380
 1391.5000     8.8183    93.4851     2.5452     0.0210     0.0007    94.7062
 1392.0000     8.8176    94.1347     2.5393     0.0153     0.0054    92.5891
 1392.5000     8.8169    96.1540     2.5336     0.0085     0.0098    89.5872
 1393.0000     8.8162    98.1709     2.5321     0.0018     0.0086    89.4441
 1393.5000     8.8154   100.1991     2.5356     0.0032     0.0067    93.7310
 1394.0000     8.8147    99.4822     2.5390     0.0066     0.0048    96.7781
 1394.5000     8.8140    98.4073     2.5434     0.0057     0.0026    98.0424
 1395.0000     8.8133    97.5368     2.5504     0.0088     0.0003    92.8823
 1395.5000     8.8126    97.0866     2.5491     0.0109    -0.0018    87.2149
 1396.0000     8.8119    94.4168     2.5473     0.0130    -0.0063    86.7754
 1396.5000     8.8112    94.0294     2.5552     0.0151    -0.0105    87.7816
 1397.0000     8.8105    94.8773     2.5662     0.0170    -0.0118    88.8068
 1397.5000     8.8097    95.7444     2.5703     0.0149    -0.0130    89.0442
 1398.0000     8.8090    95.6061     2.5638     0.0062    -0.0082    88.0164
 1398.5000     8.8083    91.5785     2.5563    -0.0022    -0.0038    86.9922
 1399.0000     8.8076    90.0064     2.5487     0.0015     0.0005    86.0329
 1399.5000     8.8069    89.6955     2.5414     0.0062     0.0042    88.5385
 1400.0000     8.8062    93.3427     2.5446    -0.0017     0.0078    91.2778
 1400.5000     8.8055    97.3844     2.5456    -0.0174     0.0108    93.9685
 1401.0000     8.8048    97.8792     2.5370    -0.0049     0.0093    93.9976
 1401.5000     8.8041    96.4518     2.5285     0.0072     0.0130    91.4492
