~VERSION INFORMATION
 VERS.                2.0:   CWLS LOG ASCII STANDARD - VERSION 2.0
 WRAP.                 NO:   ONE LINE PER DEPTH STEP
~WELL INFORMATION
#MNEM.UNIT      DATA TYPE    INFORMATION
#----------   ------------   ------------------------------
 STRT.F            8.0000:   START DEPTH
 STOP.F          513.0000:   STOP DEPTH
 STEP.F            0.5000:   STEP LENGTH
 NULL.          -999.2500:   NO VALUE
 COMP. LAWRENCE-ALLISON &AS:   COMPANY
 WELL. NPR 3 #51-63SX10UP3:   WELL
 FLD .             TEAPOT:   FIELD
 LOC .      S10 T38N R78W:   LOCATION
 CNTY.            NATRONA:   COUNTY
 STAT.            WYOMING:   STATE
 CTRY. UNITED STATES OF AMERICA:   COUNTRY
 SRVC.      Dresser Atlas:   SERVICE COMPANY
 DATE.        09-DEC-1984:   LOGDATE
 API .       490251099400:   API NUMBER
~CURVE INFORMATION
#MNEM.UNIT       API CODE    CURVE DESCRIPTION
#----------   ------------   ------------------------------
 DEPT.F                  :   
 RFOC.OHMM   07 220 01 00:   RESISTIVITY FOCUSED LOG
 RILD.OHMM   07 120 46 00:   INDUCTION LOG DEEP RESISTIVITY
 RILM.OHMM   07 120 44 00:   RESITIVITY LONG MEDIUM
 SPR .MV     07 010 01 00:   SPONTANEOUS POTENTIAL
 CALD.IN     45 280 60 00:   CALIPER FROM DENSITY LOG
 CORR.none               :   
 DEN .G/C3   45 350 01 00:   COMPENSATED BULK DENSTIY
 GRD .GAPI   45 310 01 00:   GAMMA RAY FROM DENSITY LOG
 PORD.DEC    45 890 12 00:   POROSITY DENSITY SANDSTONE
 CNC .DEC    42 890 03 00:   NEUTRON POROSITY SANDSTONE
~PARAMETER INFORMATION
#MNEM.UNIT          VALUE    DESCRIPTION
#----------   ------------   ------------------------------
 PD  .                 GL:   PERMANENT DATUM
 EPD .F              5162:   ELEVATION PERMANENT DATUM
 LMF .                 GL:   LOG MEASURED FROM
 DMF .                 GL:   DRILLING MEASURED FROM
 EGL .F              5162:   GROUND LEVEL
 DATE.        09-DEC-1984:   RUN DATE
 RUN .                  1:   RUN NUMBER
 DD  .F               510:   DEPTH DRILLER
 DL  .F               515:   DEPTH LOGGER
 BLI .F               513:   BOTTOM LOG INTERVAL
 TLI .F                20:   TOP LOG INTERVAL
 CS  .IN            8.625:   CASING SIZE
 CBD .F                20:   CASING BOTTOM DRILLER
 CBL .F                20:   CASING BOTTOM LOGGER
 BS  .IN            7.875:   BIT SIZE
 BSD .F               510:   BIT SIZE AT DEPTH
 DFT .          KCL-WATER:   DRILLING FLUID TYPE
 MSS .            MUDTANK:   MUD SAMPLE SOURCE
 RMS .OHMM           0.41:   RESISTIVITY MUD SAMPLE
 MST .F                45:   MUD SAMPLE TEMPERATURE
 RMF .OHMM           0.31:   RESISTIVITY MUD FILTRATE SAMPLE
 MFST.F                45:   MUD FILTRATE SAMPLE TEMPERATURE
 RMC .OHMM           0.51:   RESISTIVITY MUD CAKE
 MCST.F                45:   MUD CAKE SAMPLE TEMPERATURE
 MFSS.               CALC:   MUD FILTRATE SAMPLE SOURCE
 MCSS.               CALC:   MUD CAKE SAMPLE SOURCE
 RMB .OHMM           0.22:   RESISTIVITY MUD AT BHT
 BHT .F                85:   BOTTOM HOLE TEMPERATURE
 TCS .HRS               2:   TIME CURCULATED STOPPED
 MRT .F               100:   MAXIMUM RECORDED TEMPERATURE
 LUN .               6270:   LOGGING UNIT NUMBER
 LUL .                 FM:   LOGGING UNIT LOCATION
 ENGI.          E. GOVETT:   RECORDING ENGINEER
 WITN.              LUERS:   WITNESSED BY
 CLNT.            A2DTECH:   CLIENT CODE
 ORIG.           5" PRINT:   ORIGIN OF DATA
 UWI .       490251099400:   UNIQUE WELL ID
 DICO. A2D Technologies, Inc.:   DIGITIZING COMPANY
~OTHER INFORMATION
~A    DEPT    RFOC       RILD       RILM        SPR       CALD       CORR        DEN        GRD       PORD          CNC 
# ...
  443.5000     9.2756     6.8081     7.2881   -48.0443     7.9976     0.0264     2.4766    99.3053     0.1226     0.3129
  444.0000     7.7462     6.7160     7.0437   -48.4829     7.9969     0.0294     2.4613    98.0992     0.1354     0.3077
  444.5000     7.0808     6.6739     7.0975   -48.7683     7.9811     0.0309     2.4423   100.1203     0.1472     0.2886
  445.0000     7.7009     6.7238     7.4045   -48.7588     7.9804     0.0294     2.4248   100.9476     0.1548     0.2740
  445.5000     8.7342     6.8690     7.6714   -49.0465     7.9796     0.0279     2.4186   101.2428     0.1567     0.2662
  446.0000    10.2095     7.0669     7.9479   -49.6313     7.9941     0.0278     2.4339   101.6895     0.1406     0.2656
  446.5000    11.2275     7.4231     8.1773   -50.0676     7.9931     0.0294     2.4614   103.0385     0.1257     0.2686
  447.0000    11.3922     7.7972     8.3592   -50.0475     7.9925     0.0418     2.4884   104.2382     0.1145     0.2698
  447.5000    11.6386     8.1902     8.6134   -49.8997     7.9917     0.0582     2.5036   100.6236     0.1081     0.2753
  448.0000    12.1409     8.6031     9.0321   -50.1854     7.9909     0.0733     2.5172    97.6117     0.1018     0.2854
  448.5000    12.5772     8.9119     9.4228   -50.6216     7.9902     0.0505     2.5377    96.1035     0.0866     0.2776
  449.0000    12.5841     9.2962     9.6261   -51.0579     7.9895     0.0293     2.5650    97.6028     0.0679     0.2639
  449.5000    12.3311     9.5631     9.3697   -51.4942     7.9886     0.0186     2.5718    99.8540     0.0699     0.2547
  450.0000    12.3205     9.7356     9.3093   -51.9305     7.9880     0.0186     2.5344    99.2481     0.0891     0.2462
  450.5000    12.2602     9.9813     9.2509   -52.3667     7.9987     0.0125     2.5003    96.5334     0.1115     0.2493
  451.0000    12.4436    10.0685     9.1942   -52.8030     8.0085     0.0110     2.4874    95.6238     0.1152     0.2542
  451.5000    12.6272    10.1350     8.5824   -52.9445     8.0184     0.0186     2.4836    97.8721     0.1173     0.2566
  452.0000    12.7249    10.0694     8.1234   -52.7840     8.0282     0.0261     2.4820    98.1734     0.1186     0.2514
  452.5000    12.4716    10.0771     7.9609   -50.8429     8.0309     0.0428     2.4804    98.4589     0.1198     0.2454
  453.0000    12.3064    10.0119     8.1340   -45.9300     8.0304     0.0307     2.4804    99.0513     0.1195     0.2512
  453.5000    12.1475     9.9486     8.4861   -43.3936     8.0149     0.0231     2.4834    99.7958     0.1165     0.2575
  454.0000    12.1570     9.8186     8.9195   -41.1124     7.9993     0.0352     2.4879   100.2396     0.1131     0.2633
  454.5000    12.2510     9.7551     9.2550   -39.3202     7.9989     0.0429     2.4917   101.7360     0.1107     0.2670
  455.0000    12.3458     9.6934     9.5705   -38.3117     7.9985     0.0367     2.4962   104.1347     0.1089     0.2691
  455.5000    12.4415     9.6334     9.8467   -38.5994     7.9829     0.0321     2.4939   105.0314     0.1107     0.2709
  456.0000    12.4510     9.5726    10.0607   -38.8870     7.9825     0.0336     2.4908   102.7666     0.1142     0.2614
  456.5000    12.4623     9.3807    10.2794   -39.1747     7.9820     0.0366     2.4870   101.1051     0.1172     0.2464
  457.0000    12.3829     9.1851    10.4301   -39.3162     7.9665     0.0305     2.4831    99.5880     0.1186     0.2397
  457.5000    12.1388     8.7624    10.2928   -39.4553     7.9661     0.0214     2.4816    98.1805     0.1162     0.2424
  458.0000    11.9802     8.1786     9.9476   -39.6409     7.9506     0.0138     2.4853    97.0211     0.1135     0.2482
  458.5000    11.8237     7.7406     9.5475   -39.8821     7.9501     0.0335     2.4899    97.3145     0.1123     0.2503
  459.0000    11.6692     7.3773     9.1634   -40.1674     7.9496     0.0382     2.4889    98.6606     0.1153     0.2525
  459.5000    11.2009     7.1792     8.8561   -40.4554     7.9492     0.0305     2.4845    98.9558     0.1175     0.2558
  460.0000    10.6030     7.2843     8.4999   -40.7428     7.9488     0.0322     2.4806    98.6459     0.1211     0.2598
  460.5000    10.0370     7.4944     8.1577   -41.0312     7.9483     0.0413     2.4753    98.4882     0.1239     0.2686
  461.0000     9.5012     7.7106     7.6602   -41.6153     7.9479     0.0365     2.4699    98.6330     0.1257     0.2795
  461.5000     8.9941     7.6619     7.1434   -41.9030     7.9474     0.0289     2.4684   100.1276     0.1263     0.2875
  462.0000     8.6324     7.0526     6.5447   -42.3369     7.9620     0.0243     2.4676   102.9774     0.1266     0.2932
  462.5000     8.3980     6.2263     6.0249   -42.4760     7.9616     0.0258     2.4675   101.8672     0.1263     0.2972
  463.0000     8.1700     5.4062     5.5079   -42.6151     7.9762     0.0288     2.4675   100.2556     0.1266     0.2994
  463.5000     7.7433     4.6242     4.6002   -43.2000     7.9757     0.0212     2.4659   101.9009     0.1286     0.3239
  464.0000     6.6042     3.7545     3.7108   -43.7849     7.9602     0.0091     2.4522   102.9462     0.1408     0.3391
  464.5000     4.8676     3.2014     3.2994   -44.3697     7.9597     0.0106     2.4073   103.5404     0.1608     0.3743
  465.0000     3.8459     2.9674     3.1447   -44.8060     7.9593     0.0318     2.3386   105.3376     0.2062     0.3878
  465.5000     3.3261     2.8281     3.0393   -44.9475     7.9589     0.0439     2.2813   107.5858     0.2450     0.3860
  466.0000     3.1485     2.7709     3.2376   -44.7870     7.9584     0.0471     2.2357   106.5259     0.2760     0.3498
  466.5000     3.2623     2.7730     3.6208   -44.6290     7.9730     0.0576     2.2098   103.3606     0.2794     0.3094
  467.0000     3.8575     2.8530     4.0776   -44.3223     7.9726     0.0333     2.2326    99.5939     0.2609     0.3021
  467.5000     5.2416     3.1250     4.6252   -43.8658     7.9731     0.0105     2.2599    97.7594     0.2357     0.2970
  468.0000     6.8313     3.5688     5.2954   -43.3997     7.9868    -0.0002     2.3335    97.3236     0.1744     0.2754
  468.5000     8.8416     4.1040     6.0624   -42.8076     8.0024    -0.0063     2.4314    98.2185     0.1389     0.2654
  469.0000     9.1612     4.7938     6.9349   -42.3503     8.0189    -0.0093     2.4564    98.0589     0.1316     0.2609
  469.5000     9.0376     5.6877     7.4908   -42.0015     8.0306     0.0104     2.4640    97.9012     0.1307     0.2640
  470.0000     8.9234     6.7857     7.9796   -41.5884     8.0301     0.0286     2.4609    98.4954     0.1319     0.2689
  470.5000     8.8682     7.3299     8.3829   -41.2817     8.0297     0.0271     2.4593    99.2399     0.1323     0.2740
  471.0000     9.1905     7.5940     8.8066   -41.1236     8.0292     0.0271     2.4656    97.4281     0.1283     0.2770
  471.5000     9.5891     7.7051     8.7513   -40.9656     8.0288     0.0255     2.4752    96.6688     0.1231     0.2782
  472.0000     9.8669     7.8724     8.6360   -40.8075     8.0283     0.0207     2.4828    98.7668     0.1191     0.2688
  472.5000     9.8743     7.9876     8.5804   -40.6494     8.0279     0.0134     2.4850   102.5364     0.1165     0.2600
  473.0000     9.8114     8.1045     8.4674   -40.1942     8.0274     0.0103     2.4812   105.4367     0.1189     0.2524
  473.5000     9.8206     8.1661     8.4743   -39.7389     8.0283     0.0088     2.4804   107.9158     0.1199     0.2622
  474.0000     9.8280     8.2281     8.4798   -39.4323     8.0416     0.0179     2.4818   109.8634     0.1168     0.2710
  474.5000     9.9040     8.2331     8.4853   -38.9752     8.0411     0.0330     2.4871   109.2545     0.1184     0.2755
  475.0000     9.9806     8.2382     8.4909   -38.5215     8.0407     0.0421     2.4749   108.7961     0.1281     0.2777
  475.5000     9.9881     8.2434     8.4965   -38.5119     8.0402     0.0467     2.4635   109.9917     0.1320     0.2750
  476.0000     9.9956     8.2483     8.4429   -38.3536     8.0548     0.0512     2.4612   108.9318     0.1214     0.2671
  476.5000    10.0032     8.1730     8.3331   -38.3423     8.0544     0.0497     2.4798   105.4658     0.1138     0.2616
