~VERSION INFORMATION
 VERS.                2.0:   CWLS LOG ASCII STANDARD - VERSION 2.0
 WRAP.                 NO:   ONE LINE PER DEPTH STEP
~WELL INFORMATION
#MNEM.UNIT      DATA TYPE    INFORMATION
#----------   ------------   ------------------------------
 STRT.F           33.0000:   START DEPTH
 STOP.F         1374.0000:   STOP DEPTH
 STEP.F            0.5000:   STEP LENGTH
 NULL.          -999.2500:   NO VALUE
 COMP. FENIX & SCISSON INC:   COMPANY
 WELL.   NPR-3 "S" #84-14:   WELL
 FLD .             TEAPOT:   FIELD
 LOC .      S14 T38N R78W:   LOCATION
 CNTY.            NATRONA:   COUNTY
 STAT.            WYOMING:   STATE
 CTRY. UNITED STATES OF AMERICA:   COUNTRY
 SRVC.            Unknown:   SERVICE COMPANY
 DATE.        18-MAR-1978:   LOGDATE
 API .       490251060400:   API NUMBER
~CURVE INFORMATION
#MNEM.UNIT       API CODE    CURVE DESCRIPTION
#----------   ------------   ------------------------------
 DEPT.F                  :   
 SPR .MV     05 010 01 00:   SPONTANEOUS POTENTIAL FROM RES.
 SN  .OHMM   05 040 16 00:   SHORT NORMAL 16"
 ILD .OHMM   05 120 46 00:   INDUCTION LOG DEEP
 CALD.IN     45 280 60 00:   CALIPER
 GRD .GAPI   45 310 01 00:   GAMMA RAY FROM DENSITY LOG
 CORR.G/C3   45 356 01 00:   DENSITY CORRECTION
 RHOB.G/C3   45 350 01 00:   BULK DENSITY
 DPHI.DEC    45 890 00 00:   DENSITY POROSITY
~PARAMETER INFORMATION
#MNEM.UNIT          VALUE    DESCRIPTION
#----------   ------------   ------------------------------
 PD  .                 GL:   PERMANENT DATUM
 EPD .F              5314:   ELEVATION PERMANENT DATUM
 LMF .                 KB:   LOG MEASURED FROM
 DMF .                 KB:   DRILLING MEASURED FROM
 EKB .F              5318:   KELLING BUSHING
 EGL .F              5314:   GROUND LEVEL
 DATE.          3-18-1978:   RUN DATE
 RUN .                  1:   RUN NUMBER
 DD  .F              1375:   DEPTH DRILLER
 DL  .F              1380:   DEPTH LOGGER
 BLI .F              1374:   BOTTOM LOG INTERVAL
 TLI .F                50:   TOP LOG INTERVAL
 CS  .IN            8.625:   CASING SIZE
 CBD .F                40:   CASING BOTTOM DRILLER
 CBL .F                50:   CASING BOTTOM LOGGER
 BS  .IN            7.875:   BIT SIZE
 BSD .F              1375:   BIT SIZE AT DEPTH
 DFT .                KCL:   DRILLING FLUID TYPE
 DFD .                8.1:   DRILLING FLUID DENSITY
 DFV .                 31:   DRILLING FLUID VISCOSITY
 DFPH.                 10:   DRILLING FLUID PH
 DFL .                8.4:   DRILLING FLUID LOSS
 MSS .           FLOWLINE:   MUD SAMPLE SOURCE
 RMS .OHMM            .28:   RESISTIVITY MUD SAMPLE
 MST .F                62:   MUD SAMPLE TEMPERATURE
 RMF .OHMM            .26:   RESISTIVITY MUD FILTRATE SAMPLE
 MFST.F                67:   MUD FILTRATE SAMPLE TEMPERATURE
 RMC .OHMM            .36:   RESISTIVITY MUD CAKE
 MCST.F                70:   MUD CAKE SAMPLE TEMPERATURE
 MFSS.               MEAS:   MUD FILTRATE SAMPLE SOURCE
 RMB .OHMM            .22:   RESISTIVITY MUD AT BHT
 BHT .F                80:   BOTTOM HOLE TEMPERATURE
 TCS .HRS               4:   TIME CURCULATED STOPPED
 MRT .F                80:   MAXIMUM RECORDED TEMPERATURE
 LUN .               2958:   LOGGING UNIT NUMBER
 LUL .               CASP:   LOGGING UNIT LOCATION
 ENGI.             MILLER:   RECORDING ENGINEER
 WITN.           MCGINLEY:   WITNESSED BY
 CLNT.            A2DTECH:   CLIENT CODE
 ORIG.      2" & 5" PRINT:   ORIGIN OF DATA
 UWI .       490251060400:   UNIQUE WELL ID
 DICO. A2D Technologies, Inc.:   DIGITIZING COMPANY
~OTHER INFORMATION
~A   DEPT      SPR         SN        ILD       CALD         GRD      CORR       RHOB       DPHI   
# ...
  964.5000   -47.8876     7.1565     6.6019     7.5303   111.8701     0.0138     2.5104     0.0738
  965.0000   -47.8867     7.1623     6.6807     7.5275   110.6406     0.0150     2.5135     0.0754
  965.5000   -47.8871     7.1680     6.8133     7.5257   110.8942     0.0150     2.5106     0.0738
  966.0000   -47.8872     7.1737     6.9486     7.5393   113.3116     0.0150     2.5134     0.0756
  966.5000   -47.8872     7.1794     7.0816     7.5422   116.8057     0.0180     2.5122     0.0735
  967.0000   -47.8872     7.1851     7.0460     7.5404   120.1452     0.0213     2.5090     0.0697
  967.5000   -47.8871     7.1909     6.9955     7.5388   120.1676     0.0246     2.5193     0.0638
  968.0000   -47.8872     7.1966     6.9453     7.5374   117.3723     0.0236     2.5265     0.0658
  968.5000   -47.8871     7.2023     6.8955     7.5359   115.0690     0.0221     2.5222     0.0698
  969.0000   -47.8861     7.2078     6.8461     7.5345   112.9597     0.0206     2.5182     0.0722
  969.5000   -47.9263     7.2130     6.7970     7.5331   114.1162     0.0191     2.5143     0.0748
  970.0000   -47.9780     7.1352     6.7483     7.5316   115.5168     0.0175     2.5122     0.0773
  970.5000   -48.0289     7.0631     6.6999     7.5302   115.4917     0.0172     2.5066     0.0799
  971.0000   -48.0897     6.9915     6.6519     7.5288   114.9792     0.0181     2.5011     0.0870
  971.5000   -48.4587     6.9206     6.6043     7.5273   114.4500     0.0190     2.4957     0.0860
  972.0000   -48.8654     6.8504     6.5366     7.5258   114.2226     0.0200     2.4927     0.0836
  972.5000   -48.9149     6.8193     6.4442     7.5253   114.3864     0.0210     2.4988     0.0786
  973.0000   -48.9518     6.8062     6.3531     7.5395   115.0033     0.0180     2.5035     0.0790
  973.5000   -48.9906     6.7932     6.2634     7.5517   115.6281     0.0145     2.5005     0.0860
  974.0000   -49.0308     6.7803     6.1748     7.5601   115.8385     0.0113     2.4909     0.0916
  974.5000   -49.0730     6.7673     6.0876     7.5687   115.5284     0.0090     2.4812     0.0945
  975.0000   -49.0731     6.7544     6.0381     7.5774   115.2217     0.0105     2.4815     0.0930
  975.5000   -48.8762     6.7415     6.0129     7.5861   114.9238     0.0121     2.4802     0.0911
  976.0000   -48.6852     6.7286     5.9878     7.5949   114.8120     0.0136     2.4833     0.0878
  976.5000   -48.4951     6.7158     5.9628     7.6027   115.5977     0.0167     2.4893     0.0894
  977.0000   -48.3084     6.7030     5.9423     7.6075   116.3683     0.0198     2.4876     0.0884
  977.5000   -48.3684     6.7001     5.9460     7.6141   116.0744     0.0229     2.4889     0.0858
  978.0000   -48.4626     6.7784     5.9672     7.6209   113.8508     0.0208     2.4950     0.0854
  978.5000   -48.5573     6.8599     5.9883     7.6276   111.6801     0.0212     2.4978     0.0824
  979.0000   -48.6585     6.9425     5.9977     7.6343   110.2406     0.0185     2.4991     0.0793
  979.5000   -48.5344     7.0262     6.0951     7.6411   109.7968     0.0152     2.5054     0.0762
  980.0000   -48.3161     7.0816     6.1513     7.6478   109.5717     0.0119     2.5119     0.0753
  980.5000   -48.3168     7.0816     6.2080     7.6546   109.3531     0.0086     2.5099     0.0758
  981.0000   -48.3633     7.0816     6.2933     7.6614   109.1412     0.0052     2.5055     0.0754
  981.5000   -48.4105     7.0816     6.3903     7.6613   108.9271     0.0019     2.5067     0.0788
  982.0000   -48.4572     7.0816     6.4887     7.6596   109.2946    -0.0010     2.5074     0.0824
  982.5000   -48.4849     7.0816     6.5887     7.6579   110.6034    -0.0006     2.5017     0.0860
  983.0000   -48.4867     7.0816     6.6902     7.6562   111.9379     0.0010     2.4952     0.0882
  983.5000   -48.7217     7.0816     6.8258     7.6546   112.2455     0.0025     2.4896     0.0872
  984.0000   -49.2803     7.0816     6.8244     7.6529   113.2743     0.0039     2.4914     0.0852
  984.5000   -49.4774     7.0815     6.8118     7.6512   114.1900     0.0047     2.5014     0.0858
  985.0000   -49.4786     7.0815     6.7920     7.6495   113.7606     0.0034     2.4962     0.0884
  985.5000   -49.3315     7.0816     6.7725     7.6479   113.4253     0.0052     2.4895     0.0905
  986.0000   -48.9686     7.0816     6.7531     7.6462   113.9873     0.0097     2.4893     0.0915
  986.5000   -48.6081     7.0883     6.7337     7.6445   114.4437     0.0143     2.4834     0.0910
  987.0000   -48.2462     7.1027     6.7145     7.6427   113.4674     0.0188     2.4839     0.0889
  987.5000   -47.8936     7.1172     6.6953     7.6387   112.1694     0.0234     2.4892     0.0856
  988.0000   -47.7752     7.1317     6.6761     7.6343   111.1658     0.0234     2.4904     0.0830
  988.5000   -47.6665     7.1463     6.6570     7.6299   111.0405     0.0198     2.4955     0.0913
  989.0000   -47.5572     7.1609     6.6385     7.6255   111.7765     0.0161     2.4840     0.0921
  989.5000   -47.5020     7.1755     6.6385     7.6212   112.6274     0.0125     2.4835     0.0922
  990.0000   -47.5399     7.1901     6.6385     7.6168   113.3880     0.0093     2.4802     0.0942
  990.5000   -47.5765     7.2048     6.7251     7.6124   112.9060     0.0070     2.4786     0.0954
  991.0000   -47.6133     7.2563     6.8323     7.6080   112.3967     0.0081     2.4748     0.0939
  991.5000   -47.6506     7.3616     6.9412     7.6033   112.2390     0.0097     2.4768     0.0930
  992.0000   -47.6859     7.4685     7.0519     7.6116   112.1775     0.0113     2.4827     0.0934
  992.5000   -47.6408     7.5770     7.1643     7.6220   110.7994     0.0130     2.4810     0.0914
  993.0000   -47.5907     7.6870     7.2804     7.6328   109.3897     0.0146     2.4801     0.0885
  993.5000   -47.5400     7.7986     7.3685     7.6409   108.4844     0.0163     2.4840     0.0843
  994.0000   -47.4927     7.9118     7.5214     7.5837   108.4396     0.0170     2.4907     0.0838
  994.5000   -47.6055     8.0243     7.6773     7.5240   108.4346     0.0185     2.4992     0.0826
  995.0000   -47.7306     8.1341     7.8368     7.4643   108.4357     0.0201     2.4995     0.0798
  995.5000   -47.8562     8.2454     7.9998     7.4053   107.9156     0.0217     2.4997     0.0782
  996.0000   -47.9785     8.3582     8.1661     7.3872   107.0389     0.0230     2.5069     0.0753
  996.5000   -47.9702     8.4726     8.2911     7.3709   106.4130     0.0230     2.5134     0.0767
  997.0000   -47.1000     8.5960     8.4026     7.3472   105.5711     0.0230     2.5075     0.0796
  997.5000   -46.5280     8.6488     8.5156     7.3257   104.6629     0.0232     2.5011     0.0826
  998.0000   -46.7000     8.7212     8.6302     7.3045   104.2738     0.0263     2.4951     0.0843
  998.5000   -45.9356     8.7943     8.7561     7.3130   103.4511     0.0314     2.4920     0.0861
  999.0000   -45.8880     8.8679     8.7561     7.3781   101.2940     0.0394     2.4906     0.0832
  999.5000   -45.8929     8.9193     8.7561     7.4439    99.7756     0.0440     2.5014     0.0786
 1000.0000   -45.7304     8.9193     8.7561     7.5097    99.0679     0.0340     2.4952     0.0899
 1000.5000   -45.4921     8.9193     8.7561     7.5431    99.0794     0.0255     2.4830     0.0942
 1001.0000   -45.4744     8.9193     8.7561     7.5444    99.0730     0.0336     2.4664     0.0901
 1001.5000   -45.4405     8.9193     8.7562     7.5456    99.1313     0.0408     2.4839     0.0874
 1002.0000   -45.4061     8.9193     8.7562     7.5466   100.5126     0.0384     2.4913     0.0912
 1002.5000   -45.3723     8.9192     8.7557     7.5476   100.9903     0.0358     2.4853     0.0966
 1003.0000   -45.3378     8.9193     8.7570     7.5487    98.9693     0.0351     2.4776     0.0950
 1003.5000   -45.2990     8.9193     8.6604     7.5497    97.5147     0.0381     2.4691     0.0934
 1004.0000   -45.4307     8.8349     8.5507     7.5508    97.4980     0.0407     2.4792     0.0926
 1004.5000   -45.5853     8.7079     8.4425     7.5519    97.9972     0.0332     2.4825     0.0915
