~VERSION INFORMATION
 VERS.                2.0:   CWLS LOG ASCII STANDARD - VERSION 2.0
 WRAP.                 NO:   ONE LINE PER DEPTH STEP
~WELL INFORMATION
#MNEM.UNIT      DATA TYPE    INFORMATION
#----------   ------------   ------------------------------
 STRT.F          190.0000:   START DEPTH
 STOP.F         3246.0000:   STOP DEPTH
 STEP.F            0.5000:   STEP LENGTH
 NULL.          -999.2500:   NO VALUE
 COMP. BROWN JOHN E&C INC:   COMPANY
 WELL.      STX-15 #84-15:   WELL
 FLD .             TEAPOT:   FIELD
 LOC .      S15 T38N R78W:   LOCATION
 CNTY.            NATRONA:   COUNTY
 STAT.            WYOMING:   STATE
 CTRY. UNITED STATES OF AMERICA:   COUNTRY
 SRVC.           BIRDWELL:   SERVICE COMPANY
 DATE.        17-MAR-1978:   LOGDATE
 API .       490251111600:   API NUMBER
~CURVE INFORMATION
#MNEM.UNIT       API CODE    CURVE DESCRIPTION
#----------   ------------   ------------------------------
 DEPT.F                  :   
 ILD .OHMM   05 120 46 00:   INDUCTION LOG DEEP
 SN  .OHMM   05 040 16 00:   SHORT NORMAL 16"
 SPR .MV     05 010 01 00:   SPONTANEOUS POTENTIAL FROM RES.
 GRD .GAPI   45 310 01 00:   GAMMA RAY FROM DENSITY LOG
 CALD.IN     45 280 60 00:   CALIPER
 RHOB.G/C3   45 350 01 00:   BULK DENSITY
 CORR.G/C3   45 356 01 00:   DENSITY CORRECTION
 DPHI.DEC    45 890 12 00:   DENSITY POROSITY SANDSTONE
~PARAMETER INFORMATION
#MNEM.UNIT          VALUE    DESCRIPTION
#----------   ------------   ------------------------------
 PD  .                 GL:   PERMANENT DATUM
 EPD .F              5241:   ELEVATION PERMANENT DATUM
 LMF .                 KB:   LOG MEASURED FROM
 DAPD.F                10:   FEET ABOVE PERMANENT DATUM
 DMF .                 KB:   DRILLING MEASURED FROM
 EKB .F              5251:   KELLING BUSHING
 EGL .F              5241:   GROUND LEVEL
 DATE.            3-17-78:   RUN DATE
 RUN .                  1:   RUN NUMBER
 DD  .F              3250:   DEPTH DRILLER
 DL  .F              3250:   DEPTH LOGGER
 BLI .F              3244:   BOTTOM LOG INTERVAL
 TLI .F               224:   TOP LOG INTERVAL
 CS  .IN            8.625:   CASING SIZE
 CBL .F               224:   CASING BOTTOM LOGGER
 BS  .IN            7.875:   BIT SIZE
 BSD .F              3250:   BIT SIZE AT DEPTH
 DFD .                8.9:   DRILLING FLUID DENSITY
 DFV .                 31:   DRILLING FLUID VISCOSITY
 DFPH.               10.5:   DRILLING FLUID PH
 DFL .                  8:   DRILLING FLUID LOSS
 MSS .           FLOWLINE:   MUD SAMPLE SOURCE
 RMS .OHMM            1.3:   RESISTIVITY MUD SAMPLE
 MST .F                70:   MUD SAMPLE TEMPERATURE
 RMF .OHMM            1.1:   RESISTIVITY MUD FILTRATE SAMPLE
 MFST.F                70:   MUD FILTRATE SAMPLE TEMPERATURE
 RMC .OHMM            1.4:   RESISTIVITY MUD CAKE
 MCST.F                70:   MUD CAKE SAMPLE TEMPERATURE
 MFSS.               MEAS:   MUD FILTRATE SAMPLE SOURCE
 MCSS.               MEAS:   MUD CAKE SAMPLE SOURCE
 RMB .OHMM            .77:   RESISTIVITY MUD AT BHT
 BHT .F               118:   BOTTOM HOLE TEMPERATURE
 TCS .HRS               6:   TIME CURCULATED STOPPED
 MRT .F               118:   MAXIMUM RECORDED TEMPERATURE
 LUN .               2958:   LOGGING UNIT NUMBER
 LUL .               CASP:   LOGGING UNIT LOCATION
 ENGI.             MILLER:   RECORDING ENGINEER
 WITN.           MCGINLEY:   WITNESSED BY
 CLNT.            A2DTECH:   CLIENT CODE
 ORIG.     1", 2.5" PRINT:   ORIGIN OF DATA
 UWI .       490251111600:   UNIQUE WELL ID
 DICO. A2D Technologies, Inc.:   DIGITIZING COMPANY
~OTHER INFORMATION
~A   DEPT      ILD         SN        SPR         GRD      CALD       RHOB       CORR       DPHI   
# ...
 1000.0000     7.8164     6.8885   -32.8185    80.9484    12.1652     2.5020     0.0078     0.0888
 1000.5000     7.8506     6.9089   -32.8648    80.6708    12.1652     2.5076     0.0095     0.0866
 1001.0000     7.8850     6.9293   -32.8644    79.7916    12.1651     2.5129     0.0114     0.0844
 1001.5000     7.9196     6.9499   -32.8609    78.9000    12.1652     2.5182     0.0131     0.0823
 1002.0000     7.9543     6.9704   -32.8656    78.9073    12.1652     2.5236     0.0148     0.0797
 1002.5000     7.9759     6.9910   -32.8686    80.3775    12.1652     2.5289     0.0167     0.0799
 1003.0000     7.9759     7.0079   -33.0031    81.8211    12.1652     2.5306     0.0183     0.0826
 1003.5000     7.9759     7.0078   -33.1416    83.2320    12.1652     2.5211     0.0197     0.0853
 1004.0000     7.9759     7.0077   -33.2585    84.1350    12.1652     2.5058     0.0136     0.0879
 1004.5000     7.9759     7.0346   -33.1944    83.0046    12.1652     2.5029     0.0078     0.0906
 1005.0000     7.9759     7.1086   -33.1391    81.5523    12.1652     2.5030     0.0005     0.0932
 1005.5000     7.9759     7.1835   -33.0757    80.0688    12.1652     2.5015     0.0001     0.0959
 1006.0000     8.0783     7.2591   -33.0157    79.1188    12.1652     2.4972     0.0000     0.0980
 1006.5000     8.1869     7.3355   -32.9553    79.5387    12.1652     2.4931     0.0011     0.0970
 1007.0000     8.2970     7.4127   -32.8941    80.0473    12.1652     2.4947     0.0019     0.0961
 1007.5000     8.4086     7.4907   -32.8337    79.4917    12.1652     2.4977     0.0028     0.0952
 1008.0000     8.5216     7.5695   -32.7725    77.7498    12.1652     2.4988     0.0037     0.0943
 1008.5000     8.6362     7.6491   -32.7121    76.2700    12.1652     2.4907     0.0045     0.0934
 1009.0000     8.7523     7.7116   -32.6520    76.4252    12.1652     2.4931     0.0054     0.0925
 1009.5000     8.8700     7.7590   -32.5889    76.5556    12.1652     2.5024     0.0063     0.0916
 1010.0000     8.9893     7.8067   -32.5328    76.7480    12.1652     2.5010     0.0071     0.0949
 1010.5000     9.1102     7.8548   -32.4663    76.9923    12.1651     2.4927     0.0077     0.0983
 1011.0000     9.2326     7.9031   -32.5396    76.5000    12.1652     2.4846    -0.0002     0.0996
 1011.5000     9.4187     7.9517   -32.6349    75.5339    12.1651     2.4775    -0.0028     0.0996
 1012.0000     9.3504     8.1246   -32.7341    75.3340    12.1652     2.4729     0.0017     0.0975
 1012.5000     9.2170     8.0853   -32.8297    76.6891    12.1653     2.4978     0.0057     0.0940
 1013.0000     9.0854     7.9561   -32.9268    77.1213    12.1643     2.5043     0.0096     0.0905
 1013.5000     8.9557     7.8291   -33.0240    75.7246    12.1766     2.5024     0.0136     0.0897
 1014.0000     8.8279     7.7040   -33.1209    76.1646    12.2027     2.5005     0.0180     0.0929
 1014.5000     8.7019     7.5809   -33.2174    77.5362    12.2295     2.4992     0.0198     0.0948
 1015.0000     8.5876     7.4599   -33.3156    77.8051    12.2459     2.4999     0.0183     0.0936
 1015.5000     8.5806     7.3407   -33.4107    75.8693    12.2442     2.5074     0.0171     0.0924
 1016.0000     8.5742     7.2235   -33.5074    75.5158    12.2445     2.5048     0.0159     0.0931
 1016.5000     8.5677     7.1386   -33.6142    77.9068    12.2446     2.5010     0.0145     0.0941
 1017.0000     8.5612     7.1386   -33.6489    78.5990    12.2443     2.4971     0.0133     0.0951
 1017.5000     8.5548     7.1387   -33.5567    76.6572    12.2445     2.4950     0.0121     0.0961
 1018.0000     8.5484     7.1388   -33.4759    76.0901    12.2446     2.4992     0.0121     0.0944
 1018.5000     8.5419     7.1388   -33.3927    77.2492    12.2441     2.5037     0.0120     0.0924
 1019.0000     8.5354     7.1388   -33.3080    78.2881    12.2620     2.5024     0.0121     0.0940
 1019.5000     8.5290     7.1389   -33.2256    79.3636    12.2810     2.4969     0.0120     0.0972
 1020.0000     8.5226     7.1113   -33.1412    80.4436    12.3059     2.4922     0.0121     0.0937
 1020.5000     8.5162     7.0787   -33.0579    81.5780    12.3376     2.4865     0.0121     0.0916
 1021.0000     8.5097     7.0460   -32.9763    82.3159    12.4111     2.4914     0.0137     0.0965
 1021.5000     8.5033     7.0137   -32.8871    81.6365    12.4009     2.5046     0.0154     0.1014
 1022.0000     8.4969     6.9816   -32.8928    80.5080    12.3991     2.4999     0.0171     0.1063
 1022.5000     8.4905     6.9497   -32.9550    79.4432    12.4428     2.4901     0.0187     0.1112
 1023.0000     8.4841     6.9179   -33.0104    78.3653    12.5356     2.4807     0.0199     0.1171
 1023.5000     8.4777     6.8864   -33.0649    77.2853    12.5991     2.4690     0.0183     0.1215
 1024.0000     8.4712     6.8545   -33.1213    76.2041    12.6891     2.4544     0.0169     0.1323
 1024.5000     8.4647     6.8229   -33.1770    75.1171    12.7551     2.4394     0.0155     0.1432
 1025.0000     8.4586     6.7916   -33.2335    74.0366    12.6223     2.4255     0.0138     0.1562
 1025.5000     8.4516     6.7604   -33.2986    72.9449    13.9771     2.4065     0.0127     0.1806
 1026.0000     8.4449     6.8104   -33.3749    71.8338    13.5556     2.3549     0.0130     0.2112
 1026.5000     8.4382     6.8820   -33.4477    71.0742    12.9976     2.3005     0.0277     0.2417
 1027.0000     8.4313     6.9543   -33.5339    71.2814    12.9771     2.2471     0.0432     0.2722
 1027.5000     8.4818     7.0274   -33.6017    71.4377    12.9810     2.1948     0.0747     0.3028
 1028.0000     8.5736     7.1013   -33.6393    71.8607    12.9545     2.1402     0.1145     0.3394
 1028.5000     8.6664     7.1759   -33.2788    70.2453    12.8573     2.0784     0.1577     0.3394
 1029.0000     8.7603     7.2513   -32.9618    67.1823    12.5769     2.0919     0.1471     0.3235
 1029.5000     8.8554     7.3275   -32.8242    65.7619    12.4752     2.2077     0.0805     0.2510
 1030.0000     8.9510     7.4077   -32.7330    66.2982    12.4827     2.3030     0.0369     0.1430
 1030.5000     9.0476     7.4486   -32.6394    68.7288    12.4825     2.4002     0.0207     0.1027
 1031.0000     9.1453     7.5223   -32.5393    70.9548    12.4815     2.4790     0.0191     0.1005
 1031.5000     9.2440     7.5969   -32.4439    72.5077    12.4824     2.4944     0.0171     0.0983
 1032.0000     9.3437     7.6721   -32.3467    73.9618    12.4815     2.5047     0.0153     0.0961
 1032.5000     9.4446     7.7481   -32.2500    74.9909    12.4917     2.4946     0.0134     0.0939
 1033.0000     9.5943     7.8299   -32.1530    74.9914    12.5302     2.4880     0.0121     0.0916
 1033.5000     9.5721     7.8166   -32.0564    75.0041    12.5663     2.5029     0.0133     0.0894
 1034.0000     9.5307     7.8026   -31.9603    75.0170    12.5994     2.5120     0.0143     0.0877
 1034.5000     9.4894     7.7885   -31.8603    74.9754    12.5918     2.5056     0.0154     0.0906
 1035.0000     9.4483     7.7744   -31.7694    75.2727    12.5847     2.4997     0.0165     0.0906
 1035.5000     9.4074     7.7604   -31.6625    75.9895    12.5757     2.5063     0.0176     0.0890
 1036.0000     9.3666     7.7464   -31.7197    77.1230    12.5669     2.5051     0.0186     0.0877
 1036.5000     9.3261     7.7324   -31.7972    77.2313    12.5692     2.4987     0.0195     0.0900
 1037.0000     9.2857     7.7186   -31.8803    76.3377    12.5957     2.4941     0.0217     0.0916
 1037.5000     9.2455     7.7046   -31.9590    76.9631    12.6215     2.5041     0.0246     0.0892
 1038.0000     9.2055     7.6908   -32.0395    78.3550    12.6478     2.5138     0.0278     0.0877
 1038.5000     9.1656     7.6769   -32.1197    79.6022    12.6741     2.5123     0.0262     0.0880
 1039.0000     9.1259     7.6631   -32.1997    80.5591    12.7003     2.5092     0.0240     0.0889
 1039.5000     9.0864     7.6492   -32.2803    80.3633    12.7262     2.5055     0.0217     0.0898
 1040.0000     9.0470     7.6354   -32.3591    80.1798    12.7525     2.5024     0.0192     0.0907
