~VERSION INFORMATION
 VERS.                2.0:   CWLS LOG ASCII STANDARD - VERSION 2.0
 WRAP.                 NO:   ONE LINE PER DEPTH STEP
~WELL INFORMATION
#MNEM.UNIT      DATA TYPE    INFORMATION
#----------   ------------   ------------------------------
 STRT.F           36.0000:   START DEPTH
 STOP.F          564.0000:   STOP DEPTH
 STEP.F            0.5000:   STEP LENGTH
 NULL.          -999.2500:   NO VALUE
 COMP.    FENIX & SCISSON:   COMPANY
 WELL.        NPR #73-S-3:   WELL
 FLD .             TEAPOT:   FIELD
 LOC .       S3 T38N R78W:   LOCATION
 CNTY.            NATRONA:   COUNTY
 STAT.            WYOMING:   STATE
 CTRY. UNITED STATES OF AMERICA:   COUNTRY
 SRVC.       Schlumberger:   SERVICE COMPANY
 DATE.        19-FEB-1977:   LOGDATE
 API .       490251027900:   API NUMBER
~CURVE INFORMATION
#MNEM.UNIT       API CODE    CURVE DESCRIPTION
#----------   ------------   ------------------------------
 DEPT.F                  :   
 SPR .MV     07 010 01 00:   SPONTANEOUS POTENTIAL
 ILD .OHMM   07 120 46 00:   INDUCTION LOG DEEP
 ILM .OHMM   07 120 44 00:   INDUCTION LOG MEDIUM
 LL8 .OHMM   07 220 08 00:   LATEROLOG-8 RES.
 CALD.IN     45 280 60 00:   CALIPER FROM DENSITY LOG
 CORR.G/C3   45 356 01 00:   DENSITY CORRECTION
 RHOB.G/C3   45 350 01 00:   BULK DENSITY
 DPHI.DEC    45 890 12 00:   DENSITY POROSITY SANDSTONE
 GRD .GAPI   45 310 01 00:   GAMMA RAY FROM DENSITY LOG
~PARAMETER INFORMATION
#MNEM.UNIT          VALUE    DESCRIPTION
#----------   ------------   ------------------------------
 PD  .                 GL:   PERMANENT DATUM
 EPD .F              5128:   ELEVATION PERMANENT DATUM
 LMF .                 GL:   LOG MEASURED FROM
 DAPD.F                 5:   FEET ABOVE PERMANENT DATUM
 DMF .                 KB:   DRILLING MEASURED FROM
 EKB .F              5133:   KELLING BUSHING
 EGL .F              5128:   GROUND LEVEL
 DATE.        19-FEB-1977:   RUN DATE
 RUN .                  1:   RUN NUMBER
 DD  .F               570:   DEPTH DRILLER
 DL  .F               565:   DEPTH LOGGER
 BLI .F               564:   BOTTOM LOG INTERVAL
 TLI .F                36:   TOP LOG INTERVAL
 CS  .IN            8.625:   CASING SIZE
 CBD .F                40:   CASING BOTTOM DRILLER
 CBL .F                41:   CASING BOTTOM LOGGER
 BS  .IN            7.875:   BIT SIZE
 BSD .F               570:   BIT SIZE AT DEPTH
 DFT .                FGM:   DRILLING FLUID TYPE
 DFD .                8.9:   DRILLING FLUID DENSITY
 DFV .                 31:   DRILLING FLUID VISCOSITY
 DFPH.                8.2:   DRILLING FLUID PH
 DFL .                9.2:   DRILLING FLUID LOSS
 MSS .            MUD PIT:   MUD SAMPLE SOURCE
 RMS .OHMM           .244:   RESISTIVITY MUD SAMPLE
 MST .F                78:   MUD SAMPLE TEMPERATURE
 RMF .OHMM           .233:   RESISTIVITY MUD FILTRATE SAMPLE
 MFST.F                68:   MUD FILTRATE SAMPLE TEMPERATURE
 RMC .OHMM            .36:   RESISTIVITY MUD CAKE
 MCST.F                78:   MUD CAKE SAMPLE TEMPERATURE
 MFSS.               MEAS:   MUD FILTRATE SAMPLE SOURCE
 MCSS.               CALC:   MUD CAKE SAMPLE SOURCE
 RMB .OHMM            .35:   RESISTIVITY MUD AT BHT
 BHT .F                55:   BOTTOM HOLE TEMPERATURE
 TCS .HRS               2:   TIME CURCULATED STOPPED
 MRT .F                55:   MAXIMUM RECORDED TEMPERATURE
 LUN .               7711:   LOGGING UNIT NUMBER
 LUL .               CSPR:   LOGGING UNIT LOCATION
 ENGI.                FIX:   RECORDING ENGINEER
 WITN.           VOORHEES:   WITNESSED BY
 CLNT.            A2DTECH:   CLIENT CODE
 ORIG.           5" PRINT:   ORIGIN OF DATA
 UWI .       490251027900:   UNIQUE WELL ID
 DICO. A2D Technologies, Inc.:   DIGITIZING COMPANY
~OTHER INFORMATION
~A   DEPT      SPR        ILD        ILM        LL8       CALD       CORR       RHOB       DPHI        GRD   
# ...
   72.5000   -59.4039     8.0038     7.9330     8.4097     9.5032     0.0306     2.4501     0.1226   105.8163
   73.0000   -59.5350     8.4633     8.3294     8.4741     9.5203     0.0231     2.4464     0.1215   104.6381
   73.5000   -59.5169     8.8268     8.4500     8.4821     9.5503     0.0269     2.4525     0.1160   104.2780
   74.0000   -59.4991     9.0800     8.4552     8.4287     9.5667     0.0344     2.4604     0.1192   103.1785
   74.5000   -59.6303     9.2128     8.2877     8.3199     9.5977     0.0424     2.4534     0.1152   102.8969
   75.0000   -59.6125     9.2198     8.0124     8.1019     9.6882     0.0541     2.4632     0.1158   102.9148
   75.5000   -59.5917     9.1634     7.7463     7.8882     9.7936     0.0481     2.4556     0.1185   102.1086
   76.0000   -59.4277     8.9829     7.4890     7.6274     9.8990     0.0459     2.4433     0.1242    99.9605
   76.5000   -59.2608     8.6259     7.1907     7.3753     9.9895     0.0444     2.4469     0.1214   103.1215
   77.0000   -59.0939     8.2832     6.9999     7.1807    10.0651     0.0512     2.4590     0.1157   104.7834
   77.5000   -59.0611     7.8994     6.9074     6.9912    10.2895     0.0535     2.4605     0.1142   104.3526
   78.0000   -58.7601     7.5855     6.8172     6.9010    10.4842     0.0521     2.4448     0.1223   104.0668
   78.5000   -58.5723     7.3851     6.8225     7.0018    10.5152     0.0461     2.4276     0.1349   104.2383
   79.0000   -58.4024     7.3399     6.8738     7.1041    10.5015     0.0274     2.4202     0.1388   103.2096
   79.5000   -58.0835     7.4007     6.9255     7.3076    10.5027     0.0387     2.4270     0.1324   101.2840
   80.0000   -57.6417     7.6681     7.1231     7.5170    10.5040     0.0665     2.4499     0.1207   101.7501
   80.5000   -57.3259     7.8858     7.3264     7.7857    10.5052     0.0801     2.4773     0.1083   103.2624
   81.0000   -57.1591     8.1134     7.5874     8.0640    10.1920     0.0796     2.4753     0.1098   104.9243
   81.5000   -57.2948     8.2903     8.0216     8.3522     9.3175     0.0364     2.4551     0.1194   104.3440
   82.0000   -57.2725     8.5296     8.3074     8.5915     9.0359     0.0104     2.4454     0.1224   103.3114
   82.5000   -57.4082     8.7757     8.6034     8.8377     8.9773     0.0097     2.4529     0.1193   102.4360
   83.0000   -57.0879     9.0798     8.6681     8.9667     9.0086     0.0105     2.4650     0.1127   103.7020
   83.5000   -56.6230     9.2762     8.5549     8.9120     9.0545     0.0218     2.4794     0.0997   106.6610
   84.0000   -56.4562     9.4769     8.3854     8.5584     8.9962     0.0301     2.4862     0.0976   108.0239
   84.5000   -57.0345     9.5496     8.3906     8.3885     8.9673     0.0354     2.4798     0.1093   107.2942
   85.0000   -57.6128     9.4894     8.5120     8.5126     8.9689     0.0384     2.4671     0.1132   106.4149
   85.5000   -58.0421     9.3667     8.6949     8.7565     9.1040     0.0422     2.4601     0.1081   106.2786
   86.0000   -58.1778     9.1839     8.5225     9.0074     9.1945     0.0453     2.4804     0.1086   106.7491
   86.5000   -58.4581     9.1260     8.0712     9.1390     9.1957     0.0491     2.4692     0.1099   106.7667
   87.0000   -58.5893     9.1977     7.8020     9.1459     9.1820     0.0581     2.4783     0.1056   106.7843
   87.5000   -58.5671     9.2682     8.2497     9.1528     9.1833     0.0789     2.4912     0.0998   107.1009
   88.0000   -58.4002     9.2099     8.7819     9.0329     9.0625     0.0860     2.4822     0.0941   108.0154
   88.5000   -58.5359     9.0925     8.8480     8.9163     8.9606     0.0801     2.4643     0.1025   107.1361
   89.0000   -58.3647     9.0352     8.6132     8.6827     8.9045     0.0741     2.4395     0.1205   104.0147
   89.5000   -58.3469     8.9201     8.1571     8.2811     8.9504     0.1064     2.4231     0.1226   104.6308
   90.0000   -58.0310     8.9268     7.8862     8.0074     9.0706     0.1267     2.4434     0.1181   104.4984
   90.5000   -58.0132     8.8705     7.8910     7.9025     8.9826     0.1103     2.4225     0.1271   104.6699
   91.0000   -57.8464     8.7575     8.1162     8.1304     8.7159     0.0450     2.3872     0.1599   107.3978
   91.5000   -57.3815     8.5850     7.9553     8.3061     8.6576     0.0067     2.4124     0.1487   114.1843
   92.0000   -57.0656     8.5309     7.7430     8.1427     8.7779     0.0128     2.4640     0.1157   115.9305
   92.5000   -56.4517     8.5979     7.9651     8.0346     8.8535     0.0128     2.4738     0.1101   112.9630
   93.0000   -56.1359     8.6044     7.9154     8.4401     8.7357     0.0121     2.4686     0.1098   111.1869
   93.5000   -55.8200     8.6108     7.8119     8.5634     8.6179     0.0099     2.4634     0.1098   109.7098
   94.0000   -55.6532     8.4995     7.8709     8.4529     8.5744     0.0192     2.4695     0.1083   108.5316
   94.5000   -55.6354     8.3896     7.9301     8.1735     8.5459     0.0266     2.4704     0.1079   110.0439
   95.0000   -55.6176     8.3383     7.8804     7.9578     8.5471     0.0273     2.4689     0.1082   113.2006
   95.5000   -55.5998     8.2858     7.8854     7.9078     8.5484     0.0214     2.4690     0.1103   115.3109
   96.0000   -55.5820     8.2364     7.8903     7.9152     8.5516     0.0199     2.4599     0.1157   115.6230
   96.5000   -55.7132     8.2429     7.8952     7.9758     8.5957     0.0110     2.4541     0.1172   115.0463
   97.0000   -55.6954     8.3061     7.9000     8.0369     8.6118     0.0155     2.4572     0.1168   115.5132
   97.5000   -55.6776     8.3698     7.9595     8.0985     8.5979     0.0216     2.4670     0.1123   116.8761
   98.0000   -55.5108     8.4339     8.0194     8.1605     8.5696     0.0171     2.4753     0.1072   116.8939
   98.5000   -55.4930     8.4986     8.0243     8.2229     8.5557     0.0171     2.4784     0.1011   116.1136
   99.0000   -55.6244     8.6229     8.0293     8.3431     8.5572     0.0119     2.4822     0.0984   112.7866
   99.5000   -55.9046     8.6890     8.0342     8.3493     8.5584     0.0022     2.4778     0.1017   110.3710
  100.0000   -56.4829     8.7556     8.0392     8.3541     8.5744     0.0068     2.4696     0.1047   108.5949
  100.5000   -57.1389     8.7865     8.0014     8.4768     8.5756     0.0121     2.4719     0.1049   109.3136
  101.0000   -57.6393     8.8258     7.9401     8.5995     8.5770     0.0174     2.4810     0.1034   110.2800
  101.5000   -57.9195     8.8307     7.8365     8.4293     8.5838     0.0182     2.4750     0.1022   111.6697
  102.0000   -58.0507     8.8967     7.9500     8.3741     8.5919     0.0145     2.4714     0.1034   113.4439
  102.5000   -58.0318     9.0250     8.0641     8.6750     8.6000     0.0228     2.4752     0.1052   113.6093
  103.0000   -58.0137     9.1552     8.1907     8.8006     8.6081     0.0259     2.4760     0.1042   113.6263
  103.5000   -57.5486     9.2872     8.3566     8.8061     8.6162     0.0260     2.4768     0.1023   114.2028
  104.0000   -56.9343     9.4212     8.4846     8.7485     8.6243     0.0324     2.4851     0.1001   117.8478
  104.5000   -56.3201     9.4915     8.6597     8.6344     8.6299     0.0442     2.4867     0.0964   117.7146
  105.0000   -55.7059     9.5624     8.7289     8.7007     8.6311     0.0415     2.4732     0.1057   116.3857
  105.5000   -55.3898     9.6338     8.9123     8.8875     8.6323     0.0314     2.4778     0.1012   115.9495
  106.0000   -55.0737     9.7057     8.9179     9.1410     8.6483     0.0198     2.4644     0.1063   115.9699
  106.5000   -54.9065     9.7781     8.9850     9.4016     8.6495     0.0105     2.4652     0.1089   115.8368
  107.0000   -54.8885     9.9192     8.9906     9.5377     8.6656     0.0121     2.4608     0.1131   116.0026
  107.5000   -54.8704    10.0623     9.0583     9.6095     8.6668     0.0122     2.4481     0.1203   117.8126
  108.0000   -54.8523    10.0678     9.0639     9.6154     8.6680     0.0160     2.4556     0.1170   119.0248
  108.5000   -54.8342    10.0734     9.0696     9.4886     8.6691     0.0152     2.4437     0.1221   120.6853
