~VERSION INFORMATION
 VERS.                2.0:   CWLS LOG ASCII STANDARD - VERSION 2.0
 WRAP.                 NO:   ONE LINE PER DEPTH STEP
~WELL INFORMATION
#MNEM.UNIT      DATA TYPE    INFORMATION
#----------   ------------   ------------------------------
 STRT.F            9.5000:   START DEPTH
 STOP.F          640.5000:   STOP DEPTH
 STEP.F            0.5000:   STEP LENGTH
 NULL.          -999.2500:   NO VALUE
 COMP. FENIX & SCISSON INC:   COMPANY
 WELL. 27-32 SX 11 WI #27-32 SX:   WELL
 FLD .            WILDCAT:   FIELD
 LOC .      S11 T38N R78W:   LOCATION
 CNTY.            NATRONA:   COUNTY
 STAT.            WYOMING:   STATE
 CTRY. UNITED STATES OF AMERICA:   COUNTRY
 SRVC.      Dresser Atlas:   SERVICE COMPANY
 DATE.        01-AUG-1980:   LOGDATE
 API .       490251083700:   API NUMBER
~CURVE INFORMATION
#MNEM.UNIT       API CODE    CURVE DESCRIPTION
#----------   ------------   ------------------------------
 DEPT.F                  :   
 SPR .MV     07 010 01 00:   SPONTANEOUS POTENTIAL
 SFL .OHMM   07 220 01 00:   SHALLOW FOCUSED LOG RESISTIVITY
 ILD .OHMM   07 120 46 00:   INDUCTION LOG DEEP
 ILM .OHMM   07 120 44 00:   INDUCTION LOG MEDIUM
 GRD .GAPI   45 310 01 00:   GAMMA RAY FROM DENSITY LOG
 CALD.IN     45 280 60 00:   CALIPER
 RHOB.G/C3   45 350 01 00:   BULK DENSITY
 CORR.G/C3   45 356 01 00:   DENSITY CORRECTION
 DPHI.DEC    45 890 12 00:   DENSITY POROSITY SANDSTONE
 NPHI.DEC    42 890 03 00:   NEUTRON POROSITY SANDSTONE
~PARAMETER INFORMATION
#MNEM.UNIT          VALUE    DESCRIPTION
#----------   ------------   ------------------------------
 PD  .                 GL:   PERMANENT DATUM
 EPD .F              5189:   ELEVATION PERMANENT DATUM
 LMF .                 KB:   LOG MEASURED FROM
 DAPD.F                 5:   FEET ABOVE PERMANENT DATUM
 DMF .                 KB:   DRILLING MEASURED FROM
 EKB .F              5194:   KELLING BUSHING
 EGL .F              5189:   GROUND LEVEL
 DATE.             8-1-80:   RUN DATE
 RUN .                  1:   RUN NUMBER
 DD  .F               625:   DEPTH DRILLER
 DL  .F               634:   DEPTH LOGGER
 BLI .F               632:   BOTTOM LOG INTERVAL
 TLI .F                12:   TOP LOG INTERVAL
 BS  .IN            7.875:   BIT SIZE
 BSD .F               625:   BIT SIZE AT DEPTH
 DFT .           CHEM GEL:   DRILLING FLUID TYPE
 DFD .                9.1:   DRILLING FLUID DENSITY
 DFV .                 44:   DRILLING FLUID VISCOSITY
 DFPH.                9.5:   DRILLING FLUID PH
 DFL .                7.6:   DRILLING FLUID LOSS
 MSS .           FLOWLINE:   MUD SAMPLE SOURCE
 RMS .OHMM            .27:   RESISTIVITY MUD SAMPLE
 MST .F                70:   MUD SAMPLE TEMPERATURE
 RMF .OHMM            .16:   RESISTIVITY MUD FILTRATE SAMPLE
 MFST.F                65:   MUD FILTRATE SAMPLE TEMPERATURE
 MFSS.               MEAS:   MUD FILTRATE SAMPLE SOURCE
 MCSS.               MEAS:   MUD CAKE SAMPLE SOURCE
 RMB .OHMM            .21:   RESISTIVITY MUD AT BHT
 BHT .F                94:   BOTTOM HOLE TEMPERATURE
 TCS .HRS            0040:   TIME CURCULATED STOPPED
 MRT .F                94:   MAXIMUM RECORDED TEMPERATURE
 LUN .               6145:   LOGGING UNIT NUMBER
 LUL .              GLTTE:   LOGGING UNIT LOCATION
 ENGI.              HENRY:   RECORDING ENGINEER
 WITN.              AMEND:   WITNESSED BY
 CLNT.            A2DTECH:   CLIENT CODE
 ORIG.     1", 2.5" PRINT:   ORIGIN OF DATA
 UWI .       490251083700:   UNIQUE WELL ID
 DICO. A2D Technologies, Inc.:   DIGITIZING COMPANY
~OTHER INFORMATION
~A    DEPT     SPR         SFL         ILD        ILM      GRD       CALD       RHOB       CORR       DPHI       NPHI   
# ...
  110.0000   -56.7777     8.5511     6.5077     6.7861    90.8951     8.2516     2.4652     0.0170     0.1257     0.2867
  110.5000   -56.9760     8.3747     6.4121     6.6974    91.8230     8.2439     2.4688     0.0188     0.1264     0.2911
  111.0000   -57.1756     8.2022     6.3179     6.6099    92.2853     8.2362     2.4689     0.0209     0.1273     0.2955
  111.5000   -57.3735     8.1011     6.2251     6.5235    92.0357     8.2285     2.4683     0.0227     0.1244     0.2980
  112.0000   -57.5742     8.1205     6.1337     6.4382    91.8039     8.2209     2.4758     0.0247     0.1184     0.2968
  112.5000   -57.7746     8.1403     6.0085     6.3541    91.7279     8.2128     2.4813     0.0268     0.1211     0.2955
  113.0000   -57.9109     8.1601     6.0399     6.3541    91.5533     8.2059     2.4740     0.0259     0.1250     0.2941
  113.5000   -57.8439     8.1797     6.0921     6.3541    92.4724     8.1990     2.4678     0.0176     0.1289     0.2932
  114.0000   -57.7805     8.1991     6.1438     6.3541    89.9499     8.2207     2.4614     0.0087     0.1321     0.2947
  114.5000   -57.7114     8.2182     6.1973     6.4184    87.4634     8.2439     2.4610     0.0082     0.1329     0.2939
  115.0000   -57.6437     8.2374     6.2512     6.4948    90.8523     8.2690     2.4601     0.0092     0.1305     0.2904
  115.5000   -57.5767     8.3624     6.3054     6.5722    94.3109     8.2916     2.4679     0.0105     0.1241     0.2921
  116.0000   -57.5088     8.7262     6.3601     6.6505    93.0192     8.3166     2.4822     0.0116     0.1144     0.2955
  116.5000   -57.4413     8.7219     6.4151     6.7297    88.0811     8.3051     2.4869     0.0128     0.1176     0.3004
  117.0000   -57.3738     8.4925     6.4704     6.8098    85.7610     8.2910     2.4774     0.0139     0.1238     0.3084
  117.5000   -57.3065     8.2507     6.5262     6.8909    87.9517     8.2756     2.4655     0.0151     0.1289     0.3076
  118.0000   -57.2391     8.2873     6.5830     6.9730    88.7226     8.2609     2.4668     0.0162     0.1276     0.3004
  118.5000   -57.1717     8.3951     6.6399     7.0560    89.3304     8.2461     2.4709     0.0192     0.1243     0.2939
  119.0000   -57.1043     8.5043     6.6974     7.1401    90.0214     8.2311     2.4748     0.0215     0.1200     0.2874
  119.5000   -57.0367     8.6149     6.7731     7.2251    91.7168     8.2165     2.4760     0.0235     0.1221     0.2804
  120.0000   -56.9693     8.7226     6.8612     7.3112    92.4589     8.2015     2.4580     0.0155     0.1293     0.2735
  120.5000   -56.9025     8.6804     6.9504     7.3817    91.2302     8.1983     2.4428     0.0077     0.1365     0.2658
  121.0000   -56.8331     8.6400     7.0407     7.4036    89.8803     8.1999     2.4387    -0.0007     0.1416     0.2578
  121.5000   -56.7680     8.5996     7.1062     7.4255    89.1883     8.2014     2.4443    -0.0043     0.1398     0.2608
  122.0000   -56.7130     8.5629     7.0503     7.4475    88.6800     8.2028     2.4501     0.0006     0.1364     0.2680
  122.5000   -56.7723     8.6525     6.9879     7.4696    89.0387     8.2043     2.4560     0.0066     0.1329     0.2752
  123.0000   -56.8272     8.7349     6.9262     7.4917    89.9432     8.2057     2.4618     0.0127     0.1295     0.2805
  123.5000   -56.8862     8.8180     6.8650     7.5150    91.0880     8.2071     2.4677     0.0187     0.1265     0.2808
  124.0000   -56.9423     8.8880     6.8043     7.4430    90.0836     8.2086     2.4735     0.0246     0.1239     0.2810
  124.5000   -57.0053     8.5866     6.7441     7.3159    85.0311     8.2100     2.4795     0.0308     0.1188     0.2813
  125.0000   -57.0549     8.3362     6.6845     7.1910    82.9972     8.2114     2.4852     0.0369     0.1136     0.2878
  125.5000   -57.0975     8.0969     6.6254     7.0682    84.9893     8.2128     2.4903     0.0399     0.1147     0.2934
  126.0000   -56.8194     8.0691     6.5668     6.9476    86.5920     8.2142     2.4867     0.0294     0.1157     0.2965
  126.5000   -56.5401     8.0419     6.5088     6.8289    88.2073     8.2156     2.4831     0.0190     0.1168     0.3012
  127.0000   -56.2481     8.0147     6.4512     6.7123    90.1611     8.2171     2.4837     0.0184     0.1145     0.3053
  127.5000   -55.9630     7.9876     6.3942     6.5978    92.6300     8.2185     2.4959     0.0270     0.1096     0.3084
  128.0000   -55.6705     7.9473     6.3590     6.4737    91.0170     8.2199     2.5192     0.0344     0.0969     0.3084
  128.5000   -55.3932     8.1671     6.3757     6.4980    87.6406     8.2213     2.5419     0.0436     0.0834     0.2892
  129.0000   -55.0993     8.6213     6.3925     6.5252    87.6793     8.2227     2.5630     0.0450     0.0699     0.2933
  129.5000   -55.1235     9.1007     6.4096     6.5525    88.5235     8.2242     2.5800     0.0450     0.0623     0.2901
  130.0000   -55.1584     8.8149     6.4264     6.5800    89.4958     8.2256     2.5420     0.0253     0.0876     0.2869
  130.5000   -55.2074     8.2942     6.4433     6.6075    89.7139     8.2270     2.4989     0.0050     0.1116     0.2837
  131.0000   -55.2489     7.8005     6.4602     6.6352    89.2002     8.2284     2.4631    -0.0110     0.1305     0.2820
  131.5000   -55.2919     7.9118     6.4770     6.6630    88.7888     8.2298     2.4613    -0.0021     0.1305     0.2834
  132.0000   -55.3351     8.1014     6.4931     6.6909    88.6475     8.2313     2.4650     0.0054     0.1290     0.2850
  132.5000   -55.3789     8.2032     6.5093     6.7189    88.6543     8.2327     2.4666     0.0139     0.1281     0.2865
  133.0000   -55.4226     7.9473     6.5256     6.7470    88.8239     8.2341     2.4635     0.0219     0.1285     0.2880
  133.5000   -55.4600     7.9623     6.5419     6.7755    86.9247     8.2355     2.4613     0.0300     0.1289     0.2930
  134.0000   -55.5656     8.0183     6.5582     6.8040    85.4552     8.2370     2.4701     0.0331     0.1263     0.3029
  134.5000   -55.7433     8.0748     6.5746     6.8459    87.2980     8.2390     2.4771     0.0342     0.1212     0.3041
  135.0000   -55.9145     8.1316     6.5910     6.8424    88.5111     8.2424     2.4844     0.0353     0.1168     0.3035
  135.5000   -56.0879     8.1889     6.6074     6.8342    87.4763     8.2458     2.4794     0.0358     0.1201     0.3028
  136.0000   -56.2585     8.2465     6.6238     6.8260    86.4039     8.2492     2.4742     0.0345     0.1229     0.3022
  136.5000   -56.4306     8.3046     6.6403     6.8179    88.2021     8.2526     2.4704     0.0332     0.1257     0.3016
  137.0000   -56.6165     8.3631     6.6569     6.8097    90.7558     8.2560     2.4728     0.0319     0.1224     0.2992
  137.5000   -56.6910     8.4219     6.6739     6.8017    91.8086     8.2594     2.4767     0.0306     0.1227     0.2955
  138.0000   -56.6069     8.4812     6.6908     6.7936    90.9018     8.2628     2.4741     0.0293     0.1231     0.2948
  138.5000   -56.5375     8.5627     6.7157     6.7855    91.2035     8.2662     2.4732     0.0280     0.1234     0.2956
  139.0000   -56.4677     8.5020     6.7088     6.7774    92.2941     8.2696     2.4746     0.0267     0.1238     0.2972
  139.5000   -56.3944     8.4078     6.6633     6.7693    92.9439     8.2730     2.4671     0.0254     0.1281     0.3015
  140.0000   -56.3237     8.3146     6.6182     6.7610    89.6815     8.2764     2.4648     0.0241     0.1281     0.3031
  140.5000   -56.2514     8.2225     6.5734     6.7531    84.9958     8.2798     2.4649     0.0228     0.1281     0.3046
  141.0000   -56.1801     8.1314     6.5294     6.7454    84.6037     8.2832     2.4620     0.0215     0.1281     0.3060
  141.5000   -56.1095     8.0413     6.4854     6.7375    85.4544     8.2866     2.4533     0.0203     0.1326     0.3049
  142.0000   -56.0343     7.9473     6.4417     6.7295    87.6248     8.2900     2.4567     0.0189     0.1345     0.3088
  142.5000   -55.9691     8.0298     6.3983     6.7215    89.5642     8.2934     2.4569     0.0177     0.1313     0.3129
  143.0000   -55.9050     8.1180     6.3541     6.8299    90.8132     8.2968     2.4506     0.0164     0.1353     0.3099
