~VERSION INFORMATION
 VERS.                2.0:   CWLS LOG ASCII STANDARD - VERSION 2.0
 WRAP.                 NO:   ONE LINE PER DEPTH STEP
~WELL INFORMATION
#MNEM.UNIT      DATA TYPE    INFORMATION
#----------   ------------   ------------------------------
 STRT.F            2.5000:   START DEPTH
 STOP.F          548.0000:   STOP DEPTH
 STEP.F            0.5000:   STEP LENGTH
 NULL.          -999.2500:   NO VALUE
 COMP. LAWRENCE/ALLISON INC:   COMPANY
 WELL.    55-61 SX #10-10:   WELL
 FLD .           N.P.R #3:   FIELD
 LOC .      S10 T38N R78W:   LOCATION
 CNTY.            NATRONA:   COUNTY
 STAT.            WYOMING:   STATE
 CTRY. UNITED STATES OF AMERICA:   COUNTRY
 SRVC.            Unknown:   SERVICE COMPANY
 DATE.        05-SEP-1984:   LOGDATE
 API .       490251098100:   API NUMBER
~CURVE INFORMATION
#MNEM.UNIT       API CODE    CURVE DESCRIPTION
#----------   ------------   ------------------------------
 DEPT.F                  :   
 GRR .GAPI   07 310 01 00:   GAMMA RAY FROM RES
 SPR .MV     07 010 01 00:   SPONTANEOUS POTENTIAL
 RFOC.OHMM   07 220 04 00:   RESISTIVITY FOCUSED LOG
 RILD.OHMM   07 120 46 00:   INDUCTION LOG DEEP RESISTIVITY
 RILM.OHMM   07 120 44 00:   INDUCTION LOG MEDIUM RESISTIVITY
 CALD.IN     45 280 60 00:   CALIPER FROM DENSITY LOG
 DEN .G/C3   45 350 01 00:   COMPENSATED BULK DENSTIY
 CNC .DEC    42 890 03 00:   NEUTRON POROSITY SANDSTONE
 PORD.DEC    45 890 12 00:   POROSITY DENSITY SANDSTONE
 CORR.G/C3   45 356 01 00:   DENSITY CORRECTION
 AC  .US/F   60 520 00 00:   ACCOUSTIC SONIC
~PARAMETER INFORMATION
#MNEM.UNIT          VALUE    DESCRIPTION
#----------   ------------   ------------------------------
 PD  .                 GL:   PERMANENT DATUM
 EPD .F              5191:   ELEVATION PERMANENT DATUM
 LMF .                 KB:   LOG MEASURED FROM
 DAPD.F                12:   FEET ABOVE PERMANENT DATUM
 DMF .                 KB:   DRILLING MEASURED FROM
 EKB .F              5203:   KELLING BUSHING
 EGL .F              5191:   GROUND LEVEL
 DATE.         5-SEP-1984:   RUN DATE
 RUN .                  1:   RUN NUMBER
 DD  .F               540:   DEPTH DRILLER
 DL  .F               550:   DEPTH LOGGER
 BLI .F               548:   BOTTOM LOG INTERVAL
 CS  .IN            8.625:   CASING SIZE
 CBD .F                42:   CASING BOTTOM DRILLER
 CBL .F                54:   CASING BOTTOM LOGGER
 BS  .IN            7.875:   BIT SIZE
 BSD .F               540:   BIT SIZE AT DEPTH
 DFT .        KCL POLYMER:   DRILLING FLUID TYPE
 MSS .           FLOWLINE:   MUD SAMPLE SOURCE
 RMS .OHMM            .79:   RESISTIVITY MUD SAMPLE
 MST .F                74:   MUD SAMPLE TEMPERATURE
 RMF .OHMM            .59:   RESISTIVITY MUD FILTRATE SAMPLE
 MFST.F                74:   MUD FILTRATE SAMPLE TEMPERATURE
 RMC .OHMM            .99:   RESISTIVITY MUD CAKE
 MCST.F                74:   MUD CAKE SAMPLE TEMPERATURE
 MFSS.               CALC:   MUD FILTRATE SAMPLE SOURCE
 MCSS.               CALC:   MUD CAKE SAMPLE SOURCE
 RMB .OHMM            .65:   RESISTIVITY MUD AT BHT
 BHT .F                90:   BOTTOM HOLE TEMPERATURE
 TCS .HRS               3:   TIME CURCULATED STOPPED
 MRT .F                90:   MAXIMUM RECORDED TEMPERATURE
 LUN .               6274:   LOGGING UNIT NUMBER
 LUL .               GLTE:   LOGGING UNIT LOCATION
 ENGI.             RAUTIO:   RECORDING ENGINEER
 WITN.            JOHNSON:   WITNESSED BY
 CLNT.            A2DTECH:   CLIENT CODE
 ORIG. 2", 2.5", 5" PRINT:   ORIGIN OF DATA
 UWI .       490251098100:   UNIQUE WELL ID
 DICO. A2D Technologies, Inc.:   DIGITIZING COMPANY
~OTHER INFORMATION
~A    DEPT      GRR       SPR       RFOC       RILD       RILM       CALD        DEN        CNC       PORD       CORR         AC   
# ...
  155.0000   127.6840  -184.0050  -999.2500     7.8150     8.1320     8.0480     2.4380     0.0800     0.1450    -0.0040   129.8877
  155.5000   128.9660  -183.8800  -999.2500     7.6770     7.9920     8.0480     2.4360     0.0790     0.1460     0.0050   145.9142
  156.0000   130.8120  -183.7310  -999.2500     7.5560     7.8400     8.0480     2.4310     0.0760     0.1490     0.0030   142.6258
  156.5000   130.4530  -183.1840  -999.2500     7.3220     7.4320     8.0470     2.4280     0.0720     0.1500     0.0010   130.2577
  157.0000   128.1290  -181.4740  -999.2500     6.9720     6.8370     8.0470     2.4280     0.0690     0.1510     0.0070   119.1270
  157.5000   126.2410  -179.8080  -999.2500     6.4270     6.2420     8.0470     2.4260     0.0680     0.1520     0.0140   116.1989
  158.0000   125.2490  -178.1250  -999.2500     5.8760     5.6460     8.0460     2.4220     0.0670     0.1570     0.0080   121.0875
  158.5000   124.9950  -177.1600  -999.2500     5.3160     5.0510     8.0460     2.4140     0.0660     0.1610     0.0010   130.6469
  159.0000   125.7300  -176.0560  -999.2500     4.7560     4.5760     8.0460     2.4040     0.0640     0.1710    -0.0040   138.6078
  159.5000   128.4530  -175.0190  -999.2500     4.1960     4.1140     8.0450     2.3900     0.0600     0.1840     0.0030   142.6541
  160.0000   131.1860  -174.7690  -999.2500     3.6370     3.6530     8.0450     2.3700     0.0550     0.1980     0.0100   141.7388
  160.5000   131.7340  -175.1530  -999.2500     3.0440     3.1910     8.0450     2.3410     0.0490     0.2150     0.0180   136.6534
  161.0000   126.4240  -175.7670  -999.2500     2.9300     2.9900     8.0450     2.3180     0.0500     0.2390     0.0250   127.6260
  161.5000   120.5070  -176.3760  -999.2500     2.8080     2.8290     8.0450     2.2790     0.0550     0.2640     0.0300   123.7260
  162.0000   114.5610  -177.0050  -999.2500     2.7130     2.8480     8.0450     2.2180     0.0610     0.2870     0.0330   120.4160
  162.5000   111.1700  -176.7040  -999.2500     2.6260     2.8830     8.0450     2.2000     0.0660     0.2770     0.0160   118.5160
  163.0000   113.3390  -176.3310  -999.2500     2.6040     2.9180     8.0450     2.2160     0.0620     0.2540    -0.0020   117.5590
  163.5000   119.3030  -175.9460  -999.2500     2.7420     2.9530     8.0450     2.2680     0.0570     0.2270    -0.0200   118.7730
  164.0000   125.3000  -175.5770  -999.2500     3.0080     3.2430     8.0450     2.3010     0.0600     0.2300    -0.0300   120.5780
  164.5000   131.0450  -176.0640  -999.2500     3.4240     3.7490     8.0450     2.2900     0.0670     0.2320     0.0040   120.0000
  165.0000   133.1470  -176.6350  -999.2500     3.8400     4.2550     8.0450     2.2950     0.0740     0.2100     0.0180   118.7850
  165.5000   130.5910  -177.2080  -999.2500     4.2560     4.7620     8.0450     2.3360     0.0760     0.1750    -0.0040   118.9000
  166.0000   128.2390  -177.7930  -999.2500     4.6870     5.2380     8.0450     2.3930     0.0710     0.1550    -0.0190   118.5850
  166.5000   130.6890  -177.3450  -999.2500     5.1590     5.5580     8.0450     2.4220     0.0690     0.1520    -0.0200   117.3630
  167.0000   135.8870  -176.3590  -999.2500     5.6480     5.8770     8.0450     2.4250     0.0700     0.1510    -0.0180   116.1400
  167.5000   136.9540  -175.3700  -999.2500     6.1370     6.2260     8.0450     2.4270     0.0700     0.1440    -0.0070   115.2470
  168.0000   136.0470  -174.3340  -999.2500     6.5200     6.5830     8.0450     2.4430     0.0690     0.1380     0.0030   116.5870
  168.5000   135.1860  -173.2030  -999.2500     6.8930     7.0210     8.0450     2.4510     0.0680     0.1370     0.0060   119.2650
  169.0000   134.5890  -173.2490  -999.2500     6.7920     6.8050     8.0450     2.4490     0.0680     0.1380    -0.0130   121.9440
  169.5000   136.1970  -173.5080  -999.2500     6.5240     6.5260     8.0450     2.4460     0.0700     0.1380    -0.0140   124.6220
  170.0000   139.0830  -174.3900  -999.2500     6.2560     6.2480     8.0450     2.4480     0.0690     0.1370    -0.0090   127.3010
  170.5000   139.9190  -176.7430  -999.2500     5.9880     5.9690     8.0450     2.4510     0.0650     0.1390     0.0020   129.5420
  171.0000   139.2780  -177.5570  -999.2500     5.7190     5.6910     8.0450     2.4460     0.0620     0.1460     0.0130   129.5420
  171.5000   140.5720  -176.7000  -999.2500     5.4510     5.4120     8.0450     2.4270     0.0610     0.1640     0.0240   126.9780
  172.0000   142.1100  -175.8450  -999.2500     5.2330     5.1850     8.0450     2.4030     0.0620     0.1750     0.0190   122.8280
  172.5000   140.9600  -175.0010  -999.2500     5.1850     5.2210     8.0450     2.3810     0.0640     0.1780     0.0040   118.6780
  173.0000   138.6030  -174.1990  -999.2500     5.1850     5.2580     8.0450     2.3900     0.0630     0.1680    -0.0030   112.8090
  173.5000   133.4300  -171.5730  -999.2500     5.1850     5.2940     8.0450     2.4060     0.0650     0.1610     0.0040   113.2350
  174.0000   131.2250  -168.6110  -999.2500     5.2170     5.3300     8.0450     2.4150     0.0680     0.1530     0.0110   113.9620
  174.5000   135.3770  -165.6240  -999.2500     5.3790     5.6350     8.0450     2.4240     0.0700     0.1440     0.0090   114.6890
  175.0000   139.4460  -164.5300  -999.2500     5.6720     6.0180     8.0450     2.4400     0.0680     0.1370     0.0020   115.4170
  175.5000   142.8560  -163.6160  -999.2500     6.0370     6.4010     8.0450     2.4520     0.0670     0.1350    -0.0040   115.9960
  176.0000   141.7680  -163.0440  -999.2500     6.4030     6.7060     8.0450     2.4520     0.0700     0.1350    -0.0030   114.8690
  176.5000   139.2430  -162.6720  -999.2500     6.7690     7.0250     8.0450     2.4540     0.0720     0.1290     0.0050   113.2070
  177.0000   138.0570  -162.3010  -999.2500     7.1350     7.3430     8.0450     2.4640     0.0740     0.1240     0.0110   112.9530
  177.5000   138.0240  -161.9230  -999.2500     7.4040     7.6610     8.0450     2.4720     0.0760     0.1230     0.0070   112.6410
  178.0000   138.5690  -161.5280  -999.2500     7.6560     7.9110     8.0450     2.4720     0.0780     0.1260     0.0050   112.3280
  178.5000   139.9300  -162.3060  -999.2500     7.9080     8.0890     8.0450     2.4720     0.0800     0.1250     0.0120   113.8790
  179.0000   141.2550  -163.2840  -999.2500     8.1610     8.2640     8.0450     2.4710     0.0790     0.1250     0.0150   116.5460
  179.5000   140.9390  -164.2730  -999.2500     8.2830     8.4360     8.0450     2.4700     0.0770     0.1260     0.0080   118.4680
  180.0000   137.3550  -165.2790  -999.2500     8.2060     8.2690     8.0450     2.4680     0.0760     0.1270     0.0000   117.9680
  180.5000   135.0770  -165.2990  -999.2500     8.0830     8.2030     8.0450     2.4650     0.0740     0.1290    -0.0070   117.9100
  181.0000   136.5570  -164.7670  -999.2500     7.9590     8.1380     8.0450     2.4620     0.0730     0.1320    -0.0060   119.2470
  181.5000   140.4390  -164.2320  -999.2500     7.8390     8.0730     8.0450     2.4580     0.0720     0.1340    -0.0010   121.9720
  182.0000   142.3680  -163.6950  -999.2500     7.7230     8.0080     8.0450     2.4540     0.0730     0.1360     0.0040   124.1630
  182.5000   140.8540  -163.1700  -999.2500     7.5820     7.8100     8.0450     2.4520     0.0740     0.1370     0.0090   123.3310
  183.0000   139.4870  -162.2880  -999.2500     7.4420     7.5750     8.0450     2.4500     0.0750     0.1370     0.0110   120.1170
  183.5000   138.3570  -161.0600  -999.2500     7.1790     7.3390     8.0450     2.4500     0.0740     0.1380     0.0130   116.9020
  184.0000   140.4210  -159.8350  -999.2500     6.9060     7.1040     8.0450     2.4490     0.0720     0.1410     0.0030   115.4340
  184.5000   143.5220  -158.6060  -999.2500     6.6450     6.8680     8.0450     2.4440     0.0700     0.1420    -0.0110   115.9960
  185.0000   145.8270  -157.3380  -999.2500     6.3180     6.5880     8.0450     2.4420     0.0700     0.1400    -0.0230   118.3330
