~VERSION INFORMATION
 VERS.                2.0:   CWLS LOG ASCII STANDARD - VERSION 2.0
 WRAP.                 NO:   ONE LINE PER DEPTH STEP
~WELL INFORMATION
#MNEM.UNIT      DATA TYPE    INFORMATION
#----------   ------------   ------------------------------
 STRT.F           17.0000:   START DEPTH
 STOP.F          565.5000:   STOP DEPTH
 STEP.F            0.5000:   STEP LENGTH
 NULL.          -999.2500:   NO VALUE
 COMP. LAWRENCE/ALLISON INC:   COMPANY
 WELL. NPR 3 #83-56 SX 10:   WELL
 FLD .             TEAPOT:   FIELD
 LOC .      S10 T38N R78W:   LOCATION
 CNTY.            NATRONA:   COUNTY
 STAT.            WYOMING:   STATE
 CTRY. UNITED STATES OF AMERICA:   COUNTRY
 SRVC.           Gearhart:   SERVICE COMPANY
 DATE.        11-JUN-1986:   LOGDATE
 API .       490251108300:   API NUMBER
~CURVE INFORMATION
#MNEM.UNIT       API CODE    CURVE DESCRIPTION
#----------   ------------   ------------------------------
 DEPT.F                  :   
 GRR .GAPI   07 310 01 00:   GAMMA RAY FROM RES. LOG.
 RILD.OHMM   07 120 46 00:   INDUCTION LOG DEEP RESISTIVITY
 RILM.OHMM   07 120 44 00:   INDUCTION LOG MEDIUM RESISTIVITY
~PARAMETER INFORMATION
#MNEM.UNIT          VALUE    DESCRIPTION
#----------   ------------   ------------------------------
 PD  .                 GL:   PERMANENT DATUM
 EPD .F              5174:   ELEVATION PERMANENT DATUM
 LMF .                 KB:   LOG MEASURED FROM
 DMF .                 KB:   DRILLING MEASURED FROM
 EKB .F              5174:   KELLING BUSHING
 EGL .F              5174:   GROUND LEVEL
 DATE.            6-11-86:   RUN DATE
 RUN .                  1:   RUN NUMBER
 DD  .F               580:   DEPTH DRILLER
 DL  .F               576:   DEPTH LOGGER
 BLI .F               565:   BOTTOM LOG INTERVAL
 TLI .F                15:   TOP LOG INTERVAL
 CS  .IN            8.625:   CASING SIZE
 CBD .F                42:   CASING BOTTOM DRILLER
 CBL .F                42:   CASING BOTTOM LOGGER
 BS  .IN            7.875:   BIT SIZE
 BSD .F               580:   BIT SIZE AT DEPTH
 DFT .                AIR:   DRILLING FLUID TYPE
 TCS .HRS            0300:   TIME CURCULATED STOPPED
 TLAB.HRS            0445:   TIME LOGGER AT BOTTOM
 MRT .F                95:   MAXIMUM RECORDED TEMPERATURE
 LUN .               7609:   LOGGING UNIT NUMBER
 LUL .           GILLETTE:   LOGGING UNIT LOCATION
 ENGI.              BAUER:   RECORDING ENGINEER
 WITN.           JENNINGS:   WITNESSED BY
 CLNT.            A2DTECH:   CLIENT CODE
 ORIG.       2", 5" PRINT:   ORIGIN OF DATA
 UWI .       490251108300:   UNIQUE WELL ID
 DICO. A2D Technologies, Inc.:   DIGITIZING COMPANY
~OTHER INFORMATION
~A   DEPT       GRR      RILD       RILM   
# ...
  108.0000   130.8991     8.7516     8.6244
  108.5000   131.9723     8.7572     8.6209
  109.0000   132.1979     8.7629     8.6174
  109.5000   131.4740     8.7686     8.6138
  110.0000   130.6507     8.7743     8.6103
  110.5000   131.0695     8.7800     8.6068
  111.0000   131.3735     8.7857     8.6032
  111.5000   129.5691     8.7914     8.5997
  112.0000   127.6115     8.7971     8.5962
  112.5000   125.7372     8.8030     8.5927
  113.0000   124.4701     8.8078     8.5891
  113.5000   123.2059     8.7870     8.5856
  114.0000   123.3340     8.7666     8.5821
  114.5000   126.0389     8.7463     8.5786
  115.0000   128.7232     8.7259     8.5751
  115.5000   130.1805     8.7056     8.5715
  116.0000   130.1953     8.6853     8.5680
  116.5000   131.2976     8.6651     8.5668
  117.0000   134.6392     8.6450     8.5668
  117.5000   136.4429     8.6248     8.5668
  118.0000   134.0360     8.6048     8.5660
  118.5000   130.5897     8.5847     8.5683
  119.0000   130.0532     8.5648     8.5744
  119.5000   132.8032     8.5448     8.5574
  120.0000   136.1021     8.5249     9.9214
  120.5000   135.9323     8.5051    10.9590
  121.0000   132.5766     8.4853    12.0261
  121.5000   130.0031     8.4656    13.0799
  122.0000   128.0049     8.4458    13.2421
  122.5000   126.0376     8.4263    11.9885
  123.0000   124.1486     8.4042    10.7183
  123.5000   122.8852     8.3687     9.5827
  124.0000   124.6419     8.3333     8.5674
  124.5000   129.7753     8.2981     8.4095
  125.0000   135.2362     8.2630     8.3737
  125.5000   139.9803     8.2281     8.3208
  126.0000   140.0301     8.1933     8.2686
  126.5000   137.2715     8.1587     8.2166
  127.0000   134.5967     8.1242     8.1649
  127.5000   131.9010     8.0899     8.1135
  128.0000   130.1681     8.0557     8.0624
  128.5000   128.6368     8.0217     8.0288
  129.0000   128.5967     7.9878     8.0288
  129.5000   130.3643     7.9548     8.0288
  130.0000   132.0620     8.0381     8.0288
  130.5000   133.4840     8.1203     8.7529
  131.0000   133.7383     8.2034     9.6718
  131.5000   133.4561     8.2874    10.6873
  132.0000   131.3769     8.3722    11.8129
  132.5000   125.5544     8.4579    13.0097
  133.0000   125.4520     8.5246    12.6566
  133.5000   128.6045     8.5813    11.7356
  134.0000   131.7035     8.6382    10.7839
  134.5000   132.0488     8.6956     9.9094
  135.0000   131.0566     8.7533     9.1070
  135.5000   132.3325     8.8083     8.8936
  136.0000   133.7582     8.8083     8.8027
  136.5000   135.1758     8.8085     8.8390
  137.0000   136.5938     8.8081     8.8575
  137.5000   138.0294     8.8098     8.8834
  138.0000   139.3379     8.6132     8.8928
  138.5000   137.2343     8.4224     9.4623
  139.0000   134.9680     8.2483    10.1843
  139.5000   133.7677     8.1825    10.9660
  140.0000   135.5693     8.1173    11.8064
  140.5000   138.0413     8.0527    12.8790
  141.0000   138.5638     7.9885    12.0958
  141.5000   136.0726     7.9248    10.9482
  142.0000   133.5871     7.8752     9.9094
  142.5000   131.1030     7.8553     8.9671
  143.0000   131.7796     7.8355     8.1195
  143.5000   132.6717     7.8157     7.8044
  144.0000   132.4680     7.5960     7.8259
  144.5000   129.9331     7.6524     7.8426
  145.0000   128.1354     7.7417     7.8594
  145.5000   129.8343     7.8307     7.8761
  146.0000   132.8975     7.9209     7.8930
  146.5000   135.9896     7.9890     7.9101
  147.0000   139.0476     8.0440     7.9279
  147.5000   140.2088     8.0993     7.9411
  148.0000   139.4341     8.1550     8.1741
  148.5000   136.8793     8.2111     9.2165
  149.0000   136.0557     8.2706    10.3926
  149.5000   136.3666     8.3413    11.4854
  150.0000   135.7995     8.4126    12.6426
  150.5000   132.3387     8.4846    12.7602
  151.0000   128.9782     8.5572    11.6267
  151.5000   128.3535     8.6306    10.7015
  152.0000   129.6748     8.7271     9.8500
  152.5000   132.5253     8.6689     9.0662
  153.0000   133.3592     8.5532     8.6466
  153.5000   132.1756     8.4388     8.7271
  154.0000   130.9349     8.3320    10.1884
  154.5000   129.7147     8.3316    11.8804
  155.0000   128.9505     8.3320    13.8534
  155.5000   129.0602     8.3320    17.3500
  156.0000   131.0325     8.3320    22.2500
  156.5000   133.0366     8.4053    28.5339
  157.0000   133.0395     8.4774    39.1544
  157.5000   132.4321     8.5500    31.4055
  158.0000   131.8542     8.6233    20.8516
  158.5000   133.3045     8.6973    17.5928
  159.0000   129.3837     8.7718    14.6370
  159.5000   125.3267     8.8420    11.9831
  160.0000   122.5447     8.9081     9.3012
  160.5000   125.8475     8.9731     9.3540
  161.0000   129.4335     9.1377     9.4556
  161.5000   129.4341     9.3015     9.5636
  162.0000   127.7199     9.4682     9.6702
  162.5000   127.6550     9.6379     9.7780
  163.0000   129.3215     9.8107     9.8869
  163.5000   131.3252     9.9866     9.9972
  164.0000   129.6339    10.1656    10.1086
  164.5000   126.9992    10.3476    10.2212
  165.0000   124.5717    10.5341    10.3111
  165.5000   124.2210    10.7548    10.5684
  166.0000   123.3736    11.0024    10.8269
  166.5000   122.3207    11.2547    11.0921
  167.0000   121.2617    11.5129    11.3638
  167.5000   120.1412    11.7767    11.6418
  168.0000   117.9405    12.0468    12.0702
  168.5000   115.9889    12.1826    12.0363
  169.0000   118.4335    12.1310    11.9697
  169.5000   121.2925    12.0920    11.9032
  170.0000   122.4297    12.0359    11.8370
  170.5000   118.7704    11.9587    11.7713
  171.0000   114.1759    11.8817    11.7060
  171.5000   114.0917    11.8053    11.6411
  172.0000   117.8676    11.7294    11.5765
  172.5000   122.0050    11.6540    11.5122
  173.0000   122.0083    11.5791    11.4483
  173.5000   120.0736    11.5046    11.3848
  174.0000   118.0407    11.4307    11.3216
  174.5000   118.2728    11.3693    11.2588
  175.0000   118.9799    11.3110    11.1963
  175.5000   118.9817    11.2530    11.1342
  176.0000   116.6245    11.1952    11.0724
  176.5000   115.3767    11.1378    11.0110
  177.0000   117.5191    11.0806    10.9499
  177.5000   119.3452    11.0237    10.8891
  178.0000   118.1435    10.9672    10.8287
  178.5000   115.3056    10.9109    10.7686
  179.0000   114.8306    10.7935    10.7088
  179.5000   114.5646    10.6638    10.6446
  180.0000   116.9516    10.5356    10.5801
  180.5000   120.4456    10.4090    10.5158
  181.0000   123.9802    10.2839    10.4520
  181.5000   123.2776    10.1595    10.3885
  182.0000   120.2601    10.0294    10.3255
  182.5000   116.8431     9.9811    10.2628
  183.0000   114.9537     9.9181    10.2005
  183.5000   114.2709     9.8548    10.1386
  184.0000   113.7270     9.7919    10.0771
  184.5000   114.6889     9.7294    10.0159
  185.0000   117.2675     9.6673     9.9551
  185.5000   119.9548     9.6056     9.8947
  186.0000   122.6262     9.5443     9.8346
  186.5000   124.6468     9.4834     9.7749
  187.0000   121.4008     9.4229     9.7156
  187.5000   117.0216     9.3627     9.6566
  188.0000   114.1274     9.3029     9.5980
  188.5000   114.4531     9.2299     9.5398
  189.0000   116.0491     9.2545     9.4818
  189.5000   114.6072     9.2953     9.4243
  190.0000   112.0174     9.3362     9.3671
  190.5000   109.3911     9.3774     9.3102
  191.0000   110.4365     9.3986     9.2537
  191.5000   114.0761     9.3719     9.1975
  192.0000   117.6032     9.3513     9.1417
  192.5000   119.8848     9.3309     9.0862
  193.0000   117.4268     9.3129     9.0482
  193.5000   115.0103     9.2617     9.0299
  194.0000   113.2693     9.2061     9.0118
  194.5000   112.3868     9.1524     8.9936
  195.0000   111.9202     8.9347     8.9755
  195.5000   114.7950     8.6918     8.8117
  196.0000   119.5752     8.4547     8.6289
  196.5000   121.7327     8.2233     8.4500
  197.0000   119.9249     8.1002     8.2747
  197.5000   117.9837     8.0028     8.1031
  198.0000   118.7111     7.9162     7.9548
  198.5000   123.1283     7.8398     7.9548
