~VERSION INFORMATION
 VERS.                2.0:   CWLS LOG ASCII STANDARD - VERSION 2.0
 WRAP.                 NO:   ONE LINE PER DEPTH STEP
~WELL INFORMATION
#MNEM.UNIT      DATA TYPE    INFORMATION
#----------   ------------   ------------------------------
 STRT.F            1.0000:   START DEPTH
 STOP.F          708.0000:   STOP DEPTH
 STEP.F            0.5000:   STEP LENGTH
 NULL.          -999.2500:   NO VALUE
 COMP. LAWRENCE/ALLISON INC:   COMPANY
 WELL. NPR 3 68-61 SX #34-34:   WELL
 FLD .             TEAPOT:   FIELD
 LOC .      S34 T39N R78W:   LOCATION
 CNTY.            NATRONA:   COUNTY
 STAT.            WYOMING:   STATE
 CTRY. UNITED STATES OF AMERICA:   COUNTRY
 SRVC.           Gearhart:   SERVICE COMPANY
 DATE.        22-SEP-1988:   LOGDATE
 API .       490251125200:   API NUMBER
~CURVE INFORMATION
#MNEM.UNIT       API CODE    CURVE DESCRIPTION
#----------   ------------   ------------------------------
 DEPT.F                  :   
 GRR .GAPI   07 310 01 00:   GAMMA RAY
 RILD.OHMM   07 120 46 00:   INDUCTION LOG DEEP RESISTIVITY
 RILM.OHMM   07 120 44 00:   INDUCTION LOG MEDIUM RESISTIVITY
~PARAMETER INFORMATION
#MNEM.UNIT          VALUE    DESCRIPTION
#----------   ------------   ------------------------------
 PD  .                 GL:   PERMANENT DATUM
 EPD .F              5067:   ELEVATION PERMANENT DATUM
 LMF .                 KB:   LOG MEASURED FROM
 DAPD.F                10:   FEET ABOVE PERMANENT DATUM
 DMF .                 KB:   DRILLING MEASURED FROM
 EKB .F              5077:   KELLING BUSHING
 EGL .F              5067:   GROUND LEVEL
 DATE.        22-SEP-1988:   RUN DATE
 RUN .                  1:   RUN NUMBER
 DD  .F               705:   DEPTH DRILLER
 DL  .F               716:   DEPTH LOGGER
 BLI .F             707.5:   BOTTOM LOG INTERVAL
 TLI .F                50:   TOP LOG INTERVAL
 CS  .IN            9.625:   CASING SIZE
 CBD .F                50:   CASING BOTTOM DRILLER
 CBL .F                50:   CASING BOTTOM LOGGER
 BS  .IN             8.75:   BIT SIZE
 BSD .F               705:   BIT SIZE AT DEPTH
 DFT .                AIR:   DRILLING FLUID TYPE
 TCS .HRS            2400:   TIME CURCULATED STOPPED
 TLAB.HRS            0251:   TIME LOGGER AT BOTTOM
 MRT .F                70:   MAXIMUM RECORDED TEMPERATURE
 LUN .               7597:   LOGGING UNIT NUMBER
 LUL .           GILLETTE:   LOGGING UNIT LOCATION
 ENGI.          HUCKFRIDT:   RECORDING ENGINEER
 WITN.             STRONG:   WITNESSED BY
 CLNT.            A2DTECH:   CLIENT CODE
 ORIG.           5" PRINT:   ORIGIN OF DATA
 UWI .       490251125200:   UNIQUE WELL ID
 DICO. A2D Technologies, Inc.:   DIGITIZING COMPANY
~OTHER INFORMATION
~A    DEPT      GRR      RILD       RILM   
# ...
  547.0000    80.0281    18.4412    18.1228
  547.5000    79.7117    18.4336    18.2431
  548.0000    79.6970    18.4273    18.1092
  548.5000    79.6822    18.2938    17.9778
  549.0000    79.3658    17.9110    17.8474
  549.5000    79.3511    17.9049    17.8414
  550.0000    79.6380    17.7527    17.6199
  550.5000    80.2244    17.5220    17.2009
  551.0000    80.5152    17.5151    16.6249
  551.5000    81.7038    17.6317    16.2758
  552.0000    82.2926    17.7473    16.0450
  552.5000    82.5798    17.7385    16.2644
  553.0000    82.5617    17.7313    16.4835
  553.5000    82.5472    17.7226    16.8236
  554.0000    82.5327    17.7155    16.8152
  554.5000    82.5182    17.7085    16.9272
  555.0000    82.5038    17.4576    16.9188
  555.5000    80.9774    17.3300    16.7950
  556.0000    80.3596    16.9522    16.6722
  556.5000    82.1551    16.7243    16.3219
  557.0000    86.0621    16.3734    15.8672
  557.5000    88.7626    16.0299    15.5341
  558.0000    88.7481    15.8028    15.3138
  558.5000    88.7300    15.4708    14.9922
  559.0000    88.7155    14.9365    14.9862
  559.5000    88.7011    14.8273    14.8764
  560.0000    88.6866    14.6172    14.5628
  560.5000    87.4655    14.5104    14.5569
  561.0000    88.6576    14.4044    14.3505
  561.5000    88.9412    14.2002    14.1470
  562.0000    88.6250    13.9977    14.1414
  562.5000    88.6106    13.7040    13.8363
  563.0000    88.5961    13.4165    13.5524
  563.5000    89.7882    13.0442    13.2678
  564.0000    90.9804    12.8594    12.8993
  564.5000    93.0775    12.6770    12.5411
  565.0000    93.0594    12.5833    12.1928
  565.5000    91.2350    12.3193    11.9315
  566.0000    88.5056    12.2293    11.3650
  566.5000    87.2845    11.9727    10.9730
  567.0000    87.8733    11.7210    10.6683
  567.5000    90.8718    11.5542    10.3720
  568.0000    92.0639    11.3118    10.2249
  568.5000    92.0495    11.3073    10.2208
  569.0000    92.3367    11.3028    10.2157
  569.5000    92.3198    11.2983    10.2117
  570.0000    92.9086    11.2156    10.1370
  570.5000    93.1994    11.2102    10.1329
  571.0000    93.4830    11.2057    10.1289
  571.5000    94.0754    11.2012    10.1248
  572.0000    94.3590    11.1968    10.1912
  572.5000    95.2459    11.1923    10.1861
  573.0000    95.5367    11.1877    10.1821
  573.5000    95.5186    11.1823    10.1780
  574.0000    95.2024    11.1006    10.2450
  574.5000    94.2830    10.9433    10.2407
  575.0000    93.0618    10.9389    10.2364
  575.5000    91.8371    10.9346    10.2315
  576.0000    91.8226    10.9291    10.1566
  576.5000    91.8081    10.9248    10.0824
  577.0000    91.7937    10.9204    10.0783
  577.5000    92.3825    10.9161    10.0743
  578.0000    92.9713    10.8363    10.1404
  578.5000    94.1635    10.8319    10.1353
  579.0000    95.3557    10.8266    10.1313
  579.5000    97.7508    10.8223    10.1272
  580.0000   100.1496    10.8180    10.1232
  580.5000   101.3454    10.8136    10.1191
  581.0000   100.7240    10.8093    10.1150
  581.5000   101.3128    10.8049    10.1107
  582.0000   102.5014    10.8748    10.1060
  582.5000   103.0902    10.8705    10.1019
  583.0000   102.4724    10.8661    10.0979
  583.5000   101.2513    10.8618    10.0939
  584.0000   100.0302    10.9331    10.0895
  584.5000    98.5038    10.9276    10.1550
  585.0000    97.5843    10.9233    10.1509
  585.5000    97.5698    10.8434    10.1469
  586.0000    98.4603    10.8391    10.1428
  586.5000    98.7511    10.7599    10.1388
  587.0000    97.8281    10.6812    10.1346
  587.5000    97.2066    10.6022    10.1296
  588.0000    96.8905    10.5247    10.1256
  588.5000    97.4830    10.5205    10.0515
  589.0000    98.6751    10.4436     9.9090
  589.5000    99.8637    10.3673     9.8365
  590.0000   100.4525    10.2203     9.7645
  590.5000   101.0377    10.2153     9.6922
  591.0000   101.9282    10.1407     9.6213
  591.5000   103.4256     9.9279     9.6175
  592.0000   104.6178     9.7873     9.5471
  592.5000   103.3931     9.6475     9.3466
  593.0000   102.1719     9.4452     9.2753
  593.5000   100.9472     9.3114     9.0825
  594.0000   102.1394     9.0530     8.8918
  594.5000   103.6332     8.7410     8.7657
  595.0000   106.3336     8.3814     8.5817
  595.5000   109.3357     8.0839     8.3434
  596.0000   111.4329     7.5990     7.8881
  596.5000   114.7330     7.0380     7.2554
  597.0000   115.9252     6.6555     6.6729
  597.5000   116.2160     6.3817     6.0526
  598.0000   116.1979     6.2478     5.2660
  598.5000   121.3116     6.1592     4.8433
  599.0000   127.3303     6.1562     4.7088
  599.5000   130.9321     6.2397     4.9065
  600.0000   128.2582     6.3690     5.1896
  600.5000   116.4235     6.8225     5.6932
  601.0000   109.7725     7.3605     6.5243
  601.5000   105.2330     7.8859     7.6395
  602.0000   104.0119     8.5669     8.0737
  602.5000   103.6953     9.2423     8.4721
  603.0000   102.7726     9.7657     8.7078
  603.5000   100.9517     9.8298     8.7655
  604.0000   105.7601     9.8249     8.7019
  604.5000   110.2705     9.8209     8.6984
  605.0000   114.7808     9.8170     8.7568
  605.5000   115.9729     9.9502     8.9996
  606.0000   114.4465    10.0851     9.3791
  606.5000   111.1137    10.3647     9.6433
  607.0000   106.8759    10.6520     9.9073
  607.5000   105.3531    10.8705    10.0432
  608.0000   106.5489    10.9429    10.2503
  608.5000   107.7375    11.0135    10.3191
  609.0000   108.6556    11.1629    10.5319
  609.5000   109.5146    11.2361    10.6237
  610.0000   110.1070    11.4666    10.8966
  610.5000   110.3942    11.5429    11.1212
  611.0000   110.6813    11.6175    11.1950
  611.5000   109.7582    11.7762    11.2692
  612.0000   107.3184    11.8523    11.5025
  612.5000   106.4103    11.8463    11.5787
  613.0000   106.3927    12.0070    11.5739
  613.5000   106.3782    12.0870    11.5701
  614.0000   106.3637    12.0809    11.5663
  614.5000   105.1425    12.0761    11.5624
  615.0000   103.9213    12.0713    11.4777
  615.5000   102.6739    11.9819    11.4739
  616.0000   100.8721    11.9771    11.3120
  616.5000   101.1628    11.9723    11.1523
  617.0000   101.1447    11.9675    11.0715
  617.5000   100.5268    11.7979    10.9912
  618.0000    98.7023    11.7117    10.9107
  618.5000    99.5967    11.4648    10.9071
  619.0000   101.1344    11.3810    10.8281
  619.5000   102.5767    11.1422    10.7496
  620.0000   105.8804    10.9084    10.4518
  620.5000   105.5642    10.8287    10.2322
  621.0000   104.9464    10.6753    10.2288
  621.5000   101.0103    10.5230    10.2254
  622.0000   104.3617    10.4461    10.1513
  622.5000   107.0108    10.2981     9.9388
  623.0000   106.9963    10.2228     9.7916
  623.5000   106.6801    10.1481     9.5927
  624.0000   107.2689    10.0043     9.3919
  624.5000   110.5726     9.9302     9.2593
  625.0000   112.9713     9.8576     9.1286
  625.5000   114.2090     9.7179     9.0625
  626.0000   114.4506     9.6469     8.8721
  626.5000   114.4324     9.5102     8.8078
  627.0000   114.4179     9.3755     8.6234
  627.5000   114.4034     9.1144     8.5609
  628.0000   115.5958     9.0478     8.3817
  628.5000   116.7876     8.9817     8.1996
  629.0000   117.9797     8.9781     8.0338
  629.5000   117.9616     8.9745     8.0312
  630.0000   115.8354     8.9709     8.0285
  630.5000   114.0109     8.9664     8.0256
  631.0000   111.8848     8.9629     8.0230
  631.5000   110.3620     8.9593     8.0203
  632.0000   111.5976     8.9557     7.9622
  632.5000   112.7462     8.9521     7.9038
  633.0000   113.3314     8.8253     7.9012
  633.5000   114.2254     8.8209     7.8440
  634.0000   115.7156     8.7564     7.8414
  634.5000   117.8127     8.5727     7.7845
  635.0000   119.9298     8.3348     7.6740
  635.5000   121.1019     8.1035     7.6715
  636.0000   118.9721     7.9887     7.6159
  636.5000   115.9410     7.8747     7.4565
  637.0000   115.3231     7.8716     7.4540
  637.5000   116.2136     7.8684     7.4000
