~VERSION INFORMATION
 VERS.                2.0:   CWLS LOG ASCII STANDARD - VERSION 2.0
 WRAP.                 NO:   ONE LINE PER DEPTH STEP
~WELL INFORMATION
#MNEM.UNIT      DATA TYPE    INFORMATION
#----------   ------------   ------------------------------
 STRT.F           33.0000:   START DEPTH
 STOP.F         1374.0000:   STOP DEPTH
 STEP.F            0.5000:   STEP LENGTH
 NULL.          -999.2500:   NO VALUE
 COMP. FENIX & SCISSON INC:   COMPANY
 WELL.   NPR-3 "S" #84-14:   WELL
 FLD .             TEAPOT:   FIELD
 LOC .      S14 T38N R78W:   LOCATION
 CNTY.            NATRONA:   COUNTY
 STAT.            WYOMING:   STATE
 CTRY. UNITED STATES OF AMERICA:   COUNTRY
 SRVC.            Unknown:   SERVICE COMPANY
 DATE.        18-MAR-1978:   LOGDATE
 API .       490251060400:   API NUMBER
~CURVE INFORMATION
#MNEM.UNIT       API CODE    CURVE DESCRIPTION
#----------   ------------   ------------------------------
 DEPT.F                  :   
 SPR .MV     05 010 01 00:   SPONTANEOUS POTENTIAL FROM RES.
 SN  .OHMM   05 040 16 00:   SHORT NORMAL 16"
 ILD .OHMM   05 120 46 00:   INDUCTION LOG DEEP
 CALD.IN     45 280 60 00:   CALIPER
 GRD .GAPI   45 310 01 00:   GAMMA RAY FROM DENSITY LOG
 CORR.G/C3   45 356 01 00:   DENSITY CORRECTION
 RHOB.G/C3   45 350 01 00:   BULK DENSITY
 DPHI.DEC    45 890 00 00:   DENSITY POROSITY
~PARAMETER INFORMATION
#MNEM.UNIT          VALUE    DESCRIPTION
#----------   ------------   ------------------------------
 PD  .                 GL:   PERMANENT DATUM
 EPD .F              5314:   ELEVATION PERMANENT DATUM
 LMF .                 KB:   LOG MEASURED FROM
 DMF .                 KB:   DRILLING MEASURED FROM
 EKB .F              5318:   KELLING BUSHING
 EGL .F              5314:   GROUND LEVEL
 DATE.          3-18-1978:   RUN DATE
 RUN .                  1:   RUN NUMBER
 DD  .F              1375:   DEPTH DRILLER
 DL  .F              1380:   DEPTH LOGGER
 BLI .F              1374:   BOTTOM LOG INTERVAL
 TLI .F                50:   TOP LOG INTERVAL
 CS  .IN            8.625:   CASING SIZE
 CBD .F                40:   CASING BOTTOM DRILLER
 CBL .F                50:   CASING BOTTOM LOGGER
 BS  .IN            7.875:   BIT SIZE
 BSD .F              1375:   BIT SIZE AT DEPTH
 DFT .                KCL:   DRILLING FLUID TYPE
 DFD .                8.1:   DRILLING FLUID DENSITY
 DFV .                 31:   DRILLING FLUID VISCOSITY
 DFPH.                 10:   DRILLING FLUID PH
 DFL .                8.4:   DRILLING FLUID LOSS
 MSS .           FLOWLINE:   MUD SAMPLE SOURCE
 RMS .OHMM            .28:   RESISTIVITY MUD SAMPLE
 MST .F                62:   MUD SAMPLE TEMPERATURE
 RMF .OHMM            .26:   RESISTIVITY MUD FILTRATE SAMPLE
 MFST.F                67:   MUD FILTRATE SAMPLE TEMPERATURE
 RMC .OHMM            .36:   RESISTIVITY MUD CAKE
 MCST.F                70:   MUD CAKE SAMPLE TEMPERATURE
 MFSS.               MEAS:   MUD FILTRATE SAMPLE SOURCE
 RMB .OHMM            .22:   RESISTIVITY MUD AT BHT
 BHT .F                80:   BOTTOM HOLE TEMPERATURE
 TCS .HRS               4:   TIME CURCULATED STOPPED
 MRT .F                80:   MAXIMUM RECORDED TEMPERATURE
 LUN .               2958:   LOGGING UNIT NUMBER
 LUL .               CASP:   LOGGING UNIT LOCATION
 ENGI.             MILLER:   RECORDING ENGINEER
 WITN.           MCGINLEY:   WITNESSED BY
 CLNT.            A2DTECH:   CLIENT CODE
 ORIG.      2" & 5" PRINT:   ORIGIN OF DATA
 UWI .       490251060400:   UNIQUE WELL ID
 DICO. A2D Technologies, Inc.:   DIGITIZING COMPANY
~OTHER INFORMATION
~A   DEPT      SPR         SN        ILD       CALD         GRD      CORR       RHOB       DPHI   
# ...
  478.5000   -50.6746     6.3979     6.1233     7.5125    99.1224    -0.0048     2.4594     0.1091
  479.0000   -50.6735     6.4494     6.1595     7.5127    98.2136    -0.0057     2.4561     0.1106
  479.5000   -50.6767     6.4883     6.1959     7.5129    97.2944    -0.0065     2.4527     0.1089
  480.0000   -51.1005     6.5274     6.2325     7.5131    97.2027    -0.0066     2.4518     0.1038
  480.5000   -51.4847     6.5668     6.2694     7.5133    97.3886    -0.0053     2.4618     0.1080
  481.0000   -51.3802     6.6064     6.3042     7.5135    97.9728    -0.0041     2.4567     0.1115
  481.5000   -51.2639     6.6462     6.3870     7.5137   100.1907    -0.0029     2.4476     0.1156
  482.0000   -50.9422     6.7001     6.4709     7.5139   101.9935    -0.0017     2.4382     0.1196
  482.5000   -50.6660     6.6769     6.5171     7.5141   100.9972    -0.0004     2.4304     0.1217
  483.0000   -50.6744     6.6385     6.4907     7.5143    98.6816     0.0008     2.4394     0.1230
  483.5000   -50.6751     6.5677     6.3979     7.5145    96.8037     0.0020     2.4313     0.1213
  484.0000   -50.6747     6.5002     6.3163     7.5147    96.9639     0.0033     2.4357     0.1210
  484.5000   -50.6748     6.4335     6.2381     7.5149    97.5880     0.0045     2.4305     0.1210
  485.0000   -50.6748     6.3675     6.1609     7.5152    98.0403     0.0039     2.4344     0.1220
  485.5000   -50.6748     6.3019     6.0846     7.5153    95.8648     0.0022     2.4364     0.1233
  486.0000   -50.6748     6.2375     6.0093     7.5156    93.8474     0.0004     2.4332     0.1246
  486.5000   -50.6748     6.2028     5.9349     7.5158    94.3730    -0.0013     2.4296     0.1256
  487.0000   -50.6748     6.1661     5.8339     7.5160    96.0075    -0.0031     2.4295     0.1270
  487.5000   -50.6748     6.1661     5.8281     7.5162    97.2749    -0.0047     2.4260     0.1276
  488.0000   -50.6748     6.3304     5.8202     7.5164    96.9395     0.0023     2.4211     0.1278
  488.5000   -50.6747     6.4573     5.8129     7.5166    96.2297     0.0105     2.4227     0.1179
  489.0000   -50.6744     6.4573     5.8053     7.5168    95.6809     0.0128     2.4399     0.1117
  489.5000   -50.6762     6.4573     5.7975     7.5170    95.6851     0.0081     2.4506     0.1154
  490.0000   -50.7318     6.4573     5.7902     7.5172    95.7188     0.0034     2.4469     0.1150
  490.5000   -50.7898     6.4573     5.7803     7.5174    96.4776    -0.0013     2.4415     0.1106
  491.0000   -50.8476     6.5991     5.8738     7.5176    98.5349    -0.0061     2.4461     0.1139
  491.5000   -50.9055     6.8111     5.9570     7.5178   100.5809    -0.0042     2.4396     0.1165
  492.0000   -50.9634     7.0165     6.0413     7.5180   102.5706    -0.0008     2.4485     0.1080
  492.5000   -51.0222     7.3176     6.4201     7.5182   102.8165     0.0027     2.4583     0.1012
  493.0000   -51.0709     7.6847     6.8755     7.5184    98.1998     0.0062     2.4591     0.0974
  493.5000   -50.8230     8.0582     7.1472     7.5186    94.2612     0.0097     2.4706     0.0970
  494.0000   -50.5422     8.0710     7.1472     7.5188    88.2176     0.0132     2.4773     0.1010
  494.5000   -50.2610     8.0863     7.6683     7.5190    81.3193     0.0126     2.4754     0.1006
  495.0000   -49.9796     8.1017     7.8382     7.5192    76.0720     0.0077     2.4733     0.1016
  495.5000   -49.7016     8.1160     7.8382     7.5194    76.5706     0.0027     2.4570     0.1037
  496.0000   -49.4918     8.1320     7.5535     7.5196    82.7324     0.0015     2.4486     0.1058
  496.5000   -49.5937     7.6959     7.2764     7.5198    88.9447     0.0023     2.4477     0.1078
  497.0000   -49.6882     7.3323     7.1340     7.5200    91.6704     0.0031     2.4552     0.1086
  497.5000   -49.7817     7.2615     7.0316     7.5202    91.6396     0.0038     2.4569     0.1089
  498.0000   -49.8756     7.1911     6.9314     7.5204    91.5507     0.0046     2.4534     0.1086
  498.5000   -49.9694     7.1206     6.8254     7.5206    93.0031     0.0026     2.4567     0.1116
  499.0000   -50.0632     7.0503     6.7840     7.5208    94.5495    -0.0017     2.4557     0.1117
  499.5000   -50.1570     6.9851     6.7394     7.5210    95.0254    -0.0060     2.4497     0.1106
  500.0000   -50.2509     6.9245     6.6955     7.5212    94.0658    -0.0086     2.4541     0.1125
  500.5000   -50.3447     6.8644     6.6519     7.5215    93.1368    -0.0068     2.4391     0.1155
  501.0000   -50.4386     6.8049     6.6086     7.5217    92.1998    -0.0052     2.4548     0.1182
  501.5000   -50.5321     6.7566     6.5655     7.5219    92.3826    -0.0035     2.4437     0.1144
  502.0000   -50.6258     6.7367     6.5228     7.5221    95.3180    -0.0019     2.4488     0.1106
  502.5000   -50.6822     6.7169     6.5121     7.5223    98.6060    -0.0014     2.4560     0.1046
  503.0000   -50.7143     6.6971     6.5064     7.5225    98.9977    -0.0029     2.4626     0.1059
  503.5000   -50.7456     6.6773     6.5007     7.5227    98.3442    -0.0044     2.4634     0.1083
  504.0000   -50.7765     6.6576     6.4950     7.5229    98.5428    -0.0058     2.4599     0.1104
  504.5000   -50.8075     6.6385     6.4893     7.5231   100.3756    -0.0073     2.4560     0.1141
  505.0000   -50.8392     6.6276     6.4836     7.5233   100.7254    -0.0088     2.4483     0.1178
  505.5000   -50.8698     6.6144     6.4779     7.5235   100.1841    -0.0102     2.4399     0.1186
  506.0000   -50.6825     6.6013     6.4722     7.5238    99.6391    -0.0103     2.4392     0.1177
  506.5000   -50.4590     6.5879     6.4665     7.5240    99.0975    -0.0087     2.4413     0.1171
  507.0000   -50.2346     6.5775     6.4608     7.5242    98.5517    -0.0072     2.4351     0.1164
  507.5000   -50.0106     6.5538     6.4302     7.5245    98.7033    -0.0057     2.4395     0.1158
  508.0000   -49.7869     6.5298     6.3600     7.5247    99.6240    -0.0041     2.4461     0.1158
  508.5000   -49.5605     6.5060     6.2904     7.5249   100.7478    -0.0030     2.4451     0.1146
  509.0000   -49.5016     6.4824     6.2217     7.5251   101.0819    -0.0048     2.4482     0.1142
  509.5000   -49.5330     6.4570     6.1537     7.5254   101.1643    -0.0066     2.4511     0.1160
  510.0000   -49.5654     6.4574     6.1094     7.5256   101.2187    -0.0083     2.4514     0.1178
  510.5000   -49.5981     6.4573     6.1161     7.5258   100.8390    -0.0100     2.4421     0.1194
  511.0000   -49.6306     6.4573     6.1218     7.5261    98.8457    -0.0101     2.4335     0.1187
  511.5000   -49.6631     6.4573     6.1277     7.5263    98.8370    -0.0083     2.4352     0.1171
  512.0000   -49.6957     6.4573     6.1336     7.5265    99.6203    -0.0064     2.4416     0.1167
  512.5000   -49.7282     6.4573     6.1395     7.5268   100.2750    -0.0051     2.4428     0.1178
  513.0000   -49.7607     6.4572     6.1453     7.5270    99.8821    -0.0058     2.4421     0.1189
  513.5000   -49.7932     6.4571     6.1511     7.5272   100.2556    -0.0065     2.4389     0.1200
  514.0000   -49.8257     6.4575     6.1571     7.5275   100.8319    -0.0066     2.4354     0.1202
  514.5000   -49.8583     6.4560     6.1631     7.5277   101.2765    -0.0045     2.4420     0.1132
  515.0000   -49.9019     6.5274     6.1902     7.5279   101.0193    -0.0029     2.4496     0.1094
  515.5000   -49.9646     6.5831     6.2424     7.5282   100.7614    -0.0025     2.4565     0.1098
  516.0000   -50.0256     6.6393     6.2951     7.5284   100.9152    -0.0020     2.4552     0.1119
  516.5000   -50.0478     6.6960     6.3483     7.5286   100.1298    -0.0016     2.4488     0.1151
  517.0000   -49.8519     6.7531     6.4019     7.5289    97.5156    -0.0011     2.4425     0.1183
  517.5000   -49.6578     6.8108     6.4559     7.5291    95.4274    -0.0007     2.4363     0.1206
  518.0000   -49.4644     6.8689     6.5104     7.5293    95.5509     0.0000     2.4317     0.1175
  518.5000   -49.2709     6.9276     6.5654     7.5296    97.0745     0.0006     2.4427     0.1125
