~VERSION INFORMATION
 VERS.                2.0:   CWLS LOG ASCII STANDARD - VERSION 2.0
 WRAP.                 NO:   ONE LINE PER DEPTH STEP
~WELL INFORMATION
#MNEM.UNIT      DATA TYPE    INFORMATION
#----------   ------------   ------------------------------
 STRT.F            0.0000:   START DEPTH
 STOP.F         2660.0000:   STOP DEPTH
 STEP.F            0.5000:   STEP LENGTH
 NULL.          -999.2500:   NO VALUE
 COMP. FENIX & SCISSON INC:   COMPANY
 WELL.     101-20 #101-20:   WELL
 FLD .        TEAPOT DOME:   FIELD
 LOC .      S20 T39N R78W:   LOCATION
 CNTY.            NATRONA:   COUNTY
 STAT.            WYOMING:   STATE
 CTRY. UNITED STATES OF AMERICA:   COUNTRY
 SRVC.      NL McCullough:   SERVICE COMPANY
 DATE.        19-SEP-1965:   LOGDATE
 API .       490251022100:   API NUMBER
~CURVE INFORMATION
#MNEM.UNIT       API CODE    CURVE DESCRIPTION
#----------   ------------   ------------------------------
 DEPT.F                  :   
 GR  .GAPI   30 310 01 00:   GAMMA RAY
 CALI.IN     30 280 01 00:   CALIPER
~PARAMETER INFORMATION
#MNEM.UNIT          VALUE    DESCRIPTION
#----------   ------------   ------------------------------
 PD  .                 GL:   PERMANENT DATUM
 LMF .                 GL:   LOG MEASURED FROM
 DMF .                 GL:   DRILLING MEASURED FROM
 DATE.          9-19-1965:   RUN DATE
 RUN .                  1:   RUN NUMBER
 DD  .F              2661:   DEPTH DRILLER
 DL  .F              2659:   DEPTH LOGGER
 BLI .F              2657:   BOTTOM LOG INTERVAL
 TLI .F              2000:   TOP LOG INTERVAL
 CS  .IN              6.5:   CASING SIZE
 CBD .F              2619:   CASING BOTTOM DRILLER
 BSD .F              2661:   BIT SIZE AT DEPTH
 DFT .              WATER:   DRILLING FLUID TYPE
 TCS .HRS               1:   TIME CURCULATED STOPPED
 ENGI.        FITZSIMMONS:   RECORDING ENGINEER
 WITN.          JORGENSEN:   WITNESSED BY
 CLNT.            A2DTECH:   CLIENT CODE
 ORIG.           5" PRINT:   ORIGIN OF DATA
 UWI .       490251022100:   UNIQUE WELL ID
 DICO. A2D Technologies, Inc.:   DIGITIZING COMPANY
~OTHER INFORMATION
~A    DEPT      GR         CALI 
# ...
 2430.0000    86.3557     6.4905
 2430.5000    92.8436     6.4910
 2431.0000    98.1912     6.4915
 2431.5000   101.7553     6.4920
 2432.0000    98.4917     6.4925
 2432.5000    98.4417     6.4930
 2433.0000    86.9886     6.4935
 2433.5000    91.5576     6.4940
 2434.0000    86.5592     6.4945
 2434.5000    91.4575     6.4950
 2435.0000    93.5590     6.4955
 2435.5000    92.6893     6.4960
 2436.0000    90.3177     6.4953
 2436.5000    88.5988     6.4928
 2437.0000    93.2486     6.4903
 2437.5000    96.8525     6.4879
 2438.0000   101.6913     6.4865
 2438.5000   108.5794     6.4874
 2439.0000   116.6386     6.4882
 2439.5000   129.4258     6.4891
 2440.0000   129.2888     6.4900
 2440.5000   125.9431     6.4909
 2441.0000   135.2920     6.4918
 2441.5000   137.0675     6.4926
 2442.0000   140.3800     6.4935
 2442.5000   133.6103     6.4944
 2443.0000   133.3901     6.4953
 2443.5000   132.0436     6.4961
 2444.0000   133.4335     6.4976
 2444.5000   133.4044     6.4991
 2445.0000   136.7399     6.5006
 2445.5000   134.6759     6.5022
 2446.0000   134.1850     6.5037
 2446.5000   142.1031     6.5052
 2447.0000   143.2738     6.5067
 2447.5000   147.7203     6.5083
 2448.0000   130.7818     6.5098
 2448.5000   111.8820     6.5113
 2449.0000    93.0250     6.5128
 2449.5000    90.6139     6.5144
 2450.0000    97.9391     6.5159
 2450.5000    96.9485     6.5174
 2451.0000    96.9933     6.5189
 2451.5000   103.2161     6.5205
 2452.0000    94.6049     6.5220
 2452.5000    89.8992     6.5235
 2453.0000    90.5113     6.5250
 2453.5000    94.8480     6.5263
 2454.0000    92.2976     6.5265
 2454.5000    94.8849     6.5344
 2455.0000    99.9222     6.5532
 2455.5000   102.4685     6.5677
 2456.0000    95.0853     6.5113
 2456.5000    97.7750     6.4867
 2457.0000   100.1752     6.4860
 2457.5000    90.0368     6.4862
 2458.0000    87.4840     6.4862
 2458.5000    89.8584     6.4862
 2459.0000    84.0674     6.4862
 2459.5000    75.7802     6.4862
 2460.0000    76.3197     6.4866
 2460.5000    72.8972     6.4870
 2461.0000    69.0569     6.4874
 2461.5000    73.5000     6.4878
 2462.0000    78.4279     6.4882
 2462.5000    83.8467     6.4886
 2463.0000    87.1817     6.4890
 2463.5000    96.5873     6.4894
 2464.0000   105.8600     6.4899
 2464.5000   111.2977     6.4903
 2465.0000   114.6419     6.4907
 2465.5000   112.3978     6.4911
 2466.0000   108.5165     6.4915
 2466.5000   108.5669     6.4919
 2467.0000   105.6622     6.4923
 2467.5000   103.2942     6.4928
 2468.0000   108.1575     6.4932
 2468.5000   110.2099     6.4936
 2469.0000   104.5247     6.4940
 2469.5000   106.0135     6.4944
 2470.0000   104.9373     6.4948
 2470.5000   109.9375     6.4952
 2471.0000   111.5079     6.4956
 2471.5000   112.5683     6.4960
 2472.0000   110.7643     6.4976
 2472.5000   110.0771     6.5001
 2473.0000   112.3406     6.5026
 2473.5000   118.4180     6.5050
 2474.0000   117.8600     6.5075
 2474.5000   116.4803     6.5100
 2475.0000   113.6411     6.5124
 2475.5000   112.7990     6.5155
 2476.0000   118.7872     6.5369
 2476.5000   110.5444     6.5640
 2477.0000   110.8521     6.5081
 2477.5000   121.4704     6.4953
 2478.0000   126.3597     6.4952
 2478.5000   123.9998     6.4948
 2479.0000   120.4568     6.4943
 2479.5000   118.7059     6.4938
 2480.0000   125.0201     6.4932
 2480.5000   118.6175     6.4927
 2481.0000   109.3383     6.4922
 2481.5000   105.6740     6.4917
 2482.0000    97.9092     6.4912
 2482.5000    96.1962     6.4906
 2483.0000   105.7879     6.4901
 2483.5000    99.9994     6.4896
 2484.0000   100.0965     6.4891
 2484.5000   105.0046     6.4886
 2485.0000   105.7160     6.4880
 2485.5000   105.3695     6.4875
 2486.0000   105.7905     6.4870
 2486.5000   107.0150     6.4865
 2487.0000   104.7972     6.4873
 2487.5000   102.4688     6.4895
 2488.0000    99.7824     6.4916
 2488.5000   110.0610     6.4938
 2489.0000   115.8537     6.4960
 2489.5000   114.3161     6.4981
 2490.0000   104.1161     6.5003
 2490.5000   108.0633     6.5025
 2491.0000   103.5420     6.5046
 2491.5000   113.1880     6.5068
 2492.0000   117.6266     6.5090
 2492.5000   110.9256     6.5111
 2493.0000   112.8116     6.5133
 2493.5000   112.3513     6.5155
 2494.0000   117.9505     6.5173
 2494.5000   121.4676     6.5190
 2495.0000   115.0327     6.5207
 2495.5000   114.2617     6.5224
 2496.0000   114.2539     6.5241
 2496.5000   117.9522     6.5257
 2497.0000   110.4699     6.5268
 2497.5000   103.4796     6.4960
 2498.0000   101.0526     6.4750
 2498.5000   107.2245     6.4588
 2499.0000   115.3451     6.4605
 2499.5000   116.8777     6.4659
 2500.0000   114.6462     6.4715
 2500.5000   119.8898     6.4764
 2501.0000   119.9193     6.4767
 2501.5000   123.2972     6.4771
 2502.0000   127.6861     6.4776
 2502.5000   127.8317     6.4780
 2503.0000   123.5527     6.4785
 2503.5000   120.1123     6.4789
 2504.0000   123.3832     6.4794
 2504.5000   122.0308     6.4798
 2505.0000   123.6368     6.4803
 2505.5000   123.4998     6.4807
 2506.0000   116.7269     6.4812
 2506.5000   115.2106     6.4816
 2507.0000   122.3509     6.4820
 2507.5000   114.4960     6.4825
 2508.0000   114.6552     6.4830
 2508.5000   117.0611     6.4834
 2509.0000   112.4815     6.4838
 2509.5000   110.4599     6.4843
 2510.0000   108.6685     6.4847
 2510.5000   107.5417     6.4852
 2511.0000   111.7078     6.4856
 2511.5000   119.8463     6.4861
 2512.0000   119.5098     6.4859
 2512.5000   119.3529     6.4673
 2513.0000   117.7974     6.4770
 2513.5000   117.9305     6.4849
 2514.0000   122.9847     6.4769
 2514.5000   120.6480     6.4838
 2515.0000   127.8658     6.4925
 2515.5000   130.2503     6.5013
 2516.0000   130.7842     6.5100
 2516.5000   125.9387     6.5187
 2517.0000   122.5349     6.5278
 2517.5000   117.8961     6.5344
 2518.0000   113.0955     6.4782
 2518.5000   111.4760     6.4763
 2519.0000   117.8365     6.4771
 2519.5000   119.3417     6.4776
 2520.0000   119.3659     6.4780
 2520.5000   124.4583     6.4785
 2521.0000   118.2168     6.4790
 2521.5000   122.0077     6.4794
 2522.0000   123.5279     6.4799
 2522.5000   123.1317     6.4804
 2523.0000   126.5819     6.4808
 2523.5000   118.0527     6.4813
 2524.0000   111.1044     6.4817
 2524.5000   110.2432     6.4822
 2525.0000   127.7825     6.4827
 2525.5000   122.4306     6.4831
 2526.0000   118.3117     6.4836
 2526.5000   123.1863     6.4840
 2527.0000   122.8335     6.4845
 2527.5000   126.7280     6.4850
 2528.0000   121.1097     6.4854
 2528.5000   123.2328     6.4859
 2529.0000   125.5619     6.4873
 2529.5000   120.9661     6.4910
 2530.0000   117.9380     6.4946
 2530.5000   117.2061     6.4982
 2531.0000   117.2137     6.5018
 2531.5000   120.7283     6.5055
 2532.0000   117.6627     6.5063
 2532.5000   124.1916     6.5063
 2533.0000   121.5204     6.5063
 2533.5000   113.6535     6.5063
 2534.0000   115.1632     6.5063
 2534.5000   109.0902     6.5062
 2535.0000   117.1872     6.5061
 2535.5000   122.5322     6.5069
 2536.0000   109.1381     6.5218
 2536.5000   111.4541     6.5364
 2537.0000   107.3630     6.5513
 2537.5000   110.0877     6.5660
 2538.0000   106.1800     6.4875
 2538.5000   101.4012     6.4877
 2539.0000   105.6113     6.4894
 2539.5000   119.1495     6.4910
 2540.0000   113.6717     6.4925
 2540.5000   106.5110     6.4940
 2541.0000   102.5087     6.4956
 2541.5000   104.1679     6.4965
 2542.0000   103.0608     6.4969
 2542.5000   109.1831     6.4974
 2543.0000   108.0175     6.4978
 2543.5000   113.0984     6.4983
 2544.0000   107.2206     6.4987
 2544.5000   107.6613     6.4992
 2545.0000    94.3106     6.4996
 2545.5000    92.7550     6.5001
 2546.0000    98.5251     6.5005
 2546.5000   103.7798     6.5010
 2547.0000   113.8551     6.5014
 2547.5000   119.5832     6.5019
 2548.0000   127.5641     6.5023
 2548.5000   117.2288     6.5028
 2549.0000   113.3791     6.5032
 2549.5000   115.7782     6.5037
 2550.0000   115.9041     6.5041
 2550.5000   101.5349     6.5046
 2551.0000   104.7115     6.5050
