~VERSION INFORMATION
 VERS.                2.0:   CWLS LOG ASCII STANDARD - VERSION 2.0
 WRAP.                 NO:   ONE LINE PER DEPTH STEP
~WELL INFORMATION
#MNEM.UNIT      DATA TYPE    INFORMATION
#----------   ------------   ------------------------------
 STRT.F          100.0000:   START DEPTH
 STOP.F          872.0000:   STOP DEPTH
 STEP.F            0.5000:   STEP LENGTH
 NULL.          -999.2500:   NO VALUE
 COMP. U S NAVY/INTEX OIL CO:   COMPANY
 WELL. 53 S 11 #N P R 3-11:   WELL
 FLD .             TEAPOT:   FIELD
 LOC .      S11 T38N R78W:   LOCATION
 CNTY.            NATRONA:   COUNTY
 STAT.            WYOMING:   STATE
 CTRY. UNITED STATES OF AMERICA:   COUNTRY
 SRVC.       Schlumberger:   SERVICE COMPANY
 DATE.        07-AUG-1961:   LOGDATE
 API .       490250635800:   API NUMBER
~CURVE INFORMATION
#MNEM.UNIT       API CODE    CURVE DESCRIPTION
#----------   ------------   ------------------------------
 DEPT.F                  :   
 CILD.MMHO   05 110 46 00:   CONDUCTIVITY INDUCTION LOG DEEP
 ILD .OHMM   05 120 46 00:   INDUCTION LOG DEEP
 SPR .MV     05 010 01 00:   SPONTANEOUS POTENTIAL FROM RES.
 ASN .OHMM   05 041 16 00:   AMPLIFIED SHORT NORMAL 16"
~PARAMETER INFORMATION
#MNEM.UNIT          VALUE    DESCRIPTION
#----------   ------------   ------------------------------
 PD  .                 GL:   PERMANENT DATUM
 EPD .F              5192:   ELEVATION PERMANENT DATUM
 LMF .                 KB:   LOG MEASURED FROM
 DAPD.F                 6:   FEET ABOVE PERMANENT DATUM
 DMF .                 KB:   DRILLING MEASURED FROM
 EKB .F              5198:   KELLING BUSHING
 EGL .F              5192:   GROUND LEVEL
 DATE.             8-7-61:   RUN DATE
 RUN .                  1:   RUN NUMBER
 DD  .F               870:   DEPTH DRILLER
 DL  .F               873:   DEPTH LOGGER
 BLI .F               872:   BOTTOM LOG INTERVAL
 TLI .F               100:   TOP LOG INTERVAL
 BS  .IN            7.875:   BIT SIZE
 BSD .F               870:   BIT SIZE AT DEPTH
 DFT .            GEL/OIL:   DRILLING FLUID TYPE
 DFD .               10.4:   DRILLING FLUID DENSITY
 DFV .                 43:   DRILLING FLUID VISCOSITY
 RMS .OHMM            .02:   RESISTIVITY MUD SAMPLE
 MST .F                70:   MUD SAMPLE TEMPERATURE
 TCS .HRS               1:   TIME CURCULATED STOPPED
 LUN .               2544:   LOGGING UNIT NUMBER
 LUL .                 NC:   LOGGING UNIT LOCATION
 ENGI.             QUINCY:   RECORDING ENGINEER
 WITN.          JORGENSON:   WITNESSED BY
 CLNT.            A2DTECH:   CLIENT CODE
 ORIG.       2", 5" PRINT:   ORIGIN OF DATA
 UWI .       490250635800:   UNIQUE WELL ID
 DICO. A2D Technologies, Inc.:   DIGITIZING COMPANY
~OTHER INFORMATION
~A   DEPT      CILD         ILD      SPR          ASN 
# ...
  757.0000    68.0462    15.0539   -25.0847    15.3937
  757.5000    67.3424    15.0510   -25.2260    15.3690
  758.0000    66.6385    15.0728   -25.5093    15.3384
  758.5000    65.9346    15.0842   -25.7836    15.2881
  759.0000    65.2308    15.0960   -26.0415    15.2370
  759.5000    64.5269    15.1167   -26.3573    15.1634
  760.0000    63.8231    15.1154   -26.4542    15.0885
  760.5000    63.1896    15.1598   -26.1789    14.9973
  761.0000    64.9316    14.9368   -25.9388    14.8793
  761.5000    66.5153    14.5662   -25.7012    14.7479
  762.0000    68.0990    14.2296   -25.5127    14.6472
  762.5000    69.2076    13.9616   -25.3407    14.6119
  763.0000    70.0853    13.8261   -25.1555    14.5195
  763.5000    71.3390    13.6088   -25.0003    14.4389
  764.0000    72.5928    13.3633   -24.5831    14.3232
  764.5000    75.2257    13.1971   -23.9975    14.2104
  765.0000    76.7302    13.1045   -24.0271    14.0454
  765.5000    78.4019    12.9859   -24.2953    13.7722
  766.0000    80.0735    12.8831   -24.5465    13.6235
  766.5000    81.2437    12.7477   -24.7135    13.6523
  767.0000    80.6103    12.7583   -24.6880    13.6538
  767.5000    79.9064    12.7975   -24.7074    13.6697
  768.0000    79.2025    12.8290   -24.7988    13.6773
  768.5000    78.4986    12.8640   -24.9205    13.6900
  769.0000    77.7948    12.8972   -25.0381    13.6992
  769.5000    77.0909    12.9269   -25.1498    13.7120
  770.0000    76.3871    12.9183   -25.2755    13.7197
  770.5000    75.6832    12.9000   -25.2414    13.7361
  771.0000    74.9793    12.8849   -25.1078    13.6922
  771.5000    74.2755    12.8680   -25.0084    13.5956
  772.0000    73.5716    12.8526   -24.8692    13.5081
  772.5000    73.5636    12.8359   -24.5169    13.4162
  773.0000    74.7098    12.8195   -24.1658    13.3268
  773.5000    75.8561    12.7001   -23.8155    13.2361
  774.0000    77.0024    12.5509   -23.4640    13.1456
  774.5000    78.1487    12.4074   -23.1286    13.0577
  775.0000    79.2950    12.2611   -23.2483    13.0035
  775.5000    80.4413    12.1164   -23.4591    12.9684
  776.0000    81.2437    11.9704   -23.6447    12.9173
  776.5000    81.9381    11.8261   -23.8527    12.6987
  777.0000    82.7263    11.6790   -24.0305    12.4831
  777.5000    83.4890    11.5370   -24.2570    12.4150
  778.0000    84.2554    11.3851   -24.1198    12.3828
  778.5000    85.0254    11.2912   -23.7878    12.3395
  779.0000    85.7978    11.2567   -23.4784    12.3022
  779.5000    86.5715    11.2103   -23.2584    12.2600
  780.0000    87.3470    11.1726   -23.3143    12.2234
  780.5000    88.1220    11.1254   -23.1027    12.1791
  781.0000    88.8820    11.0918   -22.6918    12.1481
  781.5000    89.2678    11.0336   -22.3052    12.0411
  782.0000    89.2678    11.0912   -21.9160    12.0000
  782.5000    89.2678    11.1453   -21.9539    11.9956
  783.0000    89.2678    11.1538   -22.0626    11.9792
  783.5000    89.2678    11.1790   -22.1574    11.9688
  784.0000    89.2678    11.1952   -22.2585    11.9552
  784.5000    89.2678    11.2176   -22.3549    11.9432
  785.0000    89.2678    11.2123   -22.4573    11.9303
  785.5000    89.2678    11.1524   -22.5512    11.9148
  786.0000    89.5869    11.0911   -22.6578    11.8553
  786.5000    90.0429    11.0318   -22.6352    11.7933
  787.0000    90.4988    10.9692   -22.5358    11.7329
  787.5000    90.9547    10.8830   -22.4587    11.6709
  788.0000    91.4106    10.6721   -22.3699    11.6115
  788.5000    91.8665    10.4406   -22.2900    11.5471
  789.0000    92.3224    10.2116   -22.2003    11.5111
  789.5000    92.7783    10.1002   -22.1256    11.4987
  790.0000    93.2798    10.1435   -21.9691    11.4809
  790.5000    93.3801    10.1693   -21.7285    11.4654
  791.0000    93.7145    10.2062   -21.5060    11.4492
  791.5000    94.0488    10.2371   -21.2670    11.4320
  792.0000    94.3831    10.2713   -21.0800    11.4227
  792.5000    94.7177    10.3038   -21.0626    11.4549
  793.0000    95.0521    10.3373   -21.0707    11.4897
  793.5000    95.3862    10.3699   -21.0569    11.5162
  794.0000    95.7204    10.4028   -21.1769    11.5065
  794.5000    96.0548    10.4142   -21.5601    11.4947
  795.0000    96.3892    10.4120   -21.9105    11.4831
  795.5000    96.7235    10.4141   -22.3216    11.4715
  796.0000    97.0578    10.4113   -22.4251    11.4599
  796.5000    97.3922    10.4163   -22.2348    11.4480
  797.0000    97.7265    10.3791   -22.0865    11.4364
  797.5000    98.0609    10.3161   -21.9321    11.4248
  798.0000    98.3952    10.2630   -21.8102    11.4117
  798.5000    98.7294    10.2055   -21.7341    11.3391
  799.0000    99.0646    10.1506   -21.4619    11.2677
  799.5000    99.3999    10.0936   -21.2208    11.1370
  800.0000    99.7353    10.0391   -21.0538    11.1119
  800.5000   100.0701     9.9749   -20.8631    11.1186
  801.0000   100.4047     9.8748   -20.6805    11.1094
  801.5000   100.7389     9.7664   -20.6938    11.0277
  802.0000   101.0739     9.6669   -20.7781    10.9220
  802.5000   101.3104     9.5508   -20.8497    10.9241
  803.0000   100.6238     9.5306   -20.9245    11.0349
  803.5000   100.0067     9.6053   -21.0030    11.1433
  804.0000    99.3248     9.6654   -21.0654    11.2545
  804.5000    99.0973     9.7299   -21.1648    11.3593
  805.0000    98.6961     9.7964   -21.2458    11.4818
  805.5000    98.2949     9.8521   -21.4285    11.5979
  806.0000    97.8937     9.9304   -21.5643    11.7452
  806.5000    97.4925     9.9620   -21.6407    11.8308
  807.0000    97.2919    10.2664   -21.7391    12.0711
  807.5000    90.4437    10.7746   -21.8268    12.3010
  808.0000    84.1223    11.1599   -21.8948    12.9410
  808.5000    77.8638    11.9908   -22.0027    13.6787
  809.0000    71.5905    13.4367   -22.1509    14.4165
  809.5000    65.3234    14.6410   -22.2372    15.1660
  810.0000    60.9570    15.6799   -22.5379    15.9205
  810.5000    56.0214    16.8285   -23.0196    16.6499
  811.0000    51.5633    18.0233   -23.4273    17.6559
  811.5000    47.1089    19.2867   -23.8717    18.6620
  812.0000    43.1294    20.6712   -24.2872    19.1199
  812.5000    43.9242    21.1092   -24.7346    19.2922
  813.0000    45.0597    20.9761   -25.1365    19.4720
  813.5000    46.1952    20.9422   -25.6091    19.6656
  814.0000    47.3307    20.8445   -25.4536    19.8952
  814.5000    48.4661    20.8103   -24.9459    20.1070
  815.0000    49.6016    20.6357   -24.5150    20.1654
  815.5000    50.7371    20.2343   -24.1837    20.1515
  816.0000    51.8726    19.7789   -23.9343    19.9265
  816.5000    53.0081    19.0797   -23.5495    19.7661
  817.0000    54.1436    18.4082   -23.2227    19.3276
  817.5000    55.2790    17.7029   -22.8300    18.7605
  818.0000    56.4145    17.2677   -22.7155    18.2075
  818.5000    57.5500    16.8571   -22.8395    17.8325
  819.0000    58.6855    16.4112   -22.9525    17.5063
  819.5000    59.8210    16.0681   -23.0258    17.1532
  820.0000    60.9593    15.6783   -23.3315    16.9237
  820.5000    62.0977    15.2366   -23.4765    16.8300
  821.0000    63.2385    14.8001   -23.3093    16.5930
  821.5000    64.3816    14.4105   -23.3118    16.3496
  822.0000    65.5253    14.3221   -23.5710    16.1184
  822.5000    66.6647    14.4383   -23.7751    16.0225
  823.0000    66.9068    14.6380   -23.6134    15.9852
  823.5000    66.2309    14.8029   -23.2986    15.9324
  824.0000    65.5838    14.9887   -23.1466    15.8863
  824.5000    64.9368    15.1288   -23.3645    15.8371
  825.0000    64.2896    15.1108   -23.5284    15.7891
  825.5000    63.6425    15.0629   -23.6679    15.7408
  826.0000    63.7017    15.0348   -23.4209    15.6276
  826.5000    65.4090    14.9738   -23.1006    15.4896
  827.0000    67.1162    14.9746   -22.8098    15.3458
  827.5000    68.8235    14.6498   -22.4632    15.0987
  828.0000    70.5307    14.1036   -22.2583    14.8006
  828.5000    72.2380    13.6499   -22.2858    14.5073
  829.0000    73.9452    13.1416   -22.2696    14.2147
  829.5000    75.6525    12.6910   -22.2830    13.9235
