~VERSION INFORMATION
 VERS.                2.0:   CWLS LOG ASCII STANDARD - VERSION 2.0
 WRAP.                 NO:   ONE LINE PER DEPTH STEP
~WELL INFORMATION
#MNEM.UNIT      DATA TYPE    INFORMATION
#----------   ------------   ------------------------------
 STRT.F            0.0000:   START DEPTH
 STOP.F         2838.0000:   STOP DEPTH
 STEP.F            0.5000:   STEP LENGTH
 NULL.          -999.2500:   NO VALUE
 COMP. INTEX OIL CO U S NAVY:   COMPANY
 WELL. NAVAL PETROLEUM RESERVE 3 29 #NPR #3 (204A29)-29:   WELL
 FLD .                N/A:   FIELD
 LOC .      S29 T39N R78W:   LOCATION
 CNTY.            NATRONA:   COUNTY
 STAT.            WYOMING:   STATE
 CTRY. UNITED STATES OF AMERICA:   COUNTRY
 SRVC.      NL McCullough:   SERVICE COMPANY
 DATE.        24-JUN-1965:   LOGDATE
 API .       490251021700:   API NUMBER
~CURVE INFORMATION
#MNEM.UNIT       API CODE    CURVE DESCRIPTION
#----------   ------------   ------------------------------
 DEPT.F                  :   
 GR  .GAPI   30 310 01 00:   GAMMA RAY
 HD  .IN     70 280 01 00:   DAIMETER
~PARAMETER INFORMATION
#MNEM.UNIT          VALUE    DESCRIPTION
#----------   ------------   ------------------------------
 PD  .                 GL:   PERMANENT DATUM
 LMF .                 GL:   LOG MEASURED FROM
 EDF .F              5016:   DRILLING FLOOR
 DATE.        24-JUN-1965:   RUN DATE
 RUN .                  1:   RUN NUMBER
 DD  .F              2838:   DEPTH DRILLER
 DL  .F              2838:   DEPTH LOGGER
 BLI .F              2836:   BOTTOM LOG INTERVAL
 TLI .F              2400:   TOP LOG INTERVAL
 CS  .IN            6.625:   CASING SIZE
 CBD .F              2820:   CASING BOTTOM DRILLER
 BSD .F              2838:   BIT SIZE AT DEPTH
 LUN .               1497:   LOGGING UNIT NUMBER
 ENGI.         COWLTHORPE:   RECORDING ENGINEER
 WITN.         MR. HUDSON:   WITNESSED BY
 CLNT.            A2DTECH:   CLIENT CODE
 ORIG.           5" PRINT:   ORIGIN OF DATA
 UWI .       490251021700:   UNIQUE WELL ID
 DICO. A2D Technologies, Inc.:   DIGITIZING COMPANY
~OTHER INFORMATION
~A    DEPT      GR           HD 
# ...
 2551.5000    38.4391     6.6267
 2552.0000    39.4349     6.6295
 2552.5000    41.5735     6.6309
 2553.0000    43.3913     6.6308
 2553.5000    44.3536     6.6308
 2554.0000    44.5675     6.6307
 2554.5000    44.5675     6.6309
 2555.0000    44.5675     6.6310
 2555.5000    46.2783     6.6462
 2556.0000    46.2783     6.6464
 2556.5000    46.2783     6.6767
 2557.0000    46.2783     6.6919
 2557.5000    46.3280     6.6769
 2558.0000    43.8190     6.6470
 2558.5000    42.7497     6.6321
 2559.0000    42.0012     6.6322
 2559.5000    41.2527     6.6173
 2560.0000    43.4982     6.6175
 2560.5000    43.7120     6.6176
 2561.0000    43.7120     6.6178
 2561.5000    43.7120     6.6330
 2562.0000    43.0705     6.6332
 2562.5000    43.0705     6.6333
 2563.0000    43.0705     6.6334
 2563.5000    44.6004     6.6336
 2564.0000    46.7060     6.6337
 2564.5000    46.7060     6.6339
 2565.0000    48.6307     6.6340
 2565.5000    48.8446     6.6342
 2566.0000    43.1774     6.6344
 2566.5000    41.1458     6.6345
 2567.0000    39.0072     6.6347
 2567.5000    39.8627     6.6348
 2568.0000    41.1458     6.6350
 2568.5000    43.2843     6.6351
 2569.0000    44.1540     6.6353
 2569.5000    44.5675     6.6354
 2570.0000    44.5675     6.6356
 2570.5000    44.1398     6.6357
 2571.0000    43.2843     6.6359
 2571.5000    41.8943     6.6360
 2572.0000    41.4881     6.6362
 2572.5000    42.7497     6.6363
 2573.0000    43.2843     6.6365
 2573.5000    43.2843     6.6366
 2574.0000    42.8566     6.6368
 2574.5000    44.1398     6.6369
 2575.0000    45.8506     6.6371
 2575.5000    46.2783     6.6372
 2576.0000    47.1409     6.6374
 2576.5000    46.3852     6.6375
 2577.0000    47.6684     6.6377
 2577.5000    48.4169     6.6378
 2578.0000    46.1714     6.6380
 2578.5000    45.3160     6.6381
 2579.0000    44.5675     6.6383
 2579.5000    44.3536     6.6384
 2580.0000    44.9952     6.6386
 2580.5000    44.6960     6.6387
 2581.0000    43.2843     6.6389
 2581.5000    43.2843     6.6390
 2582.0000    42.8566     6.6392
 2582.5000    41.1458     6.6393
 2583.0000    40.9319     6.6395
 2583.5000    41.1458     6.6396
 2584.0000    41.1458     6.6398
 2584.5000    42.0012     6.6399
 2585.0000    43.7120     6.6401
 2585.5000    43.2843     6.6402
 2586.0000    43.4982     6.6404
 2586.5000    44.1398     6.6405
 2587.0000    44.0328     6.6407
 2587.5000    44.1398     6.6401
 2588.0000    43.3913     6.6394
 2588.5000    44.8883     6.6387
 2589.0000    43.0705     6.6379
 2589.5000    42.8566     6.6372
 2590.0000    43.1774     6.6365
 2590.5000    43.2843     6.6358
 2591.0000    43.2843     6.6350
 2591.5000    42.1937     6.6343
 2592.0000    42.4289     6.6336
 2592.5000    43.9259     6.6329
 2593.0000    45.3160     6.6321
 2593.5000    44.1398     6.6314
 2594.0000    43.3913     6.6307
 2594.5000    42.9636     6.6299
 2595.0000    42.8566     6.6292
 2595.5000    41.7588     6.6285
 2596.0000    43.8190     6.6283
 2596.5000    44.9952     6.6285
 2597.0000    45.6367     6.6286
 2597.5000    46.1714     6.6288
 2598.0000    43.2843     6.6289
 2598.5000    43.7120     6.6291
 2599.0000    43.0562     6.6292
 2599.5000    42.5358     6.6294
 2600.0000    43.2843     6.6295
 2600.5000    44.1398     6.6447
 2601.0000    44.1398     6.6449
 2601.5000    44.1398     6.6450
 2602.0000    44.1398     6.6602
 2602.5000    46.0645     6.6604
 2603.0000    47.5614     6.6756
 2603.5000    49.3792     6.6910
 2604.0000    49.7000     6.7003
 2604.5000    46.5991     6.7096
 2605.0000    45.4229     6.7184
 2605.5000    44.5675     6.7031
 2606.0000    44.4534     6.7030
 2606.5000    45.8791     6.6878
 2607.0000    47.8822     6.6726
 2607.5000    48.3099     6.6574
 2608.0000    47.9892     6.6572
 2608.5000    47.7753     6.6270
 2609.0000    48.3099     6.6268
 2609.5000    44.5675     6.6267
 2610.0000    39.8412     6.6115
 2610.5000    37.6973     6.6113
 2611.0000    36.8452     6.6111
 2611.5000    38.0201     6.6110
 2612.0000    38.7676     6.6108
 2612.5000    38.7665     6.6107
 2613.0000    38.9796     6.5955
 2613.5000    40.1545     6.6104
 2614.0000    41.0104     6.6102
 2614.5000    41.5425     6.6101
 2615.0000    41.2205     6.6099
 2615.5000    39.8294     6.6098
 2616.0000    42.3946     6.6096
 2616.5000    43.6769     6.6095
 2617.0000    42.3925     6.6093
 2617.5000    39.8183     6.6242
 2618.0000    39.3965     6.6241
 2618.5000    40.2509     6.6239
 2619.0000    41.2119     6.6238
 2619.5000    42.7079     6.6236
 2620.0000    43.7761     6.6235
 2620.5000    45.1652     6.6233
 2621.0000    46.8815     6.6232
 2621.5000    48.1021     6.6080
 2622.0000    49.6528     6.6078
 2622.5000    50.5072     6.6077
 2623.0000    51.2546     6.6075
 2623.5000    51.8952     6.6074
 2624.0000    54.2465     6.6072
 2624.5000    55.3219     6.6071
 2625.0000    56.0622     6.6056
 2625.5000    56.4887     6.6036
 2626.0000    56.2738     6.6016
 2626.5000    56.0591     6.5996
 2627.0000    57.1274     6.5975
 2627.5000    57.3400     6.5955
 2628.0000    58.6305     6.5935
 2628.5000    59.7448     6.5915
 2629.0000    61.3999     6.5895
 2629.5000    62.8958     6.5875
 2630.0000    63.6435     6.5855
 2630.5000    63.4286     6.5835
 2631.0000    62.8927     6.5814
 2631.5000    64.6415     6.5794
 2632.0000    67.5952     6.5774
 2632.5000    64.6002     6.5754
 2633.0000    65.0271     6.5744
 2633.5000    64.4912     6.5742
 2634.0000    63.9555     6.5741
 2634.5000    62.0298     6.5739
 2635.0000    54.7540     6.5738
 2635.5000    53.7941     6.5737
 2636.0000    47.9120     6.5735
 2636.5000    48.7664     6.5734
 2637.0000    50.4764     6.5732
 2637.5000    50.6893     6.5731
 2638.0000    51.3296     6.5729
 2638.5000    52.5086     6.5728
 2639.0000    50.0441     6.5726
 2639.5000    48.4391     6.5725
 2640.0000    47.3688     6.5723
 2640.5000    44.9087     6.5721
 2641.0000    46.5116     6.5720
 2641.5000    46.2965     6.5869
 2642.0000    45.3331     6.5867
 2642.5000    49.5020     6.5866
 2643.0000    53.4573     6.5864
 2643.5000    54.7394     6.5863
 2644.0000    54.7383     6.5861
 2644.5000    54.7373     6.5860
 2645.0000    54.3086     6.5859
 2645.5000    53.0053     6.5857
 2646.0000    51.4192     6.5705
 2646.5000    51.6320     6.5703
 2647.0000    53.0210     6.5551
 2647.5000    56.0140     6.5549
 2648.0000    63.7117     6.5397
 2648.5000    67.7740     6.5396
 2649.0000    70.9957     6.5394
 2649.5000    71.7280     6.5242
 2650.0000    72.4754     6.5241
 2650.5000    73.7578     6.5089
 2651.0000    73.1149     6.5087
 2651.5000    71.6169     6.5236
 2652.0000    70.5466     6.5235
 2652.5000    67.1083     6.5200
 2653.0000    67.5503     6.5159
 2653.5000    69.0463     6.5118
 2654.0000    70.4612     6.5077
 2654.5000    73.0295     6.5036
 2655.0000    75.6255     6.4995
 2655.5000    77.8999     6.4973
 2656.0000    78.4891     6.4976
 2656.5000    77.2085     6.4979
 2657.0000    77.9591     6.5132
 2657.5000    76.0364     6.5287
 2658.0000    75.1830     6.5290
 2658.5000    77.3237     6.5293
 2659.0000    76.3227     6.5295
 2659.5000    77.1145     6.5298
 2660.0000    77.3299     6.5452
 2660.5000    75.6211     6.5455
 2661.0000    76.3717     6.5608
 2661.5000    73.4872     6.5611
 2662.0000    73.9170     6.5615
 2662.5000    76.9131     6.5769
 2663.0000    76.8087     6.5620
 2663.5000    75.6346     6.5624
 2664.0000    76.4921     6.5627
 2664.5000    77.5634     6.5630
 2665.0000    79.9179     6.5482
 2665.5000    81.6308     6.5485
 2666.0000    81.6329     6.5488
 2666.5000    80.7800     6.5341
 2667.0000    78.2158     6.5344
 2667.5000    75.6516     6.5347
 2668.0000    75.9745     6.5350
 2668.5000    78.6497     6.5201
 2669.0000    77.7964     6.5205
 2669.5000    77.2638     6.5057
 2670.0000    76.0327     6.5060
 2670.5000    73.9532     6.5063
 2671.0000    76.3082     6.5217
 2671.5000    76.9518     6.5220
 2672.0000    75.6708     6.5223
 2672.5000    73.9620     6.5377
