~VERSION INFORMATION
 VERS.                2.0:   CWLS LOG ASCII STANDARD - VERSION 2.0
 WRAP.                 NO:   ONE LINE PER DEPTH STEP
~WELL INFORMATION
#MNEM.UNIT      DATA TYPE    INFORMATION
#----------   ------------   ------------------------------
 STRT.F           40.0000:   START DEPTH
 STOP.F          534.0000:   STOP DEPTH
 STEP.F            0.5000:   STEP LENGTH
 NULL.          -999.2500:   NO VALUE
 COMP. LAWRENCE/ALLISON INC:   COMPANY
 WELL.   55-41 SX FI #3-3:   WELL
 FLD .             TEAPOT:   FIELD
 LOC .       S3 T38N R78W:   LOCATION
 CNTY.            NATRONA:   COUNTY
 STAT.            WYOMING:   STATE
 CTRY. UNITED STATES OF AMERICA:   COUNTRY
 SRVC.      Dresser Atlas:   SERVICE COMPANY
 DATE.        12-DEC-1983:   LOGDATE
 API .       490251089400:   API NUMBER
~CURVE INFORMATION
#MNEM.UNIT       API CODE    CURVE DESCRIPTION
#----------   ------------   ------------------------------
 DEPT.F                  :   
 RILD.OHMM   07 120 46 00:   INDUCTION LOG DEEP RESISTIVITY
 RILM.OHMM   07 120 44 00:   INDUCTION LOG MEDIUM RESISTIVITY
 RFOC.OHMM   07 220 04 00:   RESISTIVITY FOCUSED LOG
 CALD.IN     45 280 60 00:   CALIPER FROM DENSITY LOG
 GRD .GAPI   45 310 01 00:   GAMMA RAY FROM DENSITY LOG
 CORR.G/C3   45 356 01 00:   DENSITY CORRECTION
 DPHI.DEC    45 890 12 00:   DENSITY POROSITY SANDSTONE
 RHOB.G/C3   45 350 01 00:   BULK DENSITY
~PARAMETER INFORMATION
#MNEM.UNIT          VALUE    DESCRIPTION
#----------   ------------   ------------------------------
 PD  .                 GL:   PERMANENT DATUM
 EPD .F              5161:   ELEVATION PERMANENT DATUM
 LMF .                 KB:   LOG MEASURED FROM
 DAPD.F                10:   FEET ABOVE PERMANENT DATUM
 DMF .                 KB:   DRILLING MEASURED FROM
 EKB .F              5171:   KELLING BUSHING
 EGL .F              5161:   GROUND LEVEL
 DATE.        12-DEC-1983:   RUN DATE
 RUN .                  1:   RUN NUMBER
 DD  .F               490:   DEPTH DRILLER
 DL  .F               489:   DEPTH LOGGER
 BLI .F               487:   BOTTOM LOG INTERVAL
 CS  .IN            10.75:   CASING SIZE
 CBD .F                52:   CASING BOTTOM DRILLER
 CBL .F                46:   CASING BOTTOM LOGGER
 BS  .IN             8.75:   BIT SIZE
 BSD .F               490:   BIT SIZE AT DEPTH
 DFT .           AIR FOAM:   DRILLING FLUID TYPE
 TCS .HRS               3:   TIME CURCULATED STOPPED
 MRT .F                72:   MAXIMUM RECORDED TEMPERATURE
 LUN .               6274:   LOGGING UNIT NUMBER
 LUL .               GLTE:   LOGGING UNIT LOCATION
 ENGI.             RAUTIO:   RECORDING ENGINEER
 WITN.             GROOMS:   WITNESSED BY
 CLNT.            A2DTECH:   CLIENT CODE
 ORIG.           5" PRINT:   ORIGIN OF DATA
 UWI .       490251089400:   UNIQUE WELL ID
 DICO. A2D Technologies, Inc.:   DIGITIZING COMPANY
~OTHER INFORMATION
~A   DEPT     RILD       RILM       RFOC       CALD         GRD      CORR       DPHI       RHOB   
# ...
  404.5000    15.3112    15.2077  -999.2500    11.7037    62.5961     0.0181     0.1966     2.3541
  405.0000    15.1103    15.2161  -999.2500    11.7042    63.2620     0.0226     0.1913     2.3594
  405.5000    14.9117    15.0161  -999.2500    11.7047    61.4743     0.0285     0.1871     2.3647
  406.0000    14.8173    14.9191  -999.2500    11.7053    59.9105     0.0241     0.1835     2.3707
  406.5000    14.5223    14.7251  -999.2500    11.7058    58.7924     0.0122     0.1894     2.3602
  407.0000    14.4305    14.5295  -999.2500    11.7063    58.5668     0.0041     0.1909     2.3610
  407.5000    14.1430    14.2421  -999.2500    11.7069    59.2317     0.0031     0.1808     2.3697
  408.0000    14.0537    14.0530  -999.2500    11.7074    59.4510     0.0130     0.1685     2.3970
  408.5000    13.8685    13.7750  -999.2500    11.7079    58.5548     0.0227     0.1578     2.4176
  409.0000    13.6868    13.5940  -999.2500    11.7080    57.8825     0.0265     0.1559     2.4210
  409.5000    13.5960    13.3214  -999.2500    11.7075    56.9873     0.0258     0.1619     2.4069
  410.0000    13.4155    13.0578  -999.2500    11.7071    56.9837     0.0258     0.1673     2.3979
  410.5000    13.3289    12.9735  -999.2500    11.7067    57.8938     0.0258     0.1655     2.4002
  411.0000    13.0617    12.8915  -999.2500    11.7062    59.0044     0.0258     0.1624     2.4070
  411.5000    12.8993    12.7221  -999.2500    11.7058    59.6805     0.0244     0.1597     2.4122
  412.0000    12.6424    12.6417  -999.2500    11.7053    60.5342     0.0192     0.1562     2.4175
  412.5000    12.5625    12.5635  -999.2500    11.7049    60.7534     0.0118     0.1571     2.4190
  413.0000    12.4831    12.4841  -999.2500    11.7044    60.9735     0.0051     0.1607     2.4094
  413.5000    12.4042    12.4909  -999.2500    11.7040    61.4147     0.0022     0.1624     2.4049
  414.0000    12.4127    12.4103  -999.2500    11.7035    60.9653     0.0052     0.1630     2.4094
  414.5000    12.3325    12.3318  -999.2500    11.7031    59.6243     0.0096     0.1579     2.4154
  415.0000    12.2546    12.2539  -999.2500    11.7026    59.6206     0.0141     0.1535     2.4207
  415.5000    12.0952    12.0928  -999.2500    11.7021    60.0627     0.0186     0.1514     2.4252
  416.0000    12.1018    12.0164  -999.2500    11.7018    61.3964     0.0077     0.1493     2.4290
  416.5000    12.0237    11.9404  -999.2500    11.7013    63.8444    -0.0007     0.1516     2.4298
  417.0000    11.9477    11.8650  -999.2500    11.7009    66.5153    -0.0021     0.1540     2.4246
  417.5000    11.8738    11.7913  -999.2500    11.7004    67.6261     0.0053     0.1552     2.4202
  418.0000    11.8803    11.7980  -999.2500    11.7000    66.7309     0.0083     0.1537     2.4210
  418.5000    11.8036    11.8861  -999.2500    11.6996    64.4984    -0.0006     0.1519     2.4233
  419.0000    11.7290    11.8108  -999.2500    11.6991    64.2495     0.0017     0.1504     2.4263
  419.5000    11.7371    11.8991  -999.2500    11.7134    66.0512     0.0084     0.1504     2.4270
  420.0000    11.8247    11.9880  -999.2500    11.7129    68.0535     0.0136     0.1483     2.4331
  420.5000    11.8312    12.0774  -999.2500    11.7125    67.1247     0.0099     0.1447     2.4458
  421.0000    11.8377    12.0841  -999.2500    11.6973    66.0402     0.0025     0.1407     2.4436
  421.5000    11.8442    12.0907  -999.2500    11.6969    67.2177     0.0040     0.1465     2.4332
  422.0000    11.9326    12.0973  -999.2500    11.6964    69.8210     0.0094     0.1498     2.4257
  422.5000    11.9391    12.1040  -999.2500    11.6960    68.2571     0.0169     0.1432     2.4355
  423.0000    11.9457    12.1107  -999.2500    11.6956    65.8017     0.0205     0.1342     2.4475
  423.5000    12.0348    12.1174  -999.2500    11.6951    63.1235     0.0146     0.1312     2.4580
  424.0000    12.0414    12.1241  -999.2500    11.6946    62.6750     0.0062     0.1330     2.4551
  424.5000    12.0480    12.0472  -999.2500    11.6943    64.8992     0.0130     0.1321     2.4536
  425.0000    11.9703    12.0403  -999.2500    11.6938    67.1244     0.0198     0.1291     2.4596
  425.5000    11.8962    11.9776  -999.2500    11.6933    68.6809     0.0184     0.1276     2.4649
  426.0000    11.8210    11.9019  -999.2500    11.6929    67.1170     0.0102     0.1318     2.4619
  426.5000    11.8275    11.8267  -999.2500    11.6924    65.9989     0.0133     0.1333     2.4567
  427.0000    11.6721    11.7519  -999.2500    11.6920    68.6699     0.0186     0.1315     2.4568
  427.5000    11.5967    11.5991  -999.2500    11.6916    70.4492     0.0247     0.1306     2.4584
  428.0000    11.5234    11.5242  -999.2500    11.6911    69.5541     0.0255     0.1320     2.4598
  428.5000    11.5313    11.3727  -999.2500    11.6907    67.7828     0.0218     0.1305     2.4603
  429.0000    11.3798    11.2233  -999.2500    11.6902    66.8948     0.0159     0.1272     2.4696
  429.5000    11.3077    11.1523  -999.2500    11.6898    66.8970     0.0100     0.1248     2.4719
  430.0000    11.2362    11.0818  -999.2500    11.6894    67.1218     0.0055     0.1233     2.4667
  430.5000    11.1654    11.0894  -999.2500    11.6889    68.0142     0.0025     0.1276     2.4600
  431.0000    11.2487    11.0955  -999.2500    11.6884    69.5743     0.0012     0.1343     2.4541
  431.5000    11.2549    11.1783  -999.2500    11.6880    70.6892     0.0030     0.1389     2.4481
  432.0000    11.2611    11.2618  -999.2500    11.6875    72.6944     0.0103     0.1397     2.4474
  432.5000    11.3451    11.2679  -999.2500    11.6871    74.4770     0.0149     0.1367     2.4519
  433.0000    11.5088    11.2741  -999.2500    11.6867    75.3694     0.0217     0.1340     2.4565
  433.5000    11.5947    11.3588  -999.2500    11.6862    73.5842     0.0262     0.1319     2.4602
  434.0000    11.7620    11.3645  -999.2500    11.7006    70.6651     0.0323     0.1295     2.4663
  434.5000    11.6039    11.2911  -999.2500    11.7002    68.4458     0.0271     0.1310     2.4633
  435.0000    11.2982    11.2988  -999.2500    11.6996    67.3664     0.0174     0.1352     2.4581
  435.5000    11.1432    11.3050  -999.2500    11.6992    67.1461     0.0130     0.1370     2.4537
  436.0000    11.0032    11.2341  -999.2500    11.6988    67.1839     0.0093     0.1379     2.4522
  436.5000    11.0094    11.2397  -999.2500    11.6984    67.8605     0.0072     0.1361     2.4545
  437.0000    11.0154    11.2459  -999.2500    11.6831    69.1562     0.0057     0.1328     2.4583
  437.5000    11.0216    11.0966  -999.2500    11.6826    70.4937     0.0058     0.1310     2.4621
  438.0000    11.0135    11.0264  -999.2500    11.6822    72.2764     0.0066     0.1304     2.4619
  438.5000    10.9576    10.8830  -999.2500    11.6818    75.6169     0.0149     0.1298     2.4606
  439.0000    10.8884    10.7400  -999.2500    11.6813    76.9544     0.0255     0.1262     2.4734
  439.5000    10.7453    10.6719  -999.2500    11.6809    75.3987     0.0330     0.1214     2.4816
  440.0000    10.6774    10.5316  -999.2500    11.6804    73.1754     0.0332     0.1166     2.4869
  440.5000    10.4661    10.3934  -999.2500    11.6800    71.3972     0.0294     0.1169     2.4877
  441.0000    10.4000    10.2567  -999.2500    11.6945    70.7312     0.0242     0.1184     2.4818
  441.5000    10.3328    10.0820  -999.2500    11.6939    70.5109     0.0183     0.1184     2.4818
  442.0000    10.1970     9.8592  -999.2500    11.6935    71.1813     0.0154     0.1160     2.4826
  442.5000     9.9267     9.6365  -999.2500    11.6930    72.5188     0.0246     0.1130     2.4841
  443.0000     9.7290     9.4138  -999.2500    11.6926    73.6338     0.0337     0.1097     2.4894
  443.5000     9.5352     9.1910  -999.2500    11.6922    74.9713     0.0404     0.1076     2.4954
  444.0000     9.2811     8.9683  -999.2500    11.6917    76.7539     0.0348     0.1103     2.4880
  444.5000     8.9718     8.6677  -999.2500    11.6913    78.7591     0.0120     0.1234     2.4678
