~VERSION INFORMATION
 VERS.                2.0:   CWLS LOG ASCII STANDARD - VERSION 2.0
 WRAP.                 NO:   ONE LINE PER DEPTH STEP
~WELL INFORMATION
#MNEM.UNIT      DATA TYPE    INFORMATION
#----------   ------------   ------------------------------
 STRT.F           32.0000:   START DEPTH
 STOP.F          757.0000:   STOP DEPTH
 STEP.F            0.5000:   STEP LENGTH
 NULL.          -999.2500:   NO VALUE
 COMP. FENIX & SCISSON INC:   COMPANY
 WELL.     88 S 34 #88-34:   WELL
 FLD .             NPR #3:   FIELD
 LOC .      S34 T39N R78W:   LOCATION
 CNTY.            NATRONA:   COUNTY
 STAT.            WYOMING:   STATE
 CTRY. UNITED STATES OF AMERICA:   COUNTRY
 SRVC.              Welex:   SERVICE COMPANY
 DATE.        10-MAY-1977:   LOGDATE
 API .       490251035800:   API NUMBER
~CURVE INFORMATION
#MNEM.UNIT       API CODE    CURVE DESCRIPTION
#----------   ------------   ------------------------------
 DEPT.F                  :   
 GURD.OHMM   07 220 05 00:   SHALLOW GUARD RESISTIVITY
 ILD .OHMM   07 120 46 00:   INDUCTION LOG DEEP
 ILM .OHMM   07 120 44 00:   INDUCTION LOG MEDIUM
 SPR .MV     07 010 01 00:   SPONTANEOUS POTENTIAL FROM RES.
 CALD.IN     45 280 60 00:   CALIPER FROM DENSITY LOG
 CORR.G/C3   45 356 01 00:   DENSITY CORRECTION
 DPHI.DEC    45 890 12 00:   DENSITY POROSITY SANDSTONE
 GRD .GAPI   45 310 01 00:   GAMMA RAY FROM DENSITY LOG
 RHOB.G/C3   45 350 01 00:   BULK DENSITY
~PARAMETER INFORMATION
#MNEM.UNIT          VALUE    DESCRIPTION
#----------   ------------   ------------------------------
 PD  .                 GL:   PERMANENT DATUM
 EPD .F              5094:   ELEVATION PERMANENT DATUM
 LMF .                 GL:   LOG MEASURED FROM
 DMF .                 GL:   DRILLING MEASURED FROM
 EGL .F              5094:   GROUND LEVEL
 DATE.        10-MAY-1977:   RUN DATE
 RUN .                  1:   RUN NUMBER
 DD  .F               760:   DEPTH DRILLER
 DL  .F               759:   DEPTH LOGGER
 BLI .F               757:   BOTTOM LOG INTERVAL
 TLI .F                30:   TOP LOG INTERVAL
 CS  .IN            8.625:   CASING SIZE
 CBD .F                40:   CASING BOTTOM DRILLER
 CBL .F                45:   CASING BOTTOM LOGGER
 BS  .IN            7.875:   BIT SIZE
 BSD .F               760:   BIT SIZE AT DEPTH
 DFT .            KCL MUD:   DRILLING FLUID TYPE
 DFD .                9.0:   DRILLING FLUID DENSITY
 DFV .                 33:   DRILLING FLUID VISCOSITY
 DFPH.                7.5:   DRILLING FLUID PH
 DFL .                7.4:   DRILLING FLUID LOSS
 MSS .           FLOWLINE:   MUD SAMPLE SOURCE
 RMS .OHMM           0.33:   RESISTIVITY MUD SAMPLE
 MST .F                70:   MUD SAMPLE TEMPERATURE
 RMF .OHMM           0.28:   RESISTIVITY MUD FILTRATE SAMPLE
 MFST.F                70:   MUD FILTRATE SAMPLE TEMPERATURE
 RMC .OHMM           0.40:   RESISTIVITY MUD CAKE
 MCST.F                70:   MUD CAKE SAMPLE TEMPERATURE
 MFSS.           FANN KIT:   MUD FILTRATE SAMPLE SOURCE
 MCSS.           FANN KIT:   MUD CAKE SAMPLE SOURCE
 RMB .OHMM           0.26:   RESISTIVITY MUD AT BHT
 BHT .F                86:   BOTTOM HOLE TEMPERATURE
 TCS .HRS             1.5:   TIME CURCULATED STOPPED
 MRT .F                86:   MAXIMUM RECORDED TEMPERATURE
 LUN .               8611:   LOGGING UNIT NUMBER
 LUL .             CASPER:   LOGGING UNIT LOCATION
 ENGI.            C. DOAK:   RECORDING ENGINEER
 WITN.         D. RHOADES:   WITNESSED BY
 CLNT.            A2DTECH:   CLIENT CODE
 ORIG.           5" PRINT:   ORIGIN OF DATA
 UWI .       490251035800:   UNIQUE WELL ID
 DICO. A2D Technologies, Inc.:   DIGITIZING COMPANY
~OTHER INFORMATION
~A   DEPT     GURD        ILD        ILM        SPR         CALD      CORR      DPHI         GRD        RHOB 
# ...
  324.0000    10.5145     7.9533     9.1576   -33.6866     7.5448     0.0045     0.1325   122.5283     2.4587
  324.5000    10.2294     8.0103     8.7874   -33.6838     7.4846     0.0060     0.1239   123.7266     2.4708
  325.0000    10.3029     8.0119     8.9733   -33.6810     7.6791     0.0090     0.1185   121.0210     2.4801
  325.5000    11.0426     8.0135     9.2905   -33.6706     7.7838     0.0135     0.1169   120.1171     2.4828
  326.0000    11.2756     8.0151     9.5590   -33.3765     7.8285     0.0195     0.1181   120.5640     2.4820
  326.5000    10.6718     8.0726     9.9595   -33.3737     7.8582     0.0225     0.1211   122.6633     2.4783
  327.0000    10.6004     8.0742    10.1701   -33.3709     7.8425     0.0255     0.1232   125.5132     2.4753
  327.5000    11.2261     8.0758    10.3852   -33.6661     7.8125     0.0256     0.1238   125.3602     2.4738
  328.0000    13.1383     8.1333    10.6783   -33.9613     7.7973     0.0271     0.1220   124.6065     2.4739
  328.5000    15.9458     8.1913    10.8296   -34.1076     7.7820     0.0271     0.1196   124.9119     2.4768
  329.0000    16.1701     8.2021    10.6825   -33.9550     7.7517     0.0256     0.1187   126.2517     2.4791
  329.5000    13.3290     8.2517    10.5380   -33.8031     7.7214     0.0256     0.1199   125.4980     2.4799
  330.0000    10.6871     8.2533    10.3238   -33.6513     7.7061     0.0226     0.1220   123.9936     2.4776
  330.5000    11.2972     8.1981    10.1136   -33.7973     7.7058     0.0212     0.1250   120.8376     2.4724
  331.0000    10.6182     8.1998     9.7735   -33.7939     7.7206     0.0212     0.1281   117.0809     2.4671
  331.5000     9.8430     8.2018     9.3138   -33.9408     7.7652     0.0212     0.1304   117.5285     2.4617
  332.0000    10.3328     8.2034     8.8147   -33.9373     7.8099     0.0197     0.1322   120.0941     2.4559
  332.5000    10.9979     8.2050     8.3423   -33.9344     7.8696     0.0166     0.1355   119.4739     2.4507
  333.0000    10.8497     8.2066     8.4648   -33.9310     7.8993     0.0107     0.1400   119.1714     2.4439
  333.5000    10.9270     8.2086     8.7596   -33.7791     7.9289     0.0077     0.1412   120.3690     2.4424
  334.0000    11.0050     8.1535     8.9449   -33.7763     7.8087     0.0093     0.1376   126.6724     2.4447
  334.5000    11.0072     8.0993     8.9466   -33.7734     7.5985     0.0138     0.1339   129.8227     2.4508
  335.0000    10.8582     8.0451     8.8255   -33.7699     7.4483     0.0168     0.1312   130.2702     2.4563
  335.5000    10.4198     7.9913     8.7665   -33.7671     7.4480     0.0198     0.1279   130.4175     2.4620
  336.0000    10.5669     7.9933     8.6483   -33.7642     7.5120     0.0230     0.1243   129.6631     2.4696
  336.5000    11.0163     7.9949     8.5313   -33.6124     7.7172     0.0288     0.1192   123.3539     2.4801
  337.0000    11.1719     7.9964     8.3580   -33.5085     7.8668     0.0348     0.1156   122.1505     2.4876
  337.5000    10.7208     7.9980     8.2449   -33.3080     7.8966     0.0394     0.1141   123.7986     2.4906
  338.0000    10.4301     7.9996     8.2469   -33.6032     7.9112     0.0439     0.1129   124.6966     2.4891
  338.5000    10.2895     7.9465     8.2485   -33.6004     7.9559     0.0499     0.1123   123.3303     2.4914
  339.0000    10.2206     7.8930     8.2501   -33.5975     8.0156     0.0559     0.1126   124.8728     2.4944
  339.5000    10.1528     7.7863     8.3666   -33.5946     8.0152     0.0589     0.1132   126.7892     2.4937
  340.0000    10.2961     7.6814     8.4847   -33.5912     7.9250     0.0559     0.1156   125.1347     2.4862
  340.5000    10.5867     7.6301     8.5456   -33.2903     7.8198     0.0559     0.1216   123.6310     2.4802
  341.0000    10.8855     7.6319     8.6066   -33.2875     7.7445     0.0545     0.1249   126.0298     2.4757
  341.5000    11.1928     7.5805     8.6082   -33.2846     7.7142     0.0560     0.1243   126.9278     2.4712
  342.0000    10.8153     7.5824     8.6099   -33.8772     7.7589     0.0560     0.1176   125.2733     2.4847
  342.5000    10.5226     7.5839     8.6117   -34.1732     7.7886     0.0560     0.0993   123.6187     2.5088
  343.0000    10.3082     7.5332     8.6138   -34.4677     7.8033     0.0530     0.0900   125.5670     2.5133
  343.5000    10.1692     7.5430     8.6154   -34.4649     7.8030     0.0455     0.0918   126.0153     2.5111
  344.0000    10.1713     7.5888     8.6171   -34.6111     7.7727     0.0396     0.1011   125.1115     2.5021
  344.5000    10.2443     7.6428     8.6786   -34.7573     7.6961     0.0336     0.1139   127.5103     2.4818
  345.0000    10.3889     7.6973     8.7409   -34.9035     7.6371     0.0291     0.1242   129.7597     2.4766
  345.5000    10.6086     7.6312     8.7426   -35.0497     7.5919     0.0231     0.1191   131.4084     2.4864
  346.0000    10.6136     7.3879     8.8050   -35.0462     7.6965     0.0197     0.1143   131.5557     2.4909
  346.5000    10.0425     7.2880     8.8678   -35.0432     7.7862     0.0156     0.1137   128.3996     2.4909
  347.0000     9.9062     7.2393     8.8696   -35.0398     7.8309     0.0097     0.1140   131.9996     2.4864
  347.5000    10.1161     7.2410     8.8102   -35.0370     7.8606     0.0052     0.1167   134.7001     2.4797
  348.0000    10.1883     7.3944     8.7512   -34.8851     7.8602     0.0097     0.1230   131.3932     2.4774
  348.5000     9.9794     7.4987     8.6931   -34.7332     7.8749     0.0142     0.1140   131.9909     2.4894
  349.0000     9.6447     7.5002     8.5165   -34.7297     7.8746     0.0157     0.1101   133.9460     2.4970
  349.5000     9.8486     7.6059     8.5182   -34.4288     7.8744     0.0097     0.1089   134.0872     2.4902
  350.0000    10.1160     7.6710     8.5816   -34.4260     7.8591     0.0051     0.1215   130.3303     2.4814
  350.5000    10.4982     7.7179     8.6162   -34.4212     7.8534     0.0028     0.1193   130.7823     2.4805
  351.0000    11.1566     7.7701     8.5222   -34.4168     7.8478    -0.0007     0.1199   130.3336     2.4790
  351.5000    11.5496     7.9343     8.4647   -34.4125     7.8436    -0.0021     0.1223   128.6834     2.4760
  352.0000    11.7111     7.9909     8.5248   -34.5582     7.8735    -0.0036     0.1250   126.2824     2.4726
  352.5000    11.0820     8.0479     8.6446   -34.4038     7.8583    -0.0035     0.1211   125.3329     2.4798
  353.0000    10.5595     8.0495     8.7661   -34.5494     7.6932    -0.0020     0.1199   127.1862     2.4806
  353.5000    10.6334     8.1069     8.8892   -34.6931     7.7081    -0.0019     0.1210   128.4889     2.4727
  354.0000    10.9322     8.1086     9.0142   -34.6877     7.7829    -0.0004     0.1229   131.2435     2.4701
  354.5000    11.0087     8.0544     9.0166   -34.6833     7.8293    -0.0018     0.1241   132.1455     2.4761
  355.0000    10.9336     8.0564     9.0166   -34.6790     7.8575    -0.0048     0.1223   130.1953     2.4731
  355.5000    10.7000     8.0580     8.8331   -34.6746     7.8574    -0.0078     0.1274   127.3439     2.4679
  356.0000    10.3471     8.0597     8.6530   -34.5212     7.8573    -0.0077     0.1295   126.5946     2.4641
  356.5000    11.0118     7.9507     8.5351   -34.5169     7.8571    -0.0015     0.1259   127.9477     2.4658
  357.0000    10.7124     7.8976     8.4775   -34.3635     7.8570     0.0059     0.1154   126.8981     2.4777
  357.5000    10.2781     7.7373     8.4203   -34.3591     7.8718     0.0104     0.1109   125.6984     2.4897
  358.0000     9.9986     7.5802     8.3637   -34.3547     7.9017     0.0165     0.1046   128.4025     2.5002
  358.5000     9.8618     7.4218     8.3648   -34.3494     7.8865     0.0210     0.0985   128.1037     2.5100
  359.0000     9.7947     7.2258     8.3083   -34.1960     7.8863     0.0240     0.0955   128.4054     2.5198
  359.5000     9.8633     7.1776     8.3095   -34.1916     7.8712     0.0272     0.0937   129.7083     2.5236
  360.0000     9.8686     7.0806     8.3108   -34.0382     7.7961     0.0301     0.0967   132.7630     2.5198
