~VERSION INFORMATION
 VERS.                2.0:   CWLS LOG ASCII STANDARD - VERSION 2.0
 WRAP.                 NO:   ONE LINE PER DEPTH STEP
~WELL INFORMATION
#MNEM.UNIT      DATA TYPE    INFORMATION
#----------   ------------   ------------------------------
 STRT.F            0.0000:   START DEPTH
 STOP.F          844.0000:   STOP DEPTH
 STEP.F            0.5000:   STEP LENGTH
 NULL.          -999.2500:   NO VALUE
 COMP. BROWN JOHN E&C INC:   COMPANY
 WELL. NAVAL PETROLEUM RESERVE 3 SX-1 #42-1-14:   WELL
 FLD .             TEAPOT:   FIELD
 LOC .      S14 T38N R78W:   LOCATION
 CNTY.            NATRONA:   COUNTY
 STAT.            WYOMING:   STATE
 CTRY. UNITED STATES OF AMERICA:   COUNTRY
 SRVC.     Atlas Wireline:   SERVICE COMPANY
 DATE.        11-JAN-1992:   LOGDATE
 API .       490252247700:   API NUMBER
~CURVE INFORMATION
#MNEM.UNIT       API CODE    CURVE DESCRIPTION
#----------   ------------   ------------------------------
 DEPT.F                  :   
 GRR .GAPI   07 310 01 00:   GAMMA RAY
 RFOC.OHMM   07 220 04 00:   RESISTIVITY FOCUSED LOG
 RILD.OHMM   07 120 46 00:   INDUCTION LOG DEEP RESISTIVITY
 RILM.OHMM   07 120 44 00:   INDUCTION LOG MEDIUM RESISTIVITY
 SPR .MV     07 010 01 00:   SPONTANEOUS POTENTIAL
~PARAMETER INFORMATION
#MNEM.UNIT          VALUE    DESCRIPTION
#----------   ------------   ------------------------------
 PD  .                 GL:   PERMANENT DATUM
 EPD .F              5201:   ELEVATION PERMANENT DATUM
 LMF .                 KB:   LOG MEASURED FROM
 DAPD.F                10:   FEET ABOVE PERMANENT DATUM
 DMF .                 KB:   DRILLING MEASURED FROM
 EKB .F              5211:   KELLING BUSHING
 EGL .F              5201:   GROUND LEVEL
 DATE.        11-JAN-1992:   RUN DATE
 RUN .                  1:   RUN NUMBER
 DD  .F               848:   DEPTH DRILLER
 DL  .F               847:   DEPTH LOGGER
 BLI .F               845:   BOTTOM LOG INTERVAL
 CS  .IN            10.75:   CASING SIZE
 CBD .F               101:   CASING BOTTOM DRILLER
 CBL .F               101:   CASING BOTTOM LOGGER
 BS  .IN             8.75:   BIT SIZE
 BSD .F               848:   BIT SIZE AT DEPTH
 DFT .               CHEM:   DRILLING FLUID TYPE
 DFD .                9.0:   DRILLING FLUID DENSITY
 DFV .                 40:   DRILLING FLUID VISCOSITY
 DFPH.                9.0:   DRILLING FLUID PH
 DFL .                8.4:   DRILLING FLUID LOSS
 MSS .           FLOWLINE:   MUD SAMPLE SOURCE
 RMS .OHMM           0.22:   RESISTIVITY MUD SAMPLE
 MST .F                78:   MUD SAMPLE TEMPERATURE
 RMF .OHMM           0.17:   RESISTIVITY MUD FILTRATE SAMPLE
 MFST.F                78:   MUD FILTRATE SAMPLE TEMPERATURE
 RMC .OHMM           0.28:   RESISTIVITY MUD CAKE
 MCST.F                78:   MUD CAKE SAMPLE TEMPERATURE
 MFSS.               MEAS:   MUD FILTRATE SAMPLE SOURCE
 MCSS.               CALC:   MUD CAKE SAMPLE SOURCE
 RMB .OHMM           0.14:   RESISTIVITY MUD AT BHT
 BHT .F               126:   BOTTOM HOLE TEMPERATURE
 TCS .HRS               3:   TIME CURCULATED STOPPED
 MRT .F               126:   MAXIMUM RECORDED TEMPERATURE
 LUN .            HL-6274:   LOGGING UNIT NUMBER
 LUL .         CASPER, WY:   LOGGING UNIT LOCATION
 ENGI.             ZIEGER:   RECORDING ENGINEER
 WITN.         MR. STRONG:   WITNESSED BY
 CLNT.            A2DTECH:   CLIENT CODE
 ORIG.           5" PRINT:   ORIGIN OF DATA
 UWI .       490252247700:   UNIQUE WELL ID
 DICO. A2D Technologies, Inc.:   DIGITIZING COMPANY
~OTHER INFORMATION
~A    DEPT      GRR      RFOC       RILD       RILM        SPR   
# ...
  793.0000   101.8781    10.8447    11.7572    11.3080   -24.8333
  793.5000   103.6541    10.9952    11.8377    11.3861   -25.2826
  794.0000   102.9989    11.1486    11.9177    11.4642   -25.4316
  794.5000    99.6921    11.3038    11.9988    11.4623   -25.8947
  795.0000    97.8644    11.4607    11.9957    11.4607   -26.4809
  795.5000    96.3371    11.2957    11.9933    11.4588   -27.0810
  796.0000    94.2092    11.1419    11.9074    11.2985   -27.5307
  796.5000    92.9740    10.9096    11.7399    11.2185   -28.1307
  797.0000    93.2502    10.8323    11.4942    11.1390   -28.8811
  797.5000    95.3265    10.6807    11.2537    11.1375   -29.4812
  798.0000    96.5083    10.8297    11.0110    11.1359   -29.9309
  798.5000    95.8754    10.9801    10.9387    11.2124   -30.2302
  799.0000    96.1499    10.9786    11.0131    11.2108   -30.8299
  799.5000    97.3684    10.9004    11.0881    11.2090   -31.2795
  800.0000    98.8009    10.8235    11.3207    11.0523   -31.2683
  800.5000   100.0000    10.9000    11.0882    11.2077   -32.0163
  801.0000   100.6006    10.9007    11.0133    11.2861   -33.0665
  801.5000   100.3003    10.8256    11.0161    11.2077   -34.3148
  802.0000    98.1982    10.6765    10.9416    10.9755   -36.3734
  802.5000    97.8979    10.3833    10.7915    10.5992   -37.8767
  803.0000    98.4985    10.2400    10.4969    10.3074   -39.9843
  803.5000   100.0000     9.9589    10.3140    10.0237   -44.9619
  804.0000   101.5015     9.8904    10.0708     9.8848   -47.8247
  804.5000   101.2012     9.8109     9.9331     9.7478   -48.1196
  805.0000   100.2603     9.7546     9.9351     9.6801   -43.2767
  805.5000    99.3994     9.6874     9.8678     9.6801   -24.0851
  806.0000    99.3994     9.6882     9.8700     9.6801   -14.8634
  806.5000   101.2012     9.6214     9.8720     9.6128   -12.4392
  807.0000   102.4024     9.5553     9.8740     9.5459   -11.9788
  807.5000   101.8018     9.4235     9.8764     9.4460   -11.6692
  808.0000    99.6957     9.2935     9.8094     9.2186   -11.5093
  808.5000   100.3964     9.1655     9.6083     9.0277   -11.3510
  809.0000   103.0030     9.0391     9.4110     8.9026   -11.1926
  809.5000   105.1051     8.9767     9.2177     8.7792   -11.0343
  810.0000   106.6066     8.9150     9.0833     8.8407   -10.8760
  810.5000   107.5075     8.8536     9.0303     8.7181   -10.8686
  811.0000   106.9069     8.9788     9.0326     8.6575   -10.8597
  811.5000   105.3934     9.1056     9.0977     8.6575   -10.7014
  812.0000   102.7027     9.1699     9.0362     8.5973   -10.6941
  812.5000   100.6006     9.1705     8.9126     8.5375   -10.5358
  813.0000   100.0000     9.0441     8.6689     8.5375   -10.5287
  813.5000   100.0000     8.9818     8.4775     8.5375   -10.3701
  814.0000   101.5015     8.8580     8.2591     8.4750   -10.3625
  814.5000   104.2042     8.7357     8.0895     8.3026   -10.3539
  815.0000   104.8048     8.4960     7.9790     8.1875   -10.3466
  815.5000   104.5045     8.2626     7.9250     8.0740   -10.3394
  816.0000   103.9039     8.2633     7.8707     7.9068   -10.3321
  816.5000   104.2042     8.3218     7.7102     7.7430   -10.3248
  817.0000   106.9069     8.2644     7.6581     7.6357   -10.3158
  817.5000   109.9099     8.2076     7.6597     7.5220   -10.1575
  818.0000   109.0090     8.0381     7.5546     7.3739   -10.1502
  818.5000   105.9498     7.9272     7.5035     7.2717   -10.1430
  819.0000   105.1051     7.9278     7.4013     7.1709   -10.1357
  819.5000   106.3063     7.9840     7.2494     7.0716   -10.1284
  820.0000   108.7087     7.9845     7.1009     6.9736   -10.1194
  820.5000   112.3123     7.8744     6.9551     6.8291   -10.1121
  821.0000   112.9129     7.8201     6.8600     6.7345   -10.1049
  821.5000  -999.2500     7.4479     6.8614     6.7345    -9.9466
  822.0000  -999.2500     6.9950     6.8628     6.7816    -9.7883
  822.5000  -999.2500     6.9468     6.9147     6.9251    -9.3278
  823.0000  -999.2500     7.2444     7.0603     7.1211    -9.0166
  823.5000  -999.2500     7.6608     7.3127     7.3754    -8.7073
  824.0000  -999.2500     7.9889     7.5740     7.7430    -8.5490
  824.5000  -999.2500     8.2731     7.9550     8.0179    -8.6928
  825.0000  -999.2500     8.5078     8.2394     8.3607    -9.4408
  825.5000  -999.2500     8.6885     8.5338     8.7181    -9.7356
  826.0000  -999.2500     8.8729     8.7343     8.9026    -9.8794
  826.5000  -999.2500     9.0612     8.9654     9.0277    -9.1151
  827.0000  -999.2500     9.2535     9.1570     9.1545    -8.5036
  827.5000  -999.2500     9.4499     9.4183     9.1545    -8.1942
  828.0000  -999.2500     9.7180     9.5527     9.1545    -8.1870
  828.5000  -999.2500     9.7186     9.5593     9.1545    -8.1797
  829.0000  -999.2500     9.5179     9.4900     9.1545    -8.3235
  829.5000  -999.2500     9.3214     9.3608     9.0909    -8.4673
  830.0000  -999.2500     9.2572     9.2328     9.0235    -8.4582
  830.5000  -999.2500     9.2580     9.1700     8.9026    -8.9042
  831.0000  -999.2500     9.1942     9.1721     8.7792    -9.3501
  831.5000  -999.2500     9.0674     9.1741     8.7792    -9.6450
  832.0000  -999.2500     9.0682     9.1777     8.8407    -9.6375
  832.5000  -999.2500     9.0687     9.2426     8.9026    -9.6286
  833.0000  -999.2500     9.0062     9.3092     8.9026    -9.5495
  833.5000  -999.2500     8.9443     9.3764     8.9026    -9.4630
  834.0000  -999.2500     8.9449     9.3125     8.6575    -9.3047
  834.5000  -999.2500     8.7603     9.1857     8.3026    -9.1464
  835.0000  -999.2500     8.6999     8.9992     8.0179    -8.8218
  835.5000  -999.2500     8.5202  -999.2500     7.8518  -999.2500
  836.0000  -999.2500     8.3443  -999.2500     7.7972  -999.2500
  836.5000  -999.2500     8.0589  -999.2500     7.6836  -999.2500
  837.0000  -999.2500     7.7831  -999.2500     7.4255  -999.2500
  837.5000  -999.2500     7.4472  -999.2500     7.2211  -999.2500
  838.0000  -999.2500     6.9136  -999.2500     6.8291  -999.2500
  838.5000  -999.2500     6.6305  -999.2500     6.5491  -999.2500
  839.0000  -999.2500     6.5391  -999.2500     6.5491  -999.2500
  839.5000  -999.2500     6.3153  -999.2500  -999.2500  -999.2500
  840.0000  -999.2500     5.9728  -999.2500  -999.2500  -999.2500
  840.5000  -999.2500     5.4554  -999.2500  -999.2500  -999.2500
  841.0000  -999.2500     4.9136  -999.2500  -999.2500  -999.2500
  841.5000  -999.2500     4.2739  -999.2500  -999.2500  -999.2500
  842.0000  -999.2500     3.6659  -999.2500  -999.2500  -999.2500
  842.5000  -999.2500     3.3717  -999.2500  -999.2500  -999.2500
  843.0000  -999.2500     3.0369  -999.2500  -999.2500  -999.2500
  843.5000  -999.2500     2.9950  -999.2500  -999.2500  -999.2500
  844.0000  -999.2500     3.2341  -999.2500  -999.2500  -999.2500
