~VERSION INFORMATION
 VERS.                2.0:   CWLS LOG ASCII STANDARD - VERSION 2.0
 WRAP.                 NO:   ONE LINE PER DEPTH STEP
~WELL INFORMATION
#MNEM.UNIT      DATA TYPE    INFORMATION
#----------   ------------   ------------------------------
 STRT.F          100.0000:   START DEPTH
 STOP.F          812.0000:   STOP DEPTH
 STEP.F            0.5000:   STEP LENGTH
 NULL.          -999.2500:   NO VALUE
 COMP.               NAVY:   COMPANY
 WELL. RES 3 TEAPOT DOM #42S-11:   WELL
 FLD .             TEAPOT:   FIELD
 LOC .      S11 T38N R78W:   LOCATION
 CNTY.            NATRONA:   COUNTY
 STAT.            WYOMING:   STATE
 CTRY. UNITED STATES OF AMERICA:   COUNTRY
 SRVC.       Schlumberger:   SERVICE COMPANY
 DATE.        02-AUG-1961:   LOGDATE
 API .       490250636700:   API NUMBER
~CURVE INFORMATION
#MNEM.UNIT       API CODE    CURVE DESCRIPTION
#----------   ------------   ------------------------------
 DEPT.F                  :   
 SPR .MV     05 010 01 00:   SPONTANEOUS POTENTIAL FROM RES.
 ILD .OHMM   05 120 46 00:   INDUCTION LOG DEEP
 ASN .OHMM   05 041 16 00:   AMPLIFIED SHORT NORMAL 16"
 CILD.MMHO   05 110 46 00:   CONDUCTIVITY INDUCTION LOG DEEP
 GR  .GAPI   30 310 01 00:   GAMMA RAY
~PARAMETER INFORMATION
#MNEM.UNIT          VALUE    DESCRIPTION
#----------   ------------   ------------------------------
 PD  .                 GL:   PERMANENT DATUM
 EPD .F              5172:   ELEVATION PERMANENT DATUM
 LMF .                 KB:   LOG MEASURED FROM
 DAPD.F                 5:   FEET ABOVE PERMANENT DATUM
 DMF .                 KB:   DRILLING MEASURED FROM
 EKB .F              5177:   KELLING BUSHING
 EGL .F              5172:   GROUND LEVEL
 DATE.             8-2-61:   RUN DATE
 RUN .                  1:   RUN NUMBER
 DD  .F               810:   DEPTH DRILLER
 DL  .F               813:   DEPTH LOGGER
 BLI .F               812:   BOTTOM LOG INTERVAL
 TLI .F               100:   TOP LOG INTERVAL
 BS  .IN             6.75:   BIT SIZE
 BSD .F               810:   BIT SIZE AT DEPTH
 DFT .       OIL EMULSION:   DRILLING FLUID TYPE
 DFD .                9.2:   DRILLING FLUID DENSITY
 DFV .                 56:   DRILLING FLUID VISCOSITY
 MFSS.                  M:   MUD FILTRATE SAMPLE SOURCE
 MCSS.                  M:   MUD CAKE SAMPLE SOURCE
 RMB .OHMM            .70:   RESISTIVITY MUD AT BHT
 BHT .F                80:   BOTTOM HOLE TEMPERATURE
 TCS .HRS               1:   TIME CURCULATED STOPPED
 MRT .F                80:   MAXIMUM RECORDED TEMPERATURE
 LUN .               2552:   LOGGING UNIT NUMBER
 LUL .                RIV:   LOGGING UNIT LOCATION
 ENGI.             RANDLE:   RECORDING ENGINEER
 WITN.          VORGENSON:   WITNESSED BY
 CLNT.            A2DTECH:   CLIENT CODE
 ORIG.       2", 5" PRINT:   ORIGIN OF DATA
 UWI .       490250636700:   UNIQUE WELL ID
 DICO. A2D Technologies, Inc.:   DIGITIZING COMPANY
~OTHER INFORMATION
~A   DEPT      SPR        ILD        ASN        CILD        GR   
# ...
  222.0000   -35.2905     6.7737     6.9580   157.4090  -999.2500
  222.5000   -35.3730     6.9705     7.0977   151.7504  -999.2500
  223.0000   -35.4537     7.1985     7.2021   146.0918  -999.2500
  223.5000   -35.4816     7.3302     7.2498   140.4331  -999.2500
  224.0000   -35.4197     7.3120     7.3352   135.6460  -999.2500
  224.5000   -35.2303     7.3023     7.3011   134.6151  -999.2500
  225.0000   -35.1906     7.2689     7.1899   134.5820  -999.2500
  225.5000   -35.1216     7.2536     7.0863   135.5116  -999.2500
  226.0000   -35.0686     7.1998     6.9728   136.8166  -999.2500
  226.5000   -35.0585     7.0478     6.8737   140.2768  -999.2500
  227.0000   -35.0610     6.8891     6.7509   146.1587  -999.2500
  227.5000   -35.0665     6.1676     6.6725   152.6490  -999.2500
  228.0000   -35.1580     5.3340     6.3200   171.8971  -999.2500
  228.5000   -35.2553     4.5287     5.6477   205.6130  -999.2500
  229.0000   -35.2686     3.6852     5.0198   254.1877  -999.2500
  229.5000   -35.2613     2.9457     4.5150   319.5762  -999.2500
  230.0000   -35.2746     2.4665     4.0358   384.9647  -999.2500
  230.5000   -35.1769     1.9072     3.5586   496.9727  -999.2500
  231.0000   -34.9720     1.7790     3.0913   497.9818  -999.2500
  231.5000   -34.7842     1.7519     2.8895   497.9818  -999.2500
  232.0000   -34.5905     1.7562     2.7805   497.9818  -999.2500
  232.5000   -34.3946     1.7564     2.7972   497.9818  -999.2500
  233.0000   -34.2106     1.8197     2.9154   497.9818  -999.2500
  233.5000   -33.9977     2.4348     3.3160   497.9818  -999.2500
  234.0000   -33.8949     3.4995     3.9161   393.0878  -999.2500
  234.5000   -34.0807     4.2150     4.5329   307.2654  -999.2500
  235.0000   -34.3023     5.4812     5.0649   261.8567  -999.2500
  235.5000   -34.5539     7.1722     6.4396   194.8335  -999.2500
  236.0000   -34.7905     8.7314     7.6287   137.7397  -999.2500
  236.5000   -35.0313    10.2986     8.6253   116.6246  -999.2500
  237.0000   -35.2781    11.9509     9.3902    98.2341  -999.2500
  237.5000   -35.4626    13.1159    10.4440    85.8560  -999.2500
  238.0000   -35.4683    13.3908    10.6458    76.1857  -999.2500
  238.5000   -35.4733    12.1827    10.8476    79.5409  -999.2500
  239.0000   -35.4510    10.0525    10.4440    83.2492  -999.2500
  239.5000   -35.2999     8.3949     9.9193   118.2139  -999.2500
  240.0000   -35.1650     6.2524     8.7516   146.8214  -999.2500
  240.5000   -35.0228     4.9109     7.8058   175.4289  -999.2500
  241.0000   -34.8924     4.9588     6.6498   210.3935  -999.2500
  241.5000   -34.7370     4.7734     5.7606   212.9982  -999.2500
  242.0000   -34.6468     4.7777     5.6779   218.6176  -999.2500
  242.5000   -34.6970     4.6389     5.6432   224.5207  -999.2500
  243.0000   -34.7444     4.9653     5.9416   225.5298  -999.2500
  243.5000   -34.7985     5.8415     6.1776   220.4465  -999.2500
  244.0000   -34.8489     6.6943     7.0238   204.9647  -999.2500
  244.5000   -34.9008     7.5908     7.5769   177.5833  -999.2500
  245.0000   -34.9527     8.4209     8.2294   146.8214  -999.2500
  245.5000   -35.0029     9.3771     8.8577   131.5716  -999.2500
  246.0000   -35.0675     9.8975     9.2829   107.4672  -999.2500
  246.5000   -35.2414     9.9921     9.4013   101.4127  -999.2500
  247.0000   -35.3670    10.2221     9.5324   101.4127  -999.2500
  247.5000   -35.3061    10.3944     9.6651   100.4036  -999.2500
  248.0000   -35.4286    10.5980     9.7986    99.3945  -999.2500
  248.5000   -35.5345    10.7842     9.9361    96.9187  -999.2500
  249.0000   -35.6508    10.9804    10.9991    93.7076  -999.2500
  249.5000   -35.7611    11.1692    11.6455    90.4966  -999.2500
  250.0000   -35.8745    11.3682    11.7926    87.2856  -999.2500
  250.5000   -35.9872    11.5362    11.8767    88.0518  -999.2500
  251.0000   -36.0981    11.5979    11.8689    88.8181  -999.2500
  251.5000   -36.2139    11.6901    11.9776    89.5844  -999.2500
  252.0000   -36.3200    11.7761    11.9416    90.3128  -999.2500
  252.5000   -36.4436    11.8657    11.9957    90.3128  -999.2500
  253.0000   -36.4422    11.9532    12.0447    88.9836  -999.2500
  253.5000   -36.3359    12.0419    12.1301    88.4199  -999.2500
  254.0000   -36.2506    12.1300    12.3820    87.8562  -999.2500
  254.5000   -36.1553    12.2184    12.4138    87.2925  -999.2500
  255.0000   -36.0770    12.3067    12.5720    86.7288  -999.2500
  255.5000   -36.1040    12.3951    12.6898    86.1651  -999.2500
  256.0000   -36.3700    12.4834    12.7916    85.6014  -999.2500
  256.5000   -36.6242    12.5717    12.8858    85.0378  -999.2500
  257.0000   -36.8904    12.6596    13.0148    84.4741  -999.2500
  257.5000   -37.0883    12.7474    13.2519    83.9104  -999.2500
  258.0000   -37.0850    12.8349    13.3097    83.3467  -999.2500
  258.5000   -36.9973    12.9229    13.3849    82.7830  -999.2500
  259.0000   -36.9154    13.0103    13.4475    82.2251  -999.2500
  259.5000   -36.8313    13.0983    13.5459    81.6599  -999.2500
  260.0000   -36.7497    13.2022    13.8309    80.7306  -999.2500
  260.5000   -36.6407    13.4383    14.1802    78.6885  -999.2500
  261.0000   -36.3894    14.0275    14.7685    76.1944  -999.2500
  261.5000   -36.1121    14.7883    14.9692    73.9029  -999.2500
  262.0000   -35.8135    15.5286    15.4812    70.9507  -999.2500
  262.5000   -35.5028    16.2801    16.1315    67.9869  -999.2500
  263.0000   -35.4572    17.0248    16.7824    65.0353  -999.2500
  263.5000   -35.5543    17.7768    17.4315    62.0838  -999.2500
  264.0000   -35.9187    18.5199    18.0782    59.1322  -999.2500
  264.5000   -35.9389    19.2764    18.7230    56.1806  -999.2500
  265.0000   -35.8538    20.0116    19.3200    53.2291  -999.2500
  265.5000   -35.8834    20.7997    19.3013    49.9496  -999.2500
  266.0000   -35.8683    20.8988    19.3019    48.9405  -999.2500
  266.5000   -35.8773    20.6940    18.8127    48.9405  -999.2500
  267.0000   -35.8717    19.9728    18.2612    50.0239  -999.2500
  267.5000   -35.8760    18.8156    17.6997    52.6050  -999.2500
  268.0000   -35.8692    17.6810    17.1409    55.1861  -999.2500
  268.5000   -35.9120    16.5652    16.5870    57.7673  -999.2500
  269.0000   -36.0083    16.0707    16.0199    60.3484  -999.2500
  269.5000   -36.0975    15.6453    15.4516    62.9295  -999.2500
  270.0000   -36.1905    15.2045    15.1664    65.5107  -999.2500
  270.5000   -36.2819    14.7939    14.9346    68.0809  -999.2500
  271.0000   -36.3732    14.5840    14.7060    70.6553  -999.2500
  271.5000   -36.4664    14.4051    14.4853    73.1383  -999.2500
  272.0000   -36.5551    14.2336    14.1905    73.4568  -999.2500
  272.5000   -36.6527    14.0425    14.3552    74.0497  -999.2500
  273.0000   -36.6832    13.9738    14.3096    74.6461  -999.2500
  273.5000   -36.5887    13.9017    14.2529    75.1909  -999.2500
  274.0000   -36.4991    13.8664    14.2275    75.1923  -999.2500
  274.5000   -36.4058    13.8794    14.1941    74.6821  -999.2500
  275.0000   -36.3149    13.8754    14.1536    73.8648  -999.2500
  275.5000   -36.2225    13.8788    14.1389    73.0474  -999.2500
  276.0000   -36.1311    13.8816    14.0709    72.2301  -999.2500
  276.5000   -36.0388    13.8609    14.0371    71.4127  -999.2500
  277.0000   -35.9480    13.6365    13.5073    72.1493  -999.2500
  277.5000   -35.8712    13.4606    12.8943    74.1675  -999.2500
  278.0000   -35.9201    13.1364    12.2235    78.6075  -999.2500
  278.5000   -35.9998    11.8872    11.3994    80.2220  -999.2500
  279.0000   -36.0798    10.7498    10.5765    94.2314  -999.2500
  279.5000   -36.1421     9.5730     9.9493   105.8106  -999.2500
  280.0000   -36.2471     8.4498     9.0576   117.3898  -999.2500
  280.5000   -36.1308     7.1197     8.6032   128.9691  -999.2500
  281.0000   -35.9840     6.6830     8.1165   140.5483  -999.2500
  281.5000   -35.8944     6.5871     7.9139   152.1275  -999.2500
  282.0000   -35.7779     6.3928     7.6543   165.9940  -999.2500
  282.5000   -35.6750     6.2265     7.4052   170.0303  -999.2500
