~VERSION INFORMATION
 VERS.                2.0:   CWLS LOG ASCII STANDARD - VERSION 2.0
 WRAP.                 NO:   ONE LINE PER DEPTH STEP
~WELL INFORMATION
#MNEM.UNIT      DATA TYPE    INFORMATION
#----------   ------------   ------------------------------
 STRT.F            0.0000:   START DEPTH
 STOP.F          580.0000:   STOP DEPTH
 STEP.F            0.5000:   STEP LENGTH
 NULL.          -999.2500:   NO VALUE
 COMP. Fluor Daniel (NPOSR) Inc:   COMPANY
 WELL.    NPR 3 #53-3-X-3:   WELL
 FLD .             TEAPOT:   FIELD
 LOC .       S3 T38N R78W:   LOCATION
 CNTY.            NATRONA:   COUNTY
 STAT.            WYOMING:   STATE
 CTRY. UNITED STATES OF AMERICA:   COUNTRY
 SRVC.      Western Atlas:   SERVICE COMPANY
 DATE.        15-APR-1996:   LOGDATE
 API .       490252277800:   API NUMBER
~CURVE INFORMATION
#MNEM.UNIT       API CODE    CURVE DESCRIPTION
#----------   ------------   ------------------------------
 DEPT.F                  :   
 GRR .GAPI   07 310 01 00:   GAMMA RAY FROM RES. LOG.
 RILD.OHMM   07 120 46 00:   INDUCTION LOG DEEP RESISTIVITY
 RILM.OHMM   07 120 44 00:   INDUCTION LOG MEDIUM RESISTIVITY
~PARAMETER INFORMATION
#MNEM.UNIT          VALUE    DESCRIPTION
#----------   ------------   ------------------------------
 PD  .                 GL:   PERMANENT DATUM
 EPD .F              5105:   ELEVATION PERMANENT DATUM
 LMF .                 KB:   LOG MEASURED FROM
 DAPD.F                10:   FEET ABOVE PERMANENT DATUM
 DMF .                 KB:   DRILLING MEASURED FROM
 EKB .F              5115:   KELLING BUSHING
 EDF .F              5114:   DRILLING FLOOR
 EGL .F              5105:   GROUND LEVEL
 DATE.        15-APR-1996:   RUN DATE
 RUN .                  1:   RUN NUMBER
 DD  .F               594:   DEPTH DRILLER
 DL  .F               588:   DEPTH LOGGER
 BLI .F               580:   BOTTOM LOG INTERVAL
 CS  .IN            9.625:   CASING SIZE
 CBD .F                54:   CASING BOTTOM DRILLER
 CBL .F                56:   CASING BOTTOM LOGGER
 BS  .IN             8.75:   BIT SIZE
 BSD .F               594:   BIT SIZE AT DEPTH
 DFT .                AIR:   DRILLING FLUID TYPE
 MRT .F                85:   MAXIMUM RECORDED TEMPERATURE
 LUN .            HL-6530:   LOGGING UNIT NUMBER
 LUL .             CASPER:   LOGGING UNIT LOCATION
 ENGI.             RAUTIO:   RECORDING ENGINEER
 WITN.              HARDY:   WITNESSED BY
 CLNT.            A2DTECH:   CLIENT CODE
 ORIG.       2", 5" PRINT:   ORIGIN OF DATA
 UWI .       490252277800:   UNIQUE WELL ID
 DICO. A2D Technologies, Inc.:   DIGITIZING COMPANY
~OTHER INFORMATION
~A    DEPT      GRR      RILD       RILM   
# ...
   91.0000   126.0512     8.5635     9.1215
   91.5000   130.2726     8.6326     9.2547
   92.0000   132.9757     8.6757     9.2322
   92.5000   131.6602     8.6834     9.1931
   93.0000   129.9070     8.6912     9.1541
   93.5000   128.5231     8.6989     9.1152
   94.0000   128.3321     8.7067     9.0766
   94.5000   128.8950     8.7145     9.0381
   95.0000   129.9440     8.7222     9.0020
   95.5000   129.5530     8.7300     9.0378
   96.0000   127.0563     8.7378     9.0793
   96.5000   124.3686     8.7457     9.1211
   97.0000   123.1336     8.7557     9.1695
   97.5000   122.1928     8.7357     9.1411
   98.0000   121.2731     8.7047     9.1072
   98.5000   121.3206     8.6737     9.0736
   99.0000   125.8434     8.6428     9.0400
   99.5000   130.5269     8.6120     9.0065
  100.0000   130.1315     8.5960     9.0020
  100.5000   128.5981     8.6727     9.1525
  101.0000   129.7446     8.7432     9.2557
  101.5000   131.1405     8.8373     9.3601
  102.0000   130.1876     8.8373     9.5145
  102.5000   126.9641     8.8373     9.4094
  103.0000   123.8844     8.8373     9.3592
  103.5000   122.0486     8.8373     9.3094
  104.0000   122.1578     8.8572     9.2597
  104.5000   124.0667     8.8860     9.2104
  105.0000   126.4048     8.9193     9.1613
  105.5000   126.5654     8.6773     9.1124
  106.0000   126.2994     8.4365     9.0639
  106.5000   128.2332     8.4368     9.0156
  107.0000   132.1070     8.4386     8.9675
  107.5000   136.1688     8.4388     8.9197
  108.0000   135.9361     8.4386     8.8722
  108.5000   135.5460     8.4378     8.8249
  109.0000   135.5387     8.4388     8.7778
  109.5000   134.3083     8.3208     8.7310
  110.0000   131.5621     8.2084     8.6845
  110.5000   129.4836     8.2048     8.6382
  111.0000   131.4479     8.2875     8.5960
  111.5000   133.8782     8.2821     8.7473
  112.0000   133.3969     8.4525     8.8912
  112.5000   129.6534     8.5653     9.0367
  113.0000   127.3418     8.6804     9.1843
  113.5000   126.5994     8.7909     9.3405
  114.0000   124.6754     8.8941     9.3678
  114.5000   122.0153     8.9986     9.3964
  115.0000   122.3605     9.1042     9.4249
  115.5000   128.4451     9.2111     9.4537
  116.0000   136.0927     9.2547     9.4824
  116.5000   139.7016     9.2159     9.5145
  117.0000   139.9891     9.1563     9.4236
  117.5000   138.1966     9.0972     9.3405
  118.0000   133.6836     9.0501     9.4271
  118.5000   130.3800     9.0062     9.2850
  119.0000   132.6082     8.9005     9.1712
  119.5000   134.4951     8.7895     9.0588
  120.0000   133.1377     8.6798     8.9478
  120.5000   130.1186     8.5716     8.8382
  121.0000   129.5169     8.4647     8.7299
  121.5000   130.3092     8.3613     8.6229
  122.0000   130.2742     8.2861     8.5172
  122.5000   131.6327     8.2132     8.4128
  123.0000   135.7549     8.1409     8.3097
  123.5000   138.9814     8.0692     8.2079
  124.0000   137.4030     7.9982     8.1073
  124.5000   134.4914     7.9109     7.9842
  125.0000   133.8147     7.9352     8.1130
  125.5000   135.8647     7.9675     8.2592
  126.0000   137.3441     8.0126     8.4075
  126.5000   136.6638     8.1107     8.5589
  127.0000   134.5277     8.2084     8.7128
  127.5000   129.8906     8.2998     8.8696
  128.0000   125.2873     8.4119     8.9336
  128.5000   122.1855     8.5255     8.9627
  129.0000   121.5305     8.6406     8.9918
  129.5000   124.2016     8.7574     9.0659
  130.0000   129.3132     8.8651     9.2062
  130.5000   131.2292     8.9517     9.3487
  131.0000   128.9194     9.0393     9.4934
  131.5000   127.5896     9.0854     9.5145
  132.0000   129.4442     9.0618     9.4476
  132.5000   128.7088     9.0434     9.3958
  133.0000   128.7075     9.0251     9.3443
  133.5000   129.4305     9.0068     9.2931
  134.0000   127.6484     8.9557     9.2423
  134.5000   125.4227     8.8260     9.1916
  135.0000   124.8070     8.6981     9.1413
  135.5000   128.0969     8.5722     9.0912
  136.0000   129.8513     8.5170     9.0414
  136.5000   131.2549     8.5170     8.9920
  137.0000   134.3211     8.5170     8.9193
  137.5000   135.4377     8.5318     8.9781
  138.0000   133.1188     8.6362     9.0921
  138.5000   127.9774     8.7418     9.2074
  139.0000   125.8425     8.8488     9.3243
  139.5000   126.1946     8.9570     9.4426
  140.0000   126.6247     9.0670     9.5492
  140.5000   126.7071     9.1681     9.7172
  141.0000   126.6859     9.3024     9.8882
  141.5000   127.9691     9.4535    10.0623
  142.0000   127.9864     9.6080    10.2393
  142.5000   127.5545     9.7650    10.4195
  143.0000   128.0728     9.9246    10.6029
  143.5000   128.6509    10.0869    10.7895
  144.0000   127.2613    10.2517    10.9794
  144.5000   124.6453    10.4950    11.1726
  145.0000   123.3545    10.7065    11.3692
  145.5000   123.2598    10.9222    11.5693
  146.0000   123.7173    11.1424    11.7729
  146.5000   124.2187    11.3669    11.9801
  147.0000   122.7657    11.5960    12.1909
  147.5000   120.9293    11.8304    12.4055
  148.0000   119.6826    12.0666    12.6238
  148.5000   117.3603    12.2717    12.8459
  149.0000   114.9447    12.4710    13.0440
  149.5000   112.7055    12.6658    13.2640
  150.0000   113.0229    12.7832    13.1931
  150.5000   112.7683    12.6779    13.1106
  151.0000   112.8704    12.5824    13.0286
  151.5000   113.9747    12.4876    12.9471
  152.0000   114.2353    12.3936    12.8661
  152.5000   113.1889    12.3002    12.7857
  153.0000   112.1312    12.2076    12.7057
  153.5000   112.4164    12.1157    12.6263
  154.0000   115.3245    12.0244    12.5473
  154.5000   118.3901    11.9338    12.4688
  155.0000   116.0688    11.8440    12.3908
  155.5000   113.0851    11.7548    12.3133
  156.0000   114.9906    11.6662    12.2363
  156.5000   118.5911    11.6563    12.1577
  157.0000   117.2224    11.6564    12.0898
  157.5000   114.4428    11.6562    12.2117
  158.0000   111.9505    11.6570    12.1313
  158.5000   112.3906    11.6301    12.0764
  159.0000   115.7421    11.5198    12.0217
  159.5000   117.4989    11.4107    12.0946
  160.0000   115.9822    11.3025    11.9014
  160.5000   114.0550    11.1954    11.6927
  161.0000   112.1853    11.0892    11.4877
  161.5000   110.7981    10.9547    11.2863
  162.0000   109.8181    10.7822    11.0884
  162.5000   111.4587    10.6124    10.8940
  163.0000   113.8568    10.4453    10.7273
  163.5000   115.5351    10.3126    10.7756
  164.0000   112.2728    10.2398    10.7070
  164.5000   112.0610    10.1674    10.6388
  165.0000   115.6675    10.0955    10.5708
  165.5000   117.9999    10.0242    10.5034
  166.0000   116.6115     9.9534    10.4364
  166.5000   113.0498     9.8830    10.3698
  167.0000   109.5304     9.8132    10.3037
  167.5000   109.1714     9.7438    10.2380
  168.0000   114.7549     9.6792    10.1727
  168.5000   120.7849     9.6281    10.1079
  169.0000   122.4814     9.5773    10.0434
  169.5000   122.2399     9.5268     9.9794
  170.0000   117.4820     9.4765     9.9404
  170.5000   112.3711     9.4265     9.9096
  171.0000   109.0009     9.3767     9.8789
  171.5000   107.2273     9.3405     9.8483
  172.0000   107.6123     9.3405     9.8177
  172.5000   110.0381     9.3404     9.7873
  173.0000   114.1468     9.3405     9.7569
  173.5000   117.6339     9.3431     9.7267
  174.0000   117.2226     9.3405     9.6965
  174.5000   115.6545     9.1049     9.5234
  175.0000   115.4509     8.8782     9.3270
  175.5000   116.5926     8.6572     9.1347
  176.0000   116.2176     8.4416     8.8483
  176.5000   115.7385     8.2315     8.5379
  177.0000   116.3965     8.0266     8.2383
  177.5000   121.2788     7.8382     7.9109
  178.0000   125.2889     7.7967     7.9842
  178.5000   124.9326     7.7578     8.0582
  179.0000   121.6695     7.7190     8.0841
  179.5000   118.0907     7.6948     8.1596
  180.0000   114.9813     7.7842     8.2358
  180.5000   115.8326     7.8606     8.3126
  181.0000   118.5833     7.9378     8.3902
  181.5000   121.1712     8.0157     8.4686
