~VERSION INFORMATION
 VERS.                2.0:   CWLS LOG ASCII STANDARD - VERSION 2.0
 WRAP.                 NO:   ONE LINE PER DEPTH STEP
~WELL INFORMATION
#MNEM.UNIT      DATA TYPE    INFORMATION
#----------   ------------   ------------------------------
 STRT.F            0.0000:   START DEPTH
 STOP.F          700.0000:   STOP DEPTH
 STEP.F            0.5000:   STEP LENGTH
 NULL.          -999.2500:   NO VALUE
 COMP. FENIX & SCISSON INC:   COMPANY
 WELL. 37-11 SX 11 WP #11-11:   WELL
 FLD .             TEAPOT:   FIELD
 LOC .      S11 T38N R78W:   LOCATION
 CNTY.            NATRONA:   COUNTY
 STAT.            WYOMING:   STATE
 CTRY. UNITED STATES OF AMERICA:   COUNTRY
 SRVC.      Dresser Atlas:   SERVICE COMPANY
 DATE.        21-AUG-1980:   LOGDATE
 API .       490251084200:   API NUMBER
~CURVE INFORMATION
#MNEM.UNIT       API CODE    CURVE DESCRIPTION
#----------   ------------   ------------------------------
 DEPT.F                  :   
 SPR .MV     07 010 01 00:   SPONTANEOUS POTENTIAL
 RFOC.OHMM   07 220 04 00:   RESISTIVITY FOCUSED LOG
 RILD.OHMM   07 120 46 00:   INDUCTION LOG DEEP RESISTIVITY
 RILM.OHMM   07 120 44 00:   INDUCTION LOG MEDIUM RESISTIVITY
 GRD .GAPI   45 310 01 00:   GAMMA RAY FROM DENSITY LOG
 CALD.IN     45 280 60 00:   CALIPER
 RHOB.G/C3   45 350 01 00:   BULK DENSITY
 CORR.G/C3   45 356 01 00:   DENSITY CORRECTION
 CNC .DEC    42 890 03 00:   NEUTRON POROSITY SANDSTONE
 PORD.DEC    45 890 12 00:   POROSITY DENSITY SANDSTONE
~PARAMETER INFORMATION
#MNEM.UNIT          VALUE    DESCRIPTION
#----------   ------------   ------------------------------
 PD  .                 GL:   PERMANENT DATUM
 EPD .F              5194:   ELEVATION PERMANENT DATUM
 LMF .                 KB:   LOG MEASURED FROM
 DAPD.F                 5:   FEET ABOVE PERMANENT DATUM
 DMF .                 KB:   DRILLING MEASURED FROM
 EKB .F              5199:   KELLING BUSHING
 EDF .F              5198:   DRILLING FLOOR
 EGL .F              5194:   GROUND LEVEL
 DATE.            8-21-80:   RUN DATE
 RUN .                  1:   RUN NUMBER
 DD  .F               695:   DEPTH DRILLER
 DL  .F               700:   DEPTH LOGGER
 BLI .F               699:   BOTTOM LOG INTERVAL
 BS  .IN            7.875:   BIT SIZE
 BSD .F               695:   BIT SIZE AT DEPTH
 DFT .      DISPERSED KCL:   DRILLING FLUID TYPE
 DFD .               2.68:   DRILLING FLUID DENSITY
 DFV .                 50:   DRILLING FLUID VISCOSITY
 DFPH.                 14:   DRILLING FLUID PH
 DFL .                 18:   DRILLING FLUID LOSS
 MSS .           FLOWLINE:   MUD SAMPLE SOURCE
 RMS .OHMM           .256:   RESISTIVITY MUD SAMPLE
 MST .F                70:   MUD SAMPLE TEMPERATURE
 RMF .OHMM           .393:   RESISTIVITY MUD FILTRATE SAMPLE
 MFST.F                66:   MUD FILTRATE SAMPLE TEMPERATURE
 RMC .OHMM           .858:   RESISTIVITY MUD CAKE
 MCST.F                66:   MUD CAKE SAMPLE TEMPERATURE
 MFSS.               MEAS:   MUD FILTRATE SAMPLE SOURCE
 MCSS.               MEAS:   MUD CAKE SAMPLE SOURCE
 RMB .OHMM            .53:   RESISTIVITY MUD AT BHT
 BHT .F                99:   BOTTOM HOLE TEMPERATURE
 TCS .HRS               3:   TIME CURCULATED STOPPED
 MRT .F                99:   MAXIMUM RECORDED TEMPERATURE
 LUN .               9369:   LOGGING UNIT NUMBER
 LUL .       ROCK SPRINGS:   LOGGING UNIT LOCATION
 ENGI.            PAULSON:   RECORDING ENGINEER
 WITN.              SCOTT:   WITNESSED BY
 CLNT.            A2DTECH:   CLIENT CODE
 ORIG.       2", 5" PRINT:   ORIGIN OF DATA
 UWI .       490251084200:   UNIQUE WELL ID
 DICO. A2D Technologies, Inc.:   DIGITIZING COMPANY
~OTHER INFORMATION
~A    DEPT     SPR       RFOC       RILD       RILM        GRD       CALD       RHOB       CORR        CNC         PORD 
# ...
  536.0000   -61.4638    15.0119    13.5865    13.9538    75.9405     7.8434     2.4289     0.1075     0.2414     0.1634
  536.5000   -61.4824    14.8072    13.8072    14.3091    74.4283     7.8233     2.4104     0.0823     0.2298     0.1530
  537.0000   -61.2198    14.5566    14.0319    14.6734    73.1805     7.8254     2.4010     0.0693     0.2146     0.1349
  537.5000   -60.7721    14.4558    14.2603    15.0470    75.0533     7.8270     2.4017     0.0600     0.1994     0.1048
  538.0000   -60.3260    14.8922    14.4924    15.4255    77.1858     7.8281     2.4075     0.0630     0.1899     0.0750
  538.5000   -60.1382    17.7312    14.7294    16.9248    76.9797     7.8293     2.4364     0.0805     0.1912     0.0815
  539.0000   -60.3353    21.7554    14.8635    16.3298    74.7053     7.8305     2.4719     0.0915     0.1968     0.0931
  539.5000   -60.5269    26.4165    14.7733    15.6374    72.4827     7.8316     2.5423     0.0956     0.2071     0.1117
  540.0000   -60.6883    26.4165    14.7265    15.0575    71.4788     7.8328     2.5532     0.0850     0.2173     0.1313
  540.5000   -60.7525    19.2587    14.3773    14.7329    71.0668     7.8340     2.5299     0.0758     0.2276     0.1497
  541.0000   -60.8186    15.7030    14.0552    14.4154    71.5885     7.8352     2.5031     0.0911     0.2364     0.1598
  541.5000   -60.8491    14.4415    13.7403    14.1047    71.6733     7.8363     2.4721     0.1085     0.2398     0.1702
  542.0000   -60.4917    14.5423    13.4325    13.8006    71.4019     7.8375     2.4420     0.1122     0.2373     0.1652
  542.5000   -60.7839    14.8293    13.1316    13.5032    70.9184     7.8387     2.4190     0.1060     0.2434     0.1513
  543.0000   -61.0311    15.1420    12.8864    13.3120    73.3485     7.8398     2.3949     0.1010     0.2442     0.1559
  543.5000   -61.2690    15.1420    12.7449    13.1614    76.4621     7.8410     2.3945     0.1075     0.2367     0.1594
  544.0000   -61.1946    14.8357    12.6047    13.0125    79.5875     7.8422     2.4182     0.1138     0.2242     0.1463
  544.5000   -61.0937    14.6111    12.4665    12.8653    82.3610     7.8434     2.4255     0.1144     0.2124     0.1355
  545.0000   -61.3917    14.3899    12.3294    12.7197    82.6938     7.8446     2.4119     0.1094     0.2064     0.1465
  545.5000   -61.9345    14.1721    12.1942    12.5758    80.5318     7.8438     2.4230     0.1099     0.2088     0.1648
  546.0000   -62.4786    13.9574    12.0082    12.4621    77.6071     7.8427     2.4444     0.1191     0.2221     0.1781
  546.5000   -62.9118    13.7459    12.0892    12.5292    75.5121     7.8415     2.4525     0.1149     0.2523     0.1809
  547.0000   -62.7926    13.5352    12.2235    12.5854    75.2536     7.8403     2.4155     0.1081     0.2561     0.1819
  547.5000   -62.8083    13.4233    12.3592    12.6417    76.1448     7.8391     2.3852     0.1012     0.2447     0.1833
  548.0000   -63.3397    13.8288    12.4621    12.6955    78.3127     7.8380     2.3759     0.0943     0.2310     0.1836
  548.5000   -63.8518    14.1213    12.3854    12.6954    79.9803     7.8368     2.3730     0.0967     0.2117     0.1807
  549.0000   -64.0641    14.4558    12.3245    12.6799    78.1345     7.8356     2.3706     0.1034     0.2088     0.1756
  549.5000   -64.2253    14.3310    12.2639    12.6198    76.6256     7.8345     2.3700     0.1102     0.2098     0.1667
  550.0000   -64.3861    14.1901    12.2164    12.5608    77.5863     7.8333     2.3737     0.1165     0.2279     0.1542
  550.5000   -64.6152    14.0506    12.1827    12.5020    78.6183     7.8321     2.3821     0.1198     0.2432     0.1487
  551.0000   -65.3151    13.9293    12.1491    12.4434    77.3820     7.8310     2.3938     0.1234     0.2407     0.1597
  551.5000   -66.0249    14.0029    12.1156    12.3851    76.4371     7.8298     2.4136     0.1304     0.2391     0.1602
  552.0000   -66.7333    14.0591    12.0822    12.3268    75.6858     7.8286     2.4266     0.1360     0.2488     0.1509
  552.5000   -67.4411    13.8341    12.0486    12.2691    76.0392     7.8274     2.4158     0.1290     0.2723     0.1278
  553.0000   -68.1470    13.6482    12.0086    12.2328    76.1442     7.8263     2.4128     0.1222     0.2720     0.1251
  553.5000   -68.8791    13.5012    12.1666    12.5177    75.7318     7.8251     2.4250     0.1178     0.2449     0.1233
  554.0000   -69.6509    13.3557    12.3735    12.7666    75.9766     7.8252     2.4479     0.1295     0.2221     0.1228
  554.5000   -70.4208    13.2981    12.5849    13.0206    77.1705     7.8262     2.4669     0.1335     0.2325     0.1225
  555.0000   -71.0594    13.9319    12.7990    13.2801    78.4768     7.8273     2.4710     0.1248     0.2378     0.1198
  555.5000   -70.7812    15.2326    13.0537    13.5466    78.4590     7.8283     2.4712     0.1023     0.2274     0.1100
  556.0000   -70.4581    16.6460    12.8372    13.7985    77.9082     7.8293     2.4711     0.0800     0.2148     0.1004
  556.5000   -70.1350    18.1863    12.5045    13.3101    77.8851     7.8304     2.4734     0.0593     0.2137     0.0948
  557.0000   -70.1380    18.9174    12.1799    12.8563    76.6337     7.8314     2.4873     0.0576     0.2198     0.0966
  557.5000   -70.7118    16.8554    11.8640    12.4180    73.9799     7.8324     2.5052     0.0586     0.2287     0.1007
  558.0000   -71.2732    14.5799    11.5561    11.9946    70.0828     7.8335     2.5148     0.0644     0.2360     0.1064
  558.5000   -71.8347    12.4410    11.3624    11.7325    67.7598     7.8345     2.5175     0.0723     0.2395     0.1090
  559.0000   -72.3887    12.4795    11.2179    11.6229    67.0238     7.8355     2.5115     0.0837     0.2380     0.1085
  559.5000   -72.5583    12.5658    11.0752    11.5143    68.1356     7.8366     2.5036     0.0891     0.2365     0.1125
  560.0000   -72.7548    12.6302    10.9344    11.4068    71.6345     7.8376     2.4957     0.0910     0.2361     0.1262
  560.5000   -73.6399    12.6952    10.7953    11.3367    75.4550     7.8387     2.4981     0.0927     0.2443     0.1324
  561.0000   -74.5332    12.6955    10.6580    11.2973    77.2553     7.8397     2.4897     0.0928     0.2431     0.1266
  561.5000   -75.3392    12.6954    10.5374    11.2582    77.1769     7.8407     2.4670     0.0852     0.2378     0.1234
  562.0000   -74.7602    12.6955    10.4888    11.2191    77.4786     7.8418     2.4538     0.0767     0.2298     0.1354
  562.5000   -74.0056    12.6955    10.4404    11.1801    78.5085     7.8428     2.4611     0.0797     0.2294     0.1375
  563.0000   -73.7102    12.6955    10.3922    11.1292    76.9975     7.8439     2.4714     0.0858     0.2379     0.1278
  563.5000   -74.6453    12.6975    10.3442    11.0329    73.8808     7.8446     2.4601     0.0790     0.2442     0.1165
  564.0000   -74.7272    12.6981    10.2964    10.9374    73.1976     7.8435     2.4425     0.0765     0.2480     0.1128
  564.5000   -75.8448    12.4627    10.2489    10.8427    75.9448     7.8423     2.4584     0.0884     0.2539     0.1103
  565.0000   -76.5068    12.1904    10.2016    10.7490    76.6758     7.8411     2.4795     0.0990     0.2596     0.1121
  565.5000   -76.8406    11.9241    10.1545    10.6559    76.5368     7.8400     2.4874     0.1051     0.2630     0.1278
  566.0000   -77.1655    11.7582    10.1076    10.5961    76.0281     7.8388     2.4916     0.1064     0.2469     0.1432
  566.5000   -77.4762    11.6970    10.0610    10.5459    74.2291     7.8376     2.4941     0.1058     0.2302     0.1484
  567.0000   -76.6943    11.6787    10.0145    10.3668    71.6456     7.8365     2.4767     0.0952     0.2311     0.1390
  567.5000   -74.7271    12.1201     9.9683    10.1618    71.7050     7.8353     2.4510     0.0856     0.2387     0.1241
  568.0000   -73.0161    12.0539     9.9223    10.1848    73.8059     7.8341     2.4272     0.0760     0.2508     0.1176
  568.5000   -72.3823    11.9288     9.8830    10.2168    76.9039     7.8329     2.4298     0.0776     0.2535     0.1184
  569.0000   -72.9416    11.8046     9.8830    10.2488    77.8528     7.8318     2.4621     0.0827     0.2455     0.1118
