~VERSION INFORMATION
 VERS.                2.0:   CWLS LOG ASCII STANDARD - VERSION 2.0
 WRAP.                 NO:   ONE LINE PER DEPTH STEP
~WELL INFORMATION
#MNEM.UNIT      DATA TYPE    INFORMATION
#----------   ------------   ------------------------------
 STRT.F           38.0000:   START DEPTH
 STOP.F          846.0000:   STOP DEPTH
 STEP.F            0.5000:   STEP LENGTH
 NULL.          -999.2500:   NO VALUE
 COMP. FENIX & SCISSON INC:   COMPANY
 WELL.    NPR 3 #34-SX-14:   WELL
 FLD .        TEAPOT DOME:   FIELD
 LOC .      S14 T38N R78W:   LOCATION
 CNTY.            NATRONA:   COUNTY
 STAT.            WYOMING:   STATE
 CTRY. UNITED STATES OF AMERICA:   COUNTRY
 SRVC.           BIRDWELL:   SERVICE COMPANY
 DATE.        26-APR-1978:   LOGDATE
 API .       490251063500:   API NUMBER
~CURVE INFORMATION
#MNEM.UNIT       API CODE    CURVE DESCRIPTION
#----------   ------------   ------------------------------
 DEPT.F                  :   
 NEUT.CPS    81 330 30 00:   NEUTRON
 TT  .US/F   81 520 00 00:   TRANSIT TIME
 GRD .GAPI   45 310 01 00:   GAMMA RAY FROM DENSITY LOG
 RHOB.G/C3   45 350 01 00:   BULK DENSITY
 DPOR.DEC    45 890 10 00:   DENSITY POROSITY
 CALD.IN     45 280 60 00:   CALIPER FROM DENSITY LOG
 CORR.G/C3   45 356 01 00:   DENSITY CORRECTION
~PARAMETER INFORMATION
#MNEM.UNIT          VALUE    DESCRIPTION
#----------   ------------   ------------------------------
 PD  .                 GL:   PERMANENT DATUM
 EPD .F              5232:   ELEVATION PERMANENT DATUM
 LMF .                 KB:   LOG MEASURED FROM
 DMF .                 KB:   DRILLING MEASURED FROM
 EKB .F              5236:   KELLING BUSHING
 EGL .F              5232:   GROUND LEVEL
 DATE.          4-26-1978:   RUN DATE
 RUN .                  1:   RUN NUMBER
 DD  .F               855:   DEPTH DRILLER
 DL  .F               853:   DEPTH LOGGER
 BLI .F               846:   BOTTOM LOG INTERVAL
 TLI .F                40:   TOP LOG INTERVAL
 CS  .IN            8.625:   CASING SIZE
 CBD .F                40:   CASING BOTTOM DRILLER
 CBL .F                40:   CASING BOTTOM LOGGER
 BS  .IN            7.875:   BIT SIZE
 BSD .F               855:   BIT SIZE AT DEPTH
 DFT .                KCL:   DRILLING FLUID TYPE
 DFD .                8.5:   DRILLING FLUID DENSITY
 DFV .                 31:   DRILLING FLUID VISCOSITY
 DFPH.                 10:   DRILLING FLUID PH
 DFL .               10.4:   DRILLING FLUID LOSS
 MSS .          FLUID PIT:   MUD SAMPLE SOURCE
 RMS .OHMM            .36:   RESISTIVITY MUD SAMPLE
 MST .F                68:   MUD SAMPLE TEMPERATURE
 RMF .OHMM            .28:   RESISTIVITY MUD FILTRATE SAMPLE
 MFST.F                74:   MUD FILTRATE SAMPLE TEMPERATURE
 RMC .OHMM            .48:   RESISTIVITY MUD CAKE
 MCST.F                79:   MUD CAKE SAMPLE TEMPERATURE
 MFSS.               MEAS:   MUD FILTRATE SAMPLE SOURCE
 RMB .OHMM            .33:   RESISTIVITY MUD AT BHT
 BHT .F                75:   BOTTOM HOLE TEMPERATURE
 TCS .HRS               1:   TIME CURCULATED STOPPED
 MRT .F                75:   MAXIMUM RECORDED TEMPERATURE
 LUN .               3006:   LOGGING UNIT NUMBER
 LUL .              CASP.:   LOGGING UNIT LOCATION
 ENGI.             MILLER:   RECORDING ENGINEER
 WITN.           MCGINLEY:   WITNESSED BY
 CLNT.            A2DTECH:   CLIENT CODE
 ORIG.      2" , 5" PRINT:   ORIGIN OF DATA
 UWI .       490251063500:   UNIQUE WELL ID
 DICO. A2D Technologies, Inc.:   DIGITIZING COMPANY
~OTHER INFORMATION
~A   DEPT     NEUT         TT         GRD      RHOB       DPOR       CALD       CORR   
# ...
  265.5000  -999.2500  -999.2500    86.2073     2.4689     0.0981     8.4297     0.0383
  266.0000  -999.2500  -999.2500    88.0723     2.4751     0.0958     8.4394     0.0405
  266.5000  -999.2500  -999.2500    90.4659     2.4786     0.0972     8.4499     0.0410
  267.0000  -999.2500  -999.2500    90.3315     2.4747     0.1004     8.4604     0.0360
  267.5000  -999.2500  -999.2500    88.7115     2.4704     0.1022     8.4708     0.0320
  268.0000  -999.2500  -999.2500    86.9894     2.4661     0.1017     8.4812     0.0326
  268.5000  -999.2500  -999.2500    85.5027     2.4657     0.1011     8.4916     0.0330
  269.0000  -999.2500  -999.2500    86.0973     2.4661     0.1016     8.5020     0.0334
  269.5000  -999.2500  -999.2500    86.8399     2.4664     0.1028     8.5124     0.0339
  270.0000  -999.2500  -999.2500    86.2743     2.4634     0.1040     8.5227     0.0328
  270.5000  -999.2500  -999.2500    83.9221     2.4602     0.1052     8.5331     0.0306
  271.0000  -999.2500  -999.2500    83.2899     2.4569     0.1064     8.5435     0.0284
  271.5000  -999.2500  -999.2500    83.6795     2.4535     0.1063     8.5542     0.0262
  272.0000  -999.2500  -999.2500    84.0791     2.4561     0.1040     8.5646     0.0263
  272.5000  -999.2500  -999.2500    83.8577     2.4598     0.1026     8.5440     0.0266
  273.0000  -999.2500  -999.2500    83.1910     2.4634     0.1043     8.5334     0.0269
  273.5000  -999.2500  -999.2500    82.6791     2.4615     0.1061     8.5213     0.0272
  274.0000  -999.2500  -999.2500    83.4284     2.4590     0.1058     8.5093     0.0274
  274.5000  -999.2500  -999.2500    84.4471     2.4600     0.1042     8.4973     0.0277
  275.0000  -999.2500  -999.2500    85.1066     2.4628     0.1026     8.4853     0.0281
  275.5000  -999.2500  -999.2500    85.1526     2.4657     0.1053     8.4733     0.0258
  276.0000  -999.2500  -999.2500    85.4337     2.4574     0.1090     8.4613     0.0230
  276.5000  -999.2500  -999.2500    85.0397     2.4478     0.1130     8.4494     0.0202
  277.0000  -999.2500  -999.2500    84.3854     2.4478     0.1125     8.4375     0.0204
  277.5000  -999.2500  -999.2500    83.7257     2.4484     0.1120     8.4248     0.0209
  278.0000  -999.2500  -999.2500    83.0672     2.4490     0.1121     8.4085     0.0213
  278.5000  -999.2500  -999.2500    82.4091     2.4494     0.1126     8.3979     0.0217
  279.0000  -999.2500  -999.2500    81.7481     2.4490     0.1102     8.3821     0.0232
  279.5000  -999.2500  -999.2500    81.0848     2.4485     0.1075     8.3786     0.0268
  280.0000  -999.2500  -999.2500    80.5145     2.4522     0.1047     8.3757     0.0305
  280.5000  -999.2500  -999.2500    81.3633     2.4584     0.1020     8.3728     0.0341
  281.0000  -999.2500  -999.2500    80.6369     2.4649     0.1008     8.3698     0.0379
  281.5000  -999.2500  -999.2500    78.8726     2.4658     0.1027     8.3671     0.0383
  282.0000  -999.2500  -999.2500    78.4341     2.4646     0.1042     8.3648     0.0385
  282.5000  -999.2500  -999.2500    81.4326     2.4651     0.1035     8.3246     0.0388
  283.0000  -999.2500  -999.2500    81.2081     2.4662     0.1028     8.2345     0.0390
  283.5000  -999.2500  -999.2500    80.7281     2.4674     0.1028     8.1130     0.0393
  284.0000  -999.2500  -999.2500    80.9054     2.4660     0.1032     7.9935     0.0395
  284.5000  -999.2500  -999.2500    81.5423     2.4645     0.1037     7.8740     0.0398
  285.0000  -999.2500  -999.2500    81.8703     2.4629     0.1041     7.7546     0.0400
  285.5000  -999.2500  -999.2500    80.9865     2.4616     0.1046     7.6409     0.0415
  286.0000  -999.2500  -999.2500    80.0927     2.4604     0.1051     7.6246     0.0437
  286.5000  -999.2500  -999.2500    79.2078     2.4591     0.1055     7.6245     0.0459
  287.0000  -999.2500  -999.2500    78.4757     2.4578     0.1048     7.6244     0.0482
  287.5000  -999.2500  -999.2500    78.9913     2.4600     0.1022     7.6229     0.0537
  288.0000  -999.2500  -999.2500    79.7670     2.4641     0.1019     7.6480     0.0594
  288.5000  -999.2500  -999.2500    80.5502     2.4683     0.0998     7.7173     0.0621
  289.0000  -999.2500  -999.2500    81.3332     2.4704     0.0974     7.8000     0.0621
  289.5000  -999.2500  -999.2500    82.1119     2.4723     0.0999     7.8847     0.0609
  290.0000  -999.2500  -999.2500    82.7502     2.4690     0.1032     7.9694     0.0543
  290.5000  -999.2500  -999.2500    83.1068     2.4655     0.1046     8.0541     0.0478
  291.0000  -999.2500  -999.2500    82.7112     2.4621     0.1055     8.1387     0.0413
  291.5000  -999.2500  -999.2500    82.0420     2.4586     0.1065     8.2233     0.0348
  292.0000  -999.2500  -999.2500    82.2954     2.4552     0.1074     8.3084     0.0283
  292.5000  -999.2500  -999.2500    83.2512     2.4518     0.1114     8.3937     0.0218
  293.0000  -999.2500  -999.2500    83.8474     2.4483     0.1135     8.4250     0.0160
  293.5000  -999.2500  -999.2500    81.3343     2.4453     0.1138     8.4221     0.0174
  294.0000  -999.2500  -999.2500    79.2139     2.4454     0.1142     8.4110     0.0187
  294.5000  -999.2500  -999.2500    80.5487     2.4495     0.1081     8.4004     0.0203
  295.0000  -999.2500  -999.2500    82.1151     2.4593     0.1005     8.3897     0.0289
  295.5000  -999.2500  -999.2500    83.6838     2.4690     0.0966     8.3791     0.0377
  296.0000  -999.2500  -999.2500    85.2519     2.4759     0.0942     8.3685     0.0399
  296.5000  -999.2500  -999.2500    86.8696     2.4780     0.0953     8.3579     0.0418
  297.0000  -999.2500  -999.2500    85.7277     2.4765     0.0982     8.3473     0.0400
  297.5000  -999.2500  -999.2500    84.4411     2.4724     0.1011     8.3367     0.0374
  298.0000  -999.2500  -999.2500    85.9400     2.4683     0.1041     8.3257     0.0338
  298.5000  -999.2500  -999.2500    86.0709     2.4643     0.1070     8.3217     0.0292
  299.0000  -999.2500  -999.2500    85.4313     2.4602     0.1098     8.3171     0.0246
  299.5000  -999.2500  -999.2500    84.7848     2.4561     0.1095     8.3125     0.0223
  300.0000  -999.2500  -999.2500    84.6977     2.4524     0.1083     8.3079     0.0237
  300.5000  -999.2500  -999.2500    84.6988     2.4550     0.1071     8.3033     0.0250
  301.0000  -999.2500  -999.2500    84.6682     2.4599     0.1032     8.2987     0.0263
  301.5000  -999.2500  -999.2500    84.6110     2.4649     0.0970     8.2941     0.0276
  302.0000  -999.2500  -999.2500    84.5548     2.4698     0.0999     8.2894     0.0274
  302.5000  -999.2500  -999.2500    84.5214     2.4724     0.1045     8.2853     0.0265
  303.0000  -999.2500  -999.2500    83.9211     2.4617     0.1086     8.2504     0.0254
  303.5000  -999.2500  -999.2500    83.3648     2.4557     0.1079     8.2033     0.0244
  304.0000  -999.2500  -999.2500    82.8883     2.4609     0.1033     8.1625     0.0254
  304.5000  -999.2500  -999.2500    82.8384     2.4667     0.0987     8.1630     0.0329
  305.0000  -999.2500  -999.2500    82.7620     2.4724     0.0942     8.1661     0.0373
  305.5000  -999.2500  -999.2500    82.6845     2.4782     0.0910     8.2335     0.0412
  306.0000  -999.2500  -999.2500    82.6069     2.4839     0.0912     8.3017     0.0450
  306.5000  -999.2500  -999.2500    82.5294     2.4876     0.0914     8.3695     0.0476
  307.0000  -999.2500  -999.2500    82.4513     2.4873     0.0937     8.4372     0.0442
  307.5000  -999.2500  -999.2500    82.3692     2.4821     0.0966     8.5051     0.0409
  308.0000  -999.2500  -999.2500    82.3006     2.4769     0.0975     8.5732     0.0375
  308.5000  -999.2500  -999.2500    82.6299     2.4723     0.0982     8.5831     0.0342
  309.0000  -999.2500  -999.2500    84.1119     2.4720     0.0989     8.5830     0.0332
  309.5000  -999.2500  -999.2500    85.5444     2.4716     0.0996     8.5830     0.0324
  310.0000  -999.2500  -999.2500    86.9725     2.4711     0.1003     8.5624     0.0316
  310.5000  -999.2500  -999.2500    88.1198     2.4707     0.1010     8.5263     0.0307
