~VERSION INFORMATION
 VERS.                2.0:   CWLS LOG ASCII STANDARD - VERSION 2.0
 WRAP.                 NO:   ONE LINE PER DEPTH STEP
~WELL INFORMATION
#MNEM.UNIT      DATA TYPE    INFORMATION
#----------   ------------   ------------------------------
 STRT.F           64.0000:   START DEPTH
 STOP.F          795.0000:   STOP DEPTH
 STEP.F            0.5000:   STEP LENGTH
 NULL.          -999.2500:   NO VALUE
 COMP. LAWRENCE/ALLISON INC:   COMPANY
 WELL.      23-61 SX #2-2:   WELL
 FLD .             TEAPOT:   FIELD
 LOC .       S2 T38N R78W:   LOCATION
 CNTY.            NATRONA:   COUNTY
 STAT.            WYOMING:   STATE
 CTRY. UNITED STATES OF AMERICA:   COUNTRY
 SRVC.              Welex:   SERVICE COMPANY
 DATE.        14-AUG-1985:   LOGDATE
 API .       490251103800:   API NUMBER
~CURVE INFORMATION
#MNEM.UNIT       API CODE    CURVE DESCRIPTION
#----------   ------------   ------------------------------
 DEPT.F                  :   
 SPR .MV     07 010 01 00:   SPONTANEOUS POTENTIAL
 ILD .OHMM   07 120 46 00:   INDUCTION LOG DEEP
 ILM .OHMM   07 120 44 00:   INDUCTION LOG MEDIUM
 SGRD.OHMM   07 221 05 00:   SHALLOW SHORT GUARD RESISTIVITY
 DPHI.DEC    45 890 12 00:   DENSITY POROSITY SANDSTONE
 NPHI.DEC    42 890 03 00:   NEUTRON POROSITY SANDSTONE
 GRD .GAPI   45 310 01 00:   GAMMA RAY FROM DENSITY LOG
 CALD.IN     45 280 60 00:   CALIPER FROM DENSITY
 CORR.G/C3   45 356 01 00:   DENSITY CORRECTION
 RHOB.G/C3   45 350 01 00:   BULK DENSITY
~PARAMETER INFORMATION
#MNEM.UNIT          VALUE    DESCRIPTION
#----------   ------------   ------------------------------
 PD  .                 GL:   PERMANENT DATUM
 EPD .F              5112:   ELEVATION PERMANENT DATUM
 LMF .                 GL:   LOG MEASURED FROM
 DMF .                 GL:   DRILLING MEASURED FROM
 EGL .F              5112:   GROUND LEVEL
 DATE.        14-AUG-1985:   RUN DATE
 RUN .                  1:   RUN NUMBER
 DD  .F               800:   DEPTH DRILLER
 DL  .F               797:   DEPTH LOGGER
 BLI .F               795:   BOTTOM LOG INTERVAL
 TLI .F                76:   TOP LOG INTERVAL
 CS  .IN            8.625:   CASING SIZE
 CBD .F                76:   CASING BOTTOM DRILLER
 CBL .F                76:   CASING BOTTOM LOGGER
 BS  .IN            7.875:   BIT SIZE
 BSD .F               800:   BIT SIZE AT DEPTH
 DFT .                KCL:   DRILLING FLUID TYPE
 MSS .               TANK:   MUD SAMPLE SOURCE
 RMS .OHMM           0.22:   RESISTIVITY MUD SAMPLE
 MST .F                64:   MUD SAMPLE TEMPERATURE
 MFSS.               MEAS:   MUD FILTRATE SAMPLE SOURCE
 TCS .HRS            2230:   TIME CURCULATED STOPPED
 TLAB.HRS            0200:   TIME LOGGER AT BOTTOM
 LUN .               1892:   LOGGING UNIT NUMBER
 LUL .             CASPER:   LOGGING UNIT LOCATION
 ENGI.         T. QUINLAN:   RECORDING ENGINEER
 WITN.        N. JENNINGS:   WITNESSED BY
 CLNT.            A2DTECH:   CLIENT CODE
 ORIG.        2" 5" PRINT:   ORIGIN OF DATA
 UWI .       490251103800:   UNIQUE WELL ID
 DICO. A2D Technologies, Inc.:   DIGITIZING COMPANY
 R1  . POROSITY WITH SANDSTONE:   REMARKS 1
~OTHER INFORMATION
~A   DEPT      SPR        ILD        ILM       SGRD       DPHI       NPHI         GRD      CALD       CORR       RHOB   
# ...
  767.5000   -45.0000     7.1657     7.1709    10.4729     0.1289     0.2990  -999.2500     7.8839     0.0437     2.4648
  768.0000   -45.1540     6.8690     6.9794    10.5260     0.1292     0.3019  -999.2500     7.8833     0.0414     2.4632
  768.5000   -45.9059     6.6771     6.7835    10.5477     0.1379     0.3080  -999.2500     7.8827     0.0382     2.4449
  769.0000   -46.2093     6.4906     6.6709    10.4610     0.1455     0.3111  -999.2500     7.8821     0.0351     2.4297
  769.5000   -46.2138     6.3980     6.5238    10.0805     0.1531     0.3163  -999.2500     7.8815     0.0319     2.4145
  770.0000   -45.6204     6.3067     6.3985     8.4914     0.1607     0.3127  -999.2500     7.8809     0.0273     2.4053
  770.5000   -44.8775     6.3041     6.3565     6.6256     0.1594     0.3063  -999.2500     7.8804     0.0264     2.4135
  771.0000   -44.4335     6.3014     6.5933     6.8378     0.1464     0.3001  -999.2500     7.8798     0.0362     2.4370
  771.5000   -44.8865     6.3436     7.2132     8.3626     0.1316     0.2958  -999.2500     7.8792     0.0360     2.4543
  772.0000   -45.1900     6.4750     7.6166    10.3654     0.1268     0.2949  -999.2500     7.8786     0.0329     2.4671
  772.5000   -45.0449     6.8432     7.9326    11.2522  -999.2500  -999.2500  -999.2500     7.8780     0.0297     2.4625
  773.0000   -44.4516     7.3346     8.1518    11.8037  -999.2500  -999.2500  -999.2500     7.8774     0.0288     2.4617
  773.5000   -43.2602     7.8067     8.3188    12.3854  -999.2500  -999.2500  -999.2500     7.8767     0.0295     2.4639
  774.0000   -42.6666     8.1371     8.4287    12.6380  -999.2500  -999.2500  -999.2500     7.8761     0.0316     2.4736
  774.5000   -40.8776     8.4225     8.6021    12.8951  -999.2500  -999.2500  -999.2500     7.8755     0.0353     2.4826
  775.0000   -40.1844     8.6572     8.6575    12.8861  -999.2500  -999.2500  -999.2500     7.8750     0.0428     2.4906
  775.5000   -40.9394     8.7761     8.8357    12.8771  -999.2500  -999.2500  -999.2500     7.8744     0.0525     2.5018
  776.0000   -38.6489     8.8339     8.9549    12.8681  -999.2500  -999.2500  -999.2500     7.8737     0.0562     2.5129
  776.5000   -41.3440     8.9543     9.2676    12.9491  -999.2500  -999.2500  -999.2500     7.8732     0.0561     2.5168
  777.0000   -39.7043     9.0132     9.5913    12.9401  -999.2500  -999.2500  -999.2500     7.8727     0.0560     2.5167
  777.5000   -38.5129     8.9458     9.8572    12.9310  -999.2500  -999.2500  -999.2500     7.8721     0.0506     2.4977
  778.0000   -38.0679     8.9421    10.0601    12.8322  -999.2500  -999.2500  -999.2500     7.8713     0.0451     2.4711
  778.5000   -39.8661     8.8762    10.1249    12.7340  -999.2500  -999.2500  -999.2500     7.8708     0.0405     2.4558
  779.0000   -38.8254     8.8108     9.5032    12.4615  -999.2500  -999.2500  -999.2500     7.8702     0.0404     2.4528
  779.5000   -38.9794     8.8071     9.1723    12.1949  -999.2500  -999.2500  -999.2500     7.8697     0.0448     2.4723
  780.0000   -37.3396     8.7422     9.1034    12.1016  -999.2500  -999.2500  -999.2500     7.8690     0.0515     2.4874
  780.5000   -35.6999     8.7385     9.0983    12.0932  -999.2500  -999.2500  -999.2500     7.8685     0.0552     2.5002
  781.0000   -34.9570     8.7349     9.3508    12.3403  -999.2500  -999.2500  -999.2500     7.8678     0.0543     2.4979
  781.5000   -34.6625     8.7312     9.3456    12.4183  -999.2500  -999.2500  -999.2500     7.8672     0.0489     2.4917
  782.0000   -34.3669     8.7276     9.3404    12.6719  -999.2500  -999.2500  -999.2500     7.8666     0.0435     2.4886
  782.5000   -34.8210     8.7239     9.3352    12.5750  -999.2500  -999.2500  -999.2500     7.8660     0.0388     2.4878
  783.0000   -35.1244     8.8437     9.3297    12.3920  -999.2500  -999.2500  -999.2500     7.8654     0.0342     2.4830
  783.5000   -35.5774  -999.2500     9.3244    12.0425  -999.2500  -999.2500  -999.2500     7.8648     0.0310     2.4754
  784.0000   -35.5819  -999.2500     9.3192    11.8674  -999.2500  -999.2500  -999.2500     7.8642     0.0301     2.4708
  784.5000   -35.4357  -999.2500     9.3140    11.8489  -999.2500  -999.2500  -999.2500     7.8637     0.0331     2.4670
  785.0000   -34.9929  -999.2500     9.4396    11.7684  -999.2500  -999.2500  -999.2500     7.8631     0.0360     2.4669
  785.5000   -34.5490  -999.2500     9.5669    11.6784  -999.2500  -999.2500  -999.2500     7.8625     0.0381     2.4698
  786.0000   -34.2545  -999.2500     9.5615    10.9599  -999.2500  -999.2500  -999.2500     7.8619     0.0411     2.4773
  786.5000   -33.8095  -999.2500     9.6231    10.0726  -999.2500  -999.2500  -999.2500     7.8613     0.0448     2.4780
  787.0000   -34.5625  -999.2500     9.6864     9.7204  -999.2500  -999.2500  -999.2500     7.8756     0.0469     2.4696
  787.5000   -34.8659  -999.2500     9.7488     9.5124  -999.2500  -999.2500  -999.2500     7.8601     0.0403     2.4559
  788.0000   -35.0199  -999.2500     9.7419     9.4397  -999.2500  -999.2500  -999.2500     7.8594     0.0360     2.4452
  788.5000   -35.0244  -999.2500  -999.2500     9.3023  -999.2500  -999.2500  -999.2500     7.7993     0.0352     2.4421
  789.0000   -35.0289  -999.2500  -999.2500     8.9771  -999.2500  -999.2500  -999.2500     7.7541     0.0381     2.4389
  789.5000   -35.0334  -999.2500  -999.2500     8.0794  -999.2500  -999.2500  -999.2500     7.7535     0.0433     2.4328
  790.0000   -34.8884  -999.2500  -999.2500     7.6354  -999.2500  -999.2500  -999.2500     7.7828     0.0485     2.3994
  790.5000   -34.8929  -999.2500  -999.2500     6.9684  -999.2500  -999.2500  -999.2500     7.7821     0.0468     2.3266
  791.0000   -34.7468  -999.2500  -999.2500     5.8899  -999.2500  -999.2500  -999.2500     7.7815     0.0437     2.2667
  791.5000   -34.7524  -999.2500  -999.2500     4.4523  -999.2500  -999.2500  -999.2500     7.7959     0.0587     2.2115
  792.0000   -34.6063  -999.2500  -999.2500     3.2960  -999.2500  -999.2500  -999.2500     7.7803     0.0677     2.1712
  792.5000  -999.2500  -999.2500  -999.2500     3.1154  -999.2500  -999.2500  -999.2500     7.7797     0.0774     2.1611
  793.0000  -999.2500  -999.2500  -999.2500     3.4803  -999.2500  -999.2500  -999.2500     7.7791     0.0963     2.2361
  793.5000  -999.2500  -999.2500  -999.2500     4.1119  -999.2500  -999.2500  -999.2500     7.7339     0.1181     2.3084
  794.0000  -999.2500  -999.2500  -999.2500     6.7908  -999.2500  -999.2500  -999.2500     7.5548     0.1082     2.3333
  794.5000  -999.2500  -999.2500  -999.2500     9.7542  -999.2500  -999.2500  -999.2500     7.0024     0.0762     2.2105
  795.0000  -999.2500  -999.2500  -999.2500    10.7495  -999.2500  -999.2500  -999.2500     6.6011     0.0632     2.0878
