~VERSION INFORMATION
 VERS.                2.0:   CWLS LOG ASCII STANDARD - VERSION 2.0
 WRAP.                 NO:   ONE LINE PER DEPTH STEP
~WELL INFORMATION
#MNEM.UNIT      DATA TYPE    INFORMATION
#----------   ------------   ------------------------------
 STRT.F           46.0000:   START DEPTH
 STOP.F         2100.0000:   STOP DEPTH
 STEP.F            0.5000:   STEP LENGTH
 NULL.          -999.2500:   NO VALUE
 COMP. LAWRENCE/ALLISON INC:   COMPANY
 WELL.    58-21 SX #10-10:   WELL
 FLD .             TEAPOT:   FIELD
 LOC .      S10 T38N R78W:   LOCATION
 CNTY.            NATRONA:   COUNTY
 STAT.            WYOMING:   STATE
 CTRY. UNITED STATES OF AMERICA:   COUNTRY
 SRVC.           Gearhart:   SERVICE COMPANY
 DATE.        06-JUL-1987:   LOGDATE
 API .       490251114400:   API NUMBER
~CURVE INFORMATION
#MNEM.UNIT       API CODE    CURVE DESCRIPTION
#----------   ------------   ------------------------------
 DEPT.F                  :   
 GR  .GAPI   81 310 01 00:   GAMMA RAY
 TGAS.UNITS  91 830 01 00:   TOTAL GAS FROM HOTWIRE
 ROP .MIN/FT 91 810 01 00:   RAT OF DRILLING PENETRATION
~PARAMETER INFORMATION
#MNEM.UNIT          VALUE    DESCRIPTION
#----------   ------------   ------------------------------
 PD  .                 GL:   PERMANENT DATUM
 EPD .F              5219:   ELEVATION PERMANENT DATUM
 LMF .                 KB:   LOG MEASURED FROM
 DAPD.F                 8:   FEET ABOVE PERMANENT DATUM
 DMF .                 KB:   DRILLING MEASURED FROM
 EKB .F              5227:   KELLING BUSHING
 EDF .F              5225:   DRILLING FLOOR
 EGL .F              5219:   GROUND LEVEL
 DATE.             7-6-87:   RUN DATE
 RUN .                  1:   RUN NUMBER
 DD  .F               610:   DEPTH DRILLER
 DL  .F             531.5:   DEPTH LOGGER
 BLI .F               526:   BOTTOM LOG INTERVAL
 TLI .F                50:   TOP LOG INTERVAL
 BS  .IN            7.875:   BIT SIZE
 BSD .F               610:   BIT SIZE AT DEPTH
 DFT .              WATER:   DRILLING FLUID TYPE
 LUN .               6084:   LOGGING UNIT NUMBER
 LUL .           GILLETTE:   LOGGING UNIT LOCATION
 ENGI.                COX:   RECORDING ENGINEER
 WITN.               LOWE:   WITNESSED BY
 CLNT.            A2DTECH:   CLIENT CODE
 ORIG.           5" PRINT:   ORIGIN OF DATA
 UWI .       490251114400:   UNIQUE WELL ID
 DICO. A2D Technologies, Inc.:   DIGITIZING COMPANY
~OTHER INFORMATION
~A   DEPT        GR      TGAS        ROP   
# ...
 1684.0000  -999.2500    52.4693     0.5466
 1684.5000  -999.2500    52.6808     0.5761
 1685.0000  -999.2500    52.8858     0.6075
 1685.5000  -999.2500    53.0859     0.6388
 1686.0000  -999.2500    53.2863     0.6702
 1686.5000  -999.2500    53.3992     0.7028
 1687.0000  -999.2500    53.3971     0.7184
 1687.5000  -999.2500    53.3374     0.7180
 1688.0000  -999.2500    53.1995     0.7175
 1688.5000  -999.2500    53.0628     0.7170
 1689.0000  -999.2500    52.9257     0.7164
 1689.5000  -999.2500    52.7887     0.7159
 1690.0000  -999.2500    52.6517     0.7154
 1690.5000  -999.2500    52.5147     0.7149
 1691.0000  -999.2500    52.3777     0.7144
 1691.5000  -999.2500    52.2406     0.7139
 1692.0000  -999.2500    52.1036     0.7133
 1692.5000  -999.2500    51.9668     0.7128
 1693.0000  -999.2500    51.8938     0.7123
 1693.5000  -999.2500    51.8944     0.7118
 1694.0000  -999.2500    51.8941     0.7113
 1694.5000  -999.2500    51.8921     0.7107
 1695.0000  -999.2500    51.7848     0.7102
 1695.5000  -999.2500    51.5564     0.7097
 1696.0000  -999.2500    51.3885     0.7092
 1696.5000  -999.2500    51.3863     0.7087
 1697.0000  -999.2500    51.6041     0.7081
 1697.5000  -999.2500    51.8433     0.7076
 1698.0000  -999.2500    52.0834     0.7071
 1698.5000  -999.2500    52.3262     0.7066
 1699.0000  -999.2500    52.3854     0.7061
 1699.5000  -999.2500    52.3630     0.7055
 1700.0000  -999.2500    52.8998     0.7050
 1700.5000  -999.2500    52.9856     0.7045
 1701.0000  -999.2500    53.0624     0.7040
 1701.5000  -999.2500    53.1331     0.7035
 1702.0000  -999.2500    53.2049     0.7030
 1702.5000  -999.2500    53.2775     0.7024
 1703.0000  -999.2500    53.3464     0.7019
 1703.5000  -999.2500    53.2979     0.7014
 1704.0000  -999.2500    52.8735     0.7009
 1704.5000  -999.2500    52.4669     0.7003
 1705.0000  -999.2500    52.0608     0.6998
 1705.5000  -999.2500    51.6547     0.6993
 1706.0000  -999.2500    51.2483     0.6988
 1706.5000  -999.2500    50.8401     0.6983
 1707.0000  -999.2500    50.4325     0.6978
 1707.5000  -999.2500    50.4245     0.6972
 1708.0000  -999.2500    49.8704     0.6967
 1708.5000  -999.2500    49.3560     0.6962
 1709.0000  -999.2500    48.7434     0.6957
 1709.5000  -999.2500    48.1319     0.6952
 1710.0000  -999.2500    47.5225     0.6946
 1710.5000  -999.2500    46.9130     0.6941
 1711.0000  -999.2500    46.3042     0.6937
 1711.5000  -999.2500    45.6956     0.6938
 1712.0000  -999.2500    45.3743     0.6938
 1712.5000  -999.2500    45.3854     0.6938
 1713.0000  -999.2500    45.4083     0.6938
 1713.5000  -999.2500    44.8591     0.6938
 1714.0000  -999.2500    44.7817     0.6938
 1714.5000  -999.2500    44.7108     0.6938
 1715.0000  -999.2500    44.6457     0.6938
 1715.5000  -999.2500    44.5798     0.6938
 1716.0000  -999.2500    44.5139     0.6938
 1716.5000  -999.2500    44.4486     0.6938
 1717.0000  -999.2500    44.3846     0.6938
 1717.5000  -999.2500    44.3576     0.6938
 1718.0000  -999.2500    43.9996     0.6938
 1718.5000  -999.2500    43.8718     0.6938
 1719.0000  -999.2500    43.7440     0.6938
 1719.5000  -999.2500    43.3860     0.6938
 1720.0000  -999.2500    43.3677     0.6938
 1720.5000  -999.2500    43.3696     0.6938
 1721.0000  -999.2500    43.3705     0.6938
 1721.5000  -999.2500    43.3705     0.6938
 1722.0000  -999.2500    43.3696     0.6938
 1722.5000  -999.2500    43.3718     0.6938
 1723.0000  -999.2500    43.3776     0.6938
 1723.5000  -999.2500    44.0248     0.6938
 1724.0000  -999.2500    44.6986     0.6937
 1724.5000  -999.2500    45.2026     0.6854
 1725.0000  -999.2500    45.7024     0.6457
 1725.5000  -999.2500    46.2030     0.6069
 1726.0000  -999.2500    46.7013     0.5939
 1726.5000  -999.2500    47.1921     0.5932
 1727.0000  -999.2500    47.4668     0.5929
 1727.5000  -999.2500    48.6460     0.5925
 1728.0000  -999.2500    49.1166     0.5922
 1728.5000  -999.2500    49.5657     0.5918
 1729.0000  -999.2500    50.0104     0.5914
 1729.5000  -999.2500    50.4564     0.5910
 1730.0000  -999.2500    50.9024     0.5907
 1730.5000  -999.2500    51.3484     0.5903
 1731.0000  -999.2500    51.7943     0.5899
 1731.5000  -999.2500    52.2403     0.5895
 1732.0000  -999.2500    52.6864     0.5892
 1732.5000  -999.2500    53.1324     0.5888
 1733.0000  -999.2500    53.5784     0.5884
 1733.5000  -999.2500    54.0250     0.5881
 1734.0000  -999.2500    54.4727     0.5877
 1734.5000  -999.2500    54.8927     0.5873
 1735.0000  -999.2500    54.9050     0.5869
 1735.5000  -999.2500    54.9030     0.5865
 1736.0000  -999.2500    54.9025     0.5862
 1736.5000  -999.2500    54.9025     0.5858
 1737.0000  -999.2500    54.9025     0.5854
 1737.5000  -999.2500    54.9025     0.5851
 1738.0000  -999.2500    54.9025     0.5847
 1738.5000  -999.2500    54.9034     0.5843
 1739.0000  -999.2500    54.8991     0.5839
 1739.5000  -999.2500    54.8823     0.5836
 1740.0000  -999.2500    54.3609     0.5832
 1740.5000  -999.2500    53.8955     0.5828
 1741.0000  -999.2500    53.0364     0.5824
 1741.5000  -999.2500    52.4499     0.5821
 1742.0000  -999.2500    51.8548     0.5816
 1742.5000  -999.2500    51.2659     0.5817
 1743.0000  -999.2500    50.6767     0.5905
 1743.5000  -999.2500    50.0874     0.6026
 1744.0000  -999.2500    49.4981     0.6162
 1744.5000  -999.2500    48.9084     0.6300
 1745.0000  -999.2500    48.3192     0.6439
 1745.5000  -999.2500    47.7335     0.6578
 1746.0000  -999.2500    47.3778     0.6716
 1746.5000  -999.2500    47.3822     0.6854
 1747.0000  -999.2500    47.3814     0.6938
 1747.5000  -999.2500    47.3816     0.6937
 1748.0000  -999.2500    47.3816     0.6938
 1748.5000  -999.2500    47.3816     0.6938
 1749.0000  -999.2500    47.3816     0.6938
 1749.5000  -999.2500    47.3816     0.6938
 1750.0000  -999.2500    47.3816     0.6938
 1750.5000  -999.2500    47.3816     0.6938
 1751.0000  -999.2500    47.3816     0.6938
 1751.5000  -999.2500    47.3816     0.6938
 1752.0000  -999.2500    47.3816     0.6938
 1752.5000  -999.2500    47.3816     0.6938
 1753.0000  -999.2500    47.3816     0.6939
 1753.5000  -999.2500    47.3816     0.6952
 1754.0000  -999.2500    47.3816     0.6327
 1754.5000  -999.2500    47.3816     0.5588
 1755.0000  -999.2500    47.3816     0.5558
 1755.5000  -999.2500    47.3816     0.5576
 1756.0000  -999.2500    47.3816     0.5591
 1756.5000  -999.2500    47.3816     0.5605
 1757.0000  -999.2500    47.3816     0.5620
 1757.5000  -999.2500    47.3816     0.5634
 1758.0000  -999.2500    47.3816     0.5648
 1758.5000  -999.2500    47.3816     0.5663
 1759.0000  -999.2500    47.3816     0.5677
 1759.5000  -999.2500    47.3816     0.5691
 1760.0000  -999.2500    47.3816     0.5706
 1760.5000  -999.2500    47.3816     0.5720
 1761.0000  -999.2500    47.3816     0.5735
 1761.5000  -999.2500    47.3816     0.5749
 1762.0000  -999.2500    47.3817     0.5763
 1762.5000  -999.2500    47.3817     0.5778
 1763.0000  -999.2500    47.3718     0.5793
 1763.5000  -999.2500    47.3101     0.5800
 1764.0000  -999.2500    47.2488     0.6043
 1764.5000  -999.2500    47.1877     0.6304
 1765.0000  -999.2500    47.1266     0.6573
 1765.5000  -999.2500    47.0656     0.6840
 1766.0000  -999.2500    47.0038     0.7068
 1766.5000  -999.2500    46.9521     0.7073
 1767.0000  -999.2500    46.9157     0.7138
 1767.5000  -999.2500    46.3939     0.7203
 1768.0000  -999.2500    46.3830     0.7267
 1768.5000  -999.2500    46.3780     0.7332
 1769.0000  -999.2500    46.3788     0.7398
 1769.5000  -999.2500    46.3788     0.7430
 1770.0000  -999.2500    46.3788     0.7058
 1770.5000  -999.2500    46.3788     0.6659
 1771.0000  -999.2500    46.3788     0.6262
 1771.5000  -999.2500    46.3788     0.5862
 1772.0000  -999.2500    46.3788     0.5692
 1772.5000  -999.2500    46.3788     0.5696
 1773.0000  -999.2500    46.3788     0.5704
 1773.5000  -999.2500    46.3788     0.5712
 1774.0000  -999.2500    46.3788     0.5720
 1774.5000  -999.2500    46.3788     0.5728
