~VERSION INFORMATION
 VERS.                2.0:   CWLS LOG ASCII STANDARD - VERSION 2.0
 WRAP.                 NO:   ONE LINE PER DEPTH STEP
~WELL INFORMATION
#MNEM.UNIT      DATA TYPE    INFORMATION
#----------   ------------   ------------------------------
 STRT.F           18.0000:   START DEPTH
 STOP.F         2312.0000:   STOP DEPTH
 STEP.F            0.5000:   STEP LENGTH
 NULL.          -999.2500:   NO VALUE
 COMP. FENIX & SCISSON INC:   COMPANY
 WELL.  NPR 3 #51 SHX -15:   WELL
 FLD .             TEAPOT:   FIELD
 LOC .      S15 T38N R78W:   LOCATION
 CNTY.            NATRONA:   COUNTY
 STAT.            WYOMING:   STATE
 CTRY. UNITED STATES OF AMERICA:   COUNTRY
 SRVC.            Unknown:   SERVICE COMPANY
 DATE.        14-MAR-1978:   LOGDATE
 API .       490251060000:   API NUMBER
~CURVE INFORMATION
#MNEM.UNIT       API CODE    CURVE DESCRIPTION
#----------   ------------   ------------------------------
 DEPT.F                  :   
 ILD .OHMM   05 120 46 00:   INDUCTION LOG DEEP
 CILD.MMHO   05 110 46 00:   CONDUCTIVITY INDUCTION LOG DEEP
 CALD.IN     45 280 60 00:   CALIPER FROM DENSITY LOG
 GRD .GAPI   45 310 01 00:   GAMMA RAY FROM DENSITY LOG
 CORR.G/C3   45 356 01 00:   DENSITY CORRECTION
 RHOB.G/C3   45 350 01 00:   BULK DENSITY
 DPHI.DEC    45 890 12 00:   DENSITY POROSITY SANDSTONE
~PARAMETER INFORMATION
#MNEM.UNIT          VALUE    DESCRIPTION
#----------   ------------   ------------------------------
 PD  .                 GL:   PERMANENT DATUM
 EPD .F              5223:   ELEVATION PERMANENT DATUM
 LMF .                 KB:   LOG MEASURED FROM
 DAPD.F                10:   FEET ABOVE PERMANENT DATUM
 DMF .                 KB:   DRILLING MEASURED FROM
 EKB .F              5233:   KELLING BUSHING
 EGL .F              5223:   GROUND LEVEL
 DATE.            3-14-78:   RUN DATE
 RUN .                  1:   RUN NUMBER
 DD  .F              2323:   DEPTH DRILLER
 DL  .F              2314:   DEPTH LOGGER
 BLI .F              2312:   BOTTOM LOG INTERVAL
 TLI .F                20:   TOP LOG INTERVAL
 CS  .IN                9:   CASING SIZE
 CBD .F               680:   CASING BOTTOM DRILLER
 CBL .F               682:   CASING BOTTOM LOGGER
 BS  .IN            7.875:   BIT SIZE
 BSD .F              2323:   BIT SIZE AT DEPTH
 DFT .           AIR MIST:   DRILLING FLUID TYPE
 TCS .HRS               2:   TIME CURCULATED STOPPED
 LUN .               2958:   LOGGING UNIT NUMBER
 LUL .               CASP:   LOGGING UNIT LOCATION
 ENGI.             MILLER:   RECORDING ENGINEER
 WITN.           MCGINLEY:   WITNESSED BY
 CLNT.            A2DTECH:   CLIENT CODE
 ORIG.       2", 5" PRINT:   ORIGIN OF DATA
 UWI .       490251060000:   UNIQUE WELL ID
 DICO. A2D Technologies, Inc.:   DIGITIZING COMPANY
~OTHER INFORMATION
~A   DEPT      ILD       CILD       CALD         GRD      CORR       RHOB       DPHI   
# ...
 2156.5000     7.3652   136.7851     9.2086   104.8348    -0.0056     2.4781     0.1079
 2157.0000     7.3186   138.0959     9.2086    99.8875    -0.0049     2.4770     0.1089
 2157.5000     7.2492   140.3975     9.2086    99.6645    -0.0039     2.4736     0.1098
 2158.0000     7.1333   142.7121     9.2086    92.8845    -0.0002     2.4692     0.1068
 2158.5000     7.0185   146.0003     9.2086    92.9744     0.0111     2.4918     0.0906
 2159.0000     6.9035   148.7403     9.2086    94.2444     0.0175     2.5115     0.0876
 2159.5000     6.8479   148.5632     9.2086    95.4152     0.0130     2.5116     0.0895
 2160.0000     6.8476   148.3861     9.2086    98.3186     0.0088     2.5091     0.0931
 2160.5000     6.8473   148.2089     9.2086   101.1368     0.0046     2.5018     0.0968
 2161.0000     6.8477   148.0250     9.2086    96.1272     0.0028     2.4947     0.0995
 2161.5000     6.8492   147.8435     9.2086    88.7793     0.0108     2.4888     0.1027
 2162.0000     6.8394   149.2898     9.2086    88.1318     0.0185     2.4886     0.0969
 2162.5000     6.6232   151.5454     9.2089    89.3434     0.0262     2.5025     0.0911
 2163.0000     6.4090   156.1122     9.2171    89.7315     0.0313     2.5043     0.0884
 2163.5000     6.2074   163.5521     9.2254    89.9761     0.0331     2.5122     0.0867
 2164.0000     6.0576   168.3901     9.2204    98.3481     0.0347     2.5155     0.0856
 2164.5000     5.9057   172.6887     9.2014   107.1822     0.0354     2.4962     0.0954
 2165.0000     5.7536   176.9885     9.1824   107.3061     0.0361     2.4926     0.1016
 2165.5000     5.6014   181.2914     9.1633   100.4986     0.0365     2.4861     0.0952
 2166.0000     5.4494   185.6035     9.1442    97.7101     0.0324     2.5196     0.0868
 2166.5000     5.2983   189.9224     9.1253    98.7872     0.0255     2.5133     0.0913
 2167.0000     5.2194   191.8838     9.1087   101.7692     0.0212     2.5019     0.0970
 2167.5000     5.2784   189.4682     9.1093   105.3009     0.0188     2.4929     0.0988
 2168.0000     5.3350   186.2797     9.1093   103.0476     0.0164     2.4937     0.0964
 2168.5000     5.3918   182.8657     9.1093   100.0721     0.0140     2.4949     0.0986
 2169.0000     5.4485   181.4475     9.1093    98.3507     0.0117     2.4915     0.1016
 2169.5000     5.5043   179.9214     9.1093   101.1326     0.0101     2.4878     0.1034
 2170.0000     5.6363   176.7106     9.1093   105.0358     0.0093     2.4840     0.1052
 2170.5000     5.8386   169.6250     9.1093   107.2429     0.0085     2.4828     0.1059
 2171.0000     6.0618   162.5394     9.1093   107.2984     0.0085     2.4801     0.1063
 2171.5000     6.2842   157.8085     9.1093   104.5250     0.0085     2.4764     0.1075
 2172.0000     6.4215   155.6828     9.1093   102.0004     0.0085     2.4778     0.1069
 2172.5000     6.4586   153.5571     9.1093   105.9941     0.0085     2.4805     0.1040
 2173.0000     6.5042   152.9392     9.1093   106.0374     0.0085     2.4902     0.0961
 2173.5000     6.5587   153.1459     9.1093    98.3223     0.0085     2.5073     0.0888
 2174.0000     6.5119   153.3525     9.1101    93.7396     0.0085     2.5185     0.0839
 2174.5000     6.4677   153.5592     9.1143    93.1567     0.0085     2.5260     0.0808
 2175.0000     6.4233   153.7659     9.1184    89.3708     0.0085     2.5160     0.0800
 2175.5000     6.4151   154.4165     9.1225    86.5721     0.0085     2.5224     0.0840
 2176.0000     6.4299   155.1796     9.1267    87.7212     0.0085     2.5285     0.0884
 2176.5000     6.4452   155.8116     9.1408    88.3159     0.0085     2.5129     0.0834
 2177.0000     6.4688   152.0597     9.1729    85.7741     0.0072     2.5196     0.0812
 2177.5000     6.6157   148.4775     9.2047    82.3365     0.0037     2.5250     0.0820
 2178.0000     6.7626   144.8954     9.2365    82.4622     0.0002     2.5203     0.0863
 2178.5000     6.9083   141.7836     9.2683    88.2985     0.0000     2.5151     0.0909
 2179.0000     7.0104   141.7836     9.3001    93.3147     0.0029     2.5052     0.0944
 2179.5000     7.0096   142.5434     9.3318    97.8072     0.0058     2.5005     0.0934
 2180.0000     7.0054   147.3317     9.3461    94.7835     0.0065     2.5045     0.0924
 2180.5000     6.7870   153.7612     9.3409    94.7518     0.0065     2.5086     0.0913
 2181.0000     6.4108   160.1908     9.3358    95.9943     0.0065     2.5072     0.0908
 2181.5000     6.1758   166.6203     9.3307   101.1453     0.0065     2.5045     0.0899
 2182.0000     5.9606   173.0498     9.3288   100.0652     0.0065     2.5134     0.0906
 2182.5000     5.7451   179.1227     9.3328    99.2683     0.0063     2.5058     0.0946
 2183.0000     5.5290   183.8828     9.3367   103.2557     0.0135     2.4946     0.0962
 2183.5000     5.3250   187.3200     9.3407   104.1387     0.0215     2.4982     0.0920
 2184.0000     5.3030   190.6255     9.3447   100.4195     0.0296     2.4960     0.0840
 2184.5000     5.2874   191.8838     9.3473    97.5339     0.0345     2.5235     0.0830
 2185.0000     5.2708   191.4384     9.3312    98.0487     0.0297     2.5192     0.0835
 2185.5000     5.2542   190.8818     9.3146   101.5237     0.0218     2.5168     0.0848
 2186.0000     5.2416   186.8646     9.3006   115.8007     0.0139     2.5161     0.0860
 2186.5000     5.2794   182.8065     9.2884   114.7805     0.0110     2.5140     0.0918
 2187.0000     5.4907   181.5464     9.2762   111.7178     0.0118     2.4986     0.0978
 2187.5000     5.4966   181.1331     9.2679   112.9298     0.0127     2.4869     0.1016
 2188.0000     5.5081   180.1993     9.2669   113.3869     0.0142     2.4899     0.0982
 2188.5000     5.5230   178.2771     9.2657   113.0128     0.0138     2.4967     0.0952
 2189.0000     5.6153   176.3316     9.2646   110.8069     0.0128     2.4987     0.0965
 2189.5000     5.7185   174.3922     9.2634   107.4170     0.0118     2.4966     0.0980
 2190.0000     5.7101   174.6092     9.2622   106.9484     0.0108     2.5020     0.0926
 2190.5000     5.6935   175.7197     9.2611   111.9042     0.0098     2.5140     0.0848
 2191.0000     5.6596   178.1669     9.2599   114.4293     0.0088     2.5153     0.0804
 2191.5000     5.5677   180.7873     9.2588   118.1501     0.0066     2.5229     0.0842
 2192.0000     5.4773   183.4193     9.2576   126.8475     0.0070     2.5143     0.0889
 2192.5000     5.3160   185.9115     9.2565   134.7176     0.0092     2.5059     0.0940
 2193.0000     5.1576   194.2424     9.2553   134.6283     0.0114     2.4978     0.0982
 2193.5000     4.9998   201.9208     9.2542   130.4164     0.0136     2.4918     0.1020
 2194.0000     4.8429   207.5350     9.2530   124.7674     0.0157     2.4889     0.1032
 2194.5000     4.6994   212.9434     9.2518   122.6266     0.0226     2.4856     0.0999
 2195.0000     4.6388   214.7686     9.2507   121.2638     0.0304     2.5005     0.0940
 2195.5000     4.6542   213.8628     9.2497   120.1702     0.0279     2.4997     0.0973
 2196.0000     4.6677   212.9259     9.2478   120.4632     0.0270     2.4879     0.1028
 2196.5000     4.7073   210.4960     9.2197   120.5399     0.0282     2.4817     0.1072
 2197.0000     4.8801   206.1122     9.1887   119.4611     0.0317     2.4769     0.1018
 2197.5000     4.9622   201.1523     9.1317   119.0368     0.0302     2.4994     0.0979
 2198.0000     5.0195   197.6954     9.0716   122.3905     0.0174     2.4922     0.1064
 2198.5000     5.0803   195.4910     9.0607   124.4727     0.0067     2.4805     0.1111
 2199.0000     5.2130   188.0885     9.0521   120.0345     0.0079     2.4767     0.1148
 2199.5000     5.4244   178.7368     9.0432   115.1522     0.0092     2.4746     0.1116
 2200.0000     5.7008   169.3850     9.0343   110.3263     0.0104     2.4819     0.1056
 2200.5000     5.9743   162.8257     9.0253   112.9641     0.0088     2.4816     0.1059
 2201.0000     6.0812   162.8257     9.0164   116.2869     0.0070     2.4733     0.1064
 2201.5000     6.1302   162.8257     9.0112   123.9306     0.0050     2.4639     0.1095
