~VERSION INFORMATION
 VERS.                2.0:   CWLS LOG ASCII STANDARD - VERSION 2.0
 WRAP.                 NO:   ONE LINE PER DEPTH STEP
~WELL INFORMATION
#MNEM.UNIT      DATA TYPE    INFORMATION
#----------   ------------   ------------------------------
 STRT.F           32.5000:   START DEPTH
 STOP.F          654.0000:   STOP DEPTH
 STEP.F            0.5000:   STEP LENGTH
 NULL.          -999.2500:   NO VALUE
 COMP. FENIX & SCISSON INC:   COMPANY
 WELL.          NPR #13-2:   WELL
 FLD .             TEAPOT:   FIELD
 LOC .       S2 T38N R78W:   LOCATION
 CNTY.            NATRONA:   COUNTY
 STAT.            WYOMING:   STATE
 CTRY. UNITED STATES OF AMERICA:   COUNTRY
 SRVC.           BIRDWELL:   SERVICE COMPANY
 DATE.        16-JAN-1978:   LOGDATE
 API .       490251055100:   API NUMBER
~CURVE INFORMATION
#MNEM.UNIT       API CODE    CURVE DESCRIPTION
#----------   ------------   ------------------------------
 DEPT.F                  :   
 ILD .OHMM   05 120 46 00:   INDUCTION LOG DEEP
 SN  .OHMM   05 040 16 00:   SHORT NORMAL 16"
 SPR .MV     05 010 01 00:   SPONTANEOUS POTENTIAL FROM RES.
 CALD.IN     45 280 60 00:   CALIPER FROM DENSITY LOG
 CORR.G/C3   45 356 01 00:   DENSITY CORRECTION
 DPHI.DEC    45 890 12 00:   DENSITY POROSITY SANDSTONE
 GRD .GAPI   45 310 01 00:   GAMMA RAY FROM DENSITY LOG
 RHOB.G/C3   45 350 01 00:   BULK DENSITY
~PARAMETER INFORMATION
#MNEM.UNIT          VALUE    DESCRIPTION
#----------   ------------   ------------------------------
 PD  .                 GL:   PERMANENT DATUM
 EPD .F              5091:   ELEVATION PERMANENT DATUM
 LMF .                 KB:   LOG MEASURED FROM
 DAPD.F                 4:   FEET ABOVE PERMANENT DATUM
 DMF .                 KB:   DRILLING MEASURED FROM
 EKB .F              5095:   KELLING BUSHING
 EGL .F              5091:   GROUND LEVEL
 DATE.        16-JAN-1978:   RUN DATE
 RUN .                  1:   RUN NUMBER
 DD  .F               652:   DEPTH DRILLER
 DL  .F               654:   DEPTH LOGGER
 BLI .F               649:   BOTTOM LOG INTERVAL
 TLI .F                30:   TOP LOG INTERVAL
 CS  .IN            8.625:   CASING SIZE
 CBD .F                20:   CASING BOTTOM DRILLER
 CBL .F                34:   CASING BOTTOM LOGGER
 BS  .IN            7.875:   BIT SIZE
 BSD .F               652:   BIT SIZE AT DEPTH
 DFT .                KCL:   DRILLING FLUID TYPE
 DFD .                8.7:   DRILLING FLUID DENSITY
 DFV .                 34:   DRILLING FLUID VISCOSITY
 DFPH.                 10:   DRILLING FLUID PH
 MSS .           FLOWLINE:   MUD SAMPLE SOURCE
 RMS .OHMM            0.3:   RESISTIVITY MUD SAMPLE
 MST .F                62:   MUD SAMPLE TEMPERATURE
 RMF .OHMM           0.26:   RESISTIVITY MUD FILTRATE SAMPLE
 MFST.F                66:   MUD FILTRATE SAMPLE TEMPERATURE
 RMC .OHMM           0.48:   RESISTIVITY MUD CAKE
 MCST.F                66:   MUD CAKE SAMPLE TEMPERATURE
 MFSS.               MEAS:   MUD FILTRATE SAMPLE SOURCE
 MCSS.               MEAS:   MUD CAKE SAMPLE SOURCE
 RMB .OHMM           0.26:   RESISTIVITY MUD AT BHT
 BHT .F                72:   BOTTOM HOLE TEMPERATURE
 TCS .HRS               3:   TIME CURCULATED STOPPED
 MRT .F                72:   MAXIMUM RECORDED TEMPERATURE
 LUN .               3027:   LOGGING UNIT NUMBER
 LUL .                GJT:   LOGGING UNIT LOCATION
 ENGI.           MARTINEZ:   RECORDING ENGINEER
 WITN.         HARRINGTON:   WITNESSED BY
 CLNT.            A2DTECH:   CLIENT CODE
 ORIG.           5" PRINT:   ORIGIN OF DATA
 UWI .       490251055100:   UNIQUE WELL ID
 DICO. A2D Technologies, Inc.:   DIGITIZING COMPANY
~OTHER INFORMATION
~A   DEPT      ILD         SN        SPR       CALD       CORR       DPHI         GRD      RHOB   
# ...
  235.0000    11.2430    12.5713   -26.9669     8.6402     0.0447     0.1047    84.8934     2.4893
  235.5000    11.1661    12.5703   -27.1142     8.6696     0.0523     0.1026    85.6503     2.4975
  236.0000    11.1671    12.5694   -27.2614     8.6851     0.0536     0.1035    88.3829     2.4855
  236.5000    11.1678    12.5686   -27.4087     8.7005     0.0491     0.1155    88.6839     2.4735
  237.0000    11.0916    12.5677   -27.2549     8.7010     0.0311     0.1146    88.3770     2.4660
  237.5000    11.0924    12.4803   -27.1018     8.7014     0.0161     0.1140    91.4387     2.4623
  238.0000    11.1703    12.4795   -27.0989     8.7018     0.0162     0.1158    90.9538     2.4630
  238.5000    11.1710    12.4787   -26.9458     8.7023     0.0162     0.1185    89.8870     2.4645
  239.0000    11.2493    12.5643   -27.0931     8.7177     0.0162     0.1222    91.2519     2.4630
  239.5000    11.4067    12.5635   -27.2403     8.7331     0.0132     0.1242    90.9449     2.4584
  240.0000    11.4075    12.6497   -27.2367     8.7335     0.0102     0.1221    89.2702     2.4533
  240.5000    11.5671    12.7366   -27.2337     8.7340     0.0102     0.1185    88.9633     2.4586
  241.0000    11.7290    12.9127   -27.2308     8.7344     0.0117     0.1155    89.2643     2.4653
  241.5000    11.9756    12.9119   -27.2279     8.7349     0.0164     0.1140    89.5654     2.4676
  242.0000    12.1443    13.0007   -26.9247     8.7353     0.0284     0.1137    89.4103     2.4661
  242.5000    12.4086    13.0900   -26.7716     8.7358     0.0379     0.1134    88.3232     2.4661
  243.0000    12.7474    13.1797   -26.4684     8.7362     0.0463     0.1126    87.4286     2.4661
  243.5000    13.1057    13.2701   -26.0055     8.7367     0.0494     0.1114    87.8809     2.4684
  244.0000    13.1976    13.4539   -25.4108     8.7371     0.0614     0.1096    88.6378     2.4721
  244.5000    13.2900    13.6402   -24.9575     8.7376     0.0719     0.1071    89.0907     2.4774
  245.0000    13.4760    13.7338   -24.8044     8.7380     0.0854     0.1028    89.2405     2.4836
  245.5000    13.5704    14.0203   -24.8015     8.7385     0.1005     0.0946    89.0848     2.4962
  246.0000    13.8558    14.1168   -24.7986     8.7389     0.1125     0.0886    86.3462     2.5067
  246.5000    13.9529    14.3123   -24.6455     8.7394     0.1215     0.0844    83.4557     2.5142
  247.0000    14.0507    14.4105   -24.6426     8.7398     0.1275     0.0814    80.1093     2.5195
  247.5000    14.2473    14.6098   -24.6396     8.7403     0.1291     0.0808    78.2826     2.5217
  248.0000    14.4469    14.7101   -24.6366     8.7407     0.1306     0.0874    78.8875     2.5225
  248.5000    14.6491    14.8125   -24.4830     8.7412     0.1180     0.0994    78.8845     2.5048
  249.0000    14.7517    14.9252   -24.4801     8.7416     0.0932     0.1090    78.8815     2.4830
  249.5000    14.8550    15.2239   -24.6280     8.7121     0.0766     0.1150    79.9417     2.4722
  250.0000    15.1674    15.1182   -24.4740     8.7126     0.0788     0.1174    82.6750     2.4685
  250.5000    15.3807    15.2230   -24.4681     8.7130     0.0886     0.1189    84.0458     2.4662
  251.0000    15.2767    15.2230   -24.4623     8.7135     0.0960     0.1192    83.4409     2.4647
  251.5000    15.3853    15.1165   -24.3063     8.7140     0.1035     0.1180    81.6201     2.4647
  252.0000    15.3873    15.0141   -24.1501     8.7144     0.1127     0.1162    79.0395     2.4655
  252.5000    15.2834    14.9107   -24.1430     8.7149     0.1282     0.1126    75.1671     2.4670
  253.0000    15.2854    14.9107   -24.1372     8.7153     0.1440     0.1066    73.7263     2.4708
  253.5000    15.1820    14.9107   -24.1313     8.7158     0.1574     0.1024    75.4018     2.4775
  254.0000    15.1842    14.8080   -24.1255     8.7312     0.1679     0.1003    79.9640     2.4859
  254.5000    14.9663    14.6048   -24.1196     8.7316     0.1694     0.1066    82.0947     2.4879
  255.0000    14.6721    14.5042   -24.1138     8.7320     0.1709     0.1096    82.7055     2.4804
  255.5000    14.6746    14.4044   -24.1079     8.7325     0.1693     0.1120    81.9486     2.4744
  256.0000    14.6765    14.5042   -24.1021     8.7180     0.1708     0.1111    80.7358     2.4714
  256.5000    14.5773    14.4044   -23.9459     8.7184     0.1723     0.1090    80.7388     2.4736
  257.0000    14.4788    14.4044   -23.9388     8.7040     0.1723     0.1066    81.5016     2.4789
  257.5000    14.3810    14.4044   -23.9329     8.7044     0.1722     0.1045    81.9605     2.4841
  258.0000    14.3829    14.3052   -23.7769     8.6899     0.1722     0.1018    80.2918     2.4894
  258.5000    14.3849    14.2067   -23.6209     8.6903     0.1692     0.0995    77.5592     2.4924
  259.0000    14.3873    14.2067   -23.6151     8.6908     0.1646     0.1028    78.0689     2.4922
  259.5000    14.3892    14.1089   -23.6093     8.6612     0.1571     0.1055    79.2376     2.4856
  260.0000    14.3911    14.1089   -23.4533     8.6617     0.1480     0.1082    77.5689     2.4781
  260.5000    14.2939    14.0117   -23.4474     8.6322     0.1360     0.1103    76.5073     2.4751
  261.0000    14.2958    13.8194   -23.5917     8.6326     0.1210     0.1064    79.5505     2.4796
  261.5000    14.0042    13.6298   -23.8847     8.6031     0.1089     0.1031    80.7693     2.4833
  262.0000    13.9095    13.4427   -24.4795     8.5886     0.1014     0.1079    80.3156     2.4871
  262.5000    13.7125    13.3501   -24.7754     8.5741     0.0906     0.1154    76.5199     2.4765
  263.0000    13.4409    13.2582   -24.7681     8.5746     0.0783     0.1229    74.2433     2.4690
  263.5000    13.2581    13.2582   -24.6121     8.5600     0.0607     0.1253    75.1581     2.4593
  264.0000    12.9876    13.1669   -24.6062     8.5455     0.0397     0.1240    77.1368     2.4525
  264.5000    12.8106    13.1669   -24.6004     8.5760     0.0307     0.1255    76.8232     2.4510
  265.0000    12.8127    13.0613   -24.5945     8.5764     0.0306     0.1313    76.6868     2.4478
  265.5000    12.5509    12.8968   -24.5886     8.5768     0.0336     0.1337    77.7544     2.4420
  266.0000    12.4665    12.7198   -24.5814     8.5922     0.0351     0.1307    82.6206     2.4404
  266.5000    12.4682    12.6322   -24.4254     8.6076     0.0380     0.1289    82.9275     2.4419
  267.0000    12.5568    12.6322   -24.4196     8.6380     0.0365     0.1280    82.1698     2.4442
  267.5000    12.5585    12.6322   -24.2636     8.6534     0.0333     0.1283    82.9334     2.4464
  268.0000    12.4734    12.6322   -24.2577     8.6689     0.0270     0.1265    83.0884     2.4472
  268.5000    12.3891    12.6322   -24.4035     8.6993     0.0214     0.1307    83.0914     2.4442
  269.0000    12.3053    12.6322   -24.6965     8.6998     0.0184     0.1325    83.0943     2.4419
  269.5000    12.3074    12.6322   -24.6906     8.7002     0.0214     0.1307    82.9454     2.4419
  270.0000    12.3091    12.6322   -24.9851     8.7156     0.0273     0.1279    81.8845     2.4479
  270.5000    12.3107    12.7198   -25.2795     8.7310     0.0303     0.1265    80.2157     2.4555
  271.0000    12.2275    12.8080   -25.5740     8.7315     0.0333     0.1295    80.2695     2.4599
  271.5000    12.2292    12.8080   -25.8684     8.7319     0.0257     0.1256    80.5264     2.4524
  272.0000    12.1465    12.8080   -25.8611     8.7324     0.0152     0.1199    80.5294     2.4501
  272.5000    12.1486    12.8080   -25.8553     8.7328     0.0167     0.1157    80.2284     2.4644
  273.0000    12.1502    12.8968   -25.8494     8.7332     0.0275     0.1148    79.3195     2.4734
  273.5000    12.2361    12.8968   -25.8436     8.7337     0.0391     0.1151    78.7139     2.4711
  274.0000    12.2378    12.8080   -25.8378     8.7311     0.0451     0.1157    78.5656     2.4666
  274.5000    12.2394    12.8080   -25.8318     8.7273     0.0481     0.1160    77.5047     2.4658
  275.0000    12.2411    12.8080   -25.8258     8.7276     0.0495     0.1157    77.1530     2.4666
