~VERSION INFORMATION
 VERS.                2.0:   CWLS LOG ASCII STANDARD - VERSION 2.0
 WRAP.                 NO:   ONE LINE PER DEPTH STEP
~WELL INFORMATION
#MNEM.UNIT      DATA TYPE    INFORMATION
#----------   ------------   ------------------------------
 STRT.F           30.0000:   START DEPTH
 STOP.F          732.0000:   STOP DEPTH
 STEP.F            0.5000:   STEP LENGTH
 NULL.          -999.2500:   NO VALUE
 COMP. FENIX & SCISSON INC:   COMPANY
 WELL.        31-S #31-14:   WELL
 FLD .             TEAPOT:   FIELD
 LOC .      S14 T38N R78W:   LOCATION
 CNTY.            NATRONA:   COUNTY
 STAT.            WYOMING:   STATE
 CTRY. UNITED STATES OF AMERICA:   COUNTRY
 SRVC.              Welex:   SERVICE COMPANY
 DATE.        16-FEB-1977:   LOGDATE
 API .       490251027300:   API NUMBER
~CURVE INFORMATION
#MNEM.UNIT       API CODE    CURVE DESCRIPTION
#----------   ------------   ------------------------------
 DEPT.F                  :   
 CALD.IN     45 280 60 00:   CALIPER FROM DENSITY LOG
 CORR.G/C3   45 356 01 00:   DENSITY CORRECTION
 DPHI.DEC    45 890 12 00:   DENSITY POROSITY SANDSTONE
 GRD .GAPI   45 310 01 00:   GAMMA RAY FROM DENSITY LOG
 RHOB.G/C3   45 350 01 00:   BULK DENSITY
 GURD.OHMM   07 270 05 00:   SHALLOW SHORT GUARD RESISTIVITY
 ILM .OHMM   07 120 44 00:   INDUCTION LOG MEDIUM
 ILD .OHMM   07 120 46 00:   INDUCTION LOG DEEP
 SPR .MV     07 010 01 00:   SPONTANEOUS POTENTIAL
~PARAMETER INFORMATION
#MNEM.UNIT          VALUE    DESCRIPTION
#----------   ------------   ------------------------------
 PD  .                 GL:   PERMANENT DATUM
 EPD .F              5186:   ELEVATION PERMANENT DATUM
 LMF .                 GL:   LOG MEASURED FROM
 DMF .                 GL:   DRILLING MEASURED FROM
 EKB .F              5195:   KELLING BUSHING
 EGL .F              5186:   GROUND LEVEL
 DATE.        16-FEB-1977:   RUN DATE
 RUN .                  1:   RUN NUMBER
 DD  .F               740:   DEPTH DRILLER
 DL  .F               736:   DEPTH LOGGER
 BLI .F               734:   BOTTOM LOG INTERVAL
 TLI .F                30:   TOP LOG INTERVAL
 CS  .IN            8.625:   CASING SIZE
 CBD .F                40:   CASING BOTTOM DRILLER
 CBL .F                44:   CASING BOTTOM LOGGER
 BS  .IN            7.875:   BIT SIZE
 BSD .F               740:   BIT SIZE AT DEPTH
 DFT .   OIL EMULSION MUD:   DRILLING FLUID TYPE
 DFD .                8.3:   DRILLING FLUID DENSITY
 DFV .                 48:   DRILLING FLUID VISCOSITY
 DFPH.               10.5:   DRILLING FLUID PH
 DFL .                7.5:   DRILLING FLUID LOSS
 MSS .           FLOWLINE:   MUD SAMPLE SOURCE
 RMS .OHMM           0.80:   RESISTIVITY MUD SAMPLE
 MST .F                64:   MUD SAMPLE TEMPERATURE
 RMF .OHMM           0.68:   RESISTIVITY MUD FILTRATE SAMPLE
 MFST.F                64:   MUD FILTRATE SAMPLE TEMPERATURE
 RMC .OHMM           1.01:   RESISTIVITY MUD CAKE
 MCST.F                63:   MUD CAKE SAMPLE TEMPERATURE
 MFSS.               MEAS:   MUD FILTRATE SAMPLE SOURCE
 MCSS.               MEAS:   MUD CAKE SAMPLE SOURCE
 RMB .OHMM           0.74:   RESISTIVITY MUD AT BHT
 BHT .F                69:   BOTTOM HOLE TEMPERATURE
 TCS .HRS               5:   TIME CURCULATED STOPPED
 MRT .F                69:   MAXIMUM RECORDED TEMPERATURE
 LUN .               8611:   LOGGING UNIT NUMBER
 LUL .           GILLETTE:   LOGGING UNIT LOCATION
 ENGI.           D.LAWSON:   RECORDING ENGINEER
 WITN.             K.JAPP:   WITNESSED BY
 CLNT.            A2DTECH:   CLIENT CODE
 ORIG.         2.5" PRINT:   ORIGIN OF DATA
 UWI .       490251027300:   UNIQUE WELL ID
 DICO. A2D Technologies, Inc.:   DIGITIZING COMPANY
~OTHER INFORMATION
~A   DEPT       CALD      CORR      DPHI         GRD        RHOB     GURD        ILM        ILD        SPR   
# ...
  687.0000     8.1299     0.1326     0.1044   100.7607     2.4856   927.8535    13.1587     9.5741   -33.6084
  687.5000     8.1290     0.1357     0.0961    98.6153     2.5045   924.8450    12.8023     9.4980   -33.6053
  688.0000     8.1282     0.1383     0.0920    96.4569     2.4984   924.4333    12.4557     9.4965   -33.6024
  688.5000     8.1273     0.1344     0.0967    94.9545     2.4853   923.5827    12.2859     9.4952   -33.5994
  689.0000     8.1264     0.1280     0.1031    94.5104     2.4657   922.7320    12.4792     9.4940   -33.5964
  689.5000     8.1255     0.1246     0.1106    95.9713     2.4538   921.8813    12.8468     9.6240   -33.5930
  690.0000     8.1246     0.1200     0.1146    97.2205     2.4508   921.0306    13.1587     9.7557   -33.5905
  690.5000     8.1237     0.1229     0.1087    95.9941     2.4597   920.1799    13.1587     9.9181   -33.5874
  691.0000     8.1227     0.1317     0.1028    95.1039     2.4806   919.3292    12.8023    10.2084   -33.5846
  691.5000     8.1219     0.1406     0.0933    94.5104     2.4929   917.3515    12.6278    10.3640   -33.5816
  692.0000     8.1210     0.1494     0.0885    95.1039     2.5001   912.6572    12.4557    10.5873   -33.5786
  692.5000     8.1202     0.1523     0.0862    97.5594     2.4987   912.6226    12.6278    10.7322   -33.5757
  693.0000     8.0865     0.1522     0.0901    99.3748     2.4938   912.5944    12.9844    10.5842   -33.5727
  693.5000     8.0591     0.1511     0.0941    99.8516     2.4899   912.5661    13.1899    10.4386   -33.5697
  694.0000     8.0582     0.1477     0.0919    98.8407     2.4848   915.5182    13.3934    10.2950   -33.5663
  694.5000     8.0573     0.1443     0.0880    98.2162     2.4743   919.0956    13.5249    10.1387   -33.5638
  695.0000     8.0564     0.1398     0.1058    98.0712     2.4698   925.0451    13.7118    10.0134   -33.5607
  695.5000     8.0553     0.1367     0.1100    98.6647     2.4803   928.3290    13.9013    10.0121   -33.5579
  696.0000     8.0545     0.1337     0.1094   101.3353     2.4930   928.9895    13.9013    10.0107   -33.5549
  696.5000     8.0537     0.1306     0.0940   104.8961     2.5104   922.6661    13.5249     9.8729   -33.5519
  697.0000     8.0528     0.1305     0.0821   105.5005     2.5247   915.3348    13.3405    10.0079   -33.5490
  697.5000     8.0519     0.1372     0.0761   105.7863     2.5349   968.9524    12.7706     9.8700   -33.5460
  698.0000     8.0510     0.1459     0.0673   105.4164     2.5319   965.9438    12.2171     9.8687   -33.5430
  698.5000     8.0501     0.1511     0.0733   105.0885     2.5216   936.1123    11.9532     9.8674   -33.5396
  699.0000     8.0789     0.1510     0.0808   104.7607     2.5067   917.8726    12.3600     9.8661   -33.5368
  699.5000     8.0945     0.1462     0.0877   104.4327     2.4919   912.2133    12.6278     9.8647   -33.5340
  700.0000     8.1068     0.1418     0.0884   104.3027     2.4948   919.1349    12.8023     9.9999   -33.5312
  700.5000     8.1058     0.1387     0.0859   104.8961     2.5055   924.0718    12.7325     9.9983   -33.5282
  701.0000     8.1347     0.1356     0.0855   107.5668     2.5096   927.0223    12.5436    10.1351   -33.5252
  701.5000     8.1635     0.1355     0.0890   110.5341     2.5061   926.9879    12.3548    10.1335   -33.6217
  702.0000     8.1626     0.1324     0.0931   112.6884     2.4957   926.9597    12.1659    10.1322   -33.9486
  702.5000     8.1915     0.1293     0.0978   114.5054     2.4879   917.9904    11.9770    10.1309   -34.1098
  703.0000     8.1905     0.1292     0.0879   115.2819     2.5006   911.9816    11.7902    10.1291   -34.4031
  703.5000     8.2029     0.1303     0.0731   114.5692     2.5213   903.0307    11.7902     9.9744   -34.4003
  704.0000     8.2184     0.1320     0.0659   112.9001     2.5332   921.9547    11.9532     9.8221   -34.6944
  704.5000     8.2174     0.1349     0.0612   110.2374     2.5347   949.6921    12.0140     9.5844   -34.6914
  705.0000     8.2462     0.1407     0.0639   107.5668     2.5299   955.2461    12.1993     9.4525   -34.6884
  705.5000     8.2454     0.1436     0.0712   105.1929     2.5218   948.9225    12.6278     9.3223   -34.7532
  706.0000     8.2445     0.1465     0.0762   104.5994     2.5148   935.6607    12.9793     9.3209   -34.9797
  706.5000     8.2436     0.1464     0.0803   104.9150     2.5122   917.7505    13.3405     9.3196   -34.9763
  707.0000     8.2427     0.1463     0.0707   105.8675     2.5122   905.8010    13.5249     9.3184   -34.9733
  707.5000     8.2418     0.1468     0.0655   106.6766     2.5256   899.8120    13.5249     9.4460   -34.9699
  708.0000     8.2409     0.1491     0.0625   106.6766     2.5359   896.4439    13.4930     9.4604   -34.9671
  708.5000     8.2401     0.1520     0.0613   106.3798     2.5433   893.7917    13.0559     9.6046   -34.9642
  709.0000     8.2390     0.1519     0.0631   106.5450     2.5388   890.7816    12.2530     9.7051   -34.9614
  709.5000     8.2382     0.1517     0.0710   107.2700     2.5280   890.7518    11.3099     9.8377   -35.2554
  710.0000     8.2373     0.1486     0.0772   107.5668     2.5190   890.7220    11.0082     9.8363   -35.2522
  710.5000     8.2662     0.1485     0.0807   106.0831     2.5145   890.6876    10.8581     9.8348   -35.2493
  711.0000     8.2653     0.1455     0.0822    94.2137     2.5092   890.6594    10.8581     9.6994   -35.2463
  711.5000     8.2644     0.1454     0.0816    79.6903     2.5037   887.6508    10.8581     9.5660   -35.0106
  712.0000     8.2635     0.1448     0.0834    79.7229     2.5000   890.6030    10.8581     9.4343   -34.9432
  712.5000     8.2626     0.1422     0.0864  -999.2500     2.4985   890.5729    10.6797     9.4330   -34.9404
  713.0000     8.2617     0.1421     0.0864  -999.2500     2.4985   890.5432    10.5175     9.4317   -34.9375
  713.5000     8.2607     0.1420     0.0852  -999.2500     2.4985   887.5330    10.2166     9.4304   -34.9347
  714.0000     8.2599     0.1419     0.0847  -999.2500     2.4984   887.5032     9.9243     9.4292   -34.9317
  714.5000     8.2590     0.1417     0.0853  -999.2500     2.4984   885.7697     9.5963     9.3544   -34.9288
  715.0000     8.2285     0.1446     0.0860  -999.2500     2.4984   881.4785     9.3364     9.1711   -34.9258
  715.5000     8.2238     0.1445     0.0873  -999.2500     2.4983   881.4503     9.0836     8.9216   -34.9228
  716.0000     8.1970     0.1444     0.0880  -999.2500     2.4983   878.4417     8.9581     8.7988   -34.9199
  716.5000     8.1961     0.1443     0.0892  -999.2500     2.4983   875.4329     8.7171     8.6756   -34.9165
  717.0000     8.1953     0.1442     0.0901  -999.2500     2.4968   872.0355     8.5698     8.4267   -34.6169
  717.5000     8.1944     0.1403     0.0902  -999.2500     2.4952   868.6921     8.3246     8.0470   -34.6141
  718.0000     8.1933     0.1380     0.0884  -999.2500     2.4937   865.3496     8.1982     7.5928   -34.6113
  718.5000     8.1925     0.1379     0.0872  -999.2500     2.4937   859.0259     8.0280     7.1642   -34.6083
  719.0000     8.1917     0.1378     0.0866  -999.2500     2.4939   850.9850     7.8106     6.8532   -34.6053
  719.5000     8.1908     0.1377     0.0869  -999.2500     2.4951   842.4661     7.7041     6.5889   -34.6024
  720.0000     8.1899     0.1436     0.0914  -999.2500     2.4883   833.4968     7.4955     6.4983   -34.7379
  720.5000     8.1890     0.1465     0.1012  -999.2500     2.4704   806.6457     7.1837     6.4088   -35.4861
  721.0000     8.1881     0.1493     0.1134  -999.2500     2.4282   758.6523     6.7937     6.0581   -36.3735
  721.5000     8.1872     0.1492     0.1271  -999.2500     2.4787   771.0585     6.5093     5.4891   -37.2608
  722.0000     8.1862     0.1461     0.0986  -999.2500     2.5111   818.4389     6.3231     5.2142   -38.4450
  722.5000     8.1853     0.1431     0.0742  -999.2500  -999.2500   842.5144     6.1422     5.4393   -39.9555
  723.0000     8.1845     0.1400     0.0665  -999.2500  -999.2500   859.9656     6.1850     5.7343   -42.2027
