~VERSION INFORMATION
 VERS.                2.0:   CWLS LOG ASCII STANDARD - VERSION 2.0
 WRAP.                 NO:   ONE LINE PER DEPTH STEP
~WELL INFORMATION
#MNEM.UNIT      DATA TYPE    INFORMATION
#----------   ------------   ------------------------------
 STRT.F           50.0000:   START DEPTH
 STOP.F         1020.0000:   STOP DEPTH
 STEP.F            0.5000:   STEP LENGTH
 NULL.          -999.2500:   NO VALUE
 COMP. LAWRENCE/ALLISON INC:   COMPANY
 WELL.      28 STX #14-14:   WELL
 FLD .             TEAPOT:   FIELD
 LOC .      S14 T38N R78W:   LOCATION
 CNTY.            NATRONA:   COUNTY
 STAT.            WYOMING:   STATE
 CTRY. UNITED STATES OF AMERICA:   COUNTRY
 SRVC.            Unknown:   SERVICE COMPANY
 DATE.        22-OCT-1984:   LOGDATE
 API .       490251099000:   API NUMBER
~CURVE INFORMATION
#MNEM.UNIT       API CODE    CURVE DESCRIPTION
#----------   ------------   ------------------------------
 DEPT.F                  :   
 SPR .MV     07 010 01 00:   SPONTANEOUS POTENTIAL
 RILD.OHMM   07 120 46 00:   INDUCTION LOG DEEP RESISTIVITY
 RILM.OHMM   07 120 44 00:   INDUCTION LOG MEDIUM RESISTIVITY
 RFOC.OHMM   07 220 04 00:   RESISTIVITY FOCUSED LOG
 GRD .GAPI   45 310 01 00:   GAMMA RAY FROM DENSITY LOG
 CALD.IN     45 280 60 00:   CALIPER
 DEN .G/C3   45 350 01 00:   COMPENSATED BULK DENSTIY
 CORR.G/C3   45 356 01 00:   DENSITY CORRECTION
 PORD.DEC    45 890 12 00:   POROSITY DENSITY SANDSTONE
 CNC .DEC    42 890 03 00:   NEUTRON POROSITY SANDSTONE
 AC  .US/F   60 520 00 00:   ACOUSTIC SONIC
~PARAMETER INFORMATION
#MNEM.UNIT          VALUE    DESCRIPTION
#----------   ------------   ------------------------------
 PD  .                 GL:   PERMANENT DATUM
 EPD .F              5257:   ELEVATION PERMANENT DATUM
 LMF .                 KB:   LOG MEASURED FROM
 DAPD.F                12:   FEET ABOVE PERMANENT DATUM
 DMF .                 KB:   DRILLING MEASURED FROM
 EKB .F              5269:   KELLING BUSHING
 EGL .F              5257:   GROUND LEVEL
 DATE.           10-22-84:   RUN DATE
 RUN .                  1:   RUN NUMBER
 DD  .F              1020:   DEPTH DRILLER
 DL  .F              1019:   DEPTH LOGGER
 BLI .F              1017:   BOTTOM LOG INTERVAL
 TLI .F                52:   TOP LOG INTERVAL
 CS  .IN               16:   CASING SIZE
 CBD .F                40:   CASING BOTTOM DRILLER
 CBL .F                52:   CASING BOTTOM LOGGER
 BS  .IN            12.25:   BIT SIZE
 BSD .F              1020:   BIT SIZE AT DEPTH
 DFT .          GEL/WATER:   DRILLING FLUID TYPE
 DFD .                9.1:   DRILLING FLUID DENSITY
 DFV .                 35:   DRILLING FLUID VISCOSITY
 MSS .           FLOWLINE:   MUD SAMPLE SOURCE
 RMS .OHMM           2.04:   RESISTIVITY MUD SAMPLE
 MST .F                76:   MUD SAMPLE TEMPERATURE
 RMF .OHMM           1.53:   RESISTIVITY MUD FILTRATE SAMPLE
 MFST.F                76:   MUD FILTRATE SAMPLE TEMPERATURE
 RMC .OHMM           2.55:   RESISTIVITY MUD CAKE
 MCST.F                76:   MUD CAKE SAMPLE TEMPERATURE
 MFSS.               CALC:   MUD FILTRATE SAMPLE SOURCE
 MCSS.               CALC:   MUD CAKE SAMPLE SOURCE
 TCS .HRS               3:   TIME CURCULATED STOPPED
 MRT .F               100:   MAXIMUM RECORDED TEMPERATURE
 LUN .            HL 6307:   LOGGING UNIT NUMBER
 LUL .           GILLETTE:   LOGGING UNIT LOCATION
 ENGI.          CROSSBERG:   RECORDING ENGINEER
 WITN.            JOHNSON:   WITNESSED BY
 CLNT.            A2DTECH:   CLIENT CODE
 ORIG.       2", 5" PRINT:   ORIGIN OF DATA
 UWI .       490251099000:   UNIQUE WELL ID
 DICO. A2D Technologies, Inc.:   DIGITIZING COMPANY
~OTHER INFORMATION
~A   DEPT      SPR       RILD       RILM       RFOC        GRD        CALD       DEN       CORR       PORD          CNC       AC   
# ...
  294.0000   -61.9557     3.6806     2.9760     3.3781    86.3652    12.2971     2.3618     0.0212     0.1897     0.3152   116.4255
  294.5000   -61.5699     4.0002     3.1415     3.7025    84.6255    12.2973     2.3759     0.0222     0.1804     0.3080   111.3384
  295.0000   -61.3203     4.2660     3.3163     3.6709    86.4524    12.2975     2.3734     0.0161     0.1820     0.3030   109.7106
  295.5000   -61.0635     4.5493     3.5007     3.6351    87.1707    12.2977     2.3684     0.0057     0.1862     0.3094   110.5729
  296.0000   -60.8097     4.8507     3.6954     3.7332    86.3715    12.2979     2.3654    -0.0049     0.1870     0.3214   111.5749
  296.5000   -60.5566     5.1547     3.8707     3.8519    86.5214    12.2981     2.3676    -0.0154     0.1845     0.3223   112.1058
  297.0000   -60.3032     5.3042     4.0165     3.9754    87.9299    12.2983     2.3782    -0.0239     0.1797     0.3193   110.7573
  297.5000   -60.0499     5.4228     4.2499     4.1026    88.7473    12.2985     2.3885    -0.0136     0.1724     0.3170   109.2914
  298.0000   -59.7966     5.5441     4.2113     4.2501    88.8628    12.2987     2.4023    -0.0019     0.1641     0.3154   107.7884
  298.5000   -59.5432     5.6679     4.1310     4.2351    88.9880    12.2989     2.4104     0.0045     0.1612     0.3150   106.5369
  299.0000   -59.2899     5.8112     4.0523     4.2134    89.0486    12.2991     2.4103     0.0045     0.1609     0.3179   106.1085
  299.5000   -59.0361     5.8116     3.9750     4.1918    88.2614    12.2993     2.4068     0.0082     0.1616     0.3263   105.8858
  300.0000   -58.7821     5.5923     3.8995     4.1725    86.7844    12.2995     2.3990     0.0239     0.1641     0.3368   105.8184
  300.5000   -58.5309     5.3133     3.7370     3.9930    84.5328    12.2939     2.3897     0.0390     0.1713     0.3438   106.6156
  301.0000   -58.3847     4.9614     3.5454     3.8365    82.3251    12.2825     2.3743     0.0543     0.1805     0.3287   107.8942
  301.5000   -58.5654     4.6328     3.3637     3.6766    80.6576    12.2711     2.3605     0.0543     0.1905     0.3210   110.4042
  302.0000   -59.0311     4.3259     3.1913     3.7227    80.4728    12.2597     2.3635     0.0388     0.1909     0.3322   111.9026
  302.5000   -59.4813     4.0386     3.0277     3.8052    81.1078    12.2484     2.3702     0.0216     0.1837     0.3446   111.9411
  303.0000   -59.7604     3.8171     2.8726     3.5898    83.8223    12.2370     2.3533     0.0096     0.1925     0.3454   111.4391
  303.5000   -60.1646     3.7313     2.7338     3.2867    86.5878    12.2256     2.3279     0.0389     0.2099     0.3451   112.3176
  304.0000   -61.1094     3.6474     2.8519     3.0230    89.3317    12.2249     2.3019     0.0515     0.2257     0.3439   115.4389
  304.5000   -62.0413     3.5653     2.9154     3.1106    87.5553    12.2330     2.3017     0.0335     0.2195     0.3541   119.1760
  305.0000   -62.9040     3.4180     2.8523     3.3567    81.4980    12.2303     2.3284     0.0148     0.2078     0.3689   120.1896
  305.5000   -62.7470     3.2420     2.7145     3.6686    76.1507    12.1607     2.3496    -0.0016     0.1981     0.3824   116.6327
  306.0000   -61.8886     3.0747     2.5871     3.4344    77.3389    12.1241     2.3442     0.0159     0.2148     0.3867   112.6963
  306.5000   -61.0483     2.9162     2.4198     3.1730    84.0996    12.2919     2.2910     0.0421     0.2357     0.3910   108.8124
  307.0000   -60.2100     2.7364     2.2675     2.9314    88.4967    12.2998     2.2492     0.0567     0.2530     0.3979   110.9042
  307.5000   -59.3712     2.5617     2.1247     2.8833    90.6167    12.2980     2.2353     0.0522     0.2625     0.4104   115.8533
  308.0000   -58.5338     2.3981     1.9906     2.8702    90.7703    12.2969     2.2363     0.0327     0.2654     0.4228   120.3713
  308.5000   -57.6896     2.2747     1.8407     2.7776    89.6051    12.2959     2.2362     0.0134     0.2605     0.4353   123.7258
  309.0000   -57.3587     2.2747     1.8404     2.5768    88.3934    12.2950     2.2224     0.0162     0.2683     0.4435   125.2235
  309.5000   -57.3567     2.3583     1.9266     2.3904    88.3997    12.2941     2.2039     0.0285     0.2791     0.4085   126.3690
  310.0000   -57.4693     2.5009     2.1140     2.3169    89.5813    12.2931     2.2335     0.0405     0.2814     0.3742   126.7993
  310.5000   -57.7786     2.8126     2.3194     2.6065    92.4847    12.2922     2.2847     0.0482     0.2372     0.3402   125.7784
  311.0000   -58.0843     3.1632     2.5453     2.9395    91.7172    12.2913     2.3353     0.0205     0.1984     0.3228   121.0624
  311.5000   -58.3902     3.5575     2.7938     3.3150    88.1686    12.2903     2.3728    -0.0167     0.1798     0.3200   116.4652
  312.0000   -58.6961     4.0218     3.0670     3.6686    84.6113    12.2894     2.3880    -0.0349     0.1736     0.3188   111.8680
  312.5000   -59.0019     4.2540     3.3192     3.6288    84.4432    12.2885     2.3903    -0.0161     0.1713     0.3166   108.4197
  313.0000   -59.3079     4.5114     3.3667     3.6018    87.1870    12.2875     2.3930     0.0044     0.1706     0.3108   109.2959
  313.5000   -59.6155     4.7455     3.4085     3.6464    90.0044    12.2866     2.3959     0.0248     0.1688     0.3036   110.3267
  314.0000   -59.9315     4.5799     3.2888     3.6798    90.7679    12.2857     2.3981     0.0449     0.1665     0.2955   111.3649
  314.5000   -60.1470     4.3643     3.1330     3.7025    90.3160    12.2847     2.3962     0.0543     0.1683     0.2916   111.7066
  315.0000   -60.3654     4.1588     2.9846     3.5668    89.9823    12.2838     2.3866     0.0176     0.1731     0.3046   111.7066
  315.5000   -60.5837     3.9379     2.8073     3.4679    92.3483    12.2829     2.3712    -0.0123     0.1831     0.3181   111.8493
  316.0000   -60.7219     3.5501     2.6094     3.3506    94.4450    12.2820     2.3504    -0.0226     0.1944     0.3315   112.3054
  316.5000   -60.5677     3.2005     2.4255     3.2289    94.8189    12.2810     2.3255     0.0025     0.2058     0.3449   113.3367
  317.0000   -60.4151     2.8854     2.2545     3.1117    93.6011    12.2801     2.3055     0.0230     0.2171     0.3591   114.2817
  317.5000   -60.2631     2.6012     2.0956     2.9987    94.5100    12.2780     2.2947     0.0433     0.2270     0.3805   115.2291
  318.0000   -60.1104     2.3451     1.9479     2.8479    95.7762    12.2752     2.2825     0.0567     0.2368     0.3855   117.4940
  318.5000   -59.9575     2.2957     1.8582     2.6633    97.0482    12.2725     2.2644     0.0479     0.2479     0.3906   120.3178
  319.0000   -60.0240     2.3603     1.9532     2.4907    98.3114    12.2697     2.2462     0.0370     0.2590     0.3956   123.1397
  319.5000   -60.1468     2.4361     2.1693     2.3816    98.6531    12.2670     2.2269     0.0285     0.2682     0.3959   125.9497
  320.0000   -60.2707     2.5950     2.4093     2.6250    97.6330    12.2642     2.2481     0.0215     0.2476     0.3568   128.6727
  320.5000   -60.3946     3.0218     2.6759     2.9976    93.4195    12.2608     2.3008     0.0146     0.2120     0.3010   126.4930
  321.0000   -60.5186     3.5189     2.9720     3.4229    90.7230    12.2235     2.3529     0.0112     0.1797     0.2952   121.9325
  321.5000   -60.6408     4.0255     3.3009     4.2110    88.2804    12.1444     2.3976     0.0383     0.1671     0.2901   116.3604
  322.0000   -60.7170     4.3318     3.6662     4.2016    87.7562    12.0656     2.4064     0.0516     0.1606     0.2937   111.6465
  322.5000   -60.6133     4.8513     4.0590     4.1803    87.7694    11.9866     2.4086     0.0383     0.1618     0.2990   108.4462
  323.0000   -60.5136     5.4111     4.1001     4.1592    88.3404    11.9485     2.4091     0.0253     0.1611     0.2913   106.5289
  323.5000   -60.4163     6.0250     4.1404     4.1343    88.9344    12.0927     2.4096     0.0124     0.1598     0.2827   106.1540
  324.0000   -60.3674     6.0604     4.1938     4.1702    88.1479    12.2333     2.4100     0.0042     0.1586     0.2794   106.3575
