~VERSION INFORMATION
 VERS.                2.0:   CWLS LOG ASCII STANDARD - VERSION 2.0
 WRAP.                 NO:   ONE LINE PER DEPTH STEP
~WELL INFORMATION
#MNEM.UNIT      DATA TYPE    INFORMATION
#----------   ------------   ------------------------------
 STRT.F           30.0000:   START DEPTH
 STOP.F          655.5000:   STOP DEPTH
 STEP.F            0.5000:   STEP LENGTH
 NULL.          -999.2500:   NO VALUE
 COMP. FENIX & SCISSON INC:   COMPANY
 WELL.    NPR-3 SX #52-15:   WELL
 FLD .             TEAPOT:   FIELD
 LOC .      S15 T38N R78W:   LOCATION
 CNTY.            NATRONA:   COUNTY
 STAT.            WYOMING:   STATE
 CTRY. UNITED STATES OF AMERICA:   COUNTRY
 SRVC.            Unknown:   SERVICE COMPANY
 DATE.        27-MAY-1978:   LOGDATE
 API .       490251062200:   API NUMBER
~CURVE INFORMATION
#MNEM.UNIT       API CODE    CURVE DESCRIPTION
#----------   ------------   ------------------------------
 DEPT.F                  :   
 GRD .GAPI   45 310 01 00:   GAMMA RAY FROM DENSITY LOG
 CALD.IN     45 280 60 00:   CALIPER
 RHOB.G/C3   45 350 01 00:   BULK DENSITY
 DPHI.DEC    45 890 12 00:   DENSITY POROSITY SANDSTONE
 CORR.G/C3   45 356 01 00:   DENSITY CORRECTION
 SN  .OHMM   05 040 16 00:   SHORT NORMAL 16"
 IL  .OHMM   05 120 00 00:   INDUCTION LOG
 SPR .MV     05 010 01 00:   SPONTANEOUS POTENTIAL FROM RES.
~PARAMETER INFORMATION
#MNEM.UNIT          VALUE    DESCRIPTION
#----------   ------------   ------------------------------
 PD  .                 GL:   PERMANENT DATUM
 EPD .F              5240:   ELEVATION PERMANENT DATUM
 LMF .                 KB:   LOG MEASURED FROM
 DAPD.F                 4:   FEET ABOVE PERMANENT DATUM
 DMF .                 GL:   DRILLING MEASURED FROM
 EKB .F              5244:   KELLING BUSHING
 EGL .F              5240:   GROUND LEVEL
 DATE.          5-27-1978:   RUN DATE
 RUN .                  1:   RUN NUMBER
 DD  .F               645:   DEPTH DRILLER
 DL  .F               655:   DEPTH LOGGER
 BLI .F               650:   BOTTOM LOG INTERVAL
 TLI .F                50:   TOP LOG INTERVAL
 CS  .IN            8.625:   CASING SIZE
 CBD .F                40:   CASING BOTTOM DRILLER
 CBL .F                40:   CASING BOTTOM LOGGER
 BS  .IN            7.875:   BIT SIZE
 BSD .F               645:   BIT SIZE AT DEPTH
 DFT .                KCL:   DRILLING FLUID TYPE
 DFD .                8.6:   DRILLING FLUID DENSITY
 DFV .                 32:   DRILLING FLUID VISCOSITY
 DFPH.               10.5:   DRILLING FLUID PH
 DFL .                7.4:   DRILLING FLUID LOSS
 MSS .           FLOWLINE:   MUD SAMPLE SOURCE
 RMS .OHMM            .30:   RESISTIVITY MUD SAMPLE
 MST .F                66:   MUD SAMPLE TEMPERATURE
 RMF .OHMM            .32:   RESISTIVITY MUD FILTRATE SAMPLE
 MFST.F                64:   MUD FILTRATE SAMPLE TEMPERATURE
 RMC .OHMM            .50:   RESISTIVITY MUD CAKE
 MCST.F                64:   MUD CAKE SAMPLE TEMPERATURE
 MFSS.           MEASURED:   MUD FILTRATE SAMPLE SOURCE
 BHT .F                68:   BOTTOM HOLE TEMPERATURE
 TCS .HRS               2:   TIME CURCULATED STOPPED
 MRT .F                68:   MAXIMUM RECORDED TEMPERATURE
 LUN .               2958:   LOGGING UNIT NUMBER
 LUL .              CASP.:   LOGGING UNIT LOCATION
 ENGI.            POINTER:   RECORDING ENGINEER
 WITN.           MCGINLEY:   WITNESSED BY
 CLNT.            A2DTECH:   CLIENT CODE
 ORIG.      2" , 5" PRINT:   ORIGIN OF DATA
 UWI .       490251062200:   UNIQUE WELL ID
 DICO. A2D Technologies, Inc.:   DIGITIZING COMPANY
~OTHER INFORMATION
~A   DEPT       GRD      CALD       RHOB       DPHI       CORR         SN         IL        SPR   
# ...
  232.5000    96.7414     7.6687     2.5142     0.1002     0.1007     9.5286    10.2091   -20.3714
  233.0000    96.9920     7.6817     2.5161     0.1002     0.1040     9.3814    10.1785   -20.3753
  233.5000   101.0722     7.6943     2.5183     0.1002     0.1060     9.2771    10.1481   -20.3793
  234.0000   103.1688     7.6989     2.5186     0.1009     0.1054     9.1739    10.1177   -20.3832
  234.5000   104.3500     7.6623     2.5185     0.1020     0.1048     9.0998    10.0874   -20.3871
  235.0000   101.6938     7.6263     2.5168     0.1032     0.1042     9.1100    10.0572   -20.3910
  235.5000    99.0951     7.5901     2.5151     0.1031     0.1027     9.1194    10.0271   -20.3949
  236.0000    96.8267     7.5872     2.5135     0.1027     0.1013     9.1291     9.9971   -20.3989
  236.5000    97.0285     7.5902     2.5142     0.1057     0.0998     9.1386     9.9739   -20.4028
  237.0000    97.2182     7.5933     2.5151     0.1090     0.0985     9.1481     9.9500   -20.4067
  237.5000    97.3685     7.5963     2.5155     0.1063     0.0927     9.1577     9.9260   -20.4108
  238.0000    95.4173     7.5993     2.5090     0.1033     0.0865     9.1674     9.9021   -20.4154
  238.5000    92.9070     7.6023     2.5084     0.1029     0.0821     9.1767     9.8783   -20.4145
  239.0000    92.7503     7.6042     2.5175     0.1096     0.0767     9.1833     9.8545   -20.3135
  239.5000    94.5896     7.5993     2.5197     0.1154     0.0665     9.1318     9.8308   -20.2107
  240.0000    97.4603     7.5944     2.5038     0.1146     0.0564     9.0903     9.8075   -20.1087
  240.5000   100.1485     7.5894     2.4982     0.1095     0.0503     9.0491     9.7953   -20.0311
  241.0000   101.9112     7.5855     2.4969     0.1054     0.0511     9.0080     9.8004   -20.1527
  241.5000   102.8925     7.6030     2.5006     0.1073     0.0519     8.9672     9.8036   -20.2729
  242.0000   102.6983     7.6212     2.5069     0.1138     0.0491     8.9315     9.8068   -20.3925
  242.5000   102.3714     7.6394     2.5062     0.1186     0.0446     8.9189     9.8100   -20.5122
  243.0000   102.3821     7.6575     2.4964     0.1180     0.0427     8.9064     9.8132   -20.6319
  243.5000   102.3894     7.6756     2.4893     0.1170     0.0441     8.8940     9.8164   -20.7519
  244.0000   102.0384     7.6973     2.4890     0.1157     0.0455     8.8815     9.8197   -20.8116
  244.5000    97.0376     7.7227     2.4886     0.1146     0.0470     8.8691     9.8229   -20.6775
  245.0000    95.0185     7.7480     2.4893     0.1167     0.0483     8.8566     9.8261   -20.5440
  245.5000    95.0238     7.7735     2.4907     0.1178     0.0497     8.8442     9.8293   -20.4116
  246.0000    95.3894     7.7779     2.4932     0.1096     0.0550     8.8318     9.8325   -20.2785
  246.5000    96.8881     7.7669     2.4976     0.1047     0.0615     8.8195     9.8357   -20.2201
  247.0000   100.8771     7.7556     2.5021     0.1054     0.0641     8.8071     9.8389   -20.2190
  247.5000   101.8966     7.7442     2.5063     0.1075     0.0641     8.7948     9.8422   -20.2190
  248.0000   101.1956     7.7330     2.5076     0.1095     0.0641     8.7825     9.8454   -20.2192
  248.5000   100.7742     7.7254     2.5060     0.1110     0.0641     8.7708     9.8486   -20.2190
  249.0000   100.7869     7.7308     2.5039     0.1106     0.0641     8.7707     9.8518   -20.2201
  249.5000   101.2391     7.7359     2.5017     0.1098     0.0670     8.7706     9.8550   -20.1585
  250.0000   102.6803     7.7411     2.5026     0.1056     0.0747     8.7706     9.8583   -20.0698
  250.5000   104.1078     7.7548     2.5039     0.1041     0.0838     8.7706     9.8615   -19.9800
  251.0000   104.0313     7.7894     2.5052     0.1056     0.0922     8.7706     9.8647   -19.8902
  251.5000   102.8508     7.8224     2.5064     0.1048     0.0981     8.7704     9.8679   -19.8005
  252.0000   101.6671     7.7953     2.5077     0.1021     0.1042     8.7690     9.8712   -19.7108
  252.5000   101.1189     7.7661     2.5091     0.0983     0.1102     8.8314     9.8744   -19.6210
  253.0000   100.9411     7.7858     2.5129     0.0935     0.1163     8.9064     9.8776   -19.5313
  253.5000    99.6878     7.8077     2.5166     0.0888     0.1264     8.9820     9.8810   -19.4412
  254.0000    98.3978     7.8231     2.5198     0.0858     0.1366     9.0582     9.8841   -19.3522
  254.5000    97.1456     7.8145     2.5261     0.0840     0.1402     9.1352     9.8860   -19.2598
  255.0000    95.9276     7.8064     2.5326     0.0840     0.1425     9.1840     9.8332   -19.4929
  255.5000    95.6135     7.7984     2.5390     0.0844     0.1447     9.1347     9.7872   -19.9658
  256.0000    97.0034     7.7903     2.5439     0.0848     0.1454     9.0927     9.7414   -20.4019
  256.5000    99.5780     7.7823     2.5446     0.0900     0.1409     9.0509     9.6959   -20.2237
  257.0000    99.5978     7.7744     2.5438     0.0922     0.1362     9.0094     9.6505   -20.0262
  257.5000    98.9307     7.7669     2.5371     0.0917     0.1314     8.9681     9.6054   -19.8305
  258.0000    98.9445     7.7287     2.5327     0.0928     0.1250     8.9270     9.5605   -19.8917
  258.5000   102.4282     7.6823     2.5332     0.0954     0.1178     8.8860     9.5158   -19.9705
  259.0000   105.7817     7.6647     2.5319     0.0976     0.1107     8.8453     9.4713   -19.9673
  259.5000   108.0373     7.6823     2.5275     0.1011     0.1035     8.8047     9.4270   -19.8291
  260.0000   108.0574     7.7097     2.5231     0.0991     0.1014     8.7643     9.3829   -19.6969
  260.5000   103.8061     7.7246     2.5221     0.0972     0.1003     8.7242     9.3390   -19.7986
  261.0000   102.9821     7.7245     2.5230     0.0958     0.0994     8.6841     9.2953   -20.1674
  261.5000   102.0866     7.7246     2.5239     0.1010     0.0985     8.6443     9.2519   -20.3953
  262.0000   100.6773     7.7246     2.5231     0.1061     0.0909     8.6047     9.2086   -20.3085
  262.5000   100.7753     7.7245     2.5167     0.1058     0.0823     8.5652     9.1656   -20.2272
  263.0000   101.3062     7.7246     2.5107     0.1078     0.0800     8.5259     9.1226   -20.1450
  263.5000   101.8610     7.7158     2.5064     0.1043     0.0833     8.4868     9.0800   -20.0643
  264.0000   102.2889     7.7009     2.5100     0.0995     0.0867     8.4478     9.0206   -20.0731
  264.5000   100.0379     7.6858     2.5165     0.0947     0.0900     8.4093     9.0590   -20.1876
  265.0000    97.6956     7.6706     2.5228     0.0922     0.0892     8.3759     9.1451   -20.3017
  265.5000    96.9240     7.6557     2.5347     0.0999     0.0881     8.4210     9.2321   -20.4148
  266.0000    98.1546     7.6524     2.5386     0.1055     0.0870     8.4610     9.3200   -20.3704
  266.5000    99.3718     7.6877     2.5205     0.1094     0.0868     8.5013     9.4086   -20.2865
  267.0000    99.8840     7.7217     2.5078     0.1076     0.0902     8.5446     9.4981   -20.2028
  267.5000    99.7276     7.7554     2.5047     0.1058     0.0935     8.5996     9.5885   -20.1191
  268.0000    99.5633     7.7896     2.5074     0.1040     0.0968     8.6545     9.6797   -20.0355
  268.5000    99.3517     7.7900     2.5114     0.1034     0.1001     8.7099     9.7718   -19.9519
  269.0000    98.0756     7.7649     2.5155     0.1034     0.1034     8.7656     9.8647   -19.8684
  269.5000    97.2894     7.7395     2.5165     0.1012     0.1067     8.8216     9.9052   -19.7846
  270.0000    99.1705     7.7137     2.5165     0.0976     0.1087     8.8780     9.9299   -19.7004
  270.5000   100.6161     7.7147     2.5173     0.0942     0.1098     8.9347     9.9547   -19.6198
  271.0000   100.5599     7.7302     2.5229     0.0958     0.1085     8.9919     9.9795   -19.7253
  271.5000    99.9910     7.7432     2.5286     0.0957     0.1054     9.0494    10.0044   -19.8486
  272.0000    99.4048     7.7186     2.5275     0.0950     0.1024     9.0998    10.0292   -19.9723
  272.5000    98.5961     7.6940     2.5249     0.1042     0.0993     9.0909    10.0547   -20.0969
