~VERSION INFORMATION
 VERS.                2.0:   CWLS LOG ASCII STANDARD - VERSION 2.0
 WRAP.                 NO:   ONE LINE PER DEPTH STEP
~WELL INFORMATION
#MNEM.UNIT      DATA TYPE    INFORMATION
#----------   ------------   ------------------------------
 STRT.F            3.0000:   START DEPTH
 STOP.F         1011.0000:   STOP DEPTH
 STEP.F            0.5000:   STEP LENGTH
 NULL.          -999.2500:   NO VALUE
 COMP. BROWN JOHN E&C INC:   COMPANY
 WELL. NPR 3 SHX-38 #2-35:   WELL
 FLD .             TEAPOT:   FIELD
 LOC .      S35 T39N R78W:   LOCATION
 CNTY.            NATRONA:   COUNTY
 STAT.            WYOMING:   STATE
 CTRY. UNITED STATES OF AMERICA:   COUNTRY
 SRVC.     Atlas Wireline:   SERVICE COMPANY
 DATE.        15-NOV-1991:   LOGDATE
 API .       490252248100:   API NUMBER
~CURVE INFORMATION
#MNEM.UNIT       API CODE    CURVE DESCRIPTION
#----------   ------------   ------------------------------
 DEPT.F                  :   
 GRR .GAPI   07 310 01 00:   GAMMA RAY
 RILD.OHMM   07 120 46 00:   INDUCTION LOG DEEP RESISTIVITY
 RILM.OHMM   07 120 44 00:   INDUCTION LOG MEDIUM RESISTIVITY
~PARAMETER INFORMATION
#MNEM.UNIT          VALUE    DESCRIPTION
#----------   ------------   ------------------------------
 PD  .                 GL:   PERMANENT DATUM
 EPD .F              5119:   ELEVATION PERMANENT DATUM
 LMF .                 KB:   LOG MEASURED FROM
 DAPD.F                11:   FEET ABOVE PERMANENT DATUM
 DMF .                 KB:   DRILLING MEASURED FROM
 EKB .F              5120:   KELLING BUSHING
 EGL .F              5119:   GROUND LEVEL
 DATE.        15-NOV-1991:   RUN DATE
 RUN .                  1:   RUN NUMBER
 DD  .F              1015:   DEPTH DRILLER
 DL  .F              1017:   DEPTH LOGGER
 BLI .F              1015:   BOTTOM LOG INTERVAL
 CS  .IN            8.625:   CASING SIZE
 CBD .F                60:   CASING BOTTOM DRILLER
 CBL .F                60:   CASING BOTTOM LOGGER
 BS  .IN            7.875:   BIT SIZE
 BSD .F              1015:   BIT SIZE AT DEPTH
 DFT .                AIR:   DRILLING FLUID TYPE
 LUN .            HL-6272:   LOGGING UNIT NUMBER
 LUL .         CASPER, WY:   LOGGING UNIT LOCATION
 ENGI.             ZIFGER:   RECORDING ENGINEER
 WITN.         MR. STRONG:   WITNESSED BY
 CLNT.            A2DTECH:   CLIENT CODE
 ORIG.           5" PRINT:   ORIGIN OF DATA
 UWI .       490252248100:   UNIQUE WELL ID
 DICO. A2D Technologies, Inc.:   DIGITIZING COMPANY
~OTHER INFORMATION
~A    DEPT      GRR      RILD       RILM   
# ...
  367.0000   139.9090     2.5822     2.6565
  367.5000   140.8194     2.4765     2.4952
  368.0000   142.3369     2.4084     2.3765
  368.5000   141.3354     2.3918     2.3439
  369.0000   140.5159     2.4087     2.3443
  369.5000   142.0638     2.4599     2.3610
  370.0000   144.7648     2.5653     2.8509
  370.5000   147.1927     2.7319     3.1659
  371.0000   129.2868     2.9503     3.4189
  371.5000   126.2064     3.1860     3.6296
  372.0000   126.2519     3.5135     3.8577
  372.5000   120.1821     3.9566     4.0793
  373.0000   117.1472     4.2190     4.3085
  373.5000   117.7542     4.3984     4.5227
  374.0000   122.6100     4.5218     4.6839
  374.5000   127.7693     4.6502     4.8171
  375.0000   133.5357     4.8463     4.9542
  375.5000   135.0531     5.0189     5.0597
  376.0000   135.9636     5.2707     5.2036
  376.5000   135.9636     5.5351     5.3891
  377.0000   132.6252     5.6923     5.6597
  377.5000   124.1275     5.8132     5.7802
  378.0000   126.5555     5.8953     5.8215
  378.5000   129.9393     5.8958     5.8631
  379.0000   131.7753     5.8962     5.8639
  379.5000   133.5509     5.8966     5.8238
  380.0000   134.1426     5.8559     5.8248
  380.5000   132.3217     5.8564     5.8256
  381.0000   130.1973     5.8978     5.8265
  381.5000   131.4112     5.8982     5.8271
  382.0000   134.1426     5.8987     5.8279
  382.5000   134.7496     5.8991     5.8288
  383.0000   133.8392     5.8994     5.8296
  383.5000   131.4112     5.8998     5.8304
  384.0000   130.1973     5.9003     5.8720
  384.5000   128.9833     5.9007     5.8729
  385.0000   128.6798     5.9011     5.8737
  385.5000   130.1973     5.9015     5.8745
  386.0000   133.8392     5.9433     5.8754
  386.5000   134.7496     5.9437     5.9173
  387.0000   135.9636     5.9858     5.9182
  387.5000   137.7845     6.0704     5.9604
  388.0000   140.5160     6.2865     6.0030
  388.5000   144.2489     6.5559     6.2606
  389.0000   145.3718     6.8369     6.6209
  389.5000   137.3129     7.0803     7.0020
  390.0000   124.1275     7.2814     7.3535
  390.5000   122.6100     7.3843     7.5101
  391.0000   122.3065     7.4366     7.5112
  391.5000   122.0030     7.4892     7.5120
  392.0000   122.3065     7.4898     7.4608
  392.5000   122.9135     7.4381     7.4100
  393.0000   124.4310     7.3868     7.3595
  393.5000   125.9484     7.2343     7.3093
  394.0000   126.2519     7.0847     7.2091
  394.5000   126.2519     6.8815     7.0607
  395.0000   125.6449     6.5896     6.7722
  395.5000   119.2716     5.8956     6.1858
  396.0000   117.7542     5.1659     5.1244
  396.5000   118.6646     4.5015     4.2451
  397.0000   124.4310     3.6510     3.6670
  397.5000   130.5008     2.9406     3.0377
  398.0000   134.3855     2.4525     2.5519
  398.5000   139.1806     2.3685     2.4137
  399.0000   144.5825     2.3522     2.4140
  399.5000   149.6663     2.3689     2.5000
  400.0000   152.3521     2.4361     2.6811
  400.5000   152.9590     2.6678     3.0830
  401.0000   152.0486     3.0465     3.4961
  401.5000   149.0137     3.4790     3.7634
  402.0000   139.3020     3.8966     4.6298
  402.5000   121.1079     4.4157     5.5326
  403.0000   118.3794     5.5358     6.3021
  403.5000   114.4371     7.7182     8.0828
  404.0000   110.4947     9.3209     9.1702
  404.5000   109.5862     9.7892     9.4978
  405.0000   111.1279     9.9282     9.6333
  405.5000   112.9530     9.9296     9.6353
  406.0000   112.5990     9.5902     9.4376
  406.5000   112.9813     9.0704     8.8034
  407.0000   114.5675     8.0113     7.6051
  407.5000   118.4073     6.6728     6.5242
  408.0000   122.9626     5.0827     5.7154
  408.5000   128.4285     4.9434     5.5592
  409.0000   138.4466     4.9787     5.4833
  409.5000   146.9474     5.0848     5.5615
  410.0000   142.0945     5.3031     5.8411
  410.5000   133.2963     5.5308     6.2645
  411.0000   128.4435     5.8087     6.7186
  411.5000   123.8941     6.3679     7.3069
  412.0000   119.3448     7.4301     8.0584
  412.5000   107.2082     8.6173     8.7031
  413.0000   104.7825     9.4245     9.2691
  413.5000   106.6072     9.8823     9.5334
  414.0000   110.8591    10.0227     9.7371
  414.5000   109.0412    10.2366     9.9451
  415.0000   108.4364    10.4547    10.0870
  415.5000   112.0821    10.6775    10.2309
  416.0000   113.9060    10.8292    10.3768
  416.5000   113.3021    11.0600    10.5248
  417.0000   111.1806    11.2171    10.6749
  417.5000   107.5418    11.2972    10.8272
  418.0000   103.9029    11.3780    10.9816
  418.5000   103.6024    11.4593    11.0608
  419.0000   106.3734    11.5412    11.1416
  419.5000   110.3439    11.6237    11.2995
  420.0000   110.5918    11.7068    11.3864
  420.5000   110.6464    11.7084    11.4706
  421.0000   111.5089    11.7921    11.6266
  421.5000   112.4224    11.8763    11.7105
  422.0000   113.3359    11.9612    11.7950
  422.5000   108.1796    12.0467    11.8805
  423.0000   109.7000    12.1328    11.9662
  423.5000   112.3435    12.2195    12.1369
  424.0000   117.2931    12.3068    12.1394
  424.5000   118.8128    12.3948    12.3126
  425.0000   115.7309    12.4834    12.4014
  425.5000   115.7846    12.4851    12.4908
  426.0000   116.0911    12.6624    12.6690
  426.5000   116.0941    12.7529    12.8497
  427.0000   116.0971    12.8441    12.9423
  427.5000   115.7917    12.9359    13.1269
  428.0000   114.2336    13.1209    13.3142
  428.5000   110.2307    13.3992    13.4102
  429.0000   105.4102    13.5966    13.6967
  429.5000   105.9424    13.8792    14.0873
  430.0000   112.1706    14.0895    14.3883
  430.5000   113.3875    14.6120    14.6957
  431.0000   111.8731    15.3317    15.0097
  431.5000   108.5377    16.1933    15.4377
  432.0000   107.9330    16.6543    15.8779
  432.5000   108.8472    17.1284    16.4451
  433.0000   108.2432    17.2508    16.9140
  433.5000   107.0323    17.1332    17.0360
  434.0000   106.1241    16.7803    17.0396
  434.5000   109.4662    16.3204    16.9246
  435.0000   109.7720    15.6529    16.6934
  435.5000   109.4715    15.1179    16.2374
  436.0000   110.0822    14.6012    15.6840
  436.5000   109.7810    14.3000    14.9394
  437.0000   110.6952    14.1036    14.4302
  437.5000   112.8226    14.0074    14.1342
  438.0000   115.5571    13.9119    13.9387
  438.5000   114.3460    13.9143    13.8472
  439.0000   114.9561    13.9162    13.8501
  439.5000   114.0486    13.9182    13.8530
  440.0000   112.2307    13.9201    13.9530
  440.5000   113.1442    13.9220    13.9559
  441.0000   116.4916    13.9240    13.9588
  441.5000   119.5498    13.9259    13.8645
  442.0000   121.3474    13.9278    13.8681
  442.5000   119.4233    13.9297    13.8710
  443.0000   114.5372    13.9317    13.8739
  443.5000   112.8587    13.6448    13.5893
  444.0000   113.7730    13.1784    12.9442
  444.5000   119.2388    12.3766    12.0743
  445.0000   120.4558    11.1379    11.3417
  445.5000   122.8867    10.1643    10.4329
  446.0000   126.5316     9.2172     9.5970
  446.5000   131.2260     8.4133     8.7666
  447.0000   139.8909     7.6795     7.9524
  447.5000   142.9288     7.0588     7.2643
  448.0000   143.5388     6.5630     6.7290
  448.5000   144.4523     6.4276     6.4095
  449.0000   145.6693     6.3393     6.2344
  449.5000   147.4932     6.2525     6.1493
  450.0000   150.5311     6.2533     6.1075
  450.5000   152.0627     6.2607     6.1519
  451.0000   149.5220     6.2813     6.1962
  451.5000   139.9090     6.3019     6.2436
  452.0000   138.9985     6.3225     6.3515
  452.5000   139.6055     6.3434     6.4606
  453.0000   136.5706     6.3438     6.3712
  453.5000   136.8741     6.2973     6.2836
  454.0000   140.2124     6.2131     6.2352
  454.5000   139.9090     6.2136     6.1974
  455.0000   139.6055     6.2216     6.1979
  455.5000   140.8508     6.2644     6.2418
  456.0000   144.3683     6.3321     6.2859
  456.5000   147.4962     6.3914     6.4193
  457.0000   146.2822     6.4818     6.5556
  457.5000   141.0620     6.5276     6.6019
