~VERSION INFORMATION
 VERS.                2.0:   CWLS LOG ASCII STANDARD - VERSION 2.0
 WRAP.                 NO:   ONE LINE PER DEPTH STEP
~WELL INFORMATION
#MNEM.UNIT      DATA TYPE    INFORMATION
#----------   ------------   ------------------------------
 STRT.F           60.0000:   START DEPTH
 STOP.F         1143.0000:   STOP DEPTH
 STEP.F            0.5000:   STEP LENGTH
 NULL.          -999.2500:   NO VALUE
 COMP. U S NAVY-INTEX OIL:   COMPANY
 WELL.    N.P.R . 3 #63-2:   WELL
 FLD .             TEAPOT:   FIELD
 LOC .       S2 T38N R78W:   LOCATION
 CNTY.            NATRONA:   COUNTY
 STAT.            WYOMING:   STATE
 CTRY. UNITED STATES OF AMERICA:   COUNTRY
 SRVC. Schlumberger Well Surveying Corp:   SERVICE COMPANY
 DATE.        24-MAY-1964:   LOGDATE
 API .       490250645500:   API NUMBER
~CURVE INFORMATION
#MNEM.UNIT       API CODE    CURVE DESCRIPTION
#----------   ------------   ------------------------------
 DEPT.F                  :   
 SPR .MV     05 010 01 00:   SPONTANEOUS POTENTIAL FROM RES.
 ASN .OHMM   05 041 16 00:   AMPLIFIED SHORT NORMAL 16"
 ILD .OHMM   05 120 46 00:   INDUCTION LOG DEEP
 CILD.MMHO   05 110 46 00:   CONDUCTIVITY INDUCTION LOG DEEP
 CALS.IN     60 280 50 00:   CALIPER FROM SONIC LOG
 DT  .US/F   60 520 33 00:   INTERVAL TRANSIT TIME
~PARAMETER INFORMATION
#MNEM.UNIT          VALUE    DESCRIPTION
#----------   ------------   ------------------------------
 PD  .                 GL:   PERMANENT DATUM
 EPD .F              5181:   ELEVATION PERMANENT DATUM
 LMF .                 KB:   LOG MEASURED FROM
 DAPD.F                 5:   FEET ABOVE PERMANENT DATUM
 DMF .                 KB:   DRILLING MEASURED FROM
 EKB .F              5186:   KELLING BUSHING
 EGL .F              5181:   GROUND LEVEL
 DATE.        24-MAY-1964:   RUN DATE
 RUN .                  1:   RUN NUMBER
 DD  .F              1140:   DEPTH DRILLER
 DL  .F              1144:   DEPTH LOGGER
 BLI .F              1143:   BOTTOM LOG INTERVAL
 TLI .F                82:   TOP LOG INTERVAL
 CS  .IN            8.625:   CASING SIZE
 CBD .F                10:   CASING BOTTOM DRILLER
 BS  .IN            7.875:   BIT SIZE
 BSD .F              1140:   BIT SIZE AT DEPTH
 DFT .            GEL/OIL:   DRILLING FLUID TYPE
 DFD .                9.0:   DRILLING FLUID DENSITY
 DFV .                 63:   DRILLING FLUID VISCOSITY
 DFPH.                8.0:   DRILLING FLUID PH
 DFL .                7.6:   DRILLING FLUID LOSS
 MSS .           FLOWLINE:   MUD SAMPLE SOURCE
 RMS .OHMM           0.87:   RESISTIVITY MUD SAMPLE
 MST .F                84:   MUD SAMPLE TEMPERATURE
 RMF .OHMM           0.43:   RESISTIVITY MUD FILTRATE SAMPLE
 MFST.F                84:   MUD FILTRATE SAMPLE TEMPERATURE
 RMC .OHMM           1.52:   RESISTIVITY MUD CAKE
 MCST.F                84:   MUD CAKE SAMPLE TEMPERATURE
 MFSS.                 FP:   MUD FILTRATE SAMPLE SOURCE
 MCSS.                 FP:   MUD CAKE SAMPLE SOURCE
 TCS .HRS               2:   TIME CURCULATED STOPPED
 LUN .               4507:   LOGGING UNIT NUMBER
 LUL .               CSPR:   LOGGING UNIT LOCATION
 ENGI.             DANNER:   RECORDING ENGINEER
 WITN.          JORGENSEN:   WITNESSED BY
 CLNT.            A2DTECH:   CLIENT CODE
 ORIG.       2", 5" PRINT:   ORIGIN OF DATA
 UWI .       490250645500:   UNIQUE WELL ID
 DICO. A2D Technologies, Inc.:   DIGITIZING COMPANY
~OTHER INFORMATION
~A   DEPT      SPR          ASN        ILD      CILD      CALS         DT   
# ...
  320.0000   -42.7309     8.1429     6.6066   158.2330  -999.2500  -999.2500
  320.5000   -42.5895     8.1079     6.6478   156.6641  -999.2500  -999.2500
  321.0000   -42.3926     8.1378     6.6940   155.2791  -999.2500  -999.2500
  321.5000   -42.2869     8.2436     6.8318   154.5294  -999.2500  -999.2500
  322.0000   -42.2861     8.3385     6.8613   154.5331  -999.2500  -999.2500
  322.5000   -42.2854     8.4224     6.9069   154.0538  -999.2500  -999.2500
  323.0000   -42.2845     8.4933     6.9069   153.0340  -999.2500  -999.2500
  323.5000   -42.3434     8.5422     6.8890   152.2857  -999.2500  -999.2500
  324.0000   -42.4357     8.5811     6.8318   151.1547  -999.2500  -999.2500
  324.5000   -42.5836     8.6202     6.8318   150.7866  -999.2500  -999.2500
  325.0000   -42.7336     8.6319     6.7568   152.2973  -999.2500  -999.2500
  325.5000   -42.7326     8.6469     6.7568   153.6131  -999.2500  -999.2500
  326.0000   -42.8826     8.6458     6.6817   156.0693  -999.2500  -999.2500
  326.5000   -42.8818     8.6017     6.6066   157.7522  -999.2500  -999.2500
  327.0000   -42.8809     8.5387     6.6066   160.0201  -999.2500  -999.2500
  327.5000   -42.8803     8.4067     6.5315   162.1050  -999.2500  -999.2500
  328.0000   -42.8795     8.1187     6.4565   164.3374  -999.2500  -999.2500
  328.5000   -42.8788     7.5624     6.3522   165.9537  -999.2500  -999.2500
  329.0000   -42.8484     7.7018     6.3063   167.3877  -999.2500  -999.2500
  329.5000   -42.7266     8.3761     6.2599   168.1438  -999.2500  -999.2500
  330.0000   -42.5753     8.4963     6.1562   168.1477  -999.2500  -999.2500
  330.5000   -42.4162     8.3415     6.1562   167.7083  -999.2500  -999.2500
  331.0000   -42.2726     8.1488     6.1562   167.2440  -999.2500  -999.2500
  331.5000   -42.1213     8.0313     6.2371   165.9002  -999.2500  -999.2500
  332.0000   -41.9698     7.9712     6.3814   164.4677  -999.2500  -999.2500
  332.5000   -41.8901     8.0086     6.5547   160.4106  -999.2500  -999.2500
  333.0000   -41.8177     8.2559     6.7568   155.3697  -999.2500  -999.2500
  333.5000   -41.8169     8.4090     6.9473   150.6492  -999.2500  -999.2500
  334.0000   -41.8162     8.5856     7.1436   146.3405  -999.2500  -999.2500
  334.5000   -41.8155     8.7482     7.3574   142.0630  -999.2500  -999.2500
  335.0000   -41.9654     8.9028     7.4612   137.9267  -999.2500  -999.2500
  335.5000   -42.1153     9.0501     7.5826   135.8100  -999.2500  -999.2500
  336.0000   -42.2650     9.1281     7.7037   134.0962  -999.2500  -999.2500
  336.5000   -42.2643     9.1702     7.8078   132.0518  -999.2500  -999.2500
  337.0000   -42.2771     9.2038     7.7327   132.5603  -999.2500  -999.2500
  337.5000   -42.4134     9.2298     7.6577   133.7851  -999.2500  -999.2500
  338.0000   -42.4126     9.2297     7.5771   135.0755  -999.2500  -999.2500
  338.5000   -42.5625     9.2223     7.5075   136.6376  -999.2500  -999.2500
  339.0000   -42.5617     9.1801     7.4847   138.3308  -999.2500  -999.2500
  339.5000   -42.7390     9.0795     7.3574   140.3582  -999.2500  -999.2500
  340.0000   -43.0120     8.9795     7.2823   141.7167  -999.2500  -999.2500
  340.5000   -43.3755     8.9894     7.2072   144.1467  -999.2500  -999.2500
  341.0000   -43.4624     9.0448     7.2072   145.3715  -999.2500  -999.2500
  341.5000   -43.4616     9.0942     7.2072   145.8434  -999.2500  -999.2500
  342.0000   -43.4609     9.0642     7.2072   146.4009  -999.2500  -999.2500
  342.5000   -43.1588     8.9728     7.2072   146.4044  -999.2500  -999.2500
  343.0000   -42.9307     8.8371     7.2072   145.6548  -999.2500  -999.2500
  343.5000   -42.7056     8.7791     7.2072   144.9064  -999.2500  -999.2500
  344.0000   -42.7047     8.8015     7.2072   144.6285  -999.2500  -999.2500
  344.5000   -42.5535     8.8469     7.2072   144.1604  -999.2500  -999.2500
  345.0000   -42.5527     8.8922     7.2072   143.6998  -999.2500  -999.2500
  345.5000   -42.7026     8.9376     7.2072   143.2355  -999.2500  -999.2500
  346.0000   -42.7018     8.9830     7.2072   142.6657  -999.2500  -999.2500
  346.5000   -42.7010     9.0284     7.2072   143.0321  -999.2500  -999.2500
  347.0000   -42.7691     9.0738     7.1321   144.1792  -999.2500  -999.2500
  347.5000   -42.8502     9.1083     7.0571   145.6897  -999.2500  -999.2500
  348.0000   -42.8493     9.0623     7.0291   146.7069  -999.2500  -999.2500
  348.5000   -42.8486     9.0137     6.9820   148.7086  -999.2500  -999.2500
  349.0000   -42.8479     8.9432     6.9069   150.6627  -999.2500  -999.2500
  349.5000   -42.8471     8.8602     6.8154   152.0472  -999.2500  -999.2500
  350.0000   -42.8464     8.7481     6.6817   153.2383  -999.2500  -999.2500
  350.5000   -42.8455     8.6119     6.6066   153.2417  -999.2500  -999.2500
  351.0000   -42.8449     8.5381     6.6912   153.2455  -999.2500  -999.2500
  351.5000   -42.6935     8.8378     6.9069   151.7439  -999.2500  -999.2500
  352.0000   -42.6928     9.0027     7.0040   149.2770  -999.2500  -999.2500
  352.5000   -42.6920     9.1844     7.1321   143.4678  -999.2500  -999.2500
  353.0000   -42.5406     9.3661     7.2858   139.6108  -999.2500  -999.2500
  353.5000   -42.5399     9.5478     7.4324   138.0648  -999.2500  -999.2500
  354.0000   -42.5391     9.7295     7.3574   138.2083  -999.2500  -999.2500
  354.5000   -42.5383     9.8869     7.2546   139.6096  -999.2500  -999.2500
  355.0000   -42.4397     9.8268     7.2072   142.0933  -999.2500  -999.2500
  355.5000   -42.5369     9.6311     7.0872   145.7607  -999.2500  -999.2500
  356.0000   -42.6245     9.4099     6.9069   148.4541  -999.2500  -999.2500
  356.5000   -42.7169     8.9870     6.9069   150.2750  -999.2500  -999.2500
  357.0000   -42.8359     8.7351     6.8318   152.1887  -999.2500  -999.2500
  357.5000   -42.8351     8.6421     6.8318   152.6606  -999.2500  -999.2500
  358.0000   -42.9850     8.6579     6.8318   153.2987  -999.2500  -999.2500
  358.5000   -43.1346     8.7199     6.8318   153.3019  -999.2500  -999.2500
  359.0000   -43.1787     8.9567     6.8318   154.0588  -999.2500  -999.2500
  359.5000   -43.2838     9.1317     6.8707   153.5768  -999.2500  -999.2500
  360.0000   -43.2831     9.2414     6.9169   150.0503  -999.2500  -999.2500
  360.5000   -43.2823     9.2805     7.1321   143.5281  -999.2500  -999.2500
  361.0000   -43.2815     9.3082     7.2618   138.6144  -999.2500  -999.2500
  361.5000   -43.2224     9.3611     7.4324   135.2520  -999.2500  -999.2500
  362.0000   -43.1285     9.5864     7.5075   136.0096  -999.2500  -999.2500
  362.5000   -42.9782     9.8348     7.5982   136.7658  -999.2500  -999.2500
  363.0000   -42.8268    10.0729     7.6577   135.2636  -999.2500  -999.2500
  363.5000   -42.6754    10.2976     7.6906   132.3644  -999.2500  -999.2500
  364.0000   -42.4518    10.4852     7.7327   129.8192  -999.2500  -999.2500
  364.5000   -42.2221    10.2357     7.7327   130.0041  -999.2500  -999.2500
  365.0000   -42.0707    10.0215     7.7115   131.8775  -999.2500  -999.2500
  365.5000   -41.9194     9.8073     7.5826   134.6871  -999.2500  -999.2500
  366.0000   -42.0693     9.6453     7.4690   138.2988  -999.2500  -999.2500
  366.5000   -42.2191     9.6504     7.4324   138.3019  -999.2500  -999.2500
  367.0000   -42.2470     9.6751     7.4324   138.3058  -999.2500  -999.2500
  367.5000   -42.5187     9.7138     7.4593   138.3095  -999.2500  -999.2500
  368.0000   -42.7329     9.7529     7.5075   137.3996  -999.2500  -999.2500
  368.5000   -42.8185     9.7348     7.5075   136.0584  -999.2500  -999.2500
  369.0000   -42.9177     9.6638     7.5826   134.9649  -999.2500  -999.2500
  369.5000   -43.0101     9.5676     7.5826   133.7474  -999.2500  -999.2500
  370.0000   -43.2680     9.5247     7.6577   133.0572  -999.2500  -999.2500
  370.5000   -43.2673     9.5247     7.6577   133.0610  -999.2500  -999.2500
  371.0000   -43.4172     9.5696     7.6577   133.0649  -999.2500  -999.2500
  371.5000   -43.4163     9.6299     7.6368   133.8215  -999.2500  -999.2500
