~VERSION INFORMATION
 VERS.                2.0:   CWLS LOG ASCII STANDARD - VERSION 2.0
 WRAP.                 NO:   ONE LINE PER DEPTH STEP
~WELL INFORMATION
#MNEM.UNIT      DATA TYPE    INFORMATION
#----------   ------------   ------------------------------
 STRT.F           80.0000:   START DEPTH
 STOP.F          744.0000:   STOP DEPTH
 STEP.F            0.5000:   STEP LENGTH
 NULL.          -999.2500:   NO VALUE
 COMP.               NAVY:   COMPANY
 WELL. RES 3 TEAPOT DOM #44-S-11:   WELL
 FLD .             TEAPOT:   FIELD
 LOC .      S11 T38N R78W:   LOCATION
 CNTY.            NATRONA:   COUNTY
 STAT.            WYOMING:   STATE
 CTRY. UNITED STATES OF AMERICA:   COUNTRY
 SRVC.       Schlumberger:   SERVICE COMPANY
 DATE.        09-JUL-1962:   LOGDATE
 API .       490250634600:   API NUMBER
~CURVE INFORMATION
#MNEM.UNIT       API CODE    CURVE DESCRIPTION
#----------   ------------   ------------------------------
 DEPT.F                  :   
 SPR .MV     05 010 01 00:   SPONTANEOUS POTENTIAL FROM RES.
 ASN .OHMM   05 041 16 00:   AMPLIFIED SHORT NORMAL 16"
 ILD .OHMM   05 120 46 00:   INDUCTION LOG DEEP
 CILD.MMHO   05 110 46 00:   CONDUCTIVITY INDUCTION LOG DEEP
 GR  .GAPI   30 310 01 00:   GAMMA RAY
~PARAMETER INFORMATION
#MNEM.UNIT          VALUE    DESCRIPTION
#----------   ------------   ------------------------------
 PD  .                 KB:   PERMANENT DATUM
 EPD .F              5182:   ELEVATION PERMANENT DATUM
 EKB .F              5182:   KELLING BUSHING
 EGL .F              5177:   GROUND LEVEL
 DATE.        09-JUL-1962:   RUN DATE
 RUN .                  1:   RUN NUMBER
 DD  .F               745:   DEPTH DRILLER
 DL  .F               745:   DEPTH LOGGER
 BLI .F               744:   BOTTOM LOG INTERVAL
 TLI .F                90:   TOP LOG INTERVAL
 BS  .IN             6.75:   BIT SIZE
 BSD .F               745:   BIT SIZE AT DEPTH
 DFT .           OIL EMUL:   DRILLING FLUID TYPE
 DFD .               10.3:   DRILLING FLUID DENSITY
 DFV .                 50:   DRILLING FLUID VISCOSITY
 DFL .                3.4:   DRILLING FLUID LOSS
 RMS .OHMM            7.0:   RESISTIVITY MUD SAMPLE
 MST .F                73:   MUD SAMPLE TEMPERATURE
 RMF .OHMM            4.5:   RESISTIVITY MUD FILTRATE SAMPLE
 MFST.F                73:   MUD FILTRATE SAMPLE TEMPERATURE
 RMC .OHMM           13.5:   RESISTIVITY MUD CAKE
 MCST.F                73:   MUD CAKE SAMPLE TEMPERATURE
 MFSS.               MEAS:   MUD FILTRATE SAMPLE SOURCE
 MCSS.               MEAS:   MUD CAKE SAMPLE SOURCE
 TCS .HRS            0030:   TIME CURCULATED STOPPED
 LUN .               2503:   LOGGING UNIT NUMBER
 LUL .               CSPR:   LOGGING UNIT LOCATION
 ENGI.           ELLERMAN:   RECORDING ENGINEER
 WITN.          JORGENSON:   WITNESSED BY
 CLNT.            A2DTECH:   CLIENT CODE
 ORIG.           5" PRINT:   ORIGIN OF DATA
 UWI .       490250634600:   UNIQUE WELL ID
 DICO. A2D Technologies, Inc.:   DIGITIZING COMPANY
~OTHER INFORMATION
~A   DEPT      SPR        ASN        ILD       CILD         GR   
# ...
  324.0000   -56.2274     7.9988     7.8624   134.1618  -999.2500
  324.5000   -56.0840     8.0283     7.9344   134.2140  -999.2500
  325.0000   -56.0991     8.0880     8.0046   132.7534  -999.2500
  325.5000   -55.9587     8.0869     8.0756   130.4967  -999.2500
  326.0000   -55.6658     8.1315     8.0690   128.2397  -999.2500
  326.5000   -55.5224     8.1612     8.1410   125.2271  -999.2500
  327.0000   -55.0802     8.3422     8.2116   123.8853  -999.2500
  327.5000   -55.3971     8.5689     8.5085   123.9506  -999.2500
  328.0000   -55.5586     8.7501     8.5033   124.0028  -999.2500
  328.5000   -55.4207     8.7950     8.4980   124.0469  -999.2500
  329.0000   -55.4332     8.6573     8.4928   124.1073  -999.2500
  329.5000   -55.4453     8.6108     8.4875   124.1596  -999.2500
  330.0000   -55.4573     8.6251     8.4823   124.2118  -999.2500
  330.5000   -55.4695     8.6697     8.4770   124.2641  -999.2500
  331.0000   -55.4817     8.7144     8.5477   123.5469  -999.2500
  331.5000   -55.4939     8.8349     8.6183   122.0993  -999.2500
  332.0000   -55.3561     8.9250     8.6889   121.3821  -999.2500
  332.5000   -55.3681     9.0152     8.7620   119.9345  -999.2500
  333.0000   -55.2247     9.1205     8.9120   116.9611  -999.2500
  333.5000   -55.0843     9.2263     9.1379   113.9876  -999.2500
  334.0000   -55.2518     9.4787     9.2878   111.0141  -999.2500
  334.5000   -55.4163     9.6597     9.4214   107.2746  -999.2500
  335.0000   -55.4283     9.7953     9.4920   103.5049  -999.2500
  335.5000   -55.1355     9.9006     9.6385   101.2481  -999.2500
  336.0000   -54.6872    10.0865     9.7837    98.9914  -999.2500
  336.5000   -55.1596    10.3841    10.0061    96.1599  -999.2500
  337.0000   -55.4765    10.6106    10.3043    93.9298  -999.2500
  337.5000   -55.4886    10.9886    10.9819    91.7258  -999.2500
  338.0000   -55.3451    10.9879    11.2056    91.0086  -999.2500
  338.5000   -55.2074    10.4568    10.6679    90.3044  -999.2500
  339.0000   -55.6771    10.6076    10.7385    90.3697  -999.2500
  339.5000   -56.1465    10.8341    11.2644    90.4220  -999.2500
  340.0000   -56.4634    11.2879    11.4122    91.2306  -999.2500
  340.5000   -56.7881    10.7568    10.5710    92.0393  -999.2500
  341.0000   -57.1128    10.3773    10.1105    93.6044  -999.2500
  341.5000   -57.1093    10.3008     9.9536    94.4131  -999.2500
  342.0000   -56.9719    10.2242     9.9483    95.2218  -999.2500
  342.5000   -56.8285    10.1477     9.8672    96.7869  -999.2500
  343.0000   -56.5357    10.0712     9.8619    97.5956  -999.2500
  343.5000   -56.0904     9.9947     9.8566    99.1607  -999.2500
  344.0000   -56.1055    10.0444     9.8513   100.7262  -999.2500
  344.5000   -56.1175    10.0689     9.8460   101.5962  -999.2500
  345.0000   -55.9741     9.9924     9.8396   102.3449  -999.2500
  345.5000   -55.9892     9.9159     9.9116   102.3978  -999.2500
  346.0000   -56.0012     9.9909     9.9050   102.4608  -999.2500
  346.5000   -56.0132    10.0659     9.8239   104.0259  -999.2500
  347.0000   -56.0253    10.0652     9.8186   104.0781  -999.2500
  347.5000   -56.0373    10.0644     9.6616   104.1304  -999.2500
  348.0000   -56.3543    10.0636     9.6564   104.1826  -999.2500
  348.5000   -56.3663     9.9871     9.6511   104.2349  -999.2500
  349.0000   -56.3783     9.9409     9.6459   104.2871  -999.2500
  349.5000   -56.3904     9.8947     9.5648   104.3394  -999.2500
  350.0000   -56.7073     9.8182     9.5595   105.1350  -999.2500
  350.5000   -57.3293     9.7862     9.4784   104.7608  -999.2500
  351.0000   -57.3415     9.7241     9.4731   104.4733  -999.2500
  351.5000   -57.3536     9.6921     9.4679   104.9295  -999.2500
  352.0000   -57.3683     9.6635     9.4588   105.3422  -999.2500
  352.5000   -57.3803     9.6779     9.4613   105.7549  -999.2500
  353.0000   -57.2093     9.7076     9.4568   106.1676  -999.2500
  353.5000   -57.2187     9.6461     9.4522   106.5803  -999.2500
  354.0000   -57.0719     9.5847     9.4476   106.9930  -999.2500
  354.5000   -57.0814     9.5234     9.4422   107.4057  -999.2500
  355.0000   -57.0889     9.4469     9.3618   107.8728  -999.2500
  355.5000   -56.7897     9.3855     9.3574   109.4306  -999.2500
  356.0000   -56.3418     9.3393     9.2770   110.9883  -999.2500
  356.5000   -56.1966     9.2931     9.2725   112.5460  -999.2500
  357.0000   -56.9667     9.2772     9.1163   115.6166  -999.2500
  357.5000   -57.7364     9.2310     8.9601   118.6872  -999.2500
  358.0000   -57.8964     9.1848     8.8038   121.7578  -999.2500
  358.5000   -58.0564     9.0174     8.4959   124.8283  -999.2500
  359.0000   -58.5294     8.7127     8.1879   128.6553  -999.2500
  359.5000   -58.8339     8.4810     7.8799   131.7259  -999.2500
  360.0000   -58.8415     8.2343     7.6478   134.7965  -999.2500
  360.5000   -58.8491     7.9839     7.4916   137.8671  -999.2500
  361.0000   -58.8582     7.7559     7.4112   138.6687  -999.2500
  361.5000   -58.7114     7.6794     7.4826   138.7140  -999.2500
  362.0000   -58.4160     7.6940     7.5619   137.9124  -999.2500
  362.5000   -58.1186     7.8900     7.7137   135.7773  -999.2500
  363.0000   -57.6689     8.1014     7.9233   134.3093  -999.2500
  363.5000   -57.2191     8.4189     8.2223   131.3396  -999.2500
  364.0000   -56.9199     8.5999     8.5983   128.3588  -999.2500
  364.5000   -56.9293     8.6749     8.5168   124.6215  -999.2500
  365.0000   -56.9369     8.7047     8.4364   121.6406  -999.2500
  365.5000   -56.7901     8.7191     8.3561   119.4162  -999.2500
  366.0000   -56.7995     8.7333     8.1998   117.9370  -999.2500
  366.5000   -56.8071     8.7022     8.1954   118.7495  -999.2500
  367.0000   -56.9670     8.6257     8.1909   119.5508  -999.2500
  367.5000   -56.9746     8.5492     8.1864   120.3521  -999.2500
  368.0000   -57.5919     8.4721     8.1819   121.1534  -999.2500
  368.5000   -58.0568     8.4114     8.1774   121.1982  -999.2500
  369.0000   -58.5216     8.3652     8.2484   122.7560  -999.2500
  369.5000   -58.8340     8.3491     8.2443   125.8265  -999.2500
  370.0000   -59.1465     8.3483     8.2397   126.6278  -999.2500
  370.5000   -58.8491     8.3931     8.2352   127.4291  -999.2500
  371.0000   -58.3973     8.4529     8.3067   126.7171  -999.2500
  371.5000   -57.7892     8.5279     8.3011   124.4931  -999.2500
  372.0000   -57.1667     8.5878     8.4484   122.2289  -999.2500
  372.5000   -56.4202     8.6628     8.5956   119.2131  -999.2500
  373.0000   -56.2954     8.7984     8.5912   117.0634  -999.2500
  373.5000   -56.1505     8.8282     8.4349   115.5954  -999.2500
  374.0000   -55.8551     8.7666     8.3546   114.1386  -999.2500
  374.5000   -55.8626     8.8416     8.3501   114.1835  -999.2500
  375.0000   -56.4799     8.9772     8.3456   114.2284  -999.2500
  375.5000   -56.9448     9.0674     8.3411   115.0296  -999.2500
  376.0000   -57.2572     9.0515     8.3366   115.8309  -999.2500
  376.5000   -57.2648     8.9294     8.3321   117.3887  -999.2500
  377.0000   -57.1199     8.8200     8.3277   118.9464  -999.2500
  377.5000   -56.6701     8.7141     8.3991   120.5041  -999.2500
  378.0000   -56.3728     8.7000     8.3946   121.3054  -999.2500
  378.5000   -56.2260     8.7144     8.3900   122.1067  -999.2500
  379.0000   -56.2354     8.7135     8.3854   122.1516  -999.2500
  379.5000   -56.2430     8.7431     8.3800   122.1964  -999.2500
  380.0000   -56.2505     8.7423     8.3755   122.2413  -999.2500
  380.5000   -56.2580     8.7569     8.3717   121.5280  -999.2500
  381.0000   -56.2656     8.7711     8.3665   121.5746  -999.2500
  381.5000   -56.4256     8.7704     8.2862   121.6194  -999.2500
  382.0000   -56.4331     8.7848     8.2821   122.4207  -999.2500
  382.5000   -56.4407     8.7689     8.2772   122.4660  -999.2500
  383.0000   -56.4482     8.7075     8.2727   122.5114  -999.2500
  383.5000   -56.4564     8.6462     8.2682   122.5567  -999.2500
  384.0000   -56.4633     8.6151     8.2638   122.6021  -999.2500
  384.5000   -56.3184     8.6144     8.2593   123.4127  -999.2500
