~VERSION INFORMATION
 VERS.                2.0:   CWLS LOG ASCII STANDARD - VERSION 2.0
 WRAP.                 NO:   ONE LINE PER DEPTH STEP
~WELL INFORMATION
#MNEM.UNIT      DATA TYPE    INFORMATION
#----------   ------------   ------------------------------
 STRT.F           22.0000:   START DEPTH
 STOP.F          500.0000:   STOP DEPTH
 STEP.F            0.5000:   STEP LENGTH
 NULL.          -999.2500:   NO VALUE
 COMP.    FENIX & SCISSON:   COMPANY
 WELL.      NPR-3 #65S3-3:   WELL
 FLD .             teapot:   FIELD
 LOC .       S3 T38N R78W:   LOCATION
 CNTY.            NATRONA:   COUNTY
 STAT.            WYOMING:   STATE
 CTRY. UNITED STATES OF AMERICA:   COUNTRY
 SRVC.           BIRDWELL:   SERVICE COMPANY
 DATE.        07-JAN-1978:   LOGDATE
 API .       490251055200:   API NUMBER
~CURVE INFORMATION
#MNEM.UNIT       API CODE    CURVE DESCRIPTION
#----------   ------------   ------------------------------
 DEPT.F                  :   
 ILD .OHMM   05 120 46 00:   INDUCTION LOG DEEP
 SN  .OHMM   05 040 16 00:   SHORT NORMAL 16"
 SPR .MV     05 010 01 00:   SPONTANEOUS POTENTIAL FROM RES.
 CALD.IN     45 280 60 00:   CALIPER FROM DENSITY LOG
 DPHI.DEC    45 890 12 00:   DENSITY POROSITY SANDSTONE
 DRHO.G/C3   45 356 01 00:   DENSITY CORRECTION
 GRD .GAPI   45 310 01 00:   GAMMA RAY FROM DENSITY LOG
 RHOB.G/C3   45 350 01 00:   BULK DENSITY
~PARAMETER INFORMATION
#MNEM.UNIT          VALUE    DESCRIPTION
#----------   ------------   ------------------------------
 PD  .                 GL:   PERMANENT DATUM
 EPD .F              5156:   ELEVATION PERMANENT DATUM
 LMF .                 KB:   LOG MEASURED FROM
 DAPD.F                 4:   FEET ABOVE PERMANENT DATUM
 DMF .                 KB:   DRILLING MEASURED FROM
 EKB .F              5160:   KELLING BUSHING
 EGL .F              5156:   GROUND LEVEL
 DATE.        07-JAN-1978:   RUN DATE
 RUN .                  1:   RUN NUMBER
 DD  .F               500:   DEPTH DRILLER
 DL  .F               502:   DEPTH LOGGER
 BLI .F               500:   BOTTOM LOG INTERVAL
 TLI .F                30:   TOP LOG INTERVAL
 CS  .IN            8.625:   CASING SIZE
 CBD .F                40:   CASING BOTTOM DRILLER
 CBL .F                40:   CASING BOTTOM LOGGER
 BS  .IN            7.875:   BIT SIZE
 BSD .F               500:   BIT SIZE AT DEPTH
 DFT .                KCL:   DRILLING FLUID TYPE
 DFD .                8.6:   DRILLING FLUID DENSITY
 DFV .                 33:   DRILLING FLUID VISCOSITY
 DFPH.                9.0:   DRILLING FLUID PH
 DFL .                7.6:   DRILLING FLUID LOSS
 MSS .           FLOWLINE:   MUD SAMPLE SOURCE
 RMS .OHMM           0.23:   RESISTIVITY MUD SAMPLE
 MST .F                60:   MUD SAMPLE TEMPERATURE
 RMF .OHMM            2.2:   RESISTIVITY MUD FILTRATE SAMPLE
 MFST.F                60:   MUD FILTRATE SAMPLE TEMPERATURE
 RMC .OHMM            3.4:   RESISTIVITY MUD CAKE
 MCST.F                60:   MUD CAKE SAMPLE TEMPERATURE
 MFSS.               MEAS:   MUD FILTRATE SAMPLE SOURCE
 MCSS.               MEAS:   MUD CAKE SAMPLE SOURCE
 RMB .OHMM            1.9:   RESISTIVITY MUD AT BHT
 BHT .F                71:   BOTTOM HOLE TEMPERATURE
 TCS .HRS               8:   TIME CURCULATED STOPPED
 MRT .F                71:   MAXIMUM RECORDED TEMPERATURE
 LUN .               2958:   LOGGING UNIT NUMBER
 LUL .             CASPER:   LOGGING UNIT LOCATION
 ENGI.            POINTER:   RECORDING ENGINEER
 WITN.      DAVE MCGINLEY:   WITNESSED BY
 CLNT.            A2DTECH:   CLIENT CODE
 ORIG.           5" PRINT:   ORIGIN OF DATA
 UWI .       490251055200:   UNIQUE WELL ID
 DICO. A2D Technologies, Inc.:   DIGITIZING COMPANY
~OTHER INFORMATION
~A   DEPT      ILD         SN        SPR       CALD       DPHI       DRHO         GRD      RHOB   
# ...
  224.5000     6.0493     9.9585   -42.8050     8.0669     0.1230     0.0132   108.0367     2.4501
  225.0000     5.6753     9.8791   -43.1298     8.0666     0.1305     0.0147   108.3675     2.4389
  225.5000     5.3992     9.5972   -43.4550     8.0664     0.1317     0.0185   108.6917     2.4284
  226.0000     5.1366     9.1939   -43.7841     8.0661     0.1398     0.0231   109.0159     2.4209
  226.5000     5.0251     9.1204   -44.1088     8.0659     0.1370     0.0306   109.3401     2.4172
  227.0000     5.0199     9.1092   -44.2809     8.0656     0.1364     0.0329   109.0624     2.4165
  227.5000     5.0853     9.1660   -44.1476     8.0653     0.1451     0.0269   107.3099     2.4211
  228.0000     5.1515     9.2831   -42.9456     8.0651     0.1424     0.0006   106.7346     2.4213
  228.5000     5.2563     9.5363   -42.0490     8.0648     0.1361     0.0066   109.1487     2.4091
  229.0000     5.4032    10.0038   -41.9109     8.0646     0.1156     0.0082   110.9610     2.4385
  229.5000     5.7009    10.3487   -41.9351     8.0643     0.1096     0.0089   110.3923     2.4618
  230.0000     6.0220    10.6310   -41.9545     8.0641     0.1087     0.0067   109.2284     2.4603
  230.5000     6.7264    11.0007   -41.8212     8.0638     0.1126     0.0030   110.4454     2.4574
  231.0000     7.2052    11.3884   -41.8412     8.0636     0.1156     0.0007   111.6625     2.4499
  231.5000     7.2501    11.7688   -41.5547     8.0633     0.1153    -0.0015   112.5819     2.4484
  232.0000     7.2934    11.8392   -40.9634     8.0631     0.1177    -0.0037   111.1204     2.4485
  232.5000     7.2841    11.9904   -40.6774     8.0628     0.1218    -0.0014   106.9803     2.4440
  233.0000     7.2767    11.9782   -40.3915     8.0625     0.1113     0.0047   105.8155     2.4426
  233.5000     7.2692    11.8001   -40.8738     8.0623     0.1146     0.0047   107.0334     2.4509
  234.0000     7.3127    11.7880   -41.3512     8.0620     0.1153     0.0048   108.8457     2.4652
  234.5000     7.3545    11.7760   -41.3706     8.0618     0.1119     0.0093   109.1721     2.4772
  235.0000     7.4521    11.7639   -41.2366     8.0615     0.1065     0.0100   109.7939     2.4743
  235.5000     7.4966    11.7520   -41.2567     8.0613     0.0974     0.0108   109.8204     2.4796
  236.0000     7.4871    11.8223   -41.1234     8.0610     0.0968     0.0131   109.2518     2.4841
  236.5000     7.4794    11.8930   -40.9901     8.0608     0.0980     0.0162   108.3788     2.4849
  237.0000     7.4198    11.8779   -41.0144     8.0605     0.0950     0.0162   107.8102     2.4812
  237.5000     7.4123    12.0327   -41.0338     8.0603     0.0959     0.0132   107.2481     2.4865
  238.0000     7.4047    11.9368   -40.8956     8.0600     0.0974     0.0087   106.6795     2.4865
  238.5000     7.3971    11.7592   -40.9199     8.0597     0.1003     0.0087   106.1101     2.4820
  239.0000     7.3380    11.6655   -40.7866     8.0595     0.1090     0.0027   107.0302     2.4774
  239.5000     7.3289    11.6536   -40.8060     8.0592     0.1111     0.0043   108.2472     2.4700
  240.0000     7.3214    11.7339   -40.8254     8.0590     0.1060     0.0141   109.4643     2.4578
  240.5000     7.3139    11.7934   -40.8448     8.0587     0.1036     0.0171   109.7887     2.4677
  241.0000     7.3576    11.7784   -41.0169     8.0585     0.1033     0.0096   108.5853     2.4749
  241.5000     7.4034    11.7664   -41.1893     8.0582     0.1033     0.0074   107.4606     2.4786
  242.0000     7.3940    11.7544   -41.3883     8.0580     0.1038     0.0067   108.4206     2.4719
  242.5000     7.3351    11.7425   -41.2277     8.0577     0.1050     0.0060   109.6478     2.4667
  243.0000     7.1758    11.7305   -40.6413     8.0575     0.1074     0.0060   112.0113     2.4682
  243.5000     6.9679    11.7185   -40.1978     8.0572     0.1114     0.0091   114.3548     2.4713
  244.0000     6.5736    11.5442   -40.5274     8.0569     0.1107     0.0146   118.1148     2.4601
  244.5000     6.4864    11.3722   -41.1575     8.0567     0.1059     0.0221   120.1613     2.4564
  245.0000     6.4798    11.1226   -41.4822     8.0564     0.1116     0.0250   118.7097     2.4639
  245.5000     6.5202    10.8809   -41.8069     8.0562     0.1182     0.0122   115.8064     2.4617
  246.0000     6.4666    10.4969   -41.9790     8.0559     0.1247     0.0107   111.8730     2.4483
  246.5000     6.4600    10.3434   -41.9985     8.0557     0.1175     0.0145   110.4049     2.4385
  247.0000     6.1888    10.4782   -42.0183     8.0554     0.1139     0.0213   111.9262     2.4446
  247.5000     6.0968    10.6864   -42.1947     8.0552     0.1145     0.0229   113.1432     2.4491
  248.0000     6.0906    10.5274   -42.5195     8.0549     0.1190     0.0176   113.1698     2.4522
  248.5000     5.6322    10.2268   -42.8442     8.0547     0.1259     0.0214   112.0059     2.4470
  249.0000     5.3606     9.8503   -43.3216     8.0544     0.1307     0.0275   111.4305     2.4230
  249.5000     5.2797     9.2533   -43.7990     8.0541     0.1324     0.0290   112.0590     2.4208
  250.0000     5.3489     9.6410   -43.9662     8.0539     0.1447     0.0170   110.5952     2.4179
  250.5000     5.2695     9.6316   -43.1888     8.0539     0.1465     0.0011   111.4881     2.4081
  251.0000     5.2641     9.7581   -42.4959     8.0538     0.1311     0.0080   111.7857     2.3961
  251.5000     5.2991    10.0227   -42.2142     8.0537     0.1125     0.0125   111.7857     2.4374
  252.0000     5.6712    10.3690   -41.6271     8.0537     0.1086     0.0125   110.2976     2.4532
  252.5000     6.0749    10.5785   -41.4921     8.0536     0.1037     0.0163   105.2381     2.4585
  253.0000     6.6915    10.7196   -41.5217     8.0536     0.1001     0.0201   106.7262     2.4698
  253.5000     6.9705    10.8577   -41.6980     8.0535     0.0990     0.0208   109.1071     2.4758
  254.0000     7.0140    10.9282   -42.0269     8.0535     0.1014     0.0194   108.2143     2.4773
  254.5000     6.9565    10.9894   -41.4458     8.0534     0.1017     0.0171   107.8621     2.4766
  255.0000     6.8435    10.9764   -41.3108     8.0534     0.1044     0.0149   110.0000     2.4721
  255.5000     6.4279    10.8897   -41.7984     8.0533     0.1086     0.0171   111.7857     2.4676
  256.0000     6.0728    10.7286   -41.8220     8.0533     0.1065     0.0209   112.6786     2.4631
  256.5000     5.6184    10.4232   -41.9983     8.0532     0.1092     0.0247   112.9762     2.4669
  257.0000     5.3080     9.9861   -42.6326     8.0532     0.1124     0.0270   112.6786     2.4639
  257.5000     5.1567     9.4346   -43.2824     8.0531     0.1205     0.0262   111.4881     2.4572
  258.0000     5.0801     9.3586   -43.6017     8.0531     0.1397    -0.0024   108.2143     2.4415
  258.5000     5.0749     9.2201   -43.1674     8.0530     0.1379    -0.0062   107.0089     2.4227
  259.0000     5.1041     9.2114   -42.2749     8.0530     0.1280    -0.0016   108.8095     2.4175
  259.5000     5.2068     9.3321   -41.5352     8.0529     0.1127    -0.0008   110.0000     2.4468
  260.0000     5.5386     9.6545   -41.5588     8.0529     0.1082    -0.0001   109.4048     2.4573
  260.5000     5.8917    10.2087   -41.5824     8.0528     0.1043     0.0045   110.0050     2.4618
  261.0000     6.3997    10.8482   -41.6061     8.0527     0.0970     0.0060   112.0933     2.4671
  261.5000     6.9516    11.3017   -41.6297     8.0527     0.0859     0.0105   113.2738     2.4776
  262.0000     7.3486    11.6922   -41.5006     8.0526     0.0811     0.0166   111.4485     2.4904
  262.5000     7.6476    11.9284   -41.3775     8.0526     0.0754     0.0211   109.3800     2.4987
  263.0000     7.8034    12.2547   -41.0958     8.0525     0.0757     0.0166   108.1845     2.5062
  263.5000     7.8501    12.5023   -40.3560     8.0525     0.0814     0.0120   106.3591     2.5160
  264.0000     7.8402    12.5780   -40.9903     8.0524     0.0844     0.0166   103.4127     2.5010
  264.5000     7.8891    12.5631   -40.4033     8.0524     0.0828     0.0151   104.0922     2.4943
