~VERSION INFORMATION
 VERS.                2.0:   CWLS LOG ASCII STANDARD - VERSION 2.0
 WRAP.                 NO:   ONE LINE PER DEPTH STEP
~WELL INFORMATION
#MNEM.UNIT      DATA TYPE    INFORMATION
#----------   ------------   ------------------------------
 STRT.F           20.0000:   START DEPTH
 STOP.F          541.0000:   STOP DEPTH
 STEP.F            0.5000:   STEP LENGTH
 NULL.          -999.2500:   NO VALUE
 COMP. LAWRENCE/ALLISON INC:   COMPANY
 WELL.   NPR3 #58-66SHX10:   WELL
 FLD .             TEAPOT:   FIELD
 LOC .      S10 T38N R78W:   LOCATION
 CNTY.            NATRONA:   COUNTY
 STAT.            WYOMING:   STATE
 CTRY. UNITED STATES OF AMERICA:   COUNTRY
 SRVC.           Gearhart:   SERVICE COMPANY
 DATE.        15-JUN-1986:   LOGDATE
 API .       490251108800:   API NUMBER
~CURVE INFORMATION
#MNEM.UNIT       API CODE    CURVE DESCRIPTION
#----------   ------------   ------------------------------
 DEPT.F                  :   
 GRR .GAPI   07 310 01 00:   GAMMA RAY FROM RES. LOG.
 RILD.OHMM   07 120 46 00:   INDUCTION LOG DEEP RESISTIVITY
 RILM.OHMM   07 120 44 00:   INDUCTION LOG MEDIUM
~PARAMETER INFORMATION
#MNEM.UNIT          VALUE    DESCRIPTION
#----------   ------------   ------------------------------
 PD  .                 GL:   PERMANENT DATUM
 EPD .F              5196:   ELEVATION PERMANENT DATUM
 LMF .                 KB:   LOG MEASURED FROM
 DAPD.F                 5:   FEET ABOVE PERMANENT DATUM
 DMF .                 KB:   DRILLING MEASURED FROM
 EKB .F              5201:   KELLING BUSHING
 EGL .F              5196:   GROUND LEVEL
 DATE.          6-15-1986:   RUN DATE
 RUN .                  1:   RUN NUMBER
 DD  .F               554:   DEPTH DRILLER
 DL  .F               550:   DEPTH LOGGER
 BLI .F               549:   BOTTOM LOG INTERVAL
 TLI .F                47:   TOP LOG INTERVAL
 CS  .IN            8.625:   CASING SIZE
 CBD .F                47:   CASING BOTTOM DRILLER
 BS  .IN            7.875:   BIT SIZE
 BSD .F               554:   BIT SIZE AT DEPTH
 DFT .        AIR DRILLED:   DRILLING FLUID TYPE
 TLAB.HRS            0600:   TIME LOGGER AT BOTTOM
 MRT .F                65:   MAXIMUM RECORDED TEMPERATURE
 LUN .               7609:   LOGGING UNIT NUMBER
 LUL .           GILLETTE:   LOGGING UNIT LOCATION
 ENGI.         WEATHERMON:   RECORDING ENGINEER
 WITN.              FIVAS:   WITNESSED BY
 CLNT.            A2DTECH:   CLIENT CODE
 ORIG.       2", 5" PRINT:   ORIGIN OF DATA
 UWI .       490251108800:   UNIQUE WELL ID
 DICO. A2D Technologies, Inc.:   DIGITIZING COMPANY
~OTHER INFORMATION
~A   DEPT       GRR      RILD       RILM   
   20.0000    83.6032  -999.2500  -999.2500
   20.5000    82.7733  -999.2500  -999.2500
   21.0000    81.1741  -999.2500  -999.2500
   21.5000    81.5522  -999.2500  -999.2500
   22.0000    82.0699  -999.2500  -999.2500
   22.5000    82.6396  -999.2500  -999.2500
   23.0000    81.5226  -999.2500  -999.2500
   23.5000    79.6724  -999.2500  -999.2500
   24.0000    77.7935  -999.2500  -999.2500
   24.5000    78.1687  -999.2500  -999.2500
   25.0000    80.5337  -999.2500  -999.2500
   25.5000    82.6923  -999.2500  -999.2500
   26.0000    81.5665  -999.2500  -999.2500
   26.5000    80.4153  -999.2500  -999.2500
   27.0000    80.8640  -999.2500  -999.2500
   27.5000    81.3610  -999.2500  -999.2500
   28.0000    82.7708  -999.2500  -999.2500
   28.5000    85.8054  -999.2500  -999.2500
   29.0000    89.1355  -999.2500  -999.2500
   29.5000    90.0758  -999.2500  -999.2500
   30.0000    85.0385  -999.2500  -999.2500
   30.5000    76.1195  -999.2500  -999.2500
   31.0000    72.4894  -999.2500  -999.2500
   31.5000    68.9825  -999.2500  -999.2500
   32.0000    66.1775  -999.2500  -999.2500
   32.5000    63.8737  -999.2500  -999.2500
   33.0000    62.2219  -999.2500  -999.2500
   33.5000    62.9308  -999.2500  -999.2500
   34.0000    65.9903  -999.2500  -999.2500
   34.5000    69.3146  -999.2500  -999.2500
   35.0000    72.6766  -999.2500  -999.2500
   35.5000    74.8582  -999.2500  -999.2500
   36.0000    71.5689  -999.2500  -999.2500
   36.5000    68.2516  -999.2500  -999.2500
   37.0000    64.9901  -999.2500  -999.2500
   37.5000    64.7746  -999.2500  -999.2500
   38.0000    65.4582  -999.2500  -999.2500
   38.5000    63.4583  -999.2500  -999.2500
   39.0000    61.3605  -999.2500  -999.2500
   39.5000    61.4654  -999.2500  -999.2500
   40.0000    65.5684  -999.2500  -999.2500
   40.5000    71.7118  -999.2500  -999.2500
   41.0000    72.5360  -999.2500  -999.2500
   41.5000    71.8834  -999.2500  -999.2500
   42.0000    69.8473  -999.2500  -999.2500
   42.5000    68.6865  -999.2500  -999.2500
   43.0000    69.7061  -999.2500  -999.2500
   43.5000    70.8273  -999.2500  -999.2500
   44.0000    71.3769  -999.2500  -999.2500
   44.5000    71.9062  -999.2500  -999.2500
   45.0000    75.6578  -999.2500  -999.2500
   45.5000    85.2571  -999.2500  -999.2500
   46.0000    96.6189  -999.2500  -999.2500
   46.5000   107.1130  -999.2500  -999.2500
   47.0000   111.0552     4.7816   108.6045
   47.5000   112.0159     4.1769    29.4602
   48.0000   113.4189     3.9683     9.0976
   48.5000   118.1860     3.9314     7.5070
   49.0000   124.0456     4.1190     4.8939
   49.5000   128.8218     4.9288     4.9104
   50.0000   129.0839     6.0047     5.0317
   50.5000   126.5714     7.3451     5.4672
   51.0000   124.1618     8.0074     6.1120
   51.5000   122.4545     7.7716     6.9145
   52.0000   123.8238     7.5800     7.3419
   52.5000   128.3443     7.3419     7.2063
   53.0000   129.1094     7.5258     7.2800
   53.5000   125.6900     7.7516     7.4233
   54.0000   121.3100     7.9841     7.5501
   54.5000   117.1415     8.2236     7.6052
   55.0000   114.4698     8.2994     7.6922
   55.5000   113.9874     8.3210     7.8208
   56.0000   115.3269     8.3424     7.9978
   56.5000   115.8252     8.3653     8.1789
   57.0000   116.1455     8.5113     8.3640
   57.5000   116.6547     8.6678     8.5229
   58.0000   118.0920     8.8272     8.6886
   58.5000   119.0287     8.9893     8.8646
   59.0000   117.5493     9.1544     9.0442
   59.5000   114.1996     9.3225     9.2274
   60.0000   110.7771     9.4937     9.4143
   60.5000   107.5683     9.5704     9.5726
   61.0000   107.6777     9.6209     9.7110
   61.5000   108.7329     9.6209     9.6380
   62.0000   109.5782     9.5871     9.5857
   62.5000   109.8287     9.5629     9.5337
   63.0000   111.8220     9.5387     9.4820
   63.5000   116.0671     9.5147     9.4305
   64.0000   120.2946     9.4906     9.3793
   64.5000   121.1721     9.4667     9.3284
   65.0000   116.0590     9.4436     9.2688
   65.5000   111.9882     9.4433     9.3005
   66.0000   111.4162     9.4432     9.3392
   66.5000   115.3773     9.4432     9.3782
   67.0000   119.8311     9.4432     9.4172
   67.5000   118.6154     9.4432     9.4565
   68.0000   114.5456     9.4432     9.4959
   68.5000   109.6856     9.4432     9.5355
   69.0000   105.3679     9.4434     9.5753
   69.5000   107.3377     9.4445     9.6209
   70.0000   113.3725     9.3977     9.5747
   70.5000   117.5828     9.3453     9.5211
   71.0000   117.0386     9.2929     9.4678
   71.5000   115.1741     9.2409     9.4148
   72.0000   114.8655     9.1830     9.3559
   72.5000   117.4675     9.2302     9.4039
   73.0000   120.6122     9.2842     9.4589
   73.5000   120.5786     9.3382     9.5143
   74.0000   120.2570     9.3570     9.5316
   74.5000   120.2776     9.2150     9.3888
   75.0000   120.9159     9.1082     9.2802
   75.5000   122.2327     9.0131     9.1818
   76.0000   124.1564     8.9947     9.1833
   76.5000   126.8499     8.9266     9.0976
   77.0000   128.9635     8.8432     9.0131
   77.5000   125.9404     8.7198     8.8844
   78.0000   122.9002     8.5472     8.7080
   78.5000   121.7799     8.3775     8.5351
   79.0000   122.2344     8.2111     8.3656
   79.5000   123.5708     8.0481     8.1995
   80.0000   125.4131     7.8882     8.0367
   80.5000   128.4824     7.7316     7.8771
   81.0000   130.6828     7.5781     7.7207
   81.5000   129.3338     7.4801     7.6208
   82.0000   125.9946     7.4801     7.6208
   82.5000   123.6777     7.6542     7.8182
   83.0000   122.6061     7.8406     8.0301
   83.5000   120.9468     8.0316     8.3819
   84.0000   117.3711     8.2273     9.4803
   84.5000   111.0120     8.4277    10.7228
   85.0000   107.1197     8.6330    12.1281
   85.5000   103.1933     8.8467    13.2089
   86.0000   103.0593     8.7646    12.3861
   86.5000   107.6288     8.7832    11.3871
   87.0000   110.9842     8.8147    10.3697
   87.5000   113.1021     8.8466     9.8020
   88.0000   114.7540     8.8785     9.9743
   88.5000   116.4600     8.9100    10.8679
   89.0000   116.4095     8.9795    11.8415
   89.5000   116.3454     9.1012    12.9023
   90.0000   118.5998     9.2252    13.4575
   90.5000   120.8634     9.3509    13.5836
   91.0000   117.1002     9.4781    12.6394
   91.5000   112.5581     9.6071    11.5821
   92.0000   110.1490     9.7379    10.6092
   92.5000   107.4526     9.8704    10.3949
   93.0000   105.5520    10.0048    10.3129
   93.5000   106.4044    10.0800    10.2697
   94.0000   111.3440    10.0110    10.1994
   94.5000   115.9469     9.8594    10.0449
   95.0000   117.4284     9.7100     9.8928
   95.5000   117.8278     9.5630     9.7430
   96.0000   117.4843     9.4182     9.5954
   96.5000   114.9241     9.2755     9.4501
   97.0000   112.4222     9.1351     9.3070
   97.5000   110.5688     8.9967     9.1660
   98.0000   115.2908     8.8605     9.0272
   98.5000   120.5199     8.6832     8.8467
   99.0000   122.4818     8.7646     8.9295
   99.5000   117.9505     8.7646     8.9295
  100.0000   114.5588     8.7646     8.9295
  100.5000   116.7522     8.7646     8.9295
  101.0000   122.1944     8.7646     8.9295
  101.5000   127.5310     8.7646     8.9295
  102.0000   130.8361     8.7646     8.9295
  102.5000   125.0475     8.7646     8.9295
  103.0000   118.2290     8.7646     8.9295
  103.5000   114.6404     8.7646     8.9295
  104.0000   113.8831     8.7646     8.9295
  104.5000   116.1205     8.7646     8.9295
  105.0000   118.2421     8.7642     8.9291
  105.5000   119.9276     8.7631     8.9280
  106.0000   120.7864     8.7646     8.9295
  106.5000   120.9905     8.8467     9.0131
  107.0000   120.2623     8.7494     8.9140
  107.5000   116.8268     8.6793     8.8427
  108.0000   113.5536     8.6098     8.7718
  108.5000   111.8837     8.5409     8.7016
  109.0000   115.2046     8.4725     8.6320
  109.5000   121.3308     8.4047     8.5628
  110.0000   127.4441     8.3654     8.5229
  110.5000   129.5361     8.4748     8.6473
