~VERSION INFORMATION
 VERS.                2.0:   CWLS LOG ASCII STANDARD - VERSION 2.0
 WRAP.                 NO:   ONE LINE PER DEPTH STEP
~WELL INFORMATION
#MNEM.UNIT      DATA TYPE    INFORMATION
#----------   ------------   ------------------------------
 STRT.F           60.0000:   START DEPTH
 STOP.F          945.0000:   STOP DEPTH
 STEP.F            0.5000:   STEP LENGTH
 NULL.          -999.2500:   NO VALUE
 COMP.          U.S. NAVY:   COMPANY
 WELL. RES 3 TEAPOT DOM #48S-35:   WELL
 FLD .           TEAPOT E:   FIELD
 LOC .      S35 T39N R78W:   LOCATION
 CNTY.            NATRONA:   COUNTY
 STAT.            WYOMING:   STATE
 CTRY. UNITED STATES OF AMERICA:   COUNTRY
 SRVC.       Schlumberger:   SERVICE COMPANY
 DATE.        15-JUL-1964:   LOGDATE
 API .       490250649200:   API NUMBER
~CURVE INFORMATION
#MNEM.UNIT       API CODE    CURVE DESCRIPTION
#----------   ------------   ------------------------------
 DEPT.F                  :   
 SPR .MV     05 010 01 00:   SPONTANEOUS POTENTIAL FROM RES.
 ILD .OHMM   05 120 46 00:   INDUCTION LOG DEEP
 ASN .OHMM   05 041 18 00:   AMPLIFIED SHORT NORMAL 18"
 CILD.MMHO   05 110 46 00:   CONDUCTIVITY INDUCTION LOG DEEP
 CALS.IN     60 280 50 00:   CALIPER FROM SONIC LOG
 DT  .US/F   60 520 00 00:   INTERVAL TRANSIT TIME
 GR  .GAPI   30 310 01 00:   GAMMA RAY
~PARAMETER INFORMATION
#MNEM.UNIT          VALUE    DESCRIPTION
#----------   ------------   ------------------------------
 PD  .                 GL:   PERMANENT DATUM
 EPD .F              5123:   ELEVATION PERMANENT DATUM
 LMF .                 KB:   LOG MEASURED FROM
 DAPD.F                 5:   FEET ABOVE PERMANENT DATUM
 DMF .                 KB:   DRILLING MEASURED FROM
 EKB .F              5128:   KELLING BUSHING
 EGL .F              5123:   GROUND LEVEL
 DATE.        15-JUL-1964:   RUN DATE
 RUN .                  1:   RUN NUMBER
 DD  .F               945:   DEPTH DRILLER
 DL  .F               946:   DEPTH LOGGER
 BLI .F               945:   BOTTOM LOG INTERVAL
 TLI .F                94:   TOP LOG INTERVAL
 CS  .IN            8.625:   CASING SIZE
 CBD .F                10:   CASING BOTTOM DRILLER
 BS  .IN             6.75:   BIT SIZE
 BSD .F               945:   BIT SIZE AT DEPTH
 DFT .                GEL:   DRILLING FLUID TYPE
 DFD .                9.5:   DRILLING FLUID DENSITY
 DFV .                 44:   DRILLING FLUID VISCOSITY
 DFPH.                8.0:   DRILLING FLUID PH
 DFL .               10.5:   DRILLING FLUID LOSS
 MSS .           FLOWLINE:   MUD SAMPLE SOURCE
 RMS .OHMM           3.37:   RESISTIVITY MUD SAMPLE
 MST .F                74:   MUD SAMPLE TEMPERATURE
 RMF .OHMM           2.97:   RESISTIVITY MUD FILTRATE SAMPLE
 MFST.F                78:   MUD FILTRATE SAMPLE TEMPERATURE
 MFSS.                 FP:   MUD FILTRATE SAMPLE SOURCE
 TCS .HRS             1.5:   TIME CURCULATED STOPPED
 MRT .F       T. L. T. M.:   MAXIMUM RECORDED TEMPERATURE
 LUN .               3527:   LOGGING UNIT NUMBER
 LUL .               CSPR:   LOGGING UNIT LOCATION
 ENGI.            WINKLER:   RECORDING ENGINEER
 WITN.          JORGENSEN:   WITNESSED BY
 CLNT.            A2DTECH:   CLIENT CODE
 ORIG.           2" PRINT:   ORIGIN OF DATA
 UWI .       490250649200:   UNIQUE WELL ID
 DICO. A2D Technologies, Inc.:   DIGITIZING COMPANY
~OTHER INFORMATION
~A   DEPT      SPR        ILD        ASN       CILD         CALS       DT         GR   
# ...
  742.5000   -42.3026     6.0178     7.7947   165.4301     6.6410   102.9093    97.8790
  743.0000   -41.7437     5.8109     7.6582   171.6037     6.6396   102.4615    98.1709
  743.5000   -41.1467     5.4731     7.5473   180.7309     6.6381   102.3904    98.6133
  744.0000   -40.6697     4.9717     7.4054   190.2129     6.6367   102.5487    98.9074
  744.5000   -40.5464     4.6473     7.1506   208.8076     6.6507   102.9278    97.5407
  745.0000   -40.3973     4.2691     7.0187   229.2045     6.6489   103.3843    98.5846
  745.5000   -40.2161     3.9255     6.7833   242.0788     6.6471   103.9161   102.4855
  746.0000   -40.0989     3.7386     6.3409   247.1568     6.6456   104.4480   106.0857
  746.5000   -39.9498     3.6133     6.0630   248.8902     6.6442   104.7537   105.0242
  747.0000   -39.9505     3.4791     5.7029   247.3706     6.6427   105.1364   104.5643
  747.5000   -39.9513     3.4801     5.5763   245.5429     6.6413   105.5171   105.7607
  748.0000   -40.0439     3.5942     5.5616   242.3229     6.6398   105.8982   104.9977
  748.5000   -40.1467     3.9322     5.5842   231.4503     6.6380   106.3547   101.5303
  749.0000   -40.5532     4.3930     5.7876   220.3046     6.6366   107.1880    97.7598
  749.5000   -40.9978     4.9044     6.1206   207.7880     6.6351   108.3981    97.9036
  750.0000   -41.1544     5.2849     6.7068   182.1966     6.6340   110.2110    98.6452
  750.5000   -41.3051     5.7360     7.1400   166.9022     6.6078   110.5572   100.2907
  751.0000   -41.1559     5.9428     7.2632   159.7572     6.5866   110.7491   100.8858
  751.5000   -41.1567     6.1173     7.3937   157.1854     6.6011   110.5910    98.1662
  752.0000   -41.1494     6.2640     7.5165   156.7473     6.6153   109.9284    97.1049
  752.5000   -40.8584     6.3725     7.6374   156.4204     6.6296   107.4460    96.0437
  753.0000   -40.7971     6.4251     7.7768   154.9014     6.6436   105.7924    94.3810
  753.5000   -40.5599     6.4923     7.8930   152.7119     6.6425   107.0025    91.9642
  754.0000   -40.5608     6.6052     8.0057   149.3534     6.6417   107.0248    88.6474
  754.5000   -40.5615     6.7192     8.1130   148.8295     6.6257   106.3912    89.9922
  755.0000   -40.5623     6.7205     8.1644   148.8251     6.6246   105.7356    95.9986
  755.5000   -40.5630     6.7215     8.2249   148.8220     6.6388   105.2124    98.5464
  756.0000   -40.5637     6.7226     8.2304   148.8182     6.6380   104.0864   101.2425
  756.5000   -40.5645     6.7238     8.2410   148.8138     6.6371   103.1865   104.2414
  757.0000   -40.5653     6.7249     8.2561   148.8106     6.6516   102.5126   102.4283
  757.5000   -40.5660     6.7260     8.2355   148.8888     6.6505   102.1376    97.1566
  758.0000   -40.5667     6.7271     8.2084   150.3177     6.6494   101.8431    96.6969
  758.5000   -40.4176     6.7528     8.1221   151.4343     6.6485   102.2253    96.0846
  759.0000   -40.4183     6.7294     8.0276   151.9496     6.6476   102.6064    95.9278
  759.5000   -40.4190     6.7270     7.9823   154.0944     6.6467   102.9122   103.2855
  760.0000   -40.4198     6.6566     7.9280   155.6567     6.6459   103.1426   101.7731
  760.5000   -40.4205     6.1690     7.9061   158.3716     6.6450   103.4484   102.3661
  761.0000   -40.4213     5.5775     7.8812   164.6892     6.6439   103.8383   105.8140
  761.5000   -40.4221     5.0860     7.8390   181.9365     6.6430   104.3625   100.6926
  762.0000   -40.4228     4.8291     7.7618   203.4656     6.6422   104.5929   102.0374
  762.5000   -40.2735     4.6133     7.5406   220.7386     6.6412   104.8987   105.9386
  763.0000   -40.2744     4.3397     6.9843   222.7375     6.6557   105.0538   106.8344
  763.5000   -40.2752     4.3002     6.4976   224.2590     6.6547   104.9827   105.3178
  764.0000   -40.2758     4.1168     6.2341   226.7982     6.6691   104.9078   103.8054
  764.5000   -40.2686     4.1181     6.1896   229.8137     6.6832   104.6901   102.4435
  765.0000   -40.1275     4.0442     6.1171   229.5202     6.6670   104.5448   100.7807
  765.5000   -40.1282     4.1203     5.6408   226.6209     6.6661   104.4727    98.2158
  766.0000   -40.1289     4.1964     5.6952   222.2267     6.6652   104.4781    91.5885
  766.5000   -40.1298     4.3969     6.2688   213.9313     6.6794   105.2360    91.4317
  767.0000   -40.1304     4.6744     6.7625   203.8509     6.6786   110.0633    96.3833
  767.5000   -40.1312     4.7995     6.8074   203.1313     6.6775   111.5750   104.4951
  768.0000   -40.1320     4.7258     6.8079   204.7779     6.6767   111.7310   108.8474
  768.5000   -40.1327     4.6518     6.7874   206.5694     6.6757   112.2628   110.6411
  769.0000   -40.1335     4.5779     6.6324   208.5679     6.6750   112.9454   111.3887
  769.5000   -40.1342     4.5792     6.0432   209.3220     6.6739   113.3255   109.1202
  770.0000   -40.1349     4.5802     6.0931   208.3839     6.6731   107.5283   109.4124
  770.5000   -40.1357     4.6563     6.1825   206.2839     6.6720   106.1560   114.5166
  771.0000   -40.1365     4.6575     6.2395   199.5932     6.6712   105.4281   117.9645
  771.5000   -40.2231     5.0019     6.3411   186.4505     6.6703   105.8846   114.3469
  772.0000   -40.3258     5.6231     6.6690   174.4545     6.6694   107.5468   111.9323
  772.5000   -40.5885     5.9352     7.0515   168.6680     6.6685   111.6959   111.4726
  773.0000   -40.9231     6.0113     7.1884   163.5808     6.6677   113.4334   109.0580
  773.5000   -41.2336     6.0873     7.3017   161.5644     6.6668   112.8304   100.9269
  774.0000   -41.4903     6.0135     7.4129   161.5600     6.6657   111.8607    94.4522
  774.5000   -41.2431     5.8427     7.4989   164.5811     6.6648   109.9811    95.0451
  775.0000   -40.9420     5.4660     7.5676   176.7675     6.6640   106.8958    96.3899
  775.5000   -40.5888     4.9644     7.5792   194.1245     6.6631   104.7148    97.5843
  776.0000   -39.9941     4.6689     7.5461   202.7275     6.6622   103.9655    99.5285
  776.5000   -39.7889     4.6698     7.2546   203.9662     6.6613   103.5177   101.1740
  777.0000   -39.6956     4.6709     6.7245   200.9314     6.6603   103.6262   102.0699
  777.5000   -39.8464     4.6722     6.5399   198.2574     6.6595   104.5825   100.1042
  778.0000   -39.9091     4.7072     6.5150   195.9394     6.6585   104.1348   103.5543
  778.5000   -40.1756     4.8451     6.5307   191.0717     6.6576   103.1594   108.6563
  779.0000   -40.5983     5.1253     6.5609   186.3308     6.6568   103.0120   107.4447
  779.5000   -40.5989     5.3917     6.7635   181.0323     6.6559   105.7303   105.1805
  780.0000   -40.4298     5.8471     7.4014   172.8786     6.6549   108.3172   104.5726
  780.5000   -40.1508     6.2531     7.9734   161.3038     6.6694   107.9255   108.0205
  781.0000   -40.0774     6.5649     8.1219   143.9216     6.6682   107.3270   110.7165
  781.5000   -40.0022     6.8190     8.2845   139.5341     6.6522   107.1052   112.3621
  782.0000   -40.1530     7.0810     8.4850   137.2568     6.6513   105.3764   107.2407
  782.5000   -40.3836     7.2045     8.6554   136.4962     6.6657   102.3664   101.8186
  783.0000   -40.4543     7.3321     8.7954   136.4924     6.6647   101.0887   100.4588
  783.5000   -40.4551     7.3842     8.9066   136.4880     6.6637   100.4036   103.4534
  784.0000   -40.4558     7.3855     8.9676   136.1718     6.6628   100.0434   103.7498
  784.5000   -40.4565     7.4614     9.0335   135.6490     6.6619   100.1242   103.2859
  785.0000   -40.4573     7.4625     9.0879   134.2041     6.6765   100.2028   102.0742
  785.5000   -40.3081     7.4638     9.1202   133.4432     6.6752   100.1318   100.4094
  786.0000   -40.1588     7.4648     9.1674   132.6819     6.6743    99.8358    99.4986
  786.5000   -40.1597     7.4659     9.1941   133.4352     6.6733    99.2296    98.8885
  787.0000   -40.0105     7.4671     9.2278   136.1364     6.6724    99.0909    97.9776
  787.5000   -40.0112     7.4682     9.2593   137.2164     6.6564    99.3224    96.1645
