~VERSION INFORMATION
 VERS.                2.0:   CWLS LOG ASCII STANDARD - VERSION 2.0
 WRAP.                 NO:   ONE LINE PER DEPTH STEP
~WELL INFORMATION
#MNEM.UNIT      DATA TYPE    INFORMATION
#----------   ------------   ------------------------------
 STRT.F           80.0000:   START DEPTH
 STOP.F          964.0000:   STOP DEPTH
 STEP.F            0.5000:   STEP LENGTH
 NULL.          -999.2500:   NO VALUE
 COMP. U S NAVY-INTEX OIL:   COMPANY
 WELL. N.P.R. #3` #57-S-2:   WELL
 FLD .        TEAPOT DOME:   FIELD
 LOC .       S2 T38N R78W:   LOCATION
 CNTY.            NATRONA:   COUNTY
 STAT.            WYOMING:   STATE
 CTRY. UNITED STATES OF AMERICA:   COUNTRY
 SRVC.       Schlumberger:   SERVICE COMPANY
 DATE.        04-AUG-1961:   LOGDATE
 API .       490250640500:   API NUMBER
~CURVE INFORMATION
#MNEM.UNIT       API CODE    CURVE DESCRIPTION
#----------   ------------   ------------------------------
 DEPT.F                  :   
 GR  .GAPI   30 310 01 00:   GAMMA RAY
 ASN .OHMM   05 041 16 00:   AMPLIFIED SHORT NORMAL 16"
 CILD.MMHO   05 110 46 00:   CONDUCTIVITY INDUCTION LOG DEEP
 ILD .OHMM   05 120 46 00:   INDUCTION LOG DEEP
 SPR .MV     05 010 01 00:   SPONTANEOUS POTENTIAL FROM RES.
~PARAMETER INFORMATION
#MNEM.UNIT          VALUE    DESCRIPTION
#----------   ------------   ------------------------------
 LMF .                 KB:   LOG MEASURED FROM
 DMF .                 KB:   DRILLING MEASURED FROM
 EKB .F              5205:   KELLING BUSHING
 EGL .F              5200:   GROUND LEVEL
 DATE.        04-AUG-1961:   RUN DATE
 RUN .                  1:   RUN NUMBER
 DD  .F               965:   DEPTH DRILLER
 DL  .F               965:   DEPTH LOGGER
 BLI .F               954:   BOTTOM LOG INTERVAL
 TLI .F               150:   TOP LOG INTERVAL
 BS  .IN             6.75:   BIT SIZE
 BSD .F               965:   BIT SIZE AT DEPTH
 DFT .       OIL EMULSION:   DRILLING FLUID TYPE
 DFD .                9.4:   DRILLING FLUID DENSITY
 DFV .                 65:   DRILLING FLUID VISCOSITY
 MSS .           FLOWLINE:   MUD SAMPLE SOURCE
 RMS .OHMM            1.0:   RESISTIVITY MUD SAMPLE
 MST .F                80:   MUD SAMPLE TEMPERATURE
 TCS .HRS               1:   TIME CURCULATED STOPPED
 LUN .               2544:   LOGGING UNIT NUMBER
 LUL .                 NC:   LOGGING UNIT LOCATION
 ENGI.            EARNEST:   RECORDING ENGINEER
 WITN.          JORGENSEN:   WITNESSED BY
 CLNT.            A2DTECH:   CLIENT CODE
 ORIG.        2" 5" PRINT:   ORIGIN OF DATA
 UWI .       490250640500:   UNIQUE WELL ID
 DICO. A2D Technologies, Inc.:   DIGITIZING COMPANY
~OTHER INFORMATION
~A   DEPT       GR        ASN       CILD        ILD        SPR   
# ...
  446.0000  -999.2500     7.1668   175.6757     6.8333   -68.2682
  446.5000  -999.2500     7.1244   178.0756     6.6952   -67.8865
  447.0000  -999.2500     7.0765   178.6787     6.5821   -67.6448
  447.5000  -999.2500     7.0191   177.1772     6.5832   -67.3694
  448.0000  -999.2500     6.9806   175.0550     6.5944   -67.3105
  448.5000  -999.2500     6.9579   174.1192     6.7361   -67.2176
  449.0000  -999.2500     7.0286   171.1712     6.8338   -67.2161
  449.5000  -999.2500     7.1921   169.3268     6.8890   -67.0656
  450.0000  -999.2500     7.3866   165.1652     6.7771   -67.0639
  450.5000  -999.2500     7.4746   163.0055     6.8993   -67.1289
  451.0000  -999.2500     7.5413   160.5956     7.0431   -67.2186
  451.5000  -999.2500     7.6229   158.1857     7.1438   -67.3577
  452.0000  -999.2500     7.6542   156.1562     7.1958   -67.5469
  452.5000  -999.2500     7.6013   153.1532     7.3475   -67.8017
  453.0000  -999.2500     7.5324   152.4574     7.3599   -67.8003
  453.5000  -999.2500     7.5416   150.0476     7.4252   -67.8159
  454.0000  -999.2500     7.6559   147.6376     7.4538   -67.9463
  454.5000  -999.2500     7.7773   143.7262     7.5027   -67.9449
  455.0000  -999.2500     7.9455   141.1411     7.5477   -67.9433
  455.5000  -999.2500     8.0155   139.6396     7.6555   -67.9419
  456.0000  -999.2500     8.0652   141.1411     7.7321   -67.7655
  456.5000  -999.2500     8.0735   141.1411     7.7331   -67.4916
  457.0000  -999.2500     8.0827   141.1411     7.7342   -67.1331
  457.5000  -999.2500     8.1252   144.1441     7.7353   -66.7424
  458.0000  -999.2500     8.1458   145.6857     7.7189   -66.4083
  458.5000  -999.2500     8.1552   150.5055     7.5118   -65.9955
  459.0000  -999.2500     8.1404   156.1562     7.4036   -66.2920
  459.5000  -999.2500     8.0961   159.1592     7.2083   -66.4687
  460.0000  -999.2500     7.9163   159.1592     7.0381   -66.5869
  460.5000  -999.2500     7.7753   159.1592     6.8931   -66.8375
  461.0000  -999.2500     7.6609   159.1592     6.7644   -67.1803
  461.5000  -999.2500     7.5207   159.1592     6.8025   -67.3279
  462.0000  -999.2500     7.3847   159.1592     6.8419   -67.1773
  462.5000  -999.2500     7.3038   157.6577     6.9185   -67.0266
  463.0000  -999.2500     7.3320   157.6577     6.9671   -66.8763
  463.5000  -999.2500     7.3801   157.4048     7.0712   -66.8726
  464.0000  -999.2500     7.4282   156.1562     7.1878   -66.6309
  464.5000  -999.2500     7.4724   155.5881     7.2347   -66.5382
  465.0000  -999.2500     7.5135   153.1532     7.3759   -66.2741
  465.5000  -999.2500     7.5647   153.1532     7.4039   -66.2039
  466.0000  -999.2500     7.7187   152.8629     7.5286   -66.1113
  466.5000  -999.2500     8.0219   151.6517     7.5730   -65.9714
  467.0000  -999.2500     8.1354   150.1501     7.6813   -65.7770
  467.5000  -999.2500     8.1566   150.1501     7.3062   -65.6706
  468.0000  -999.2500     8.0737   150.1501     7.0663   -65.6692
  468.5000  -999.2500     7.8160   150.1501     6.8559   -65.6677
  469.0000  -999.2500     7.6486   148.6487     6.7824   -65.9640
  469.5000  -999.2500     7.5742   147.1471     6.7835   -66.1647
  470.0000  -999.2500     7.4843   145.6456     6.8601   -66.5574
  470.5000  -999.2500     7.4856   144.6872     7.0029   -66.7911
  471.0000  -999.2500     7.5530   144.1441     7.1672   -67.0298
  471.5000  -999.2500     7.6789   144.1441     7.3390   -67.2979
  472.0000  -999.2500     7.7602   144.8249     7.4869   -67.4456
  472.5000  -999.2500     7.8883   147.1471     7.6940   -67.5969
  473.0000  -999.2500     7.9653   149.1390     7.6950   -67.7407
  473.5000  -999.2500     8.0283   153.9589     7.5387   -67.7392
  474.0000  -999.2500     8.0412   159.1592     7.3963   -67.7376
  474.5000  -999.2500     7.8896   163.5986     7.2234   -67.6659
  475.0000  -999.2500     7.6794   168.4182     7.0972   -67.4367
  475.5000  -999.2500     7.5503   174.1742     6.8686   -67.2859
  476.0000  -999.2500     7.3369   176.1162     6.8835   -67.0442
  476.5000  -999.2500     7.1415   177.1772     6.8941   -66.8360
  477.0000  -999.2500     7.0349   177.1772     6.7477   -66.6066
  477.5000  -999.2500     6.9922   178.8414     6.6510   -66.5139
  478.0000  -999.2500     7.0018   180.1802     6.5768   -66.2352
  478.5000  -999.2500     7.0296   180.1802     6.5025   -66.0849
  479.0000  -999.2500     7.0522   178.6787     6.5039   -66.0834
  479.5000  -999.2500     7.0741   177.1772     6.5049   -65.9329
  480.0000  -999.2500     7.0643   176.9770     6.5060   -65.9314
  480.5000  -999.2500     7.0024   174.1742     6.5072   -65.9298
  481.0000  -999.2500     6.9203   173.1433     6.5999   -65.9285
  481.5000  -999.2500     6.8433   171.1712     6.6601   -66.0864
  482.0000  -999.2500     6.8061   168.8388     6.6938   -66.5653
  482.5000  -999.2500     6.7836   165.1652     6.8129   -66.8184
  483.0000  -999.2500     6.7987   163.6637     6.8630   -66.8166
  483.5000  -999.2500     6.8333   162.1622     6.9657   -66.5944
  484.0000  -999.2500     6.9632   159.1592     6.9670   -66.3666
  484.5000  -999.2500     7.1002   156.7893     6.8532   -66.2158
  485.0000  -999.2500     7.2444   152.8778     6.9817   -66.3639
  485.5000  -999.2500     7.4119   150.1501     7.1211   -66.2130
  486.0000  -999.2500     7.4821   145.9660     7.1973   -66.2116
  486.5000  -999.2500     7.5316   144.1441     7.2738   -66.2101
  487.0000  -999.2500     7.5700   141.1411     7.2748   -66.2084
  487.5000  -999.2500     7.5940   141.1411     7.2760   -66.2630
  488.0000  -999.2500     7.6215   141.1411     7.2773   -66.5037
  488.5000  -999.2500     7.6629   144.7722     7.2525   -66.5022
  489.0000  -999.2500     7.6964   147.2172     7.1288   -66.6500
  489.5000  -999.2500     7.6848   152.0370     7.0126   -66.7972
  490.0000  -999.2500     7.6069   156.8569     6.8297   -67.2230
  490.5000  -999.2500     7.4425   162.1622     6.9817   -67.8443
  491.0000  -999.2500     7.3370   164.3293     6.8785   -67.9851
  491.5000  -999.2500     7.2017   166.7393     6.7579   -67.9836
  492.0000  -999.2500     7.1139   168.1682     6.6837   -67.8330
  492.5000  -999.2500     7.0990   167.3924     6.6849   -67.6093
  493.0000  -999.2500     7.1141   165.1652     6.6861   -67.3830
  493.5000  -999.2500     7.1141   162.9604     6.7944   -67.2322
  494.0000  -999.2500     7.1142   160.5505     6.8414   -66.9846
  494.5000  -999.2500     7.1241   157.1221     6.9636   -66.7824
  495.0000  -999.2500     7.1562   152.7277     6.8976   -66.4009
  495.5000  -999.2500     7.2340   150.1501     6.9929   -66.1592
  496.0000  -999.2500     7.3226   146.4064     7.1797   -66.0326
  496.5000  -999.2500     7.4824   143.8491     7.3829   -66.4441
  497.0000  -999.2500     7.7126   139.6396     7.5989   -66.7750
  497.5000  -999.2500     7.8681   137.6751     7.6970   -67.0132
  498.0000  -999.2500     8.0715   135.1351     7.8269   -67.2519
  498.5000  -999.2500     8.2299   135.9134     7.9415   -67.3666
  499.0000  -999.2500     8.3442   138.5085     8.0550   -67.6632
  499.5000  -999.2500     8.3856   144.1441     8.0563   -67.8108
  500.0000  -999.2500     8.1613   148.2777     7.9700   -67.1632
  500.5000  -999.2500     7.5334   153.7211     7.5502   -66.7645
  501.0000  -999.2500     7.4103   159.1645     7.1305   -66.7629
  501.5000  -999.2500     7.2807   165.0956     6.7818   -66.9868
  502.0000  -999.2500     7.1953   170.9212     6.6727   -67.3563
  502.5000  -999.2500     7.1307   174.0628     6.4834   -67.5035
  503.0000  -999.2500     7.0732   169.5305     6.4852   -66.9488
  503.5000  -999.2500     7.0353   165.5230     6.5856   -66.6065
  504.0000  -999.2500     7.0264   160.4797     6.6386   -66.2812
  504.5000  -999.2500     7.0871   157.2598     6.7568   -66.1264
  505.0000  -999.2500     7.1849   154.1542     6.8800   -65.8568
  505.5000  -999.2500     7.4033   152.9026     7.0198   -65.7707
  506.0000  -999.2500     7.5306   149.8799     7.0964   -65.8609
  506.5000  -999.2500     7.6581   148.3559     6.9473   -66.1001
