~VERSION INFORMATION
 VERS.                2.0:   CWLS LOG ASCII STANDARD - VERSION 2.0
 WRAP.                 NO:   ONE LINE PER DEPTH STEP
~WELL INFORMATION
#MNEM.UNIT      DATA TYPE    INFORMATION
#----------   ------------   ------------------------------
 STRT.F           70.0000:   START DEPTH
 STOP.F          865.0000:   STOP DEPTH
 STEP.F            0.5000:   STEP LENGTH
 NULL.          -999.2500:   NO VALUE
 COMP. U S NAVY/INTEX OIL CO:   COMPANY
 WELL.   54S 11 NPR #3-11:   WELL
 FLD .             TEAPOT:   FIELD
 LOC .      S11 T38N R78W:   LOCATION
 CNTY.            NATRONA:   COUNTY
 STAT.            WYOMING:   STATE
 CTRY. UNITED STATES OF AMERICA:   COUNTRY
 SRVC.         Lane Wells:   SERVICE COMPANY
 DATE.        11-MAR-1960:   LOGDATE
 API .       490250634900:   API NUMBER
~CURVE INFORMATION
#MNEM.UNIT       API CODE    CURVE DESCRIPTION
#----------   ------------   ------------------------------
 DEPT.F                  :   
 SPR .MV     05 010 01 00:   SPONTANEOUS POTENTIAL FROM RES.
 ASN .OHMM   05 041 16 00:   AMPLIFIED SHORT NORMAL 16"
 ILD .OHMM   05 120 46 00:   INDUCTION LOG DEEP
 CILD.MMHO   05 110 46 00:   CONDUCTIVITY INDUCTION LOG DEEP
~PARAMETER INFORMATION
#MNEM.UNIT          VALUE    DESCRIPTION
#----------   ------------   ------------------------------
 PD  .                 GL:   PERMANENT DATUM
 EPD .F              5198:   ELEVATION PERMANENT DATUM
 LMF .                 KB:   LOG MEASURED FROM
 DAPD.F                 5:   FEET ABOVE PERMANENT DATUM
 DMF .                 KB:   DRILLING MEASURED FROM
 EKB .F              5203:   KELLING BUSHING
 EGL .F              5198:   GROUND LEVEL
 DATE.            3-11-60:   RUN DATE
 RUN .                  1:   RUN NUMBER
 DD  .F               870:   DEPTH DRILLER
 DL  .F               867:   DEPTH LOGGER
 BLI .F               865:   BOTTOM LOG INTERVAL
 TLI .F                70:   TOP LOG INTERVAL
 CS  .IN            8.625:   CASING SIZE
 CBD .F                12:   CASING BOTTOM DRILLER
 BS  .IN            7.875:   BIT SIZE
 BSD .F               870:   BIT SIZE AT DEPTH
 DFT .   GEL/OIL EMULSION:   DRILLING FLUID TYPE
 DFD .                9.2:   DRILLING FLUID DENSITY
 DFV .                 36:   DRILLING FLUID VISCOSITY
 DFPH.                7.5:   DRILLING FLUID PH
 DFL .                4.4:   DRILLING FLUID LOSS
 MSS .                PIT:   MUD SAMPLE SOURCE
 RMS .OHMM            6.8:   RESISTIVITY MUD SAMPLE
 MST .F                54:   MUD SAMPLE TEMPERATURE
 RMF .OHMM            4.2:   RESISTIVITY MUD FILTRATE SAMPLE
 MFST.F                69:   MUD FILTRATE SAMPLE TEMPERATURE
 RMC .OHMM            5.1:   RESISTIVITY MUD CAKE
 MCST.F                69:   MUD CAKE SAMPLE TEMPERATURE
 MFSS.              PRESS:   MUD FILTRATE SAMPLE SOURCE
 MCSS.              PRESS:   MUD CAKE SAMPLE SOURCE
 RMB .OHMM            5.2:   RESISTIVITY MUD AT BHT
 BHT .F                70:   BOTTOM HOLE TEMPERATURE
 TCS .HRS              .5:   TIME CURCULATED STOPPED
 MRT .F                70:   MAXIMUM RECORDED TEMPERATURE
 LUN .             L-4474:   LOGGING UNIT NUMBER
 LUL .             CASPER:   LOGGING UNIT LOCATION
 ENGI.      GRIGGS/NELSON:   RECORDING ENGINEER
 WITN.   JORGENSEN/HUDSON:   WITNESSED BY
 CLNT.            A2DTECH:   CLIENT CODE
 ORIG.       2", 5" PRINT:   ORIGIN OF DATA
 UWI .       490250634900:   UNIQUE WELL ID
 DICO. A2D Technologies, Inc.:   DIGITIZING COMPANY
~OTHER INFORMATION
~A   DEPT       SPR         ASN        ILD      CILD  
# ...
  508.0000   -15.7409     6.3252     6.3222   195.9675
  508.5000   -15.7530     6.3632     6.3055   196.2003
  509.0000   -15.7651     6.4121     6.2894   194.3765
  509.5000   -15.7772     6.5104     6.3200   192.1703
  510.0000   -15.7892     6.6060     6.3981   189.9642
  510.5000   -15.8013     6.7021     6.4759   187.7580
  511.0000   -15.8134     6.7973     6.5539   185.5518
  511.5000   -15.8254     6.8965     6.6318   183.6918
  512.0000   -15.8372     6.9903     6.7096   183.6918
  512.5000   -15.8492     7.0669     6.7885   183.6918
  513.0000   -15.8788     7.1200     6.7949   183.6918
  513.5000   -16.0311     7.1176     6.7584   183.6918
  514.0000   -16.1844     7.0682     6.7211   183.6918
  514.5000   -16.3374     7.0314     6.6838   183.6918
  515.0000   -16.4915     7.0322     6.6465   185.5114
  515.5000   -16.6762     7.0022     6.6093   187.1988
  516.0000   -16.9064     6.9100     6.5720   188.8861
  516.5000   -17.1350     6.7969     6.5347   190.5735
  517.0000   -17.3647     6.7301     6.4975   192.2608
  517.5000   -17.4301     6.6756     6.4602   193.9482
  518.0000   -17.3022     6.6103     6.4228   195.6355
  518.5000   -17.1738     6.5616     6.3863   197.3229
  519.0000   -17.0451     6.5123     6.3106   199.0102
  519.5000   -16.9166     6.4296     6.2167   200.6981
  520.0000   -16.7882     6.3481     6.1218   202.3858
  520.5000   -16.6597     6.2668     6.0263   204.0900
  521.0000   -16.5311     6.1858     5.9303   204.9038
  521.5000   -16.4027     6.1041     5.9561   204.0612
  522.0000   -16.2735     6.0701     5.9967   203.1998
  522.5000   -16.2399     6.0740     6.0370   202.3409
  523.0000   -16.3669     6.0895     6.0771   201.4850
  523.5000   -16.4939     6.1647     6.1172   200.6350
  524.0000   -16.6206     6.2414     6.1573   199.8107
  524.5000   -16.7471     6.3179     6.1974   197.8934
  525.0000   -16.8737     6.3955     6.2375   196.0581
  525.5000   -17.0002     6.4908     6.2777   194.2286
  526.0000   -17.1268     6.5234     6.3178   192.4014
  526.5000   -17.2534     6.5504     6.3579   190.5735
  527.0000   -17.3800     6.5758     6.3980   189.0681
  527.5000   -17.5077     6.6017     6.4379   189.4127
  528.0000   -17.6397     6.6276     6.4619   189.7643
  528.5000   -17.4588     6.6526     6.4616   190.1158
  529.0000   -17.2297     6.7091     6.4617   190.4673
  529.5000   -16.9998     6.7633     6.4617   190.8189
  530.0000   -16.7588     6.7488     6.4617   190.5821
  530.5000   -16.3123     6.7334     6.4617   190.2670
  531.0000   -16.1748     6.6960     6.4617   189.9518
  531.5000   -16.0971     6.6507     6.4617   189.6366
  532.0000   -16.0217     6.6049     6.4617   189.3215
  532.5000   -15.9457     6.5866     6.4617   189.1259
  533.0000   -15.8737     6.5796     6.4617   189.4207
  533.5000   -15.7024     6.5631     6.4617   189.7152
  534.0000   -15.5240     6.5532     6.4616   190.0110
  534.5000   -15.3452     6.5659     6.4612   190.3083
  535.0000   -15.1668     6.5781     6.4621   190.6001
  535.5000   -14.9883     6.5944     6.5459   190.5914
  536.0000   -14.8101     6.6205     6.6399   188.3065
  536.5000   -14.6359     6.6462     6.7339   186.0215
  537.0000   -14.4097     6.7099     6.8277   183.7366
  537.5000   -14.1802     6.8008     6.9215   181.4516
  538.0000   -13.9491     6.9120     7.0153   179.1667
  538.5000   -13.7201     7.0251     7.1090   176.8817
  539.0000   -13.5866     7.1673     7.2028   174.5968
  539.5000   -13.9889     7.3510     7.2966   172.3118
  540.0000   -14.3813     7.5201     7.3904   170.0269
  540.5000   -14.5555     7.6795     7.4841   167.7419
  541.0000   -14.2961     7.8381     7.5780   165.4570
  541.5000   -14.0456     7.9970     7.6652   163.1720
  542.0000   -13.7927     8.1859     7.7484   160.8871
  542.5000   -13.5428     8.3946     7.8310   158.6022
  543.0000   -13.6296     8.7455     7.9136   156.0430
  543.5000   -13.7395     9.0900     7.9964   153.4839
  544.0000   -13.8480     9.4348     8.0794   150.9247
  544.5000   -13.9523     9.6125     8.1536   148.3656
  545.0000   -14.0535     9.9242     8.1384   146.0573
  545.5000   -14.1547    10.3535     8.1220   146.7524
  546.0000   -14.3052    10.6546     8.1060   147.5230
  546.5000   -14.8094    10.5687     8.0900   148.2937
  547.0000   -15.3196    10.3141     8.0741   149.0643
  547.5000   -15.8343     9.5574     8.0581   149.8349
  548.0000   -15.9442     9.4643     8.0422   150.6055
  548.5000   -15.7972     9.3794     8.0262   151.3761
  549.0000   -15.7352     9.2990     8.0103   152.1467
  549.5000   -16.0058     9.2190     7.9942   152.9173
  550.0000   -16.2689     9.1391     7.9776   153.6880
  550.5000   -16.2350     9.0590     7.9678   154.4586
  551.0000   -15.9198     8.9775     7.9580   155.2292
  551.5000   -15.6033     8.8830     7.9481   155.9998
  552.0000   -15.2843     8.7963     7.9381   156.8100
  552.5000   -15.1770     8.7441     7.9282   156.8100
  553.0000   -15.2660     8.6786     7.9183   156.8100
  553.5000   -15.3567     8.6274     7.9084   156.8100
  554.0000   -15.4477     8.6048     7.8985   156.8104
  554.5000   -15.5384     8.6008     7.8886   156.8119
  555.0000   -15.6290     8.6088     7.8787   156.8086
  555.5000   -15.7197     8.6295     7.8688   156.3916
  556.0000   -15.8106     8.6204     7.8589   155.9766
  556.5000   -15.8900     8.5957     7.8489   155.5610
  557.0000   -15.9560     8.5533     7.8390   155.1589
  557.5000   -16.0218     8.4920     7.8291   155.8007
  558.0000   -16.0878     8.4452     7.8193   156.9951
  558.5000   -16.1537     8.3969     7.8095   158.1783
  559.0000   -16.2197     8.3389     7.7985   159.3611
  559.5000   -16.2856     8.2918     7.7382   160.5439
  560.0000   -16.3516     8.2888     7.6722   161.7267
  560.5000   -16.4177     8.3134     7.6061   162.9100
  561.0000   -16.4833     8.2472     7.5401   164.0946
  561.5000   -16.5509     8.0292     7.4741   165.2751
  562.0000   -16.4605     7.8679     7.4081   165.9997
  562.5000   -16.2637     7.9685     7.3420   166.3940
  563.0000   -16.0653     8.0429     7.2758   166.7873
  563.5000   -15.8667     7.8793     7.2332   167.1758
  564.0000   -15.6685     7.7116     7.1956   167.5691
  564.5000   -15.4700     7.5758     7.1580   169.2199
  565.0000   -15.2778     7.5458     7.1205   170.8202
  565.5000   -15.0879     7.4675     7.0829   172.4204
  566.0000   -14.9011     7.3900     7.0453   174.0207
  566.5000   -14.7145     7.3256     7.0077   175.6209
  567.0000   -14.5277     7.2898     6.9701   177.2212
  567.5000   -14.3415     7.2893     6.9326   178.3764
  568.0000   -14.1539     7.2997     6.8950   178.5694
  568.5000   -14.0807     7.3100     6.8574   178.7623
  569.0000   -14.0996     7.2929     6.8198   178.9552
  569.5000   -14.1202     7.1621     6.7823   179.1482
  570.0000   -14.1410     7.0074     6.7444   179.3411
  570.5000   -14.1616     7.1107     6.7293   179.5341
  571.0000   -14.1822     7.2791     6.7290   179.7270
  571.5000   -14.2029     7.2788     6.7290   179.9199
  572.0000   -14.2238     7.1718     6.7292   180.1075
  572.5000   -14.2463     7.0669     6.7300   183.6918
  573.0000   -14.1742     6.9884     6.7241   187.4624
  573.5000   -14.0870     6.8320     6.6024   191.0896
  574.0000   -13.9995     6.6889     6.4801   194.7168
  574.5000   -13.9123     6.4394     6.3585   198.3441
  575.0000   -13.8251     6.1868     6.2360   201.9713
  575.5000   -13.7379     5.9885     6.1113   205.1971
  576.0000   -13.6507     5.9208     6.1137   204.0551
  576.5000   -13.5631     5.8570     6.1250   202.8044
  577.0000   -13.4768     5.8053     6.1357   201.5536
  577.5000   -13.3861     5.8478     6.1462   200.3028
  578.0000   -13.6971     5.9123     6.1567   199.0520
  578.5000   -14.3118     5.9766     6.1672   198.0855
  579.0000   -14.4101     6.0328     6.1776   198.3982
  579.5000   -14.3914     6.0752     6.1883   198.7109
  580.0000   -14.3693     6.1181     6.2092   199.0236
  580.5000   -14.3485     6.1527     6.2458   199.3363
