~VERSION INFORMATION
 VERS.                2.0:   CWLS LOG ASCII STANDARD - VERSION 2.0
 WRAP.                 NO:   ONE LINE PER DEPTH STEP
~WELL INFORMATION
#MNEM.UNIT      DATA TYPE    INFORMATION
#----------   ------------   ------------------------------
 STRT.F            0.0000:   START DEPTH
 STOP.F         1002.0000:   STOP DEPTH
 STEP.F            0.5000:   STEP LENGTH
 NULL.          -999.2500:   NO VALUE
 COMP. U S NAVY-INTEX OIL:   COMPANY
 WELL.     NPR ##3 28-S-2:   WELL
 FLD .             TEAPOT:   FIELD
 LOC .       S2 T38N R78W:   LOCATION
 CNTY.            NATRONA:   COUNTY
 STAT.            WYOMING:   STATE
 CTRY. UNITED STATES OF AMERICA:   COUNTRY
 SRVC.      NL McCullough:   SERVICE COMPANY
 DATE.        13-JUN-1963:   LOGDATE
 API .       490250639400:   API NUMBER
~CURVE INFORMATION
#MNEM.UNIT       API CODE    CURVE DESCRIPTION
#----------   ------------   ------------------------------
 DEPT.F                  :   
 ASN .OHMM   05 041 16 00:   AMPLIFIED SHORT NORMAL 16"
 ILD .OHMM   05 120 46 00:   INDUCTION LOG DEEP
 CILD.MMHO   05 110 46 00:   CONDUCTIVITY INDUCTION LOG DEEP
 SPR .MV     05 010 01 00:   SPONTANEOUS POTENTIAL FROM RES.
 GR  .GAPI   30 310 01 00:   GAMMA RAY
~PARAMETER INFORMATION
#MNEM.UNIT          VALUE    DESCRIPTION
#----------   ------------   ------------------------------
 PD  .                 GL:   PERMANENT DATUM
 EPD .F              5147:   ELEVATION PERMANENT DATUM
 LMF .                 KB:   LOG MEASURED FROM
 DAPD.F                 5:   FEET ABOVE PERMANENT DATUM
 DMF .                 KB:   DRILLING MEASURED FROM
 EKB .F              5152:   KELLING BUSHING
 EGL .F              5147:   GROUND LEVEL
 DATE.        13-SEP-1963:   RUN DATE
 RUN .                  1:   RUN NUMBER
 BLI .F               600:   BOTTOM LOG INTERVAL
 CS  .IN                7:   CASING SIZE
 DFT .                OIL:   DRILLING FLUID TYPE
 ENGI.            JACKSON:   RECORDING ENGINEER
 WITN.             HUDSON:   WITNESSED BY
 CLNT.            A2DTECH:   CLIENT CODE
 ORIG.           5" PRINT:   ORIGIN OF DATA
 UWI .       490250639400:   UNIQUE WELL ID
 DICO. A2D Technologies, Inc.:   DIGITIZING COMPANY
~OTHER INFORMATION
~A    DEPT     ASN        ILD       CILD        SPR          GR  
# ...
  549.0000    12.4771    11.3900    85.0191   -42.1579    69.6264
  549.5000    12.5540    11.5422    84.2377   -42.1549    64.5759
  550.0000    12.7715    11.7560    82.8427   -42.1521    61.7961
  550.5000    13.1732    12.1330    79.0550   -42.1449    60.7192
  551.0000    13.6055    12.5219    75.2674   -42.2870    62.2148
  551.5000    14.4291    13.6478    69.7751   -42.4289    60.4350
  552.0000    15.6264    15.2235    64.4613   -42.5709    61.4827
  552.5000    17.0479    16.7992    59.1222   -43.0119    63.4231
  553.0000    18.3200    18.1500    53.0223   -43.6023    62.9812
  553.5000    20.4889    19.5009    46.2295   -45.9864    68.1970
  554.0000    22.5083    21.8262    40.9116   -49.4169    67.0124
  554.5000    25.1256    24.4514    36.3916   -50.7547    62.7014
  555.0000    26.2482    28.7257    33.3834   -51.6441    64.4946
  555.5000    26.6234    30.0016    32.5865   -52.0852    67.9232
  556.0000    26.5501    30.1527    33.3535   -52.3767    71.2029
  556.5000    25.9537    28.5803    34.7529   -53.1163    73.2922
  557.0000    25.4320    27.5323    34.7068   -54.0057    73.0006
  557.5000    25.6577    27.1590    34.6628   -54.5961    75.3875
  558.0000    25.9582    27.1605    35.3696   -53.6918    75.9872
  558.5000    25.9597    27.1620    36.0765   -52.4885    69.5953
  559.0000    25.9612    26.8637    36.0301   -52.3315    65.7322
  559.5000    25.9627    26.5653    36.7383   -53.2209    60.5299
  560.0000    25.8894    26.1920    37.4451   -54.5587    59.7417
  560.5000    25.5919    25.7437    37.3985   -54.7025    68.8751
  561.0000    25.2197    25.1455    38.1069   -53.7963    72.7609
  561.5000    24.9223    24.8472    38.8138   -53.4899    69.3334
  562.0000    24.7743    24.6238    39.6394   -52.8845    69.4882
  562.5000    24.4021    24.4004    40.3510   -52.4285    74.4049
  563.0000    24.1027    24.1020    41.0625   -51.8231    74.4621
  563.5000    23.7283    23.6538    42.3930   -51.5167    75.0120
  564.0000    23.3573    23.2804    43.2382   -51.6605    76.3573
  564.5000    23.1335    22.9071    43.9499   -52.3986    68.7739
  565.0000    22.9098    22.5338    45.2654   -52.6919    61.6371
  565.5000    22.6173    22.2355    45.9723   -52.8339    57.1787
  566.0000    22.4623    21.9371    45.9160   -51.9277    55.9940
  566.5000    22.3961    21.5638    46.6341   -51.0233    59.5716
  567.0000    22.3976    21.2654    46.5778   -49.9695    64.7859
  567.5000    22.3243    21.1916    45.7808   -49.6649    63.0061
  568.0000    22.3368    21.3434    44.9839   -50.5543    64.9466
  568.5000    22.5636    21.7947    43.4351   -50.5449    69.8633
  569.0000    22.9397    22.3209    42.6382   -50.3879    68.6788
  569.5000    23.3299    22.9221    41.0894   -49.6331    63.9228
  570.0000    23.8269    23.3734    40.2925   -48.5792    60.9526
  570.5000    24.2768    23.4498    40.9993   -47.3759    65.1252
  571.0000    24.4274    22.9266    41.7174   -45.7242    73.1669
  571.5000    23.9061    22.0286    43.1762   -43.7735    77.7859
  572.0000    23.0855    21.2055    44.6236   -42.8691    79.1312
  572.5000    21.8912    20.7572    46.0823   -43.1606    85.2383
  573.0000    20.9210    20.5338    47.5411   -43.7510    80.9288
  573.5000    20.1004    20.2354    48.2592   -44.3414    78.4050
  574.0000    19.6535    19.4124    49.7179   -44.7824    78.8574
  574.5000    19.2813    18.4393    51.1766   -45.5223    77.9705
  575.0000    18.9838    17.9161    51.8834   -46.1127    77.2324
  575.5000    18.6116    17.6926    52.5790   -46.7031    77.5360
  576.0000    18.3141    17.4693    53.2971   -47.4430    75.0122
  576.5000    17.9419    17.2459    54.7446   -48.1829    71.5955
  577.0000    17.4203    17.0225    56.9552   -48.0259    70.5327
  577.5000    16.7491    16.6492    57.6733   -47.5700    74.2860
  578.0000    16.4516    15.9011    59.8726   -47.2635    74.6074
  578.5000    16.2289    15.4528    60.5907   -46.8076    76.9765
  579.0000    16.0062    15.1544    61.2976   -46.3517    84.7205
  579.5000    15.8582    14.9310    62.7451   -46.0452    81.0062
  580.0000    15.6351    14.8575    63.4631   -45.8883    81.6074
  580.5000    15.4871    14.7092    63.4069   -45.5818    82.3560
  581.0000    15.3391    14.6357    64.1250   -45.5743    75.6670
  581.5000    15.2659    14.5623    64.0687   -45.5668    72.6967
  582.0000    15.1179    14.5638    64.7868   -45.4099    72.1060
  582.5000    14.9699    14.4903    65.4936   -45.4024    70.9229
  583.0000    14.8970    14.3419    66.1892   -45.3949    69.7369
  583.5000    14.7490    14.1185    66.1441   -45.3874    73.3158
  584.0000    14.6754    14.0450    67.6029   -45.3799    71.0896
  584.5000    14.5278    13.8966    69.0616   -45.3724    77.0480
  585.0000    14.4542    13.6732    69.0166   -45.2154    78.8396
  585.5000    14.3809    13.5248    69.7346   -45.0585    77.6551
  586.0000    14.0838    13.4513    71.1821   -44.9015    73.7920
  586.5000    14.0102    13.3029    71.9002   -44.7445    70.0777
  587.0000    13.8626    13.1545    73.3477   -44.5876    68.1492
  587.5000    13.7890    12.9311    73.3026   -44.1316    70.9825
  588.0000    13.7157    12.7826    74.0207   -43.8252    73.3679
  588.5000    13.4934    12.6342    74.7276   -43.5187    72.1834
  589.0000    13.3454    12.5607    75.4232   -43.3618    72.7846
  589.5000    13.1974    12.4123    76.8819   -43.0553    71.1552
  590.0000    13.0491    12.3389    77.6000   -42.8998    69.8218
  590.5000    12.9758    12.2654    77.5437   -42.7429    67.8933
  591.0000    12.7535    12.2669    77.4987   -42.5860    67.3040
  591.5000    12.6051    12.1934    77.4536   -42.5529    67.4587
  592.0000    12.6070    12.1200    78.1717   -42.5713    66.8695
  592.5000    12.6084    12.1215    78.8786   -42.5635    66.2787
  593.0000    12.6099    12.1979    79.5742   -42.5560    68.2207
  593.5000    12.6114    12.1994    79.5291   -42.5486    70.3100
  594.0000    12.6129    12.2759    78.7322   -42.5411    66.8933
  594.5000    12.6891    12.4273    78.6871   -42.3842    71.2147
  595.0000    12.6159    12.5038    78.6421   -42.2272    76.4290
  595.5000    12.6174    12.5053    78.5971   -42.2197    84.3219
  596.0000    12.6189    12.5068    78.5520   -42.0628    91.9171
  596.5000    12.4709    12.5083    79.2701   -42.0553    87.4588
  597.0000    12.3229    12.4348    79.9657   -41.8984    81.2148
  597.5000    12.2497    12.2864    80.6838   -41.7414    79.8799
  598.0000    12.1017    12.2129    81.3907   -41.7339    83.6076
  598.5000    12.0284    12.0645    82.0975   -41.5724    92.5422
  599.0000    12.0299    11.9910    82.0412   -41.2706    91.2088
  599.5000    11.9567    11.9175    82.7593   -41.1136    92.8517
  600.0000    11.8834    11.7691    82.8378   -40.9567    80.5064
  600.5000    11.7976    11.6785    83.5799   -40.7812  -999.2500
  601.0000    11.7118    11.5878    84.3220   -40.7982  -999.2500
  601.5000    11.5111    11.4758    84.8085   -40.6443  -999.2500
  602.0000    11.4367    11.4787    85.5076   -40.4903  -999.2500
  602.5000    11.4373    11.4809    85.4417   -40.4858  -999.2500
  603.0000    11.3629    11.4832    85.3889   -40.4813  -999.2500
  603.5000    11.4382    11.4854    85.3361   -40.6263  -999.2500
  604.0000    11.4386    11.4877    85.2834   -40.6219  -999.2500
  604.5000    11.4391    11.4899    85.2306   -40.6174  -999.2500
  605.0000    11.5143    11.4922    85.1779   -40.6129  -999.2500
  605.5000    11.5147    11.4944    85.1251   -40.7579  -999.2500
  606.0000    11.5037    11.4967    85.0723   -40.9029  -999.2500
  606.5000    11.4852    11.4240    85.0196   -40.8919  -999.2500
  607.0000    11.4667    11.4262    84.9775   -40.7444  -999.2500
  607.5000    11.4482    11.3529    84.9248   -40.5904  -999.2500
  608.0000    11.3673    11.2053    85.6263   -40.4364  -999.2500
  608.5000    11.2184    11.1326    86.3255   -40.1330  -999.2500
  609.0000    11.1441    11.0598    87.0246   -39.9790  -999.2500
  609.5000    11.1446    10.9127    86.9718   -39.8251  -999.2500
