~VERSION INFORMATION
 VERS.                2.0:   CWLS LOG ASCII STANDARD - VERSION 2.0
 WRAP.                 NO:   ONE LINE PER DEPTH STEP
~WELL INFORMATION
#MNEM.UNIT      DATA TYPE    INFORMATION
#----------   ------------   ------------------------------
 STRT.F           20.0000:   START DEPTH
 STOP.F          964.0000:   STOP DEPTH
 STEP.F            0.5000:   STEP LENGTH
 NULL.          -999.2500:   NO VALUE
 COMP. FENIX & SCISSON INC:   COMPANY
 WELL.    NPR-3 SX #58-11:   WELL
 FLD .             TEAPOT:   FIELD
 LOC .      S11 T38N R78W:   LOCATION
 CNTY.            NATRONA:   COUNTY
 STAT.            WYOMING:   STATE
 CTRY. UNITED STATES OF AMERICA:   COUNTRY
 SRVC.            Unknown:   SERVICE COMPANY
 DATE.        09-MAR-1978:   LOGDATE
 API .       490251060100:   API NUMBER
~CURVE INFORMATION
#MNEM.UNIT       API CODE    CURVE DESCRIPTION
#----------   ------------   ------------------------------
 DEPT.F                  :   
 SPR .MV     05 010 01 00:   SPONTANEOUS POTENTIAL FROM RES.
 SN  .OHMM   05 040 16 00:   SHORT NORMAL 16"
 ILD .OHMM   05 120 46 00:   INDUCTION LOG DEEP
 CALD.IN     45 280 60 00:   CALIPER
 GRD .GAPI   45 310 01 00:   GAMMA RAY FROM DENSITY LOG
 CORR.G/C3   45 356 01 00:   DENSITY CORRECTION
 RHOB.G/C3   45 350 01 00:   BULK DENSITY
 DPHI.DEC    45 890 12 00:   DENSITY POROSITY SANDSTONE
~PARAMETER INFORMATION
#MNEM.UNIT          VALUE    DESCRIPTION
#----------   ------------   ------------------------------
 PD  .                 GL:   PERMANENT DATUM
 EPD .F              5219:   ELEVATION PERMANENT DATUM
 LMF .                 KB:   LOG MEASURED FROM
 DAPD.F                 4:   FEET ABOVE PERMANENT DATUM
 DMF .                 KB:   DRILLING MEASURED FROM
 EKB .F              5223:   KELLING BUSHING
 EGL .F              5219:   GROUND LEVEL
 DATE.           3-9-1978:   RUN DATE
 RUN .                  1:   RUN NUMBER
 DD  .F               963:   DEPTH DRILLER
 DL  .F               966:   DEPTH LOGGER
 BLI .F               960:   BOTTOM LOG INTERVAL
 TLI .F                80:   TOP LOG INTERVAL
 CS  .IN            8.625:   CASING SIZE
 CBD .F                40:   CASING BOTTOM DRILLER
 BS  .IN            7.875:   BIT SIZE
 BSD .F               963:   BIT SIZE AT DEPTH
 DFT .         LIGNO SULF:   DRILLING FLUID TYPE
 DFD .                8.6:   DRILLING FLUID DENSITY
 DFV .                 30:   DRILLING FLUID VISCOSITY
 DFPH.               10.5:   DRILLING FLUID PH
 DFL .                4.8:   DRILLING FLUID LOSS
 MSS .          FLOW LINE:   MUD SAMPLE SOURCE
 RMS .OHMM            1.7:   RESISTIVITY MUD SAMPLE
 MST .F                60:   MUD SAMPLE TEMPERATURE
 RMF .OHMM            1.5:   RESISTIVITY MUD FILTRATE SAMPLE
 MFST.F                74:   MUD FILTRATE SAMPLE TEMPERATURE
 RMC .OHMM            2.8:   RESISTIVITY MUD CAKE
 MCST.F                68:   MUD CAKE SAMPLE TEMPERATURE
 MFSS.               MEAS:   MUD FILTRATE SAMPLE SOURCE
 MCSS.               MEAS:   MUD CAKE SAMPLE SOURCE
 RMB .OHMM           1.38:   RESISTIVITY MUD AT BHT
 BHT .F                74:   BOTTOM HOLE TEMPERATURE
 TCS .HRS               4:   TIME CURCULATED STOPPED
 MRT .F                74:   MAXIMUM RECORDED TEMPERATURE
 LUN .               2958:   LOGGING UNIT NUMBER
 LUL .               CASP:   LOGGING UNIT LOCATION
 ENGI.             MILLER:   RECORDING ENGINEER
 WITN.         HARRINGTON:   WITNESSED BY
 CLNT.            A2DTECH:   CLIENT CODE
 ORIG.      2" , 5" PRINT:   ORIGIN OF DATA
 UWI .       490251060100:   UNIQUE WELL ID
 DICO. A2D Technologies, Inc.:   DIGITIZING COMPANY
~OTHER INFORMATION
~A   DEPT      SPR         SN        ILD       CALD         GRD      CORR       RHOB       DPHI   
# ...
  627.5000   -26.3475    10.2185     9.0704     7.8700    70.9529     0.0154     2.4815     0.1136
  628.0000   -26.6263    10.1998     9.0647     7.8696    70.7639     0.0173     2.4738     0.1143
  628.5000   -26.9025    10.1811     9.0590     7.8692    71.2908     0.0193     2.4705     0.1136
  629.0000   -27.1756    10.1625     9.0534     7.8688    71.0003     0.0213     2.4728     0.1131
  629.5000   -27.3978    10.1438     9.0478     7.8685    70.0469     0.0233     2.4745     0.1125
  630.0000   -27.0671    10.1251     9.0419     7.8681    69.9316     0.0246     2.4763     0.1119
  630.5000   -26.7353    10.1066     9.0381     7.8677    70.3360     0.0223     2.4780     0.1114
  631.0000   -26.4467    10.0593     8.9779     7.8673    73.0158     0.0204     2.4771     0.1111
  631.5000   -26.3696     9.9705     8.9052     7.8669    75.5998     0.0182     2.4762     0.1115
  632.0000   -26.2878     9.8825     8.8331     7.8666    78.8428     0.0161     2.4751     0.1119
  632.5000   -26.2049     9.7953     8.7889     7.8662    79.3148     0.0141     2.4740     0.1134
  633.0000   -26.1222     9.7088     8.6426     7.8658    79.2749     0.0120     2.4706     0.1153
  633.5000   -26.0485     9.6231     8.4954     7.8654    77.4814     0.0099     2.4670     0.1172
  634.0000   -26.0476     9.4636     8.3507     7.8651    73.6528     0.0079     2.4641     0.1190
  634.5000   -26.0479     9.4346     8.3062     7.8647    69.9957     0.0058     2.4622     0.1209
  635.0000   -26.0479     9.3823     8.2799     7.8643    69.7373     0.0055     2.4606     0.1228
  635.5000   -26.0480     9.3304     8.2539     7.8639    69.5372     0.0080     2.4586     0.1247
  636.0000   -26.0481     9.2787     8.2279     7.8636    69.4212     0.0100     2.4605     0.1217
  636.5000   -26.0475     9.2273     8.2021     7.8632    70.0311     0.0245     2.4654     0.1187
  637.0000   -26.0267     9.1762     8.1765     7.8628    71.7309     0.0230     2.4697     0.1172
  637.5000   -25.9345     9.1202     8.1463     7.8624    73.3653     0.0223     2.4736     0.1167
  638.0000   -25.8440     9.0933     8.0886     7.8620    74.4435     0.0209     2.4702     0.1162
  638.5000   -25.7532     9.0391     8.0314     7.8617    75.0343     0.0235     2.4667     0.1157
  639.0000   -25.6644     8.9852     8.0138     7.8613    74.5031     0.0269     2.4700     0.1151
  639.5000   -25.7139     8.9317     8.0138     7.8609    73.4888     0.0302     2.4735     0.1093
  640.0000   -26.0291     8.8704     8.0138     7.8605    71.6510     0.0327     2.4784     0.1021
  640.5000   -26.3419     8.8704     8.0066     7.8602    69.8265     0.0316     2.4939     0.0949
  641.0000   -26.6425     8.9425     7.9911     7.8594    68.0122     0.0303     2.5087     0.0928
  641.5000   -26.6323     9.0111     7.9755     7.8582    66.2723     0.0288     2.4969     0.0972
  642.0000   -26.0330     9.0802     7.9600     7.8571    65.8038     0.0274     2.4872     0.1060
  642.5000   -25.6745     9.1498     7.9445     7.8561    69.7279     0.0260     2.4764     0.1148
  643.0000   -25.7559     9.2062     7.9290     7.8549    74.4396     0.0250     2.4687     0.1176
  643.5000   -25.8372     9.3237     7.9137     7.8538    78.3335     0.0264     2.4623     0.1163
  644.0000   -25.6929     9.4656     7.8986     7.8527    76.7107     0.0275     2.4627     0.1151
  644.5000   -25.4967     9.4011     7.8828     7.8517    73.9919     0.0287     2.4682     0.1139
  645.0000   -25.2975     9.0668     7.8671     7.8506    74.0246     0.0279     2.4736     0.1127
  645.5000   -25.0948     8.7462     7.6624     7.8495    76.6948     0.0270     2.4752     0.1123
  646.0000   -25.0507     8.4184     7.4073     7.8484    76.6419     0.0260     2.4716     0.1131
  646.5000   -25.0494     8.0721     7.1606     7.8472    74.7603     0.0250     2.4688     0.1140
  647.0000   -25.0497     7.7231     6.9222     7.8461    74.0781     0.0241     2.4667     0.1143
  647.5000   -25.0499     7.4944     6.7237     7.8450    74.0081     0.0231     2.4742     0.1129
  648.0000   -25.0499     7.2604     6.7347     7.8440    73.8331     0.0222     2.4746     0.1119
  648.5000   -25.0499     7.1069     6.7554     7.8429    73.7189     0.0212     2.4710     0.1143
  649.0000   -25.0498     7.2035     6.7760     7.8418    73.6109     0.0211     2.4730     0.1151
  649.5000   -25.0500     7.3095     6.8001     7.8407    73.3491     0.0218     2.4759     0.1141
  650.0000   -25.0499     7.4170     6.8276     7.8396    74.5400     0.0223     2.4745     0.1129
  650.5000   -25.0453     7.5262     6.8552     7.8385    76.7926     0.0228     2.4803     0.1116
  651.0000   -25.2546     7.5817     6.8829     7.8374    79.0688     0.0234     2.4840     0.1099
  651.5000   -25.5459     7.5817     6.9107     7.8363    80.4208     0.0240     2.4837     0.1080
  652.0000   -25.8355     7.5817     6.9386     7.8352    80.5068     0.0245     2.4894     0.1068
  652.5000   -26.0200     7.6752     6.9666     7.8341    80.0757     0.0256     2.4994     0.1057
  653.0000   -25.8803     7.8125     6.9948     7.8330    78.7986     0.0278     2.4969     0.1048
  653.5000   -25.7493     7.9401     7.0230     7.8319    76.8325     0.0281     2.4940     0.1061
  654.0000   -25.6189     7.8901     7.0514     7.8308    75.4845     0.0256     2.4907     0.1073
  654.5000   -25.4879     7.8177     7.0799     7.8297    76.7993     0.0236     2.4879     0.1080
  655.0000   -25.3574     7.7231     7.1085     7.8286    78.8188     0.0211     2.4844     0.1083
  655.5000   -25.2267     7.8552     7.1372     7.8275    79.3817     0.0224     2.4851     0.1085
  656.0000   -25.0901     7.9830     7.1660     7.8264    79.9335     0.0242     2.4863     0.1088
  656.5000   -25.0613     8.1128     7.1949     7.8253    80.3712     0.0262     2.4875     0.1127
  657.0000   -25.0756     8.2448     7.2238     7.8243    80.9647     0.0280     2.4890     0.1091
  657.5000   -25.0916     8.3155     7.2399     7.8229    81.0778     0.0299     2.4908     0.1056
  658.0000   -25.1075     8.2968     7.2135     7.8225    81.2245     0.0318     2.4923     0.1056
  658.5000   -25.1233     8.2821     7.1894     7.8206    81.3007     0.0338     2.4941     0.1056
  659.0000   -25.1391     8.2674     7.1653     7.8176    81.3169     0.0355     2.4923     0.1063
  659.5000   -25.1548     8.2527     7.1413     7.7871    80.3014     0.0399     2.4890     0.1074
  660.0000   -25.1706     8.2390     7.1174     7.7616    79.4623     0.0477     2.4858     0.1088
  660.5000   -25.1864     8.1741     7.0936     7.7349    78.5440     0.0551     2.4825     0.1127
  661.0000   -25.2022     8.0989     7.0699     7.7071    78.1511     0.0647     2.4803     0.1207
  661.5000   -25.2178     8.0245     7.0462     7.6814    78.1959     0.0747     2.4635     0.1158
  662.0000   -25.2327     8.0136     7.0226     7.6645    78.7224     0.0910     2.4680     0.1035
  662.5000   -25.2536     8.0138     6.9991     7.7150    81.7383     0.0703     2.4804     0.0905
  663.0000   -25.4214     8.0138     6.9768     7.7561    83.9939     0.0404     2.4909     0.0928
  663.5000   -25.5954     8.0138     7.1069     7.8041    86.3529     0.0235     2.4992     0.1088
  664.0000   -25.7681     8.0138     7.0943     7.8156    83.8784     0.0265     2.4590     0.1223
  664.5000   -25.9393     8.0138     7.0784     7.8025    81.2639     0.0268     2.4693     0.1120
  665.0000   -25.9690     8.0138     7.0627     7.7922    80.3456     0.0275     2.4815     0.1033
  665.5000   -25.7506     8.0138     7.0472     7.7817    83.1985     0.0287     2.4928     0.0992
  666.0000   -25.5361     8.0138     7.0317     7.7706    84.7550     0.0275     2.4877     0.1017
  666.5000   -25.3213     8.0138     7.0163     7.7601    83.1829     0.0250     2.4807     0.1042
  667.0000   -25.1063     8.0140     7.0009     7.7492    81.6608     0.0275     2.4739     0.1071
  667.5000   -24.8911     8.0149     6.9854     7.7384    83.1733     0.0297     2.4758     0.1058
