~VERSION INFORMATION
 VERS.                2.0:   CWLS LOG ASCII STANDARD - VERSION 2.0
 WRAP.                 NO:   ONE LINE PER DEPTH STEP
~WELL INFORMATION
#MNEM.UNIT      DATA TYPE    INFORMATION
#----------   ------------   ------------------------------
 STRT.F           35.0000:   START DEPTH
 STOP.F          977.0000:   STOP DEPTH
 STEP.F            0.5000:   STEP LENGTH
 NULL.          -999.2500:   NO VALUE
 COMP. FENIX & SCISSON INC:   COMPANY
 WELL.  NPR-3 "SX" #52-14:   WELL
 FLD .             TEAPOT:   FIELD
 LOC .      S14 T38N R78W:   LOCATION
 CNTY.            NATRONA:   COUNTY
 STAT.            WYOMING:   STATE
 CTRY. UNITED STATES OF AMERICA:   COUNTRY
 SRVC.            Unknown:   SERVICE COMPANY
 DATE.        13-MAR-1978:   LOGDATE
 API .       490251059900:   API NUMBER
~CURVE INFORMATION
#MNEM.UNIT       API CODE    CURVE DESCRIPTION
#----------   ------------   ------------------------------
 DEPT.F                  :   
 CALD.IN     45 280 60 00:   CALIPER FROM DENSITY LOG
 GRD .GAPI   45 310 01 00:   GAMMA RAY FROM DENSITY LOG
 CORR.G/C3   45 356 01 00:   DENSITY CORRECTION
 RHOB.G/C3   45 350 01 00:   BULK DENSITY
 DPHI.DEC    45 890 12 00:   DENSITY POROSITY SANDSTONE
 SPR .MV     07 010 01 00:   SPONTANEOUS POTENTIAL FROM RES. LOG
 ILD .OHMM   07 120 46 00:   INDUCTION LOG DEEP
 SN  .OHMM   07 040 16 00:   SHORT NORMAL 16'
~PARAMETER INFORMATION
#MNEM.UNIT          VALUE    DESCRIPTION
#----------   ------------   ------------------------------
 PD  .                 GL:   PERMANENT DATUM
 EPD .F              5223:   ELEVATION PERMANENT DATUM
 LMF .                 KB:   LOG MEASURED FROM
 DAPD.F                 4:   FEET ABOVE PERMANENT DATUM
 DMF .                 KB:   DRILLING MEASURED FROM
 EKB .F              5227:   KELLING BUSHING
 EGL .F              5223:   GROUND LEVEL
 DATE.            3-13-78:   RUN DATE
 RUN .                  1:   RUN NUMBER
 DD  .F               975:   DEPTH DRILLER
 DL  .F               977:   DEPTH LOGGER
 BLI .F               971:   BOTTOM LOG INTERVAL
 TLI .F                50:   TOP LOG INTERVAL
 CS  .IN            8.625:   CASING SIZE
 CBD .F                40:   CASING BOTTOM DRILLER
 CBL .F                40:   CASING BOTTOM LOGGER
 BS  .IN            7.875:   BIT SIZE
 BSD .F               975:   BIT SIZE AT DEPTH
 DFT .                KCL:   DRILLING FLUID TYPE
 DFD .                8.6:   DRILLING FLUID DENSITY
 DFV .                 33:   DRILLING FLUID VISCOSITY
 DFPH.               10.5:   DRILLING FLUID PH
 DFL .               11.6:   DRILLING FLUID LOSS
 MSS .          FLOW LINE:   MUD SAMPLE SOURCE
 RMS .OHMM            .34:   RESISTIVITY MUD SAMPLE
 MST .F                60:   MUD SAMPLE TEMPERATURE
 RMF .OHMM            .36:   RESISTIVITY MUD FILTRATE SAMPLE
 MFST.F                62:   MUD FILTRATE SAMPLE TEMPERATURE
 RMC .OHMM            .75:   RESISTIVITY MUD CAKE
 MCST.F                59:   MUD CAKE SAMPLE TEMPERATURE
 MFSS.               MEAS:   MUD FILTRATE SAMPLE SOURCE
 MCSS.               MEAS:   MUD CAKE SAMPLE SOURCE
 RMB .OHMM            .27:   RESISTIVITY MUD AT BHT
 BHT .F                75:   BOTTOM HOLE TEMPERATURE
 TCS .HRS               4:   TIME CURCULATED STOPPED
 MRT .F                75:   MAXIMUM RECORDED TEMPERATURE
 LUN .               2958:   LOGGING UNIT NUMBER
 LUL .               CASP:   LOGGING UNIT LOCATION
 ENGI.             MILLER:   RECORDING ENGINEER
 WITN.            RHOADES:   WITNESSED BY
 CLNT.            A2DTECH:   CLIENT CODE
 ORIG.       2", 5" PRINT:   ORIGIN OF DATA
 UWI .       490251059900:   UNIQUE WELL ID
 DICO. A2D Technologies, Inc.:   DIGITIZING COMPANY
~OTHER INFORMATION
~A   DEPT     CALD         GRD      CORR       RHOB       DPHI        SPR        ILD         SN   
# ...
  764.0000     7.8756   105.3102     0.0419     2.4351     0.1159   -56.1892     6.0740     7.1729
  764.5000     7.8953   101.5574     0.0600     2.4301     0.1124   -56.3446     6.0740     7.1325
  765.0000     7.9554    99.4372     0.0685     2.4462     0.1106   -56.7011     6.0740     7.0960
  765.5000     8.0048    98.6394     0.0244     2.4571     0.1087   -57.0605     5.6922     7.0589
  766.0000     8.0270    97.9881     0.0149     2.4615     0.1067   -57.1486     5.3660     6.8899
  766.5000     8.0498   105.4063     0.0158     2.4601     0.1040   -57.0946     5.0584     6.5982
  767.0000     8.0560   109.5675     0.0153     2.4649     0.1002   -57.0371     4.8816     6.3188
  767.5000     8.0454   105.8411     0.0112     2.4720     0.0965   -56.9986     4.7775     6.1022
  768.0000     8.0337   100.7085     0.0071     2.4759     0.0928   -57.3567     4.6456     6.0089
  768.5000     8.0221    96.5111     0.0078     2.4901     0.0914   -57.7239     4.6467     5.9628
  769.0000     8.0105    97.8029     0.0093     2.4880     0.0917   -57.7858     4.6251     5.9628
  769.5000     7.9989   102.3034     0.0109     2.4857     0.0936   -57.7835     4.6038     6.2160
  770.0000     7.9873   104.1854     0.0126     2.4929     0.0873   -57.6540     4.8428     6.5098
  770.5000     7.9756   102.7558     0.0176     2.5026     0.0808   -57.0081     5.1229     6.7961
  771.0000     7.9641   101.3043     0.0228     2.4909     0.0804   -56.4074     5.4192     7.0427
  771.5000     7.9598   100.0041     0.0267     2.5011     0.0866   -56.2115     5.7327     7.2985
  772.0000     7.9768   100.5711     0.0273     2.4927     0.0914   -56.0066     6.0147     7.5628
  772.5000     7.9938   103.1294     0.0278     2.4873     0.0962   -55.7970     6.1909     7.8650
  773.0000     7.9696   104.8165     0.0282     2.4795     0.0968   -55.5871     6.3722     7.9891
  773.5000     7.9364   105.6930     0.0373     2.4799     0.0987   -55.3775     6.5588     8.1157
  774.0000     7.9031   105.8064     0.0469     2.4804     0.1029   -55.1678     6.8491     8.2105
  774.5000     7.8697   105.8270     0.0489     2.4709     0.1056   -54.9581     6.8398     8.3059
  775.0000     7.8458   103.9049     0.0680     2.4652     0.0972   -54.7485     6.8212     8.4023
  775.5000     7.8283   101.6092     0.0884     2.4724     0.0909   -54.5390     6.8027     8.4999
  776.0000     7.8163   101.8395     0.1085     2.4841     0.0887   -54.3290     6.7861     8.5986
  776.5000     7.7538   102.0297     0.1236     2.4899     0.0918   -54.1180     6.8604     8.6985
  777.0000     7.6910   101.1541     0.1264     2.4898     0.0968   -53.7981     6.9286     8.7996
  777.5000     7.6807    97.1278     0.1297     2.4814     0.0967   -53.2990     7.0416     8.8710
  778.0000     7.6695    97.7104     0.1329     2.4732     0.0947   -52.7985     7.0533     8.7388
  778.5000     7.6581    97.4632     0.1340     2.4768     0.0919   -52.6497     7.0663     8.6285
  779.0000     7.6553    95.1832     0.1312     2.4880     0.0925   -52.7347     7.0794     8.6771
  779.5000     7.6553    93.8034     0.1200     2.4857     0.0939   -52.8216     7.0925     8.7314
  780.0000     7.6552    93.7840     0.1086     2.4834     0.0916   -52.9100     7.1069     8.7861
  780.5000     7.6559    95.4444     0.1039     2.4857     0.0864   -52.9977     7.1453     8.8411
  781.0000     7.6695    95.9242     0.1027     2.4899     0.0942   -53.0861     7.2748     8.8965
  781.5000     7.6831    95.7823     0.1015     2.4871     0.1016   -53.1799     7.4067     8.9522
  782.0000     7.6965    98.3598     0.1015     2.4718     0.1070   -53.0173     7.5409     9.0082
  782.5000     7.7100   101.8015     0.1067     2.4590     0.1122   -52.8107     7.7920     9.0364
  783.0000     7.7234   105.6711     0.1007     2.4561     0.1226   -53.1643     8.1026     9.0364
  783.5000     7.7408   109.8472     0.0829     2.4318     0.1380   -53.5458     8.3926     9.0364
  784.0000     7.7850   113.5184     0.0795     2.4052     0.1521   -53.6866     7.8154     8.6933
  784.5000     7.8297   113.4087     0.0877     2.3829     0.1477   -53.0232     7.0416     8.3926
  785.0000     7.8626   103.1938     0.0874     2.4050     0.1074   -52.3620     6.1873     8.1024
  785.5000     7.8786    95.6571     0.0616     2.4550     0.0892   -52.3504     5.4367     7.7948
  786.0000     7.8953    94.9521     0.0569     2.4931     0.0831   -52.3152     5.0854     6.8097
  786.5000     7.9115    97.0150     0.0591     2.5045     0.0768   -52.2763     5.0494     5.9571
  787.0000     7.9284   100.4349     0.0611     2.5097     0.0816   -52.2388     5.0029     5.9655
  787.5000     7.9454    96.8343     0.0635     2.5002     0.0857   -52.2013     5.0184     6.0959
  788.0000     7.9623    95.8783     0.0677     2.4985     0.0873   -52.1637     5.0494     6.4682
  788.5000     7.9792    97.1100     0.0719     2.4910     0.0876   -52.1258     5.0806     6.9127
  789.0000     7.9962    98.3344     0.0760     2.5013     0.0753   -52.0880     5.5619     8.4705
  789.5000     8.0129    98.7265     0.0790     2.5202     0.0700   -52.0526     6.6246     9.0031
  790.0000     8.0375    98.1038     0.0564     2.5227     0.0814   -52.0160     7.8905     9.5162
  790.5000     8.0493    95.7320     0.0272     2.4946     0.0870   -52.3337     8.8138    10.0029
  791.0000     8.0193    96.3042     0.0247     2.4956     0.0852   -52.9467     9.2049    10.0709
  791.5000     7.9948    95.4387     0.0230     2.4961     0.0886   -53.5615     9.0937    10.1331
  792.0000     7.9921    94.9247     0.0212     2.4906     0.0944   -54.1783     8.8753    10.1957
  792.5000     7.9889    98.2416     0.0205     2.4815     0.1059   -54.6600     8.6621    10.2587
  793.0000     7.9856   101.6811     0.0205     2.4607     0.1171   -54.8795     8.4541    10.3221
  793.5000     7.9824    94.3546     0.0205     2.4492     0.1288   -54.2820     8.2438    10.3859
  794.0000     7.9792    81.0567     0.0219     2.4322     0.1448   -52.9439     8.2676    10.4500
  794.5000     7.9752    67.8416     0.0298     2.4004     0.1614   -52.3602     8.2995    10.5146
  795.0000     7.9521    54.7261     0.0377     2.3689     0.1765   -52.2735     8.3926    10.5730
  795.5000     7.9285    46.7924     0.0455     2.3371     0.1897   -52.1848     8.8036    11.0490
  796.0000     7.9065    46.0165     0.0632     2.3094     0.1957   -51.3144     9.2838    11.5003
  796.5000     7.8752    45.7647     0.0761     2.3357     0.1868   -50.3507     9.7953    11.9222
  797.0000     7.8791    48.0058     0.0520     2.3294     0.1773   -49.3868    10.3893    12.6261
  797.5000     7.8815    54.4424     0.0513     2.3499     0.1754   -48.4227    11.1852    13.3020
  798.0000     7.8841    59.8759     0.0524     2.3469     0.1745   -47.4504    12.2615    14.0141
  798.5000     7.8867    61.5949     0.0586     2.3467     0.1735   -46.4477    13.4438    14.7644
  799.0000     7.8893    64.3760     0.0644     2.3516     0.1732   -46.4656    14.7434    15.5548
  799.5000     7.8919    66.8797     0.0650     2.3476     0.1729   -46.5669    16.1676    16.4732
  800.0000     7.8945    66.2087     0.0653     2.3397     0.1727   -46.6640    17.7351    16.0696
  800.5000     7.8999    66.4371     0.0656     2.3444     0.1725   -46.7548    18.0675    15.6327
  801.0000     7.9079    66.7568     0.0660     2.3569     0.1651   -46.7019    17.8118    15.4416
  801.5000     7.9159    66.8979     0.0664     2.3695     0.1572   -46.2750    17.3814    15.2820
  802.0000     7.9239    66.6886     0.0690     2.3782     0.1493   -45.8463    16.8694    15.1240
  802.5000     7.9319    69.8228     0.0749     2.3881     0.1414   -46.1198    16.3725    14.9676
  803.0000     7.9399    72.5534     0.0722     2.4061     0.1329   -46.3632    15.8902    14.7835
  803.5000     7.9479    73.0422     0.0612     2.4215     0.1315   -46.6139    15.4222    14.5654
  804.0000     7.9559    73.3580     0.0385     2.4247     0.1346   -46.8615    14.9605    14.3505
