~VERSION INFORMATION
 VERS.                2.0:   CWLS LOG ASCII STANDARD - VERSION 2.0
 WRAP.                 NO:   ONE LINE PER DEPTH STEP
~WELL INFORMATION
#MNEM.UNIT      DATA TYPE    INFORMATION
#----------   ------------   ------------------------------
 STRT.F           35.0000:   START DEPTH
 STOP.F          474.0000:   STOP DEPTH
 STEP.F            0.5000:   STEP LENGTH
 NULL.          -999.2500:   NO VALUE
 COMP.    FENIX & SCISSON:   COMPANY
 WELL.        NPR #53-S-3:   WELL
 FLD .             TEAPOT:   FIELD
 LOC .       S3 T38N R78W:   LOCATION
 CNTY.            NATRONA:   COUNTY
 STAT.            WYOMING:   STATE
 CTRY. UNITED STATES OF AMERICA:   COUNTRY
 SRVC.       Schlumberger:   SERVICE COMPANY
 DATE.        21-FEB-1977:   LOGDATE
 API .       490251027800:   API NUMBER
~CURVE INFORMATION
#MNEM.UNIT       API CODE    CURVE DESCRIPTION
#----------   ------------   ------------------------------
 DEPT.F                  :   
 SPR .MV     07 010 01 00:   SPONTANEOUS POTENTIAL
 ILD .OHMM   07 120 46 00:   INDUCTION LOG DEEP
 ILM .OHMM   07 120 44 00:   INDUCTION LOG MEDIUM
 LL8 .OHMM   07 220 08 00:   LATEROLOG-8 RES.
 CALD.IN     45 280 60 00:   CALIPER FROM DENSITY LOG
 CORR.G/C3   45 356 01 00:   DENSITY CORRECTION
 RHOB.G/C3   45 350 01 00:   BULK DENSITY
 DPHI.DEC    45 890 12 00:   DENSITY POROSITY SANDSTONE
 GRD .GAPI   45 310 01 00:   GAMMA RAY FROM DENSITY LOG
~PARAMETER INFORMATION
#MNEM.UNIT          VALUE    DESCRIPTION
#----------   ------------   ------------------------------
 PD  .                 GL:   PERMANENT DATUM
 EPD .F              5163:   ELEVATION PERMANENT DATUM
 LMF .                 GL:   LOG MEASURED FROM
 DMF .                 KB:   DRILLING MEASURED FROM
 EKB .F              5167:   KELLING BUSHING
 EGL .F              5163:   GROUND LEVEL
 DATE.        21-FEB-1977:   RUN DATE
 RUN .                  1:   RUN NUMBER
 DD  .F               480:   DEPTH DRILLER
 DL  .F               475:   DEPTH LOGGER
 BLI .F               474:   BOTTOM LOG INTERVAL
 TLI .F                39:   TOP LOG INTERVAL
 CS  .IN            8.625:   CASING SIZE
 CBD .F                40:   CASING BOTTOM DRILLER
 CBL .F                39:   CASING BOTTOM LOGGER
 BS  .IN            7.875:   BIT SIZE
 BSD .F               480:   BIT SIZE AT DEPTH
 DFT .            KCL MUD:   DRILLING FLUID TYPE
 DFD .                8.6:   DRILLING FLUID DENSITY
 DFV .                 35:   DRILLING FLUID VISCOSITY
 DFPH.                8.0:   DRILLING FLUID PH
 DFL .                6.8:   DRILLING FLUID LOSS
 MSS .           FLOWLINE:   MUD SAMPLE SOURCE
 RMS .OHMM            .41:   RESISTIVITY MUD SAMPLE
 MST .F                70:   MUD SAMPLE TEMPERATURE
 RMF .OHMM            .46:   RESISTIVITY MUD FILTRATE SAMPLE
 MFST.F                70:   MUD FILTRATE SAMPLE TEMPERATURE
 MFSS.               MEAS:   MUD FILTRATE SAMPLE SOURCE
 TCS .HRS               1:   TIME CURCULATED STOPPED
 LUN .               7680:   LOGGING UNIT NUMBER
 LUL .               CSPR:   LOGGING UNIT LOCATION
 ENGI.             TAYLOR:   RECORDING ENGINEER
 WITN.               JAPP:   WITNESSED BY
 CLNT.            A2DTECH:   CLIENT CODE
 ORIG.           5" PRINT:   ORIGIN OF DATA
 UWI .       490251027800:   UNIQUE WELL ID
 DICO. A2D Technologies, Inc.:   DIGITIZING COMPANY
~OTHER INFORMATION
~A   DEPT      SPR        ILD        ILM        LL8       CALD       CORR       RHOB       DPHI         GRD  
# ...
  144.5000   -55.2874     9.7879    10.6025    11.8173     8.2474     0.0198     2.4273     0.1321    94.8138
  145.0000   -55.2659     9.6569    10.5374    11.2667     8.2485     0.0201     2.4356     0.1276    92.3592
  145.5000   -55.4022     9.5299    10.4726    11.1192     8.2498     0.0342     2.4507     0.1225    90.1291
  146.0000   -55.3798     9.4032    10.4809    11.4393     8.2359     0.0237     2.4417     0.1249    88.7973
  146.5000   -55.5160     9.3429    10.4027    11.5266     8.2374     0.0185     2.4364     0.1245    87.4654
  147.0000   -55.6434     9.2189    10.3522    11.5345     8.2236     0.0238     2.4373     0.1266    86.1332
  147.5000   -55.6255     9.0968    10.2196    11.2274     8.2247     0.0163     2.4223     0.1284    86.1490
  148.0000   -55.7617     9.1012    10.0867    11.1577     8.2259     0.0081     2.4132     0.1278    87.0868
  148.5000   -55.7394     9.0427    10.0229    11.3211     8.2271     0.0104     2.4228     0.1260    88.0322
  149.0000   -56.0253     8.9847     9.8926    11.1733     8.2130     0.0149     2.4344     0.1329    89.7920
  149.5000   -56.1571     8.9890     9.6985    10.6527     8.2145     0.0090     2.4299     0.1351    91.1548
  150.0000   -56.1347     8.9314     9.6371    10.2977     8.2163     0.0194     2.4450     0.1250    92.2921
  150.5000   -56.1168     8.9644     9.5779    10.7515     8.2221     0.0271     2.4210     0.1311    89.8420
  151.0000   -56.0907     8.9974     9.5870    11.1273     8.2278     0.0249     2.4372     0.1263    88.5096
  151.5000   -56.0775     9.0093     9.4551    11.2122     8.2336     0.0211     2.4494     0.1192    92.3520
  152.0000   -55.7658     8.9520     9.4616    10.6160     8.2374     0.0242     2.4641     0.1141    94.6174
  152.5000   -55.4540     8.9569     9.4667    10.4749     8.2237     0.0175     2.4401     0.1249    93.5146
  153.0000   -55.2915     8.8988     9.5377    10.7786     8.2257     0.0107     2.4228     0.1345    91.0645
  153.5000   -55.2783     8.8422     9.4757    10.5251     8.2274     0.0138     2.4191     0.1408    89.9617
  154.0000   -55.2651     8.7266     9.4822    10.3546     8.2290     0.0131     2.4199     0.1426    89.9820
  154.5000   -55.4015     8.4930     9.4874    10.9528     8.2306     0.0108     2.4237     0.1347    90.0022
  155.0000   -55.3878     8.3230     9.3620    10.5878     8.2168     0.0199     2.4343     0.1275    89.0494
  155.5000   -55.3746     8.1554     9.1734    10.1627     8.2189     0.0239     2.4178     0.1347    85.5555
  156.0000   -55.6677     7.8834     8.9911    10.1714     8.2205     0.0275     2.4405     0.1235    83.7741
  156.5000   -55.9617     7.6723     8.6900     9.5642     8.2068     0.0306     2.4511     0.1190    87.1673
  157.0000   -56.0812     7.4669     8.3991     8.4506     8.1934     0.0261     2.4406     0.1247    89.8819
  157.5000   -56.2172     7.3150     7.9457     8.8742     8.1954     0.0374     2.4444     0.1219    91.9228
  158.0000   -56.2006     7.2150     7.6786     7.8968     8.1971     0.0335     2.4452     0.1237    92.8410
  158.5000   -56.1874     7.1255     7.5834     7.4756     8.1987     0.0282     2.4363     0.1276    90.3909
  159.0000   -56.0249     7.1303     7.5885     8.8326     8.2003     0.0270     2.4378     0.1242    88.1653
  159.5000   -55.8624     7.1838     7.6454     9.4714     8.2019     0.0435     2.4469     0.1191    88.4098
  160.0000   -55.8492     7.2878     7.7561     9.5436     8.2036     0.0510     2.4575     0.1127    89.7771
  160.5000   -55.6867     7.3424     7.8685     9.3541     8.2052     0.0428     2.4674     0.1181    90.2462
  161.0000   -55.3750     7.5005     8.0379     9.0387     8.2068     0.0346     2.4369     0.1272    90.0366
  161.5000   -55.2125     7.6620     8.2110     8.9242     8.1935     0.0294     2.4411     0.1238    89.1633
  162.0000   -55.1992     7.7730     8.2725     9.4754     8.1955     0.0384     2.4593     0.1164    90.5306
  162.5000   -54.7383     7.8860     8.4506    10.1928     8.1971     0.0437     2.4782     0.1084    93.6943
  163.0000   -54.5758     7.9447     8.6326     9.9215     8.1834     0.0310     2.4564     0.1180    94.1857
  163.5000   -54.5625     8.0042     8.7577     9.4591     8.1854     0.0145     2.4369     0.1251    92.1623
  164.0000   -54.2507     8.0642     8.7624     9.2058     8.1718     0.0108     2.4271     0.1288    94.4581
  164.5000   -54.2373     8.1247     8.8281     9.2136     8.1737     0.0184     2.4340     0.1233    96.0464
  165.0000   -54.5228     8.1856     8.9561     9.4785     8.1599     0.0206     2.4476     0.1176    96.7141
  165.5000   -54.8048     8.1901     8.9611     9.8867     8.1620     0.0229     2.4567     0.1221    95.6154
  166.0000   -55.0934     8.1955     8.9670    10.0312     8.1636     0.0245     2.4432     0.1181    93.8390
  166.5000   -55.0768     8.1423     9.0341    10.3195     8.1652     0.0298     2.4583     0.1157    92.9558
  167.0000   -55.2162     8.1479     9.1018    10.7640     8.1818     0.0268     2.4486     0.1196    93.8789
  167.5000   -55.3489     8.0950     9.2337    10.9971     8.1984     0.0178     2.4374     0.1256    94.7971
  168.0000   -55.3356     8.1005     9.3029    10.8534     8.2000     0.0254     2.4306     0.1174    94.1434
  168.5000   -55.1731     8.1049     9.3079    10.4188     8.2017     0.0419     2.4744     0.1038    93.9338
  169.0000   -55.1599     8.1093     9.3130    10.2834     8.2033     0.0343     2.4805     0.1008    95.0815
  169.5000   -54.9974     8.1137     9.2538    10.3004     8.1899     0.0337     2.4790     0.1086    97.7961
  170.0000   -54.9842     8.0611     9.1950    10.5880     8.1916     0.0405     2.4723     0.1101    99.6124
  170.5000   -54.8217     8.0665     9.1364    10.4497     8.1782     0.0376     2.4808     0.1046    99.4079
  171.0000   -54.8085     8.0713     9.0784    10.0318     8.1802     0.0316     2.4796     0.1055    97.8560
  171.5000   -54.9448     8.0753     8.9586     9.6975     8.1519     0.0271     2.4684     0.1124    93.3849
  172.0000   -55.0806     8.0798     8.8968     9.7041     8.1232     0.0242     2.4590     0.1163    92.8952
  172.5000   -55.3707     8.0843     8.8451     9.7781     8.1402     0.0227     2.4696     0.1121    95.2212
  173.0000   -55.5018     8.0896     8.7889     9.9899     8.2167     0.0378     2.4711     0.1096    94.3430
  173.5000   -55.4881     8.0940     8.7948    10.1359     8.2782     0.0325     2.4637     0.1132    92.7874
  174.0000   -55.4720     8.0984     8.7996    10.2840     8.2644     0.0243     2.4381     0.1225    92.3473
  174.5000   -55.4588     8.1028     8.8044    10.3624     8.2511     0.0205     2.4563     0.1193    91.9072
  175.0000   -55.5981     8.1072     8.8092    10.3695     8.2378     0.0267     2.4541     0.1173    90.9805
  175.5000   -55.5816     8.0557     8.8752    10.5940     8.2398     0.0244     2.4421     0.1203    88.1603
  176.0000   -55.5683     8.0601     8.9417    10.3835     8.2260     0.0176     2.4512     0.1266    86.3839
  176.5000   -55.7077     8.0645     9.0087    10.1072     8.2281     0.0249     2.4768     0.1022    89.7721
  177.0000   -55.9929     8.0132     8.9502    10.1844     8.2147     0.0386     2.4882     0.0976    98.3250
  177.5000   -55.9764     8.0176     8.8943    10.3334     8.2163     0.0276     2.4514     0.1208   102.6115
  178.0000   -55.9632     8.0220     8.7165    10.1296     8.2180     0.0096     2.4311     0.1277   101.0595
  178.5000   -55.9499     8.0263     8.6014     9.8600     8.2046     0.0172     2.4530     0.1202    99.7322
  179.0000   -55.9367     7.9753     8.4258     9.5959     8.2063     0.0263     2.4704     0.1141    95.4857
  179.5000   -55.9235     7.9246     8.2606     9.6041     8.2229     0.0285     2.4735     0.1096    89.6673
  180.0000   -55.9102     7.9300     8.2081     9.9487     8.2249     0.0232     2.4705     0.1116    89.0087
  180.5000   -55.5985     7.8785     8.2137    10.0228     8.2111     0.0218     2.4745     0.1053    92.1773
