~VERSION INFORMATION
 VERS.                2.0:   CWLS LOG ASCII STANDARD - VERSION 2.0
 WRAP.                 NO:   ONE LINE PER DEPTH STEP
~WELL INFORMATION
#MNEM.UNIT      DATA TYPE    INFORMATION
#----------   ------------   ------------------------------
 STRT.F           22.5000:   START DEPTH
 STOP.F          644.0000:   STOP DEPTH
 STEP.F            0.5000:   STEP LENGTH
 NULL.          -999.2500:   NO VALUE
 COMP.    FELIX & SCISION:   COMPANY
 WELL.     NPR #3 #14-S-2:   WELL
 FLD .             TEAPOT:   FIELD
 LOC .       S2 T38N R78W:   LOCATION
 CNTY.            NATRONA:   COUNTY
 STAT.            WYOMING:   STATE
 CTRY. UNITED STATES OF AMERICA:   COUNTRY
 SRVC.           BIRDWELL:   SERVICE COMPANY
 DATE.        18-JAN-1978:   LOGDATE
 API .       490251055600:   API NUMBER
~CURVE INFORMATION
#MNEM.UNIT       API CODE    CURVE DESCRIPTION
#----------   ------------   ------------------------------
 DEPT.F                  :   
 CALD.IN     45 280 60 00:   CALIPER FROM DENSITY LOG
 CORR.G/C3   45 356 01 00:   DENSITY CORRECTION
 DPHI.DEC    45 890 12 00:   DENSITY POROSITY SANDSTONE
 GRD .GAPI   45 310 01 00:   GAMMA RAY FROM DENSITY LOG
 RHOB.G/C3   45 350 01 00:   BULK DENSITY
 ILD .OHMM   05 120 46 00:   INDUCTION LOG DEEP
 SPR .MV     05 010 01 00:   SPONTANEOUS POTENTIAL FROM RES.
 SN  .OHMM   05 040 16 00:   SHORT NORMAL 16"
~PARAMETER INFORMATION
#MNEM.UNIT          VALUE    DESCRIPTION
#----------   ------------   ------------------------------
 PD  .                 GL:   PERMANENT DATUM
 EPD .F              5121:   ELEVATION PERMANENT DATUM
 LMF .                 KB:   LOG MEASURED FROM
 DAPD.F                 4:   FEET ABOVE PERMANENT DATUM
 DMF .                 KB:   DRILLING MEASURED FROM
 EKB .F              5126:   KELLING BUSHING
 EGL .F              5121:   GROUND LEVEL
 DATE.          1-18-1978:   RUN DATE
 RUN .                  1:   RUN NUMBER
 DD  .F               645:   DEPTH DRILLER
 DL  .F               648:   DEPTH LOGGER
 BLI .F               642:   BOTTOM LOG INTERVAL
 TLI .F                39:   TOP LOG INTERVAL
 CS  .IN            8.625:   CASING SIZE
 CBD .F                39:   CASING BOTTOM DRILLER
 BS  .IN            7.875:   BIT SIZE
 BSD .F               645:   BIT SIZE AT DEPTH
 DFT .                KCL:   DRILLING FLUID TYPE
 DFD .                8.8:   DRILLING FLUID DENSITY
 DFV .                 34:   DRILLING FLUID VISCOSITY
 DFPH.                9.5:   DRILLING FLUID PH
 DFL .                6.4:   DRILLING FLUID LOSS
 MSS .                PIT:   MUD SAMPLE SOURCE
 RMS .OHMM            .38:   RESISTIVITY MUD SAMPLE
 MST .F                43:   MUD SAMPLE TEMPERATURE
 RMF .OHMM            .26:   RESISTIVITY MUD FILTRATE SAMPLE
 MFST.F                70:   MUD FILTRATE SAMPLE TEMPERATURE
 RMC .OHMM            .42:   RESISTIVITY MUD CAKE
 MCST.F                70:   MUD CAKE SAMPLE TEMPERATURE
 MFSS.           MEASURED:   MUD FILTRATE SAMPLE SOURCE
 MCSS.           MEASURED:   MUD CAKE SAMPLE SOURCE
 RMB .OHMM            .24:   RESISTIVITY MUD AT BHT
 BHT .F                69:   BOTTOM HOLE TEMPERATURE
 TCS .HRS               2:   TIME CURCULATED STOPPED
 MRT .F                69:   MAXIMUM RECORDED TEMPERATURE
 LUN .               2958:   LOGGING UNIT NUMBER
 LUL .             CASPER:   LOGGING UNIT LOCATION
 ENGI.           REYNOLDS:   RECORDING ENGINEER
 WITN.         HARRINGTON:   WITNESSED BY
 CLNT.            A2DTECH:   CLIENT CODE
 ORIG.      2" , 5" PRINT:   ORIGIN OF DATA
 UWI .       490251055600:   UNIQUE WELL ID
 DICO. A2D Technologies, Inc.:   DIGITIZING COMPANY
~OTHER INFORMATION
~A   DEPT     CALD       CORR       DPHI         GRD      RHOB        ILD        SPR         SN   
# ...
  508.5000     7.8288     0.0556     0.1976    64.9601     2.3264    15.0586   -10.7803    13.2499
  509.0000     7.8289     0.0579     0.2123    60.0626     2.3002    16.0380    -9.4831    14.0100
  509.5000     7.8289     0.0655     0.2219    55.3136     2.2927    17.0900    -8.1336    14.8136
  510.0000     7.8290     0.0748     0.2213    56.6568     2.2987    18.4822    -6.9328    15.7720
  510.5000     7.8291     0.0822     0.2135    57.8514     2.3222    20.4583    -6.1785    16.9086
  511.0000     7.8292     0.0831     0.2068    58.1545     2.3236    22.0867    -5.5729    18.3861
  511.5000     7.8292     0.0846     0.2062    57.8631     2.3228    23.3544    -5.4138    19.5883
  512.0000     7.8293     0.0869     0.2062    57.2761     2.3214    23.3640    -5.1059    20.5658
  512.5000     7.8294     0.0877     0.2059    57.5791     2.3237    23.0497    -4.9468    20.9903
  513.0000     7.8294     0.0870     0.2055    57.8822     2.3245    22.7420    -4.6389    21.2962
  513.5000     7.8295     0.0870     0.2058    58.3338     2.3246    22.2858    -4.4798    21.6041
  514.0000     7.8296     0.0871     0.2058    62.6487     2.3238    22.1388    -4.4696    21.7657
  514.5000     7.8297     0.0887     0.2058    65.0320     2.3209    22.1502    -4.4593    21.9285
  515.0000     7.8297     0.0910     0.2055    64.7407     2.3217    22.1592    -4.4490    21.9404
  515.5000     7.8298     0.0910     0.2051    62.3692     2.3277    22.1683    -4.5878    21.9524
  516.0000     7.8299     0.0896     0.2024    60.7406     2.3308    22.1774    -4.8748    21.8103
  516.5000     7.8299     0.0881     0.2018    60.4478     2.3316    22.0331    -4.8645    21.6721
  517.0000     7.8300     0.0874     0.2018    61.1981     2.3316    21.8901    -5.0031    21.3865
  517.5000     7.8301     0.0852     0.2017    62.8384     2.3309    21.7481    -4.8438    21.1077
  518.0000     7.8302     0.0837     0.2020    64.1816     2.3309    21.6069    -4.8337    20.8296
  518.5000     7.8302     0.0808     0.2023    65.3762     2.3295    21.3184    -4.9722    20.6975
  519.0000     7.8303     0.0793     0.2029    66.7193     2.3257    21.1800    -5.1107    20.5635
  519.5000     7.8304     0.0809     0.2038    66.7325     2.3243    21.0424    -5.3955    20.2954
  520.0000     7.8305     0.0832     0.2041    64.5022     2.3258    20.7615    -6.5765    20.3065
  520.5000     7.8305     0.0823     0.2031    61.2170     2.3281    20.7721    -6.5662    20.1775
  521.0000     7.8306     0.0795     0.2025    59.7296     2.3290    20.6351    -6.5559    20.0498
  521.5000     7.8307     0.0788     0.2016    58.5542     2.3305    20.5011    -6.6949    20.0609
  522.0000     7.8307     0.0804     0.2000    58.8808     2.3455    20.3680    -6.8333    19.9337
  522.5000     7.8308     0.0759     0.1929    60.3726     2.3599    20.2357    -7.4179    19.8073
  523.0000     7.8309     0.0737     0.1840    60.5270     2.3622    20.1043    -7.8541    19.8186
  523.5000     7.8310     0.0730     0.1831    60.5329     2.3645    20.1146    -7.8437    19.9691
  524.0000     7.8310     0.0731     0.1822    60.3887     2.3667    20.2627    -7.8333    20.1184
  524.5000     7.8311     0.0784     0.1813    59.9503     2.3841    20.6965    -7.8229    20.2689
  525.0000     7.8312     0.0792     0.1704    59.2132     2.4195    20.9938    -7.8125    20.7044
  525.5000     7.8312     0.0785     0.1487    57.4355     2.4421    21.2953    -7.9514    20.8592
  526.0000     7.8313     0.0710     0.1183    54.9154     2.4594    21.4520    -7.9386    20.8706
  526.5000     7.8314     0.0643     0.1222    54.4755     2.4309    21.3122    -8.9700    20.5956
  527.0000     7.8315     0.0643     0.1448    55.3877     2.4106    20.8831    -9.8591    20.3215
  527.5000     7.8468     0.0651     0.1604    57.3726     2.3911    20.4458   -10.1416    19.9158
  528.0000     7.8626     0.0667     0.1700    62.2300     2.3768    20.0259   -10.1310    19.6534
  528.5000     7.8484     0.0682     0.1760    65.9010     2.3746    19.2434   -10.1205    18.9995
  529.0000     7.8495     0.0683     0.1799    68.0279     2.3686    18.4678   -10.1081    18.2384
  529.5000     7.8504     0.0691     0.1820    68.7767     2.3672    17.7234   -10.0979    17.7513
  530.0000     7.8512     0.0684     0.1823    67.8910     2.3672    17.0073   -10.0876    17.0403
  530.5000     7.8670     0.0662     0.1837    67.3025     2.3589    16.7803   -10.3749    16.5852
  531.0000     7.8679     0.0663     0.1885    66.0595     2.3536    16.5579   -11.7039    16.3667
  531.5000     7.8539     0.0686     0.1918    64.5943     2.3469    16.4504   -12.2914    16.3756
  532.0000     7.8548     0.0716     0.1921    63.7530     2.3493    16.4572   -12.5788    16.3845
  532.5000     7.8557     0.0740     0.1893    64.2062     2.3576    16.3486   -12.5659    16.5071
  533.0000     7.8416     0.0725     0.1852    64.9550     2.3622    16.1320   -12.5556    16.5163
  533.5000     7.8426     0.0718     0.1809    65.8524     2.3675    16.0256   -12.3965    16.6396
  534.0000     7.8285     0.0741     0.1806    66.6012     2.3690    15.9229   -12.2374    16.5148
  534.5000     7.8296     0.0749     0.1788    65.8641     2.3743    15.4945   -12.2271    16.0947
  535.0000     7.8305     0.0742     0.1733    65.2742     2.3796    15.2876   -12.2168    15.4500
  535.5000     7.8314     0.0773     0.1727    65.8758     2.3797    14.9794   -12.2065    14.8312
  536.0000     7.8323     0.0781     0.1730    67.3676     2.3812    14.7794   -12.1963    14.4351
  536.5000     7.8332     0.0796     0.1702    70.6424     2.3827    14.5686   -12.1860    14.2429
  537.0000     7.8340     0.0805     0.1702    71.5384     2.3850    14.1910   -12.1756    13.8644
  537.5000     7.8498     0.0805     0.1666    65.1564     2.3971    13.9049   -12.1654    13.6799
  538.0000     7.8656     0.0783     0.1624    63.8235     2.4017    13.8132   -12.9187    13.4086
  538.5000     7.8514     0.0729     0.1608    64.2986     2.4009    13.6288   -13.8085    13.2301
  539.0000     7.8374     0.0716     0.1629    63.8367     2.3965    13.4482   -14.3641    13.0558
  539.5000     7.8234     0.0815     0.1662    63.3968     2.3890    13.3595   -14.6540    12.9731
  540.0000     7.8245     0.0876     0.1635    63.1055     2.4003    13.1812   -14.7925    12.8909
  540.5000     7.8105     0.0899     0.1544    62.8142     2.4103    13.0956   -15.0773    12.8092
  541.0000     7.8113     0.0892     0.1514    62.9986     2.4154    12.8316   -15.0670    12.8179
  541.5000     7.8122     0.0877     0.1510    65.4634     2.4252    12.4861   -15.2081    12.8249
  542.0000     7.8131     0.0855     0.1461    67.5866     2.4351    12.2357   -15.3466    12.7435
  542.5000     7.8140     0.0818     0.1402    66.8510     2.4359    12.0723   -15.4826    12.5757
  543.0000     7.8151     0.0788     0.1402    65.2224     2.4367    12.0772   -15.6237    12.3246
  543.5000     7.8307     0.0766     0.1405    63.8910     2.4359    12.0822   -16.0572    11.9906
  544.0000     7.8315     0.0774     0.1413    62.8553     2.4352    12.0871   -16.4934    11.5948
  544.5000     7.8473     0.0782     0.1413    65.2400     2.4337    12.0922   -16.7833    11.3633
  545.0000     7.8484     0.0775     0.1413    68.9606     2.4353    12.0136   -16.9196    11.2136
  545.5000     7.8642     0.0768     0.1416    71.0467     2.4361    11.9229   -17.0580    11.0658
  546.0000     7.8799     0.0754     0.1416    70.6054     2.4354    11.7762   -17.1963    10.9957
  546.5000     7.8808     0.0739     0.1427    69.8698     2.4219    11.6202   -17.4836    10.9260
  547.0000     7.8817     0.0762     0.1493    69.8756     2.4181    11.5435   -17.6221    10.8567
  547.5000     7.8826     0.0793     0.1490    70.0301     2.4212    11.5494   -17.7728    10.8642
  548.0000     7.8834     0.0817     0.1472    68.9958     2.4235    11.5542   -17.8992    10.8701
  548.5000     7.8692     0.0833     0.1445    66.1785     2.4288    11.4791   -17.5635    10.8760
