~VERSION INFORMATION
 VERS.                2.0:   CWLS LOG ASCII STANDARD - VERSION 2.0
 WRAP.                 NO:   ONE LINE PER DEPTH STEP
~WELL INFORMATION
#MNEM.UNIT      DATA TYPE    INFORMATION
#----------   ------------   ------------------------------
 STRT.F           36.0000:   START DEPTH
 STOP.F          592.0000:   STOP DEPTH
 STEP.F            0.5000:   STEP LENGTH
 NULL.          -999.2500:   NO VALUE
 COMP. FENIX & SCISSON INC:   COMPANY
 WELL.           S #35-10:   WELL
 FLD .              NPR-3:   FIELD
 LOC .      S10 T38N R78W:   LOCATION
 CNTY.            NATRONA:   COUNTY
 STAT.            WYOMING:   STATE
 CTRY. UNITED STATES OF AMERICA:   COUNTRY
 SRVC.              Welex:   SERVICE COMPANY
 DATE.        07-MAR-1977:   LOGDATE
 API .       490251029000:   API NUMBER
~CURVE INFORMATION
#MNEM.UNIT       API CODE    CURVE DESCRIPTION
#----------   ------------   ------------------------------
 DEPT.F                  :   
 SPR .MV     07 010 01 00:   SPONTANEOUS POTENTIAL
 ILM .OHMM   07 120 44 00:   INDUCTION LOG MEDIUM
 ILD .OHMM   07 120 46 00:   INDUCTION LOG DEEP
 SGRD.OHMM   07 220 05 00:   SHALLOW GUARD RESISTIVITY
 CALD.IN     45 280 60 00:   CALIPER FROM DENSITY LOG
 RHOB.G/C3   45 350 01 00:   BULK DENSITY
 CORR.G/C3   45 356 01 00:   DENSITY CORRECTION
 DPHI.DEC    45 890 12 00:   DENSITY POROSITY SANDSTONE
 GRD .GAPI   45 310 01 00:   GAMMA RAY FROM DENSITY LOG
~PARAMETER INFORMATION
#MNEM.UNIT          VALUE    DESCRIPTION
#----------   ------------   ------------------------------
 PD  .                 GL:   PERMANENT DATUM
 EPD .F              5234:   ELEVATION PERMANENT DATUM
 LMF .                 GL:   LOG MEASURED FROM
 DMF .                 GL:   DRILLING MEASURED FROM
 EGL .F              5234:   GROUND LEVEL
 DATE.             3-7-77:   RUN DATE
 RUN .                  1:   RUN NUMBER
 DD  .F               600:   DEPTH DRILLER
 DL  .F               593:   DEPTH LOGGER
 BLI .F               591:   BOTTOM LOG INTERVAL
 TLI .F                35:   TOP LOG INTERVAL
 CS  .IN            8.625:   CASING SIZE
 CBD .F                42:   CASING BOTTOM DRILLER
 CBL .F                42:   CASING BOTTOM LOGGER
 BS  .IN            7.875:   BIT SIZE
 BSD .F               600:   BIT SIZE AT DEPTH
 DFT .            KCL MUD:   DRILLING FLUID TYPE
 MSS .          FLOW LINE:   MUD SAMPLE SOURCE
 RMS .OHMM            .40:   RESISTIVITY MUD SAMPLE
 MST .F                58:   MUD SAMPLE TEMPERATURE
 RMF .OHMM            .33:   RESISTIVITY MUD FILTRATE SAMPLE
 MFST.F                58:   MUD FILTRATE SAMPLE TEMPERATURE
 RMC .OHMM            .44:   RESISTIVITY MUD CAKE
 MCST.F                58:   MUD CAKE SAMPLE TEMPERATURE
 MFSS.           FANN KIT:   MUD FILTRATE SAMPLE SOURCE
 MCSS.           FANN KIT:   MUD CAKE SAMPLE SOURCE
 RMB .OHMM            .31:   RESISTIVITY MUD AT BHT
 BHT .F                62:   BOTTOM HOLE TEMPERATURE
 TCS .HRS               3:   TIME CURCULATED STOPPED
 MRT .F                62:   MAXIMUM RECORDED TEMPERATURE
 LUN .               8611:   LOGGING UNIT NUMBER
 LUL .           GILLETTE:   LOGGING UNIT LOCATION
 ENGI.            C. DOAK:   RECORDING ENGINEER
 WITN.      L. STUEBINGER:   WITNESSED BY
 CLNT.            A2DTECH:   CLIENT CODE
 ORIG.        2" 5" PRINT:   ORIGIN OF DATA
 UWI .       490251029000:   UNIQUE WELL ID
 DICO. A2D Technologies, Inc.:   DIGITIZING COMPANY
~OTHER INFORMATION
~A   DEPT      SPR        ILM        ILD       SGRD         CALD       RHOB      CORR        DPHI       GRD  
# ...
  218.5000   -49.3018    12.7495    11.1013    13.1344     7.7793     2.4423     0.0215     0.1199   112.4820
  219.0000   -49.2156    12.4637    11.0467    12.7004     7.7793     2.4425     0.0253     0.1181   110.5437
  219.5000   -49.1300    12.4648    10.9925    13.1735     7.7793     2.4476     0.0290     0.1147   110.7695
  220.0000   -49.0435    12.5495    10.8617    13.6335     7.7793     2.4592     0.0327     0.1100   112.5004
  220.5000   -49.0642    12.6040    10.8257    14.3091     7.7790     2.4714     0.0365     0.1021   113.7921
  221.0000   -49.1662    12.6579    10.7914    13.9521     7.7775     2.4836     0.0400     0.0942   114.6369
  221.5000   -49.2507    12.7019    10.7567    13.3680     7.7761     2.4959     0.0434     0.0855   115.6856
  222.0000   -49.3244    12.8857    10.7219    13.1751     7.7747     2.5061     0.0457     0.0857   117.9523
  222.5000   -49.3979    13.1714    10.6872    13.7986     7.7733     2.5003     0.0444     0.0882   120.2463
  223.0000   -49.4715    13.5428    10.6526    15.1024     7.7719     2.4945     0.0429     0.0903   122.5074
  223.5000   -49.5450    13.3164    10.6182    15.9641     7.7705     2.4957     0.0412     0.0887   124.1876
  224.0000   -49.6186    12.9294    10.5838    13.5375     7.7690     2.4992     0.0381     0.0875   125.5151
  224.5000   -49.6921    12.5536    10.5143    13.5490     7.7676     2.4964     0.0351     0.0893   125.3820
  225.0000   -49.7657    12.1888    10.3881    13.6676     7.7662     2.4874     0.0322     0.0958   123.8726
  225.5000   -49.8392    11.8345    10.2627    12.9210     7.7648     2.4785     0.0292     0.1011   122.3966
  226.0000   -49.9128    11.4814    10.1391    12.3557     7.7634     2.4696     0.0262     0.1065   121.0951
  226.5000   -49.9864    11.6597    10.0170    12.4017     7.7619     2.4606     0.0232     0.1110   121.1344
  227.0000   -50.0599    11.8018     9.8964    12.4805     7.7605     2.4517     0.0202     0.1152   121.1022
  227.5000   -50.1335    11.6275     9.7773    12.5845     7.7643     2.4427     0.0179     0.1194   120.0638
  228.0000   -50.2071    11.4256     9.6596    12.3980     7.7903     2.4388     0.0199     0.1213   118.8868
  228.5000   -50.2806    11.2281     9.5433    12.0203     7.8158     2.4439     0.0219     0.1195   117.7186
  229.0000   -50.3542    11.0688     9.4284    12.0690     7.8410     2.4485     0.0238     0.1174   116.5570
  229.5000   -50.4234    11.3104     9.3496    12.1553     7.8651     2.4503     0.0258     0.1161   116.4791
  230.0000   -50.4861    11.5859     9.2942    12.2423     7.8854     2.4456     0.0241     0.1164   118.1519
  230.5000   -50.5489    11.4284     9.2391    12.3557     7.9059     2.4477     0.0219     0.1165   119.6183
  231.0000   -50.6117    11.1893     9.1844    12.0991     7.9262     2.4513     0.0240     0.1142   119.6804
  231.5000   -50.6745    10.9578     9.1300    11.8018     7.9465     2.4548     0.0267     0.1118   119.2820
  232.0000   -50.7373    10.7317     9.0760    11.9024     7.9580     2.4625     0.0294     0.1091   118.8760
  232.5000   -50.8001    10.5038     9.0222    12.0203     7.9483     2.4703     0.0319     0.1054   119.5033
  233.0000   -50.8629    10.3793     8.9688    11.8450     7.9385     2.4781     0.0353     0.1016   120.6382
  233.5000   -50.9257    10.3793     8.9157    11.5814     7.9288     2.4848     0.0391     0.0978   121.8441
  234.0000   -50.9885    10.4834     8.8629    11.3236     7.9189     2.4834     0.0428     0.0978   121.7195
  234.5000   -51.0513    10.7994     8.7995    11.0703     7.9184     2.4807     0.0458     0.0986   121.9929
  235.0000   -51.1141    11.1250     8.8260    11.7777     7.9157     2.4820     0.0469     0.0994   123.9707
  235.5000   -51.1768    11.3765     8.8596    12.8266     7.9082     2.4841     0.0480     0.0972   125.9447
  236.0000   -51.2395    10.7219     8.8933    12.3114     7.9006     2.4861     0.0492     0.0950   126.6605
  236.5000   -51.3025    10.2845     8.9272    11.0738     7.8931     2.4846     0.0497     0.0959   126.1156
  237.0000   -51.3644    10.5816     8.9624    11.4664     7.8854     2.4751     0.0490     0.0999   125.3769
  237.5000   -51.5212    10.8532     8.7816    12.0203     7.8788     2.4658     0.0468     0.1051   124.0070
  238.0000   -51.7430    11.0677     8.5527    12.3557     7.8795     2.4564     0.0447     0.1103   122.6236
  238.5000   -51.9658    10.8666     8.3299    11.5490     7.9001     2.4471     0.0425     0.1155   123.7927
  239.0000   -52.1886    10.7055     8.1301    11.2726     7.9061     2.4451     0.0404     0.1182   126.5413
  239.5000   -52.4114    10.5468     7.9750    11.6940     7.9181     2.4449     0.0403     0.1197   129.1961
  240.0000   -52.6342    10.3905     7.8228    11.4503     7.9173     2.4532     0.0413     0.1186   129.5502
  240.5000   -52.8558    10.2365     7.6736    11.0281     7.9104     2.4634     0.0424     0.1169   124.7329
  241.0000   -52.9832    10.0847     7.5272    10.6201     7.9038     2.4736     0.0435     0.1156   122.5605
  241.5000   -52.9825     9.8741     7.3835    10.2276     7.8972     2.4840     0.0445     0.1132   124.0266
  242.0000   -52.9693     9.4158     7.2427     9.7338     7.8905     2.4862     0.0456     0.1107   126.3167
  242.5000   -52.8590     9.0450     7.1256     9.9983     7.8839     2.4736     0.0451     0.1093   128.2405
  243.0000   -52.7483     9.2602     7.2079    10.3706     7.8772     2.4645     0.0442     0.1078   128.5657
  243.5000   -52.6379     9.4507     7.2799    10.6690     7.8706     2.4676     0.0438     0.1064   126.7489
  244.0000   -52.5276     9.6451     7.3527    11.1697     7.8639     2.4760     0.0448     0.1050   124.8139
  244.5000   -52.4127     9.8436     7.4261    10.8155     7.8595     2.4859     0.0457     0.0966   122.4152
  245.0000   -52.3563    10.0966     7.5003    10.4750     7.8635     2.4951     0.0458     0.0921   119.3570
  245.5000   -52.2999    10.0561     7.5753    10.6611     7.8673     2.4897     0.0443     0.0938   116.6852
  246.0000   -52.2441    10.0025     7.6510    11.0043     7.8711     2.4833     0.0421     0.0981   115.5128
  246.5000   -52.1879     9.9480     7.7274    11.1697     7.8749     2.4784     0.0384     0.1017   116.9208
  247.0000   -52.1317     9.8941     7.8046    10.9396     7.8787     2.4676     0.0347     0.1084   120.0654
  247.5000   -52.0756     9.8405     7.8826    10.8653     7.8825     2.4567     0.0310     0.1142   123.7795
  248.0000   -52.0194     9.7872     7.9614    10.9288     7.8863     2.4506     0.0273     0.1141   125.8584
  248.5000   -51.9632     9.7338     8.0409    11.1138     7.8901     2.4543     0.0262     0.1122   124.3936
  249.0000   -51.9070     9.8258     8.1213    11.3015     7.8939     2.4577     0.0269     0.1103   122.2710
  249.5000   -51.8506     9.9194     8.2024    11.4924     7.8977     2.4612     0.0278     0.1083   120.8100
  250.0000   -51.7950    10.0139     8.2847    11.6866     7.9015     2.4647     0.0267     0.1063   120.1113
  250.5000   -51.8052    10.1093     8.4046    11.8840     7.9053     2.4677     0.0250     0.1066   120.1450
  251.0000   -51.8234    10.2058     8.3975    12.1351     7.9091     2.4632     0.0234     0.1097   123.9378
  251.5000   -51.8415    10.3032     8.3818    12.1362     7.9129     2.4585     0.0231     0.1129   128.0094
  252.0000   -51.8595    10.3988     8.3668    11.8868     7.9167     2.4586     0.0260     0.1140   131.9409
  252.5000   -51.8775    10.4711     8.3519    11.5592     7.9205     2.4652     0.0289     0.1080   135.3343
  253.0000   -51.8955    10.3117     8.3370    11.2718     7.9243     2.4721     0.0318     0.1055   137.1943
  253.5000   -51.9135    10.2483     8.3221    11.3276     7.9281     2.4727     0.0336     0.1034   135.1443
  254.0000   -51.9315    10.1852     8.3073    11.3806     7.9319     2.4709     0.0328     0.1041   132.1290
  254.5000   -51.9495    10.1186     8.2924    11.0862     7.9357     2.4690     0.0321     0.1062   129.5907
