~VERSION INFORMATION
 VERS.                2.0:   CWLS LOG ASCII STANDARD - VERSION 2.0
 WRAP.                 NO:   ONE LINE PER DEPTH STEP
~WELL INFORMATION
#MNEM.UNIT      DATA TYPE    INFORMATION
#----------   ------------   ------------------------------
 STRT.F            0.0000:   START DEPTH
 STOP.F         1002.0000:   STOP DEPTH
 STEP.F            0.5000:   STEP LENGTH
 NULL.          -999.2500:   NO VALUE
 COMP. U S NAVY-INTEX OIL:   COMPANY
 WELL.     NPR ##3 28-S-2:   WELL
 FLD .             TEAPOT:   FIELD
 LOC .       S2 T38N R78W:   LOCATION
 CNTY.            NATRONA:   COUNTY
 STAT.            WYOMING:   STATE
 CTRY. UNITED STATES OF AMERICA:   COUNTRY
 SRVC.      NL McCullough:   SERVICE COMPANY
 DATE.        13-JUN-1963:   LOGDATE
 API .       490250639400:   API NUMBER
~CURVE INFORMATION
#MNEM.UNIT       API CODE    CURVE DESCRIPTION
#----------   ------------   ------------------------------
 DEPT.F                  :   
 ASN .OHMM   05 041 16 00:   AMPLIFIED SHORT NORMAL 16"
 ILD .OHMM   05 120 46 00:   INDUCTION LOG DEEP
 CILD.MMHO   05 110 46 00:   CONDUCTIVITY INDUCTION LOG DEEP
 SPR .MV     05 010 01 00:   SPONTANEOUS POTENTIAL FROM RES.
 GR  .GAPI   30 310 01 00:   GAMMA RAY
~PARAMETER INFORMATION
#MNEM.UNIT          VALUE    DESCRIPTION
#----------   ------------   ------------------------------
 PD  .                 GL:   PERMANENT DATUM
 EPD .F              5147:   ELEVATION PERMANENT DATUM
 LMF .                 KB:   LOG MEASURED FROM
 DAPD.F                 5:   FEET ABOVE PERMANENT DATUM
 DMF .                 KB:   DRILLING MEASURED FROM
 EKB .F              5152:   KELLING BUSHING
 EGL .F              5147:   GROUND LEVEL
 DATE.        13-SEP-1963:   RUN DATE
 RUN .                  1:   RUN NUMBER
 BLI .F               600:   BOTTOM LOG INTERVAL
 CS  .IN                7:   CASING SIZE
 DFT .                OIL:   DRILLING FLUID TYPE
 ENGI.            JACKSON:   RECORDING ENGINEER
 WITN.             HUDSON:   WITNESSED BY
 CLNT.            A2DTECH:   CLIENT CODE
 ORIG.           5" PRINT:   ORIGIN OF DATA
 UWI .       490250639400:   UNIQUE WELL ID
 DICO. A2D Technologies, Inc.:   DIGITIZING COMPANY
~OTHER INFORMATION
~A    DEPT     ASN        ILD       CILD        SPR          GR  
# ...
  610.0000    11.0703    10.8395    87.7695   -39.6711  -999.2500
  610.5000    10.9959    10.7668    88.3700   -39.5172  -999.2500
  611.0000    10.8469    10.6801    89.0692   -39.5127  -999.2500
  611.5000    10.6980    10.5464    90.5202   -39.5082  -999.2500
  612.0000    10.5488    10.4737    91.2884   -39.5037  -999.2500
  612.5000    10.4745    10.4760    92.6703   -39.3498  -999.2500
  613.0000    10.2509    10.3913    93.3694   -39.3453  -999.2500
  613.5000    10.1765    10.2555    93.3158   -39.1913  -999.2500
  614.0000    10.0275    10.2469    94.0157   -39.0234  -999.2500
  614.5000     9.9532    10.0997    95.4984   -38.7339  -999.2500
  615.0000     9.8043     9.8776    97.6696   -38.7295  -999.2500
  615.5000     9.6551     9.6648    99.1379   -38.7250  -999.2500
  616.0000     9.5061     9.5832   101.3329   -38.7205  -999.2500
  616.5000     9.2077     9.3695   103.5289   -38.6996  -999.2500
  617.0000    10.1348     9.1389   105.7292   -38.5621  -999.2500
  617.5000     9.7616     8.7669   108.6840   -38.4081  -999.2500
  618.0000     9.5080     8.2378   113.1425   -38.2541  -999.2500
  618.5000     9.2543     7.5664   120.6085   -38.1002  -999.2500
  619.0000     8.9708     6.9641   140.1047   -37.7967  -999.2500
  619.5000     8.5377     5.9987   151.3301   -37.4933  -999.2500
  620.0000     7.9851     5.3273   170.8262   -37.3194  -999.2500
  620.5000     7.2830     5.0352   187.3148   -37.0359  -999.2500
  621.0000     6.7304     4.8880   190.2706   -36.7324  -999.2500
  621.5000     6.5664     4.8193   188.7130   -36.5784  -999.2500
  622.0000     6.5518     4.8216   185.6527   -36.5740  -999.2500
  622.5000     6.6421     4.8988   182.5924   -36.5919  -999.2500
  623.0000     7.2255     5.0551   176.5247   -36.8641  -999.2500
  623.5000     8.1676     5.5075   162.1862   -37.1818  -999.2500
  624.0000     9.0650     6.4099   144.8402   -37.4769  -999.2500
  624.5000     9.7543     7.7580   127.4942   -37.7476  -999.2500
  625.0000    10.1021     8.6582   113.1557   -37.8926  -999.2500
  625.5000    10.2194     8.9608   105.5841   -37.8879  -999.2500
  626.0000    10.1836     8.8876   103.2757   -37.8834  -999.2500
  626.5000     9.8512     9.0397   102.4711   -37.8789  -999.2500
  627.0000     9.5189     9.1170   101.6664   -37.8744  -999.2500
  627.5000     9.5949     9.2691   100.8618   -37.8700  -999.2500
  628.0000     9.8178     9.4213   100.0572   -37.7160  -999.2500
  628.5000    10.0408     9.5735    98.5006   -37.3565  -999.2500
  629.0000    10.2652     9.8756    96.9441   -37.3520  -999.2500
  629.5000    10.4151    10.0278    94.6357   -37.3475  -999.2500
  630.0000    10.5650    10.3299    92.3273   -37.6415  -999.2500
  630.5000    10.7897    10.5570    90.7708   -37.7863  -999.2500
  631.0000    10.8649    10.7842    89.2143   -37.7818  -999.2500
  631.5000    11.1643    10.9363    88.4096   -37.9277  -999.2500
  632.0000    11.3890    11.1635    86.1012   -38.3698  -999.2500
  632.5000    11.6136    11.3906    85.2966   -38.3653  -999.2500
  633.0000    11.8383    11.6178    83.7401   -38.3608  -999.2500
  633.5000    11.9882    11.8449    82.9354   -38.5056  -999.2500
  634.0000    12.0634    11.9971    82.1308   -38.5011  -999.2500
  634.5000    12.1386    12.1492    82.0780   -38.9444  -999.2500
  635.0000    12.2138    12.3014    81.2734   -39.2384  -999.2500
  635.5000    12.2142    12.4536    80.4687   -39.3843  -999.2500
  636.0000    12.2894    12.4559    79.6641   -39.5290  -999.2500
  636.5000    12.2899    12.4581    78.8594   -39.6738  -999.2500
  637.0000    12.2903    12.3853    78.8067   -39.3697  -999.2500
  637.5000    12.3655    12.3876    78.7539   -39.2160  -999.2500
  638.0000    12.3660    12.3148    78.7011   -38.9130  -999.2500
  638.5000    12.3664    12.2421    78.6484   -38.7592  -999.2500
  639.0000    12.3669    12.1694    78.5956   -38.6055  -999.2500
  639.5000    12.3673    12.1718    79.3079   -38.4517  -999.2500
  640.0000    12.3678    12.0990    79.2420   -38.2980  -999.2500
  640.5000    12.2935    11.9508    79.1892   -38.4439  -999.2500
  641.0000    12.2939    11.8781    79.1364   -38.7368  -999.2500
  641.5000    12.2195    11.8809    79.8487   -39.4785  -999.2500
  642.0000    12.2201    11.8077    80.5479   -39.7726  -999.2500
  642.5000    12.1457    11.8105    81.2470   -39.9185  -999.2500
  643.0000    12.1463    11.8127    81.9461   -40.0632  -999.2500
  643.5000    12.0780    11.7395    82.6452   -39.9084  -999.2500
  644.0000    12.0969    11.6673    82.5793   -39.4561  -999.2500
  644.5000    12.1027    11.5940    82.5309   -39.0039  -999.2500
  645.0000    12.0284    11.3720    83.2432   -38.7009  -999.2500
  645.5000    11.9541    11.1493    84.6942   -38.3979  -999.2500
  646.0000    11.8051    10.9267    86.8839   -38.2441  -999.2500
  646.5000    11.6561    10.7785    89.0868   -38.0904  -999.2500
  647.0000    11.4323    10.5564    90.5378   -37.9366  -999.2500
  647.5000    11.3580    10.3338    92.0019   -37.7829  -999.2500
  648.0000    11.1342    10.1111    93.4397   -37.6291  -999.2500
  648.5000    10.9852     9.8885    94.8907   -37.4754  -999.2500
  649.0000    10.8362     9.8152    95.6030   -37.4709  -999.2500
  649.5000    10.7619     9.6681    97.7927   -37.4664  -999.2500
  650.0000    10.6876     9.4971    99.4097   -37.4619  -999.2500
  650.5000    10.4638     9.3602   100.3231   -37.4575  -999.2500
  651.0000    10.3895     9.2234   101.2365   -37.6033  -999.2500
  651.5000    10.2405     9.1499   102.1500   -37.5977  -999.2500
  652.0000    10.1662     9.0015   103.0634   -37.5932  -999.2500
  652.5000    10.1667     9.0030   103.5338   -37.4395  -999.2500
  653.0000    10.0924     9.0045   103.4877   -37.4350  -999.2500
  653.5000    10.0928     8.9310   104.1955   -37.2813  -999.2500
  654.0000    10.0933     8.9325   104.1502   -37.1275  -999.2500
  654.5000    10.0937     9.0090   104.8574   -37.1230  -999.2500
  655.0000    10.0194     9.0105   105.6144   -37.1185  -999.2500
  655.5000    10.0199     9.0120   106.3508   -37.1141  -999.2500
  656.0000    10.0141     8.9385   106.9791   -36.9603  -999.2500
  656.5000    10.0029     8.9400   107.0726   -36.9558  -999.2500
  657.0000     9.9918     8.7916   109.1454   -36.8030  -999.2500
  657.5000     9.9806     8.6432   111.3452   -36.7712  -999.2500
  658.0000     9.9695     8.4948   112.8155   -36.6189  -999.2500
  658.5000     9.9583     8.3463   115.0153   -36.4667  -999.2500
  659.0000     9.9471     8.1979   116.4744   -36.3373  -999.2500
  659.5000     9.9339     7.9745   117.9446   -36.1835  -999.2500
  660.0000     9.8745     7.9010   119.3925   -36.1791  -999.2500
  660.5000     9.7703     7.8276   120.8628   -36.1747  -999.2500
  661.0000     9.6960     7.8291   121.5700   -36.1702  -999.2500
  661.5000     9.6068     7.7556   122.2661   -36.3150  -999.2500
  662.0000     9.5325     7.6822   123.7363   -36.4598  -999.2500
  662.5000     9.4433     7.5337   125.9361   -36.4552  -999.2500
  663.0000     9.3690     7.3853   130.4027   -36.4507  -999.2500
  663.5000     9.2498     7.0870   134.8694   -36.4462  -999.2500
  664.0000     9.1008     6.6387   145.3510   -36.2925  -999.2500
  664.5000     8.8621     6.1154   155.8326   -36.1388  -999.2500
  665.0000     8.5636     5.8921   157.2932   -35.9851  -999.2500
  665.5000     7.9661     5.9685   154.9914   -35.8279  -999.2500
  666.0000     7.8319     5.9700   152.6911   -35.6776  -999.2500
  666.5000     7.8773     6.0465   151.1427   -35.5239  -999.2500
  667.0000     8.0273     6.0480   149.5740   -35.5194  -999.2500
  667.5000     8.4313     6.2744   145.6900   -35.5149  -999.2500
  668.0000     9.1941     6.7256   136.4012   -35.6597  -999.2500
  668.5000     9.5976     7.5517   125.8189   -35.8044  -999.2500
  669.0000     9.7154     8.1529   116.0503   -36.0985  -999.2500
  669.5000     9.8332     8.7541   108.7583   -36.2433  -999.2500
  670.0000     9.9510     9.0555   104.9542   -36.3881  -999.2500
  670.5000    10.0689     9.2069   102.6539   -36.5328  -999.2500
