~VERSION INFORMATION
 VERS.                2.0:   CWLS LOG ASCII STANDARD - VERSION 2.0
 WRAP.                 NO:   ONE LINE PER DEPTH STEP
~WELL INFORMATION
#MNEM.UNIT      DATA TYPE    INFORMATION
#----------   ------------   ------------------------------
 STRT.F           38.0000:   START DEPTH
 STOP.F          818.0000:   STOP DEPTH
 STEP.F            0.5000:   STEP LENGTH
 NULL.          -999.2500:   NO VALUE
 COMP. FENIX & SCISSON INC:   COMPANY
 WELL. NAVAL PETROLEUM RESERVE 3 SX-1 #32-14:   WELL
 FLD .             TEAPOT:   FIELD
 LOC .      S14 T38N R78W:   LOCATION
 CNTY.            NATRONA:   COUNTY
 STAT.            WYOMING:   STATE
 CTRY. UNITED STATES OF AMERICA:   COUNTRY
 SRVC.            Unknown:   SERVICE COMPANY
 DATE.        03-MAY-1978:   LOGDATE
 API .       490251061900:   API NUMBER
~CURVE INFORMATION
#MNEM.UNIT       API CODE    CURVE DESCRIPTION
#----------   ------------   ------------------------------
 DEPT.F                  :   
 SPR .MV     05 010 01 00:   SPONTANEOUS POTENTIAL FROM RES.
 ILD .OHMM   05 120 46 00:   INDUCTION LOG DEEP
 SN  .OHMM   05 040 16 00:   SHORT NORMAL 16"
 CALD.IN     45 280 60 00:   CALIPER
 GRD .GAPI   45 310 01 00:   GAMMA RAY FROM DENSITY LOG
 RHOB.G/C3   45 350 01 00:   BULK DENSITY
 DPHI.DEC    45 890 12 00:   DENSITY POROSITY SANDSTONE
 CORR.G/C3   45 356 01 00:   DENSITY CORRECTION
~PARAMETER INFORMATION
#MNEM.UNIT          VALUE    DESCRIPTION
#----------   ------------   ------------------------------
 PD  .                 GL:   PERMANENT DATUM
 EPD .F              5209:   ELEVATION PERMANENT DATUM
 LMF .                 KB:   LOG MEASURED FROM
 DAPD.F                 4:   FEET ABOVE PERMANENT DATUM
 DMF .                 KB:   DRILLING MEASURED FROM
 EKB .F              5213:   KELLING BUSHING
 EGL .F              5209:   GROUND LEVEL
 DATE.           5-3-1978:   RUN DATE
 RUN .                  1:   RUN NUMBER
 DD  .F               806:   DEPTH DRILLER
 DL  .F               824:   DEPTH LOGGER
 BLI .F               818:   BOTTOM LOG INTERVAL
 TLI .F                50:   TOP LOG INTERVAL
 CS  .IN            8.625:   CASING SIZE
 CBD .F                40:   CASING BOTTOM DRILLER
 BS  .IN            7.875:   BIT SIZE
 BSD .F               806:   BIT SIZE AT DEPTH
 DFT .                KCL:   DRILLING FLUID TYPE
 DFD .                8.6:   DRILLING FLUID DENSITY
 DFV .                 34:   DRILLING FLUID VISCOSITY
 DFPH.                  9:   DRILLING FLUID PH
 DFL .               16.4:   DRILLING FLUID LOSS
 MSS .           FLOWLINE:   MUD SAMPLE SOURCE
 RMS .OHMM            .75:   RESISTIVITY MUD SAMPLE
 MST .F                52:   MUD SAMPLE TEMPERATURE
 RMF .OHMM            .65:   RESISTIVITY MUD FILTRATE SAMPLE
 MFST.F                60:   MUD FILTRATE SAMPLE TEMPERATURE
 RMC .OHMM            1.2:   RESISTIVITY MUD CAKE
 MCST.F                62:   MUD CAKE SAMPLE TEMPERATURE
 MFSS.               MEAS:   MUD FILTRATE SAMPLE SOURCE
 RMB .OHMM            .54:   RESISTIVITY MUD AT BHT
 BHT .F                72:   BOTTOM HOLE TEMPERATURE
 TCS .HRS               1:   TIME CURCULATED STOPPED
 MRT .F                72:   MAXIMUM RECORDED TEMPERATURE
 LUN .               2958:   LOGGING UNIT NUMBER
 LUL .               CASP:   LOGGING UNIT LOCATION
 ENGI.             MILLER:   RECORDING ENGINEER
 WITN.           MCGINLEY:   WITNESSED BY
 CLNT.            A2DTECH:   CLIENT CODE
 ORIG.           5" PRINT:   ORIGIN OF DATA
 UWI .       490251061900:   UNIQUE WELL ID
 DICO. A2D Technologies, Inc.:   DIGITIZING COMPANY
~OTHER INFORMATION
~A   DEPT      SPR        ILD         SN         CALD      GRD       RHOB       DPHI       CORR   
# ...
  605.0000   -33.0891     7.0964     7.4758     7.8729    96.0854     2.4751     0.1345     0.0511
  605.5000   -33.0513     7.0977     7.4898     7.9024    96.1111     2.4785     0.1304     0.0523
  606.0000   -33.0130     7.0963     7.4995     7.9711    96.4140     2.4850     0.1295     0.0525
  606.5000   -32.9691     6.9506     7.2044     8.1350    97.6449     2.4769     0.1435     0.0530
  607.0000   -33.2049     6.5005     6.8968     8.2010    99.1457     2.4656     0.1482     0.0534
  607.5000   -33.5038     5.9279     6.5920     8.2495   102.9725     2.4539     0.1543     0.0539
  608.0000   -33.8010     5.4204     6.0202     8.3002   106.6580     2.4413     0.1618     0.0547
  608.5000   -33.8433     5.0470     5.5851     8.3148   110.6952     2.4280     0.1658     0.0628
  609.0000   -33.7104     5.0007     5.5414     8.3003   114.9443     2.4162     0.1658     0.0714
  609.5000   -33.5966     5.0254     5.5339     8.2870   114.8740     2.4168     0.1595     0.0787
  610.0000   -33.4838     5.2368     5.8345     8.1887   114.1428     2.4416     0.1402     0.0701
  610.5000   -33.3710     5.6303     6.2592     8.0633   107.9480     2.4792     0.1206     0.0600
  611.0000   -33.2578     6.0121     7.2815     8.0611   103.5198     2.5148     0.1084     0.0519
  611.5000   -33.1255     7.0125     8.0030     8.0616   100.9484     2.5184     0.1082     0.0463
  612.0000   -32.9053     8.1476     8.3089     8.0618    98.5998     2.5200     0.1086     0.0415
  612.5000   -32.6877     8.2230     8.4534     8.0618    97.3980     2.5216     0.1092     0.0385
  613.0000   -32.5802     8.2230     8.5316     8.0618    97.0139     2.5206     0.1120     0.0364
  613.5000   -32.6052     8.2229     8.5316     8.0618    95.0005     2.5157     0.1159     0.0364
  614.0000   -32.6292     8.2230     8.5316     8.0618    89.6504     2.5055     0.1198     0.0396
  614.5000   -32.6536     8.2230     8.5316     8.0622    88.7803     2.5005     0.1223     0.0474
  615.0000   -32.6779     8.2230     8.5316     8.0452    91.0177     2.4995     0.1227     0.0539
  615.5000   -32.7021     8.2230     8.5317     8.0263    93.7051     2.4985     0.1227     0.0543
  616.0000   -32.7265     8.3042     8.5295     7.9604    96.3439     2.4976     0.1234     0.0529
  616.5000   -32.7516     8.4281     8.6714     7.8909    96.8996     2.4965     0.1282     0.0492
  617.0000   -32.7774     8.5538     8.7706     7.9321    96.0891     2.4909     0.1338     0.0456
  617.5000   -32.4811     8.6902     8.8786     8.0985    94.7630     2.4713     0.1395     0.0419
  618.0000   -32.1644     9.3461     9.0889     8.1964    92.4411     2.4591     0.1447     0.0382
  618.5000   -31.9804    10.0110     9.5263     8.2976    89.8499     2.4585     0.1581     0.0362
  619.0000   -31.9705    10.6901    10.2804     8.3826    86.8659     2.4295     0.1707     0.0433
  619.5000   -31.9716    11.5929    11.0942     8.3710    80.9732     2.4135     0.1817     0.0510
  620.0000   -31.9717    12.6244    11.8968     8.3460    75.0658     2.3948     0.1870     0.0588
  620.5000   -31.9738    13.3986    12.4678     8.2943    69.1621     2.3783     0.1928     0.0622
  621.0000   -32.0834    13.9870    13.0326     8.2380    63.2567     2.3765     0.1961     0.0618
  621.5000   -32.3566    14.5620    13.0227     8.1816    57.3425     2.3648     0.1988     0.0612
  622.0000   -32.6282    14.7644    13.0078     8.1254    51.4107     2.3444     0.2015     0.0606
  622.5000   -32.7767    14.8534    12.9930     8.0689    47.3290     2.3575     0.2026     0.0553
  623.0000   -32.5332    14.9634    12.9781     8.0446    46.3174     2.3663     0.2050     0.0428
  623.5000   -32.2673    14.7830    12.9633     8.0485    46.6773     2.3575     0.2098     0.0304
  624.0000   -32.0005    14.5405    12.9484     8.0528    47.9507     2.3492     0.2105     0.0180
  624.5000   -31.7372    14.3019    12.9336     8.0571    49.2031     2.3455     0.2021     0.0170
  625.0000   -31.5709    14.1589    12.9118     8.0627    50.4671     2.3622     0.2028     0.0179
  625.5000   -31.5433    14.1273    12.9148     8.0996    51.9764     2.3556     0.2033     0.0188
  626.0000   -31.5119    14.0958    12.7306     8.1381    53.5201     2.3614     0.2030     0.0197
  626.5000   -31.4812    14.0644    12.5823     8.1749    53.6173     2.3592     0.1939     0.0206
  627.0000   -31.4501    14.0330    12.4357     8.2025    52.9878     2.3740     0.1876     0.0214
  627.5000   -31.4195    13.8080    12.2908     8.2011    52.6468     2.3865     0.1872     0.0223
  628.0000   -31.3879    13.4881    12.0849     8.2012    52.7608     2.3863     0.1868     0.0232
  628.5000   -31.4855    13.2492    11.8807     8.2011    52.8509     2.3861     0.1870     0.0241
  629.0000   -31.6882    13.0438    11.6798     8.2100    52.6741     2.3844     0.1880     0.0229
  629.5000   -31.8919    12.8415    11.4825     8.2263    52.4592     2.3828     0.1887     0.0193
  630.0000   -32.0935    12.6696    11.2868     8.2426    53.6889     2.3814     0.1893     0.0156
  630.5000   -32.3135    12.6258    11.2448     8.2590    56.5832     2.3842     0.1834     0.0144
  631.0000   -32.1507    12.5818    11.2342     8.2754    59.0203     2.3902     0.1825     0.0149
  631.5000   -32.1312    12.5383    11.2237     8.2921    59.2434     2.3936     0.1897     0.0155
  632.0000   -32.0949    12.4948    11.2132     8.2987    59.1134     2.3837     0.1887     0.0161
  632.5000   -32.0607    12.4515    11.2027     8.2447    57.4510     2.3862     0.1837     0.0166
  633.0000   -32.0267    12.4460    11.1922     8.1912    57.6738     2.3953     0.1794     0.0172
  633.5000   -31.9932    12.4460    11.1817     8.1378    58.0383     2.3982     0.1794     0.0178
  634.0000   -31.9764    12.4436    11.1712     8.1097    58.4086     2.3954     0.1873     0.0183
  634.5000   -31.9886    12.4238    11.1608     8.1963    58.3752     2.3830     0.1931     0.0225
  635.0000   -32.0003    12.4041    11.1503     8.2831    58.3114     2.3706     0.1985     0.0293
  635.5000   -32.0122    12.3844    11.1398     8.3697    58.2572     2.3663     0.2032     0.0296
  636.0000   -32.0240    12.3647    11.1294     8.4466    57.4697     2.3556     0.2062     0.0278
  636.5000   -32.0359    12.3451    11.1190     8.4647    56.2657     2.3440     0.2138     0.0263
  637.0000   -32.0477    12.3255    11.1086     8.4798    56.2426     2.3323     0.2211     0.0305
  637.5000   -32.0596    12.3059    11.0981     8.4709    57.0741     2.3207     0.2252     0.0353
  638.0000   -32.0714    12.2864    11.0877     8.4564    58.9862     2.3216     0.2152     0.0401
  638.5000   -32.0832    12.2669    11.0773     8.4419    59.2274     2.3387     0.2112     0.0342
  639.0000   -32.0951    12.2474    11.0670     8.4273    59.2232     2.3368     0.2099     0.0274
  639.5000   -32.1069    12.2280    11.0566     8.4206    59.2202     2.3404     0.2086     0.0207
  640.0000   -32.1187    12.2085    11.0462     8.4319    59.4293     2.3478     0.2081     0.0204
  640.5000   -32.1306    12.1892    11.0359     8.4681    62.0312     2.3396     0.2192     0.0226
  641.0000   -32.1423    12.1698    11.0255     8.5042    61.8590     2.3301     0.2162     0.0240
  641.5000   -32.1543    12.1505    11.0152     8.5396    61.3718     2.3372     0.2114     0.0255
  642.0000   -32.1657    12.1312    11.0049     8.5067    59.0127     2.3454     0.2089     0.0271
  642.5000   -32.2283    12.1119    10.9946     8.4648    56.4088     2.3523     0.2065     0.0287
  643.0000   -32.3298    12.0927    10.9843     8.4237    56.2965     2.3525     0.2055     0.0302
  643.5000   -32.4316    12.0735    10.9740     8.4311    56.3558     2.3524     0.2035     0.0304
  644.0000   -32.5341    12.0543    10.9636     8.4985    56.4514     2.3553     0.2015     0.0304
  644.5000   -32.6349    12.0353    10.9537     8.5664    55.6670     2.3615     0.1997     0.0304
  645.0000   -32.7331    12.0164    10.9382     8.5500    55.5966     2.3649     0.1998     0.0304
