~VERSION INFORMATION
 VERS.                2.0:   CWLS LOG ASCII STANDARD - VERSION 2.0
 WRAP.                 NO:   ONE LINE PER DEPTH STEP
~WELL INFORMATION
#MNEM.UNIT      DATA TYPE    INFORMATION
#----------   ------------   ------------------------------
 STRT.F           30.0000:   START DEPTH
 STOP.F          620.0000:   STOP DEPTH
 STEP.F            0.5000:   STEP LENGTH
 NULL.          -999.2500:   NO VALUE
 COMP. FENIX & SCISSON INC:   COMPANY
 WELL.       NPR-3 #62-15:   WELL
 FLD .             TEAPOT:   FIELD
 LOC .      S15 T38N R78W:   LOCATION
 CNTY.            NATRONA:   COUNTY
 STAT.            WYOMING:   STATE
 CTRY. UNITED STATES OF AMERICA:   COUNTRY
 SRVC.           BIRDWELL:   SERVICE COMPANY
 DATE.        08-JUN-1978:   LOGDATE
 API .       490251063700:   API NUMBER
~CURVE INFORMATION
#MNEM.UNIT       API CODE    CURVE DESCRIPTION
#----------   ------------   ------------------------------
 DEPT.F                  :   
 SPR .MV     05 010 01 00:   SPONTANEOUS POTENTIAL FROM RES.
 SN  .OHMM   05 040 16 00:   SHORT NORMAL 16"
 ILD .OHMM   05 120 46 00:   INDUCTION LOG DEEP
 CALD.IN     45 280 60 00:   CALIPER FROM DENSITY LOG
 GRD .GAPI   45 310 01 00:   GAMMA RAY FROM DENSITY LOG
 CORR.G/C3   45 356 01 00:   DENSITY CORRECTION
 DPHI.DEC    45 890 12 00:   DENSITY POROSITY SANDSTONE
 DEN .G/C3   45 350 01 00:   DENSITY
~PARAMETER INFORMATION
#MNEM.UNIT          VALUE    DESCRIPTION
#----------   ------------   ------------------------------
 PD  .                 GL:   PERMANENT DATUM
 EPD .F              5246:   ELEVATION PERMANENT DATUM
 LMF .                 KB:   LOG MEASURED FROM
 DAPD.F                 4:   FEET ABOVE PERMANENT DATUM
 DMF .                 KB:   DRILLING MEASURED FROM
 EKB .F              5250:   KELLING BUSHING
 EGL .F              5246:   GROUND LEVEL
 DATE.        08-JUN-1978:   RUN DATE
 RUN .                  1:   RUN NUMBER
 DD  .F               620:   DEPTH DRILLER
 DL  .F               627:   DEPTH LOGGER
 BLI .F               620:   BOTTOM LOG INTERVAL
 TLI .F                42:   TOP LOG INTERVAL
 CS  .IN            8.625:   CASING SIZE
 CBD .F                40:   CASING BOTTOM DRILLER
 CBL .F                42:   CASING BOTTOM LOGGER
 BS  .IN            7.875:   BIT SIZE
 BSD .F               620:   BIT SIZE AT DEPTH
 DFT .                KCL:   DRILLING FLUID TYPE
 DFD .                8.7:   DRILLING FLUID DENSITY
 DFV .                 31:   DRILLING FLUID VISCOSITY
 DFPH.               10.5:   DRILLING FLUID PH
 DFL .                 10:   DRILLING FLUID LOSS
 MSS .           FLOWLINE:   MUD SAMPLE SOURCE
 RMS .OHMM            .26:   RESISTIVITY MUD SAMPLE
 MST .F                76:   MUD SAMPLE TEMPERATURE
 RMF .OHMM            .28:   RESISTIVITY MUD FILTRATE SAMPLE
 MFST.F                76:   MUD FILTRATE SAMPLE TEMPERATURE
 RMC .OHMM            .40:   RESISTIVITY MUD CAKE
 MCST.F                77:   MUD CAKE SAMPLE TEMPERATURE
 MFSS.               MEAS:   MUD FILTRATE SAMPLE SOURCE
 MCSS.               MEAS:   MUD CAKE SAMPLE SOURCE
 RMB .OHMM            .28:   RESISTIVITY MUD AT BHT
 BHT .F                70:   BOTTOM HOLE TEMPERATURE
 TCS .HRS            0400:   TIME CURCULATED STOPPED
 MRT .F                70:   MAXIMUM RECORDED TEMPERATURE
 LUN .               2958:   LOGGING UNIT NUMBER
 LUL .               CASP:   LOGGING UNIT LOCATION
 ENGI.             MILLER:   RECORDING ENGINEER
 WITN.           MCGINLEY:   WITNESSED BY
 CLNT.            A2DTECH:   CLIENT CODE
 ORIG.           5" PRINT:   ORIGIN OF DATA
 UWI .       490251063700:   UNIQUE WELL ID
 DICO. A2D Technologies, Inc.:   DIGITIZING COMPANY
~OTHER INFORMATION
~A   DEPT      SPR         SN        ILD       CALD        GRD       CORR       DPHI        DEN   
# ...
  516.0000   -22.8731    15.2437    10.5952     7.6325    56.8970     0.0750     0.1885     2.3508
  516.5000   -22.8584    15.1490    10.5279     7.6160    58.0637     0.0719     0.1864     2.3543
  517.0000   -22.6940    15.0549    10.4625     7.6295    57.2247     0.0673     0.1853     2.3558
  517.5000   -22.6793    14.9614    10.3236     7.6117    53.6656     0.0582     0.1865     2.3558
  518.0000   -22.6646    14.7661    10.1884     7.5321    54.4293     0.0477     0.1916     2.3535
  518.5000   -22.6497    14.5758    10.0540     7.4867    54.8481     0.0371     0.2000     2.3444
  519.0000   -22.6347    14.2865     9.9902     7.4730    54.1538     0.0340     0.2048     2.3272
  519.5000   -22.6168    14.0999     9.9268     7.4866    53.0141     0.0519     0.2043     2.3226
  520.0000   -22.6021    13.8200     9.8638     7.4700    56.7698     0.0578     0.1782     2.3473
  520.5000   -22.5874    13.6373     9.8705     7.4986    59.7744     0.0547     0.1800     2.3623
  521.0000   -22.5727    13.3689     9.8759     7.6323    60.5165     0.0546     0.1854     2.3675
  521.5000   -22.4083    13.1943     9.8119     7.7363    61.4095     0.0545     0.1893     2.3555
  522.0000   -22.3936    13.0221     9.7496     7.7348    58.8334     0.0544     0.1830     2.3644
  522.5000   -22.5323    12.8521     9.7562     7.6881    58.5227     0.0559     0.1791     2.3704
  523.0000   -22.6636    12.7722     9.6276     7.6565    60.0159     0.0557     0.1807     2.3711
  523.5000   -23.3974    12.7831     9.5006     7.6704    61.9647     0.0556     0.1678     2.3703
  524.0000   -23.6826    12.8804     9.4403     7.7138    63.0085     0.0571     0.1615     2.3815
  524.5000   -23.9668    12.9785     9.3791     7.7574    66.3147     0.0555     0.1669     2.3913
  525.0000   -24.1018    13.1680     9.3207     7.7736    65.5485     0.0449     0.1777     2.3942
  525.5000   -24.2368    13.2683     9.2616     7.7695    63.2741     0.0298     0.1830     2.3754
  526.0000   -24.2216    13.4621     9.2668     7.7680    60.6979     0.0223     0.1877     2.3551
  526.5000   -24.2037    13.4273     9.2080     7.7666    60.6859     0.0207     0.1889     2.3521
  527.0000   -24.1890    13.3719     9.2131     7.7500    61.2772     0.0311     0.1839     2.3603
  527.5000   -24.0246    13.3059     9.2182     7.7472    60.8127     0.0400     0.1823     2.3678
  528.0000   -24.0099    13.2210     9.2242     7.7319    59.5940     0.0459     0.1811     2.3685
  528.5000   -23.9952    12.9607     9.2292     7.7154    58.9787     0.0502     0.1742     2.3707
  529.0000   -23.9805    12.9695     9.2335     7.7136    58.5142     0.0517     0.1712     2.3774
  529.5000   -23.9658    12.8889     9.3033     7.7121    57.1447     0.0531     0.1713     2.3811
  530.0000   -24.1045    12.8067     9.3084     7.7106    55.9290     0.0515     0.1713     2.3826
  530.5000   -24.5389    12.7271     9.3134     7.7091    60.2880     0.0439     0.1749     2.3788
  531.0000   -24.8199    12.6502     9.2531     7.7076    63.5943     0.0363     0.1818     2.3728
  531.5000   -25.1046    12.6588     9.2594     7.7061    65.2444     0.0333     0.1794     2.3697
  532.0000   -25.0858    13.3873     9.2644     7.7046    60.8553     0.0586     0.1741     2.3766
  532.5000   -24.9251    13.3964     9.2694     7.7332    59.4858     0.0660     0.1627     2.3922
  533.0000   -24.9102    13.3132     9.2745     7.7471    58.8704     0.0644     0.1504     2.4116
  533.5000   -25.0421    13.3351     9.2156     7.7754    60.3667     0.0538     0.1417     2.4318
  534.0000   -25.7759    13.7048     9.2207     7.3221    64.1254     0.0493     0.1354     2.4461
  534.5000   -26.6594    13.4350     9.2155     7.6820    64.5689     0.0462     0.1303     2.4468
  535.0000   -27.2435    13.4442     9.1671     7.8311    64.4060     0.0461     0.1261     2.4625
  535.5000   -27.8277    13.4533     9.1089     7.9053    68.1617     0.0445     0.1207     2.4670
  536.0000   -28.1160    13.4624     9.0511     7.9035    67.0939     0.0444     0.1162     2.4744
  536.5000   -28.5504    13.4715     9.1201     7.8568    66.6294     0.0443     0.1123     2.4796
  537.0000   -28.6854    13.7630     9.3807     7.8402    66.7682     0.0442     0.1108     2.4878
  537.5000   -29.1162    14.2565     9.6488     7.7936    66.9100     0.0442     0.1078     2.4991
  538.0000   -29.1015    14.5649     9.7210     7.7469    64.7763     0.0450     0.1043     2.5066
  538.5000   -29.2365    14.7776     9.7263     7.7454    62.5018     0.0459     0.0998     2.5224
  539.0000   -29.2216    14.8902     9.7316     7.6686    61.7375     0.0469     0.0752     2.5359
  539.5000   -29.2066    14.9004     9.8044     7.4262    61.5809     0.0423     0.0773     2.5433
  540.0000   -29.0390    15.0141     9.8097     7.5602    62.6345     0.0187     0.0884     2.5439
  540.5000   -29.0243    14.6169     9.8151     7.7395    63.5414    -0.0049     0.1017     2.5213
  541.0000   -28.7102    14.3243     9.8205     7.6611    64.4244    -0.0283     0.1470     2.4725
  541.5000   -28.6955    13.9456     9.8257     7.5986    64.3660    -0.0165     0.1656     2.4215
  542.0000   -28.5311    13.6688     9.4331     7.5539    63.6139     0.0104     0.1575     2.4004
  542.5000   -28.5164    13.4903     9.0550     7.5524    63.2982     0.0253     0.1524     2.4094
  543.0000   -28.5017    13.3142     8.7522     7.5961    62.5078     0.0282     0.1504     2.4191
  543.5000   -28.4870    13.2293     8.5773     7.6398    61.4600     0.0236     0.1501     2.4206
  544.0000   -28.4723    13.1471     8.4642     7.8040    62.1539     0.0235     0.1513     2.4206
  544.5000   -28.7570    13.1582     8.4688     7.7874    64.1086     0.0249     0.1531     2.4205
  545.0000   -28.8920    13.0763     8.4734     7.7709    65.9704     0.0293     0.1444     2.4197
  545.5000   -29.3273    12.9058     8.4780     7.7092    68.2209     0.0308     0.1411     2.4219
  546.0000   -29.7725    12.7373     8.4826     7.6474    65.6447     0.0232     0.1405     2.4354
  546.5000   -30.0455    12.5600     8.4872     7.5255    62.0128     0.0186     0.1434     2.4313
  547.0000   -30.0271    12.3235     8.4918     7.4641    61.4005     0.0170     0.1500     2.4237
  547.5000   -30.1658    12.2449     8.4380     7.8237    62.5921     0.0184     0.1508     2.4203
  548.0000   -30.5965    12.1688     8.4425     7.8222    63.0325     0.0213     0.1472     2.4285
  548.5000   -30.7352    12.0933     8.3243     7.8207    62.4172     0.0242     0.1457     2.4307
  549.0000   -30.8665    11.9374     8.2783     7.8042    61.5002     0.0286     0.1445     2.4307
  549.5000   -30.8518    11.9455     8.2840     7.7425    61.1865     0.0330     0.1381     2.4389
  550.0000   -30.6911    11.8693     8.2236     7.6054    63.7402     0.0344     0.1306     2.4614
  550.5000   -31.7175    12.0432     8.1420     7.5445    65.2451     0.0269     0.1270     2.4643
  551.0000   -31.8483    11.8859     8.0726     7.4235    65.0887     0.0268     0.1243     2.4643
  551.5000   -31.5251    11.7307     8.0224     7.4682    64.6317     0.0268     0.1201     2.4642
  552.0000   -31.5061    11.6577     8.0292     7.4524    64.0239     0.0267     0.1186     2.4747
  552.5000   -31.7913    11.7484     7.9792     7.3765    63.2652     0.0266     0.1231     2.4754
  553.0000   -32.2167    11.8378     7.9846     7.4060    62.5066     0.0266     0.1273     2.4708
  553.5000   -32.3474    11.6832     8.0453     7.8271    61.2954     0.0265     0.1243     2.4678
  554.0000   -32.3284    11.6930     8.0507     7.8416    65.0617     0.0280     0.1237     2.4738
  554.5000   -32.3094    11.7008     8.0562     7.8409    69.2804     0.0294     0.1237     2.4745
  555.0000   -32.2904    11.7087     8.0618     7.8554    69.4720     0.0338     0.1210     2.4729
  555.5000   -32.1213    11.7166     8.0683     7.8699    67.4615     0.0413     0.1165     2.4789
  556.0000   -32.0980    11.8057     8.0737     7.8542    64.5912     0.0457     0.1129     2.4938
