~VERSION INFORMATION
 VERS.                2.0:   CWLS LOG ASCII STANDARD - VERSION 2.0
 WRAP.                 NO:   ONE LINE PER DEPTH STEP
~WELL INFORMATION
#MNEM.UNIT      DATA TYPE    INFORMATION
#----------   ------------   ------------------------------
 STRT.F            8.0000:   START DEPTH
 STOP.F          500.0000:   STOP DEPTH
 STEP.F            0.5000:   STEP LENGTH
 NULL.          -999.2500:   NO VALUE
 COMP. FENIX & SCISSON INC:   COMPANY
 WELL. 65 12 SX 3FI #65-3:   WELL
 FLD .             TEAPOT:   FIELD
 LOC .       S3 T38N R78W:   LOCATION
 CNTY.            NATRONA:   COUNTY
 STAT.            WYOMING:   STATE
 CTRY. UNITED STATES OF AMERICA:   COUNTRY
 SRVC.              Welex:   SERVICE COMPANY
 DATE.        01-JUN-1980:   LOGDATE
 API .       490251082400:   API NUMBER
~CURVE INFORMATION
#MNEM.UNIT       API CODE    CURVE DESCRIPTION
#----------   ------------   ------------------------------
 DEPT.F                  :   
 GRD .GAPI   45 310 01 00:   GAMMA RAY FROM DENSITY LOG
 CALD.IN     45 280 60 00:   CALIPER
 RHOB.G/C3   45 350 01 00:   BULK DENSITY
 CORR.G/C3   45 356 01 00:   DENSITY CORRECTION
 DPHI.DEC    45 890 12 00:   DENSITY POROSITY SANDSTONE
 NPHI.DEC    42 890 03 00:   NEUTRON POROSITY SANDSTONE
 SPR .MV     07 010 01 00:   SPONTANEOUS POTENTIAL
 SGRD.OHMM   07 220 05 00:   SHALLOW GUARD RESISTIVITY
 ILD .OHMM   07 120 46 00:   INDUCTION LOG DEEP
 ILM .OHMM   07 120 44 00:   INDUCTION LOG MEDIUM
~PARAMETER INFORMATION
#MNEM.UNIT          VALUE    DESCRIPTION
#----------   ------------   ------------------------------
 PD  .                 GL:   PERMANENT DATUM
 EPD .F              5155:   ELEVATION PERMANENT DATUM
 LMF .                 KB:   LOG MEASURED FROM
 DAPD.F                 4:   FEET ABOVE PERMANENT DATUM
 DMF .                 KB:   DRILLING MEASURED FROM
 EKB .F              5159:   KELLING BUSHING
 EGL .F              5155:   GROUND LEVEL
 DATE.             6-1-80:   RUN DATE
 RUN .                  1:   RUN NUMBER
 DD  .F               505:   DEPTH DRILLER
 DL  .F               502:   DEPTH LOGGER
 BLI .F               500:   BOTTOM LOG INTERVAL
 TLI .F                20:   TOP LOG INTERVAL
 BS  .IN            9.875:   BIT SIZE
 BSD .F               505:   BIT SIZE AT DEPTH
 DFT .      OIL BASED MUD:   DRILLING FLUID TYPE
 MSS .            MUD PIT:   MUD SAMPLE SOURCE
 RMS .OHMM             .9:   RESISTIVITY MUD SAMPLE
 MST .F                65:   MUD SAMPLE TEMPERATURE
 RMF .OHMM            .72:   RESISTIVITY MUD FILTRATE SAMPLE
 MFST.F                65:   MUD FILTRATE SAMPLE TEMPERATURE
 RMC .OHMM           1.08:   RESISTIVITY MUD CAKE
 MCST.F                65:   MUD CAKE SAMPLE TEMPERATURE
 MFSS.           MEASURED:   MUD FILTRATE SAMPLE SOURCE
 MCSS.           MEASURED:   MUD CAKE SAMPLE SOURCE
 RMB .OHMM            .71:   RESISTIVITY MUD AT BHT
 BHT .F                76:   BOTTOM HOLE TEMPERATURE
 TCS .HRS               2:   TIME CURCULATED STOPPED
 MRT .F                76:   MAXIMUM RECORDED TEMPERATURE
 LUN .               9685:   LOGGING UNIT NUMBER
 LUL .             CASPER:   LOGGING UNIT LOCATION
 ENGI.               REIN:   RECORDING ENGINEER
 WITN.            RHOADES:   WITNESSED BY
 CLNT.            A2DTECH:   CLIENT CODE
 ORIG.        2" 5" PRINT:   ORIGIN OF DATA
 UWI .       490251082400:   UNIQUE WELL ID
 DICO. A2D Technologies, Inc.:   DIGITIZING COMPANY
~OTHER INFORMATION
~A    DEPT     GRD       CALD       RHOB       CORR       DPHI       NPHI        SPR        SGRD         ILD        ILM 
# ...
  142.0000    94.4472    10.1520     2.4420     0.0240     0.1537     0.3097   -22.0098     8.5609     6.2151     7.6383
  142.5000    93.5246    10.1566     2.4230     0.0082     0.1592     0.3142   -21.8483     8.4908     6.2523     7.5288
  143.0000    92.8275    10.1612     2.4096    -0.0070     0.1606     0.3190   -21.6866     8.4212     6.2898     7.5778
  143.5000    92.1223    10.1659     2.4071    -0.0168     0.1520     0.3123   -21.5254     8.3282     6.3274     7.6548
  144.0000    91.4992    10.1706     2.4227    -0.0077     0.1469     0.3101   -21.3837     8.4094     6.3653     7.7326
  144.5000    92.2903    10.1734     2.4299     0.0033     0.1482     0.3074   -21.3163     8.5359     6.4034     7.8111
  145.0000    93.1227    10.1411     2.4267     0.0045     0.1501     0.3043   -21.2480     8.6644     6.4418     7.8905
  145.5000    93.9506    10.1173     2.4237     0.0000     0.1532     0.3016   -21.1796     8.7948     6.4803     7.9707
  146.0000    94.7688    10.1270     2.4237    -0.0043     0.1444     0.3018   -21.1114     8.9271     6.5529     8.0517
  146.5000    95.2678    10.1360     2.4359     0.0001     0.1377     0.3022   -21.0441     9.0614     6.6656     8.1334
  147.0000    94.6544    10.1450     2.4475     0.0100     0.1333     0.3032   -20.9988     9.1978     6.7803     8.1916
  147.5000    94.0651    10.1540     2.4554     0.0202     0.1393     0.3058   -20.8447     9.3831     6.8971     8.2457
  148.0000    93.4622    10.1630     2.4373     0.0123     0.1433     0.3045   -20.6908     9.3343     7.0159     8.3001
  148.5000    94.3425    10.1719     2.4428    -0.0011     0.1352     0.2988   -20.5379     9.2792     7.1257     8.3549
  149.0000    95.4016    10.1809     2.4508     0.0085     0.1321     0.2963   -20.3852     9.2245     7.1018     8.4050
  149.5000    96.4658    10.1899     2.4580     0.0209     0.1320     0.2946   -20.2324     9.1701     7.0792     8.3976
  150.0000    97.5264    10.1989     2.4549     0.0254     0.1282     0.2962   -20.0797     9.1160     7.0570     8.3905
  150.5000    98.5816    10.2078     2.4594     0.0219     0.1245     0.2986   -19.9269     9.0622     7.0349     8.3835
  151.0000    98.9244    10.2096     2.4659     0.0295     0.1288     0.2966   -19.7742     9.0087     7.0128     8.3766
  151.5000    98.1271    10.1899     2.4574     0.0207     0.1309     0.2982   -19.6214     8.9602     6.9909     8.3697
  152.0000    97.3663    10.1713     2.4582     0.0090     0.1251     0.2994   -19.4650     8.9429     6.9690     8.3628
  152.5000    96.5806    10.1526     2.4722     0.0229     0.1175     0.2994   -19.3345     8.9256     6.9472     8.3559
  153.0000    97.0069    10.1339     2.4794     0.0373     0.1207     0.2932   -19.2068     8.9084     6.9254     8.3490
  153.5000    97.9075    10.1152     2.4739     0.0382     0.1210     0.2901   -19.0795     8.8913     6.9037     8.3421
  154.0000    98.8326    10.0965     2.4669     0.0382     0.1263     0.2935   -18.9521     8.8741     6.8821     8.3352
  154.5000    98.2307    10.0778     2.4594     0.0477     0.1304     0.2906   -18.8247     8.8570     6.8689     8.3282
  155.0000    97.4393    10.0590     2.4623     0.0345     0.1301     0.2911   -18.6969     8.8399     6.8689     8.2789
  155.5000    96.6252    10.0645     2.4586     0.0380     0.1341     0.2904   -18.5682     8.8229     6.8689     8.2294
  156.0000    97.6578    10.0731     2.4664     0.0270     0.1205     0.2863   -18.4488     8.8059     6.8689     8.1803
  156.5000    98.1363    10.0817     2.4848     0.0601     0.1096     0.2835   -18.5514     8.7889     6.8689     8.1313
  157.0000    97.7312    10.0903     2.4891     0.0727     0.1216     0.2899   -18.6642     8.7719     6.8689     8.0828
  157.5000    97.3252    10.0989     2.4650     0.0641     0.1279     0.2958   -18.7761     8.7550     6.8689     8.0344
  158.0000    96.9907    10.1075     2.4606     0.0384     0.1273     0.2932   -18.8877     8.7381     6.8691     7.9864
  158.5000    97.6456    10.1161     2.4560     0.0430     0.1396     0.2905   -18.9993     8.7213     6.8689     7.9387
  159.0000    98.3090    10.1247     2.4514     0.0358     0.1366     0.2907   -19.1109     8.6659     6.8137     7.8912
  159.5000    98.2990    10.1333     2.4465     0.0169     0.1313     0.2949   -19.2224     8.5876     6.7508     7.8441
  160.0000    97.8132    10.1421     2.4498     0.0057     0.1392     0.2960   -19.3340     8.5099     6.6886     7.7972
  160.5000    97.3183    10.1511     2.4547     0.0096     0.1272     0.2919   -19.4456     8.4330     6.6269     7.7506
  161.0000    96.5600    10.1742     2.4610     0.0140     0.1221     0.2901   -19.5572     8.3567     6.5658     7.7042
  161.5000    94.7800    10.1640     2.4706     0.0232     0.1182     0.2974   -19.6688     8.2812     6.5052     7.6582
  162.0000    93.0043    10.1547     2.4794     0.0315     0.1235     0.3022   -19.7803     8.2063     6.4452     7.6124
  162.5000    92.8120    10.1458     2.4729     0.0298     0.1306     0.3071   -19.8919     8.1321     6.3858     7.5669
  163.0000    95.5203    10.1369     2.4583     0.0169     0.1377     0.3121   -20.0035     8.0585     6.3269     7.5283
  163.5000    95.0534    10.1280     2.4444     0.0057     0.1448     0.3121   -20.1151     7.9857     6.2685     7.3312
  164.0000    94.6591    10.1190     2.4352     0.0071     0.1519     0.3130   -20.2267     7.8004     6.2096     7.1297
  164.5000    95.9573    10.1159     2.4232    -0.0022     0.1567     0.3166   -20.3384     7.5387     6.0279     6.9341
  165.0000    97.2102    10.1159     2.4135    -0.0143     0.1578     0.3243   -20.4496     7.2856     5.8481     6.7440
  165.5000    98.4883    10.1159     2.4111    -0.0112     0.1604     0.3303   -20.5624     7.0412     5.6736     6.5591
  166.0000    98.5774    10.1159     2.4123    -0.0075     0.1534     0.3296   -20.5319     6.5781     5.5043     6.3793
  166.5000    98.2971    10.1159     2.4290     0.0035     0.1357     0.3279   -20.3912     6.0906     5.3401     6.2045
  167.0000    97.6946    10.1159     2.4509     0.0233     0.1309     0.3242   -20.2493     5.7707     5.2163     6.0410
  167.5000    96.6636    10.1159     2.4565     0.0386     0.1242     0.3205   -20.1071     6.4729     5.2163     6.1599
  168.0000    95.6364    10.1159     2.4657     0.0458     0.1190     0.3220   -19.9650     7.6947     5.2428     6.3043
  168.5000    94.5976    10.1159     2.4735     0.0533     0.1222     0.3195   -19.8232     7.9771     5.3468     6.4520
  169.0000    93.7089    10.1159     2.4754     0.0494     0.1128     0.3157   -19.6795     8.0888     5.4530     6.6032
  169.5000    95.4914    10.1205     2.4873     0.0519     0.1071     0.3188   -19.6672     8.1133     5.5612     6.7589
  170.0000    96.9417    10.1278     2.4971     0.0656     0.1130     0.3244   -19.7328     8.1251     5.6716     6.9309
  170.5000    96.6826    10.1351     2.4892     0.0586     0.1185     0.3271   -19.7998     8.1371     5.7842     6.9948
  171.0000    96.4589    10.1424     2.4809     0.0438     0.1239     0.3242   -19.8670     8.1493     5.8990     7.0629
  171.5000    96.8519    10.1497     2.4716     0.0304     0.1265     0.3186   -19.9340     8.1614     5.9772     7.1327
  172.0000    98.0427    10.1571     2.4620     0.0210     0.1349     0.3149   -20.0010     8.1761     6.0414     7.2031
  172.5000    99.6357    10.1644     2.4501     0.0115     0.1430     0.3153   -20.0680     8.1621     6.1051     7.2742
  173.0000   101.7215    10.1717     2.4383     0.0020     0.1464     0.3169   -20.1350     8.1420     6.1619     7.3461
  173.5000   104.4008    10.1790     2.4345    -0.0052     0.1360     0.3157   -20.2021     8.1220     6.2193     7.3920
  174.0000   103.9447    10.1863     2.4510     0.0068     0.1274     0.3069   -20.2691     8.1021     6.2668     7.3169
  174.5000   102.8623    10.1937     2.4639     0.0191     0.1222     0.3069   -20.3361     8.0077     6.1725     7.2624
  175.0000   101.7572    10.2010     2.4688     0.0312     0.1307     0.3085   -20.4031     7.9126     6.0936     7.2083
