~VERSION INFORMATION
 VERS.                2.0:   CWLS LOG ASCII STANDARD - VERSION 2.0
 WRAP.                 NO:   ONE LINE PER DEPTH STEP
~WELL INFORMATION
#MNEM.UNIT      DATA TYPE    INFORMATION
#----------   ------------   ------------------------------
 STRT.F           38.0000:   START DEPTH
 STOP.F          890.0000:   STOP DEPTH
 STEP.F            0.5000:   STEP LENGTH
 NULL.          -999.2500:   NO VALUE
 COMP. FENIX & SCISSON INC:   COMPANY
 WELL.       43 SX #14-14:   WELL
 FLD .             TEAPOT:   FIELD
 LOC .      S14 T38N R78W:   LOCATION
 CNTY.            NATRONA:   COUNTY
 STAT.            WYOMING:   STATE
 CTRY. UNITED STATES OF AMERICA:   COUNTRY
 SRVC.            Unknown:   SERVICE COMPANY
 DATE.        28-APR-1978:   LOGDATE
 API .       490251063600:   API NUMBER
~CURVE INFORMATION
#MNEM.UNIT       API CODE    CURVE DESCRIPTION
#----------   ------------   ------------------------------
 DEPT.F                  :   
 SPR .MV     05 010 01 00:   SPONTANEOUS POTENTIAL FROM RES.
 SN  .OHMM   05 040 16 00:   SHORT NORMAL 16"
 ILD .OHMM   05 120 46 00:   INDUCTION LOG DEEP
 CILD.MMHO   05 110 46 00:   CONDUCTIVITY INDUCTION LOG DEEP
 CALD.IN     45 280 60 00:   CALIPER FROM DENSITY LOG
 GRD .GAPI   45 310 01 00:   GAMMA RAY FROM DENSITY LOG
 CORR.G/C3   45 356 01 00:   DENSITY CORRECTION
 DPHI.DEC    45 890 12 00:   DENSITY POROSITY SANDSTONE
 DEN .G/C3   45 350 01 00:   COMPENSATED BULK DENSTIY
~PARAMETER INFORMATION
#MNEM.UNIT          VALUE    DESCRIPTION
#----------   ------------   ------------------------------
 PD  .                 GL:   PERMANENT DATUM
 EPD .F              5217:   ELEVATION PERMANENT DATUM
 LMF .                 KB:   LOG MEASURED FROM
 DMF .                 KB:   DRILLING MEASURED FROM
 EKB .F              5221:   KELLING BUSHING
 EGL .F              5217:   GROUND LEVEL
 DATE.        28-APR-1978:   RUN DATE
 RUN .                  1:   RUN NUMBER
 DD  .F               890:   DEPTH DRILLER
 DL  .F               890:   DEPTH LOGGER
 BLI .F               884:   BOTTOM LOG INTERVAL
 TLI .F                40:   TOP LOG INTERVAL
 CS  .IN            8.625:   CASING SIZE
 CBD .F                40:   CASING BOTTOM DRILLER
 CBL .F                40:   CASING BOTTOM LOGGER
 BS  .IN            7.875:   BIT SIZE
 BSD .F               890:   BIT SIZE AT DEPTH
 DFT .                KCL:   DRILLING FLUID TYPE
 DFD .                8.7:   DRILLING FLUID DENSITY
 DFV .                 34:   DRILLING FLUID VISCOSITY
 DFL .                4.8:   DRILLING FLUID LOSS
 MSS .            MUD PIT:   MUD SAMPLE SOURCE
 RMS .OHMM             .4:   RESISTIVITY MUD SAMPLE
 MST .F                56:   MUD SAMPLE TEMPERATURE
 RMF .OHMM            .38:   RESISTIVITY MUD FILTRATE SAMPLE
 MFST.F                64:   MUD FILTRATE SAMPLE TEMPERATURE
 RMC .OHMM              1:   RESISTIVITY MUD CAKE
 MCST.F                66:   MUD CAKE SAMPLE TEMPERATURE
 MFSS.               MEAS:   MUD FILTRATE SAMPLE SOURCE
 RMB .OHMM             .3:   RESISTIVITY MUD AT BHT
 BHT .F                74:   BOTTOM HOLE TEMPERATURE
 TCS .HRS            0100:   TIME CURCULATED STOPPED
 MRT .F                74:   MAXIMUM RECORDED TEMPERATURE
 LUN .               2958:   LOGGING UNIT NUMBER
 LUL .               CASP:   LOGGING UNIT LOCATION
 ENGI.             MILLER:   RECORDING ENGINEER
 WITN.           MCGINLEY:   WITNESSED BY
 CLNT.            A2DTECH:   CLIENT CODE
 ORIG.           5" PRINT:   ORIGIN OF DATA
 UWI .       490251063600:   UNIQUE WELL ID
 DICO. A2D Technologies, Inc.:   DIGITIZING COMPANY
~OTHER INFORMATION
~A   DEPT      SPR         SN        ILD       CILD       CALD        GRD       CORR       DPHI        DEN   
# ...
  622.0000   -36.2378     6.9428     6.0591   145.7678     8.1000    94.6656     0.0294     0.1030     2.4774
  622.5000   -36.0820     6.8506     5.9802   146.5793     8.0868    91.8537     0.0295     0.1042     2.4700
  623.0000   -36.2260     6.7150     5.9422   147.9854     8.0740    89.6149     0.0281     0.1003     2.4625
  623.5000   -36.2186     6.5360     5.9054   150.5806     8.0758    89.0254     0.0282     0.0969     2.4739
  624.0000   -36.0643     6.4057     5.8285   153.1758     8.0621    88.8831     0.0283     0.0993     2.4792
  624.5000   -36.0583     6.2349     5.7141   155.8771     8.0643    89.7954     0.0284     0.1029     2.4687
  625.0000   -36.0524     6.0687     5.5242   157.3034     8.0506    90.4052     0.0285     0.1086     2.4767
  625.5000   -36.0465     5.9069     5.3405   160.2215     8.0374    90.1155     0.0286     0.1155     2.4598
  626.0000   -36.0406     5.7892     5.1988   165.3900     8.0545    89.3623     0.0302     0.1232     2.4380
  626.5000   -36.0346     5.6348     5.0260   178.0491     8.1166    89.0864     0.0303     0.1307     2.4231
  627.0000   -36.1786     5.5226     4.8925   188.4610     8.1800    88.9466     0.0304     0.1319     2.4210
  627.5000   -36.1712     5.3384     4.7627   198.1239     8.2099    88.9593     0.0305     0.1363     2.4052
  628.0000   -36.1652     5.1604     4.7660   207.7868     8.1967    89.1194     0.0396     0.1378     2.4053
  628.5000   -36.1593     5.0918     4.8355   208.6066     8.1984    89.1296     0.0397     0.0894     2.4347
  629.0000   -36.1534     5.1306     4.9061   207.6368     8.2002    89.1397     0.0398     0.0894     2.4731
  629.5000   -36.1475     5.2047     5.0469   205.3147     8.1720    89.1499     0.0399     0.0897     2.4882
  630.0000   -35.9932     5.3902     5.1917   203.7416     8.1138    89.1604     0.0400     0.0894     2.4853
  630.5000   -35.9873     5.8181     5.4523   201.4194     8.0258    89.1728     0.0431     0.0887     2.4891
  631.0000   -35.8330     6.1514     5.7261   193.1047     7.9676    89.0305     0.0462     0.0875     2.4929
  631.5000   -35.5303     6.5940     5.9722   181.0448     7.9698    89.0432     0.0479     0.0842     2.4873
  632.0000   -34.9309     7.0686     6.1435   168.2357     7.9266    91.4522     0.0480     0.0845     2.4931
  632.5000   -34.1831     7.2203     6.2764   152.4304     7.9130    92.6617     0.0466     0.0817     2.4969
  633.0000   -33.7321     7.2243     6.3680   144.8648     7.9152    92.3720     0.0467     0.0796     2.4977
  633.5000   -33.2811     7.2783     6.4165   141.0445     7.9015    90.7071     0.0468     0.0763     2.4985
  634.0000   -33.1268     7.2823     6.4209   139.4714     7.9635    88.4168     0.0469     0.0762     2.5084
  634.5000   -33.2707     7.2863     6.4246   139.3964     8.1749    87.1577     0.0470     0.0771     2.5107
  635.0000   -33.4132     7.3408     6.4298   139.3215     8.2216    87.3178     0.0471     0.0768     2.5092
  635.5000   -33.5556     7.3957     6.4343   138.4974     8.2083    90.3264     0.0472     0.0768     2.5063
  636.0000   -33.6980     7.3997     6.4387   138.4225     8.1207    92.7354     0.0473     0.0770     2.5056
  636.5000   -33.6906     7.3520     6.4432   138.3475     8.0026    93.3453     0.0474     0.0665     2.5140
  637.0000   -33.6847     7.3570     6.4476   139.0216     7.9295    92.9057     0.0475     0.0659     2.5238
  637.5000   -33.6788     7.3095     6.4521   138.9466     7.8564    89.9051     0.0476     0.0628     2.5254
  638.0000   -33.6729     7.3146     6.4566   139.6395     7.7983    89.3278     0.0402     0.0604     2.5292
  638.5000   -33.6669     7.3186     6.4166   140.2948     7.7850    89.3405     0.0298     0.0718     2.5375
  639.0000   -33.6610     7.3227     6.4210   140.2198     7.7868    89.3507     0.0314     0.0697     2.5406
  639.5000   -33.6551     7.3230     6.3802   140.1449     7.7736    90.5602     0.0525     0.0636     2.5174
  640.0000   -33.6492     7.3173     6.3848   140.8377     7.7758    92.5194     0.0541     0.0660     2.5265
  640.5000   -33.6432     7.3116     6.3892   140.7440     7.7621    95.9779     0.0542     0.0701     2.5235
  641.0000   -33.6373     7.3059     6.3937   140.6690     7.6745    95.6882     0.0543     0.0723     2.5198
  641.5000   -33.6314     7.3002     6.4056   140.5941     7.6608    94.3124     0.0529     0.0734     2.5214
  642.0000   -33.6255     7.2461     6.4468   139.7700     7.7827    93.4596     0.0546     0.0773     2.5095
  642.5000   -33.6195     7.1498     6.4513   139.6951     7.9492    93.6223     0.0727     0.0686     2.5095
  643.0000   -33.6136     7.1046     6.4112   139.6201     8.0557    93.9323     0.0803     0.0694     2.5133
  643.5000   -33.6077     7.0597     6.4157   140.3129     8.1655    93.7900     0.0804     0.0730     2.5262
  644.0000   -33.6018     7.0151     6.4200   140.2192     8.2393    94.1025     0.0789     0.0841     2.5248
  644.5000   -33.5958     6.9707     6.3318   140.1443     8.2410    94.4125     0.0791     0.0817     2.5218
  645.0000   -33.7398     6.9756     6.2497   142.3165     8.2427    94.1180     0.0777     0.0847     2.5023
  645.5000   -33.7324     6.8356     6.0842   145.2377     8.1996    93.6832     0.0763     0.0947     2.4934
  646.0000   -33.8748     6.5632     5.7955   150.4062     8.1564    96.0947     0.0749     0.0969     2.4876
  646.5000   -34.3140     6.3007     5.3449   165.3125     8.1431    95.8025     0.0735     0.0915     2.4740
  647.0000   -34.7532     6.0906     5.2415   174.9754     8.1599    95.9651     0.0721     0.0884     2.4786
  647.5000   -34.7472     5.8470     5.2451   177.1664     8.1616    96.8749     0.0497     0.0911     2.4899
  648.0000   -34.7413     5.7297     5.2851   176.3236     8.1484    97.3348     0.0408     0.0893     2.4832
  648.5000   -34.7354     5.7733     5.2887   176.2486     8.1506    97.0451     0.0364     0.0878     2.4878
  649.0000   -34.7295     5.8567     5.1840   177.6905     8.1374    96.7554     0.0365     0.0974     2.4999
  649.5000   -34.8734     5.9824     5.0460   185.8365     8.1391    96.7681     0.0366     0.1075     2.4796
  650.0000   -34.8671     5.9438     4.9464   192.1783     8.1255    96.4779     0.0367     0.1237     2.4474
  650.5000   -34.8653     5.9473     4.9897   199.1023     8.1271    96.6409     0.0387     0.1297     2.4196
  651.0000   -34.8635     5.7095     5.0196   202.1372     8.0984    97.2538     0.0429     0.1312     2.4174
  651.5000   -34.8620     5.2955     5.0565   201.3132     8.1001    97.7168     0.0355     0.1020     2.4198
  652.0000   -35.0089     5.0488     5.0585   199.0060     8.1014    97.8801     0.0296     0.0927     2.4627
  652.5000   -35.0074     5.0516     5.0957   200.4442     8.1027    96.4693     0.0297     0.0930     2.4800
  653.0000   -35.0059     5.1245     5.1331   203.3805     8.0887    95.5107     0.0328     0.0932     2.4854
  653.5000   -34.8561     5.4933     5.0994   204.8336     8.0903    95.6737     0.0344     0.0899     2.4845
  654.0000   -34.8546     5.9293     5.0664   203.2605     8.0916    95.5370     0.0345     0.0809     2.4817
  654.5000   -34.8531     6.3124     5.3567   194.2118     8.0930    94.2008     0.0360     0.0802     2.4901
  655.0000   -34.8516     6.5373     5.7814   173.9271     8.0946    91.0656     0.0346     0.0841     2.4984
  655.5000   -34.8501     6.6776     6.1543   161.8821     8.0959    90.1792     0.0332     0.0847     2.5000
  656.0000   -34.8487     6.7275     6.3291   149.8371     8.0972    90.1923     0.0333     0.0862     2.5001
  656.5000   -34.9956     6.6850     6.4641   144.5337     8.0985    90.2055     0.0304     0.0909     2.4986
  657.0000   -35.2908     6.6887     6.3782   143.7246     8.0998    90.0687     0.0275     0.1039     2.4867
  657.5000   -35.4451     6.6007     5.9145   151.9044     8.1161    90.0825     0.0276     0.1122     2.4746
  658.0000   -35.7330     6.5139     5.3722   161.5822     8.1324    92.3472     0.0277     0.1155     2.4624
