~VERSION INFORMATION
 VERS.                2.0:   CWLS LOG ASCII STANDARD - VERSION 2.0
 WRAP.                 NO:   ONE LINE PER DEPTH STEP
~WELL INFORMATION
#MNEM.UNIT      DATA TYPE    INFORMATION
#----------   ------------   ------------------------------
 STRT.F            4.0000:   START DEPTH
 STOP.F          530.0000:   STOP DEPTH
 STEP.F            0.5000:   STEP LENGTH
 NULL.          -999.2500:   NO VALUE
 COMP. LAWRENCE-ALLISON &ASSOC:   COMPANY
 WELL.  NPR 3 #77-22STX10:   WELL
 FLD .             TEAPOT:   FIELD
 LOC .      S10 T38N R78W:   LOCATION
 CNTY.            NATRONA:   COUNTY
 STAT.            WYOMING:   STATE
 CTRY. UNITED STATES OF AMERICA:   COUNTRY
 SRVC.           Gearhart:   SERVICE COMPANY
 DATE.        27-JUN-1986:   LOGDATE
 API .       490251108100:   API NUMBER
~CURVE INFORMATION
#MNEM.UNIT       API CODE    CURVE DESCRIPTION
#----------   ------------   ------------------------------
 DEPT.F                  :   
 GRR .GAPI   07 310 01 00:   GAMMA RAY FROM RES. LOG.
 SPR .MV     07 010 01 00:   SPONTANEOUS POTENTIAL
 ILM .OHMM   07 120 44 00:   INDUCTION LOG MEDIUM
 ILD .OHMM   07 120 46 00:   INDUCTION LOG DEEP
 RLLA.OHMM   07 220 00 00:   LATEROLOG RESISTIVITY
~PARAMETER INFORMATION
#MNEM.UNIT          VALUE    DESCRIPTION
#----------   ------------   ------------------------------
 PD  .                 GL:   PERMANENT DATUM
 EPD .F              5188:   ELEVATION PERMANENT DATUM
 LMF .                 KB:   LOG MEASURED FROM
 DAPD.F                 5:   FEET ABOVE PERMANENT DATUM
 DMF .                 KB:   DRILLING MEASURED FROM
 EKB .F              5193:   KELLING BUSHING
 EGL .F              5188:   GROUND LEVEL
 DATE.            6-27-86:   RUN DATE
 RUN .                  1:   RUN NUMBER
 DD  .F               555:   DEPTH DRILLER
 DL  .F               534:   DEPTH LOGGER
 BLI .F               530:   BOTTOM LOG INTERVAL
 TLI .F                44:   TOP LOG INTERVAL
 CS  .IN            8.625:   CASING SIZE
 CBD .F                42:   CASING BOTTOM DRILLER
 CBL .F                44:   CASING BOTTOM LOGGER
 BS  .IN            7.875:   BIT SIZE
 BSD .F               555:   BIT SIZE AT DEPTH
 DFT .                AIR:   DRILLING FLUID TYPE
 MSS .           FLOWLINE:   MUD SAMPLE SOURCE
 RMS .OHMM            1.5:   RESISTIVITY MUD SAMPLE
 MST .F                68:   MUD SAMPLE TEMPERATURE
 RMF .OHMM            1.2:   RESISTIVITY MUD FILTRATE SAMPLE
 MFST.F                66:   MUD FILTRATE SAMPLE TEMPERATURE
 RMC .OHMM            1.7:   RESISTIVITY MUD CAKE
 MCST.F                66:   MUD CAKE SAMPLE TEMPERATURE
 MFSS.                  M:   MUD FILTRATE SAMPLE SOURCE
 MCSS.                  M:   MUD CAKE SAMPLE SOURCE
 RMB .OHMM            1.5:   RESISTIVITY MUD AT BHT
 BHT .F                65:   BOTTOM HOLE TEMPERATURE
 TCS .HRS            0600:   TIME CURCULATED STOPPED
 TLAB.HRS            0055:   TIME LOGGER AT BOTTOM
 MRT .F                61:   MAXIMUM RECORDED TEMPERATURE
 LUN .               7609:   LOGGING UNIT NUMBER
 LUL .           GILLETTE:   LOGGING UNIT LOCATION
 ENGI.            WANGLER:   RECORDING ENGINEER
 WITN.              FIVAS:   WITNESSED BY
 CLNT.            A2DTECH:   CLIENT CODE
 ORIG.       2", 5" PRINT:   ORIGIN OF DATA
 UWI .       490251108100:   UNIQUE WELL ID
 DICO. A2D Technologies, Inc.:   DIGITIZING COMPANY
~OTHER INFORMATION
~A    DEPT      GRR       SPR        ILM        ILD       RLLA   
# ...
  370.0000    63.1608   -76.5238    31.0103    35.6694    34.4792
  370.5000    63.3718   -76.6524    31.0103    35.4521    34.3923
  371.0000    61.5004   -76.5638    31.0103    34.9479    33.9563
  371.5000    58.9635   -76.4609    30.8907    34.1197    33.1130
  372.0000    57.1448   -75.3264    30.7169    33.3112    32.2820
  372.5000    58.4849   -75.1842    30.5440    32.5218    31.3415
  373.0000    60.0097   -76.1133    30.1627    31.7233    29.7637
  373.5000    59.9754   -76.0658    29.4479    30.8234    28.2653
  374.0000    60.1039   -74.5814    28.7501    29.9489    27.4964
  374.5000    62.7745   -74.4027    28.0708    29.1689    26.9739
  375.0000    65.4387   -74.6257    27.3965    28.5985    26.4613
  375.5000    67.2549   -75.0634    27.0375    28.0368    25.9584
  376.0000    64.5158   -75.4656    26.6899    27.4699    25.4651
  376.5000    61.3252   -75.4544    26.3518    27.2373    25.0386
  377.0000    58.6102   -75.6921    26.0996    27.0028    24.6622
  377.5000    58.0284   -76.0523    25.9087    26.7683    24.2915
  378.0000    59.1571   -75.5498    25.7182    26.5359    23.9263
  378.5000    59.5856   -77.2128    25.5291    26.2260    23.8798
  379.0000    59.5941   -77.2669    25.3414    25.8758    23.8795
  379.5000    59.6069   -77.4390    25.1525    25.5348    23.8797
  380.0000    60.4350   -77.5742    24.9627    25.2550    23.8805
  380.5000    62.7790   -77.6271    24.7744    25.2550    23.8017
  381.0000    65.1061   -77.3285    24.5875    25.2550    23.7026
  381.5000    67.2302   -77.1318    24.5174    25.2550    23.6042
  382.0000    67.7939   -78.0719    24.4694    25.2878    23.5057
  382.5000    67.7653   -76.9899    24.4216    25.3191    23.4346
  383.0000    66.7208   -77.5016    24.3738    25.3503    23.4034
  383.5000    65.6825   -76.5808    24.3262    25.3815    23.3723
  384.0000    64.6632   -77.3665    24.2786    25.4126    23.3412
  384.5000    62.7706   -76.9080    24.2311    25.4436    23.3101
  385.0000    61.6037   -76.4753    24.1837    25.4748    23.2790
  385.5000    61.6162   -75.3047    24.1364    25.4878    23.2480
  386.0000    61.6162   -74.8855    24.0564    25.3276    23.2191
  386.5000    61.7763   -73.1654    23.9030    25.0637    23.2200
  387.0000    62.2753   -74.7891    23.7506    24.5007    23.2249
  387.5000    62.7621   -74.8580    23.4215    23.9503    22.4493
  388.0000    63.2622   -74.8199    22.8243    23.4123    21.6763
  388.5000    64.3053   -76.0707    22.2423    22.8679    21.2980
  389.0000    67.4515   -75.7413    21.6752    22.3260    20.9087
  389.5000    70.5299   -74.8213    21.1226    21.7969    20.5678
  390.0000    73.6234   -74.5070    20.5841    21.2804    19.7934
  390.5000    73.1986   -75.3114    20.0592    20.7761    18.9799
  391.0000    72.4165   -73.5156    19.5478    20.3768    18.0489
  391.5000    72.4186   -73.2776    19.4479    21.2434    20.1920
  392.0000    72.9537   -72.7709    21.0950    22.3764    28.5216
  392.5000    69.8932   -72.6217    22.4395    23.1756    38.2141
  393.0000    66.3262   -72.6254    24.3070    23.8502    46.8117
  393.5000    62.7525   -72.4321    26.0802    24.5322    56.8373
  394.0000    59.8266   -72.0598    27.4676    25.2550    65.4216
  394.5000    57.2277   -71.6643    27.2866    24.7926    60.3990
  395.0000    57.6501   -72.2703    26.2694    24.2051    50.3786
  395.5000    60.9218   -73.0242    24.1975    23.1285    36.3185
  396.0000    63.3634   -73.4363    22.3015    21.4926    26.3679
  396.5000    68.9869   -73.4342    20.4639    19.9723    20.6024
  397.0000    68.8978   -73.4461    18.7805    18.6608    17.4596
  397.5000    68.8826   -72.9240    17.6794    18.0905    16.4408
  398.0000    68.1144   -72.8286    17.0206    17.5377    16.4914
  398.5000    65.9973   -73.2288    16.3864    17.0018    16.5443
  399.0000    65.6340   -72.7659    15.7759    16.3081    16.5942
  399.5000    67.0338   -72.2547    15.1164    15.6067    16.3503
  400.0000    69.1007   -71.6173    15.2214    15.2582    16.1376
  400.5000    71.1697   -71.8896    15.3764    15.6900    15.5604
  401.0000    72.5563   -72.3862    15.5345    15.9874    14.9459
  401.5000    71.5914   -73.2508    15.6920    16.2881    14.6991
  402.0000    70.4019   -73.1022    15.6917    16.1445    14.6991
  402.5000    69.2726   -73.0677    15.4844    16.0032    14.6580
  403.0000    68.5423   -73.0248    15.3411    15.8632    14.5626
  403.5000    67.6361   -73.6979    15.1991    15.7244    14.6252
  404.0000    66.2489   -73.2774    15.0585    15.5868    14.7435
  404.5000    68.1393   -72.1590    14.9656    15.4504    14.8369
  405.0000    70.7426   -72.9869    14.9174    15.3152    14.7513
  405.5000    71.9130   -72.9569    14.8695    15.1812    14.6676
  406.0000    71.0617   -72.7314    14.7796    15.0484    14.5841
  406.5000    71.2955   -73.6312    14.6021    14.9167    14.4210
  407.0000    73.6101   -72.5527    14.4276    14.7862    14.2321
  407.5000    75.4433   -71.6965    14.3571    14.6568    14.0457
  408.0000    75.0469   -71.2664    14.2881    14.5626    13.8618
  408.5000    68.8045   -72.2776    14.2196    14.5626    13.7696
  409.0000    66.7868   -72.1487    14.1599    14.5626    13.7696
  409.5000    67.0360   -71.8163    14.1606    14.5626    13.7696
  410.0000    68.1488   -71.8329    14.1607    14.5626    13.4168
  410.5000    71.2102   -71.2799    14.1606    14.5626    13.0677
  411.0000    74.3142   -70.7989    14.1606    14.5626    12.8989
  411.5000    77.3709   -70.8077    14.1606    14.5628    13.0053
  412.0000    79.5014   -70.9022    14.1607    14.5538    13.2165
  412.5000    79.6644   -71.4091    14.1625    14.4947    13.2651
  413.0000    75.6430   -71.2863    14.1246    14.4365    13.2651
  413.5000    72.0835   -71.0543    14.0395    14.3785    13.2651
  414.0000    70.8611   -71.0151    13.9549    14.3207    12.9825
  414.5000    71.3617   -70.2779    13.8709    14.2631    12.7236
  415.0000    73.1137   -71.4142    13.7873    14.2058    12.6604
  415.5000    73.5849   -71.6076    13.7043    14.1487    12.9288
  416.0000    73.9975   -71.7905    13.6336    14.0918    13.3093
  416.5000    74.9018   -72.4533    13.6007    14.0351    13.5150
  417.0000    76.0175   -71.6147    13.5680    13.9787    13.4466
  417.5000    77.0050   -71.3525    13.5353    13.9225    13.4002
  418.0000    77.3371   -71.2109    13.4937    13.7887    13.2852
  418.5000    76.4159   -71.9233    13.4384    13.5996    13.1507
  419.0000    75.6191   -71.8330    13.3832    13.4131    13.0176
  419.5000    75.3616   -71.2423    13.3283    13.1419    12.8989
  420.0000    76.4288   -70.9228    13.2736    13.2846    12.8989
  420.5000    76.4635   -70.6298    13.2191    13.5129    12.8989
  421.0000    75.0677   -70.0528    13.1648    13.4345    12.8577
  421.5000    73.6726   -69.8289    13.1108    13.3669    12.7545
  422.0000    72.9409   -69.9650    13.0569    13.2988    12.6604
  422.5000    73.3476   -69.7520    13.0157    13.2313    12.3985
  423.0000    75.3788   -69.7296    12.9798    13.1642    12.1966
  423.5000    75.1273   -69.9624    12.9440    13.0973    12.1949
  424.0000    74.9236   -70.2237    12.9083    13.0199    12.1947
  424.5000    74.7145   -70.9876    12.8727    13.0648    12.3833
  425.0000    74.6369   -71.7765    12.8371    13.1432    12.5431
  425.5000    75.1463   -70.8538    12.8015    13.1418    12.5223
  426.0000    75.6039   -68.7190    12.7793    13.1244    12.5064
  426.5000    77.0952   -68.5192    12.7790    13.1058    12.4905
  427.0000    78.5997   -67.7755    12.7791    13.0871    12.4746
  427.5000    79.3695   -67.7273    12.7795    13.0684    12.4588
  428.0000    78.1579   -67.9652    12.7785    13.0492    12.4436
  428.5000    74.5198   -67.8534    12.7825    13.0333    12.4264
  429.0000    70.7665   -67.7096    12.5651    12.8756    12.2843
  429.5000    70.0369   -67.5882    12.3750    12.5008    12.1365
  430.0000    72.1228   -67.8659    11.8330    12.1320    11.9906
  430.5000    74.5904   -68.1526    11.1200    11.6341    11.8599
