~VERSION INFORMATION
 VERS.                2.0:   CWLS LOG ASCII STANDARD - VERSION 2.0
 WRAP.                 NO:   ONE LINE PER DEPTH STEP
~WELL INFORMATION
#MNEM.UNIT      DATA TYPE    INFORMATION
#----------   ------------   ------------------------------
 STRT.F           80.0000:   START DEPTH
 STOP.F          660.0000:   STOP DEPTH
 STEP.F            0.5000:   STEP LENGTH
 NULL.          -999.2500:   NO VALUE
 COMP. U S NAVY-INTEX OIL:   COMPANY
 WELL.    NPR #3 #34 S-11:   WELL
 FLD .             TEAPOT:   FIELD
 LOC .      S11 T38N R78W:   LOCATION
 CNTY.            NATRONA:   COUNTY
 STAT.            WYOMING:   STATE
 CTRY. UNITED STATES OF AMERICA:   COUNTRY
 SRVC.       Schlumberger:   SERVICE COMPANY
 DATE.        10-JUL-1962:   LOGDATE
 API .       490250635000:   API NUMBER
~CURVE INFORMATION
#MNEM.UNIT       API CODE    CURVE DESCRIPTION
#----------   ------------   ------------------------------
 DEPT.F                  :   
 SPR .MV     05 010 01 00:   SPONTANEOUS POTENTIAL FROM RES.
 ASN .OHMM   05 041 16 00:   AMPLIFIED SHORT NORMAL 16"
 ILD .OHMM   05 120 46 00:   INDUCTION LOG DEEP
 GR  .GAPI   30 310 01 00:   GAMMA RAY
 CALM.IN     15 280 01 00:   CALIPER FROM MICRO LOG
 CILD.MMHO   05 110 46 00:   CONDUCTIVITY INDUCTION LOG DEEP
~PARAMETER INFORMATION
#MNEM.UNIT          VALUE    DESCRIPTION
#----------   ------------   ------------------------------
 CLNT.            A2DTECH:   CLIENT CODE
 UWI .       490250635000:   UNIQUE WELL ID
 DICO. A2D Technologies, Inc.:   DIGITIZING COMPANY
~OTHER INFORMATION
~A   DEPT      SPR        ASN        ILD         GR       CALM        CILD  
   80.0000  -999.2500  -999.2500  -999.2500  -999.2500  -999.2500   206.1934
   80.5000   -73.3012     0.3180     4.6794  -999.2500  -999.2500   249.4297
   81.0000   -73.4526     0.3019     3.9194  -999.2500  -999.2500   294.5493
   81.5000   -73.4508     0.3012     3.2360  -999.2500  -999.2500   320.9609
   82.0000   -73.2964     0.3004     2.8546  -999.2500  -999.2500   362.4326
   82.5000   -72.9891     0.2997     2.6998  -999.2500  -999.2500   374.5370
   83.0000   -72.0701     0.2989     2.5451  -999.2500  -999.2500   371.5811
   83.5000   -71.1512     0.2982     2.6169  -999.2500  -999.2500   367.8721
   84.0000   -70.9968     0.3140     2.6888  -999.2500  -999.2500   363.4102
   84.5000   -70.0778     0.3270     2.9116  -999.2500  -999.2500   355.1831
   85.0000   -69.6176     0.3565     3.1344  -999.2500  -999.2500   342.4381
   85.5000   -70.2277     0.5378     3.4378  -999.2500  -999.2500   318.3978
   86.0000   -70.6853     1.1137     3.6657  -999.2500  -999.2500   278.5443
   86.5000   -69.6131     3.8292     4.1798  -999.2500  -999.2500   240.1968
   87.0000   -68.5413     4.5568     4.4782  -999.2500  -999.2500   223.6867
   87.5000   -68.2339     4.5409     4.7010  -999.2500  -999.2500   216.9657
   88.0000   -68.3853     4.1001     4.8493  -999.2500  -999.2500   218.5278
   88.5000   -68.3838     4.4939     4.8447  -999.2500  -999.2500   221.5960
   89.0000   -68.3820     5.0698     4.8410  -999.2500  -999.2500   220.8851
   89.5000   -68.3805     5.0538     4.7617  -999.2500  -999.2500   218.6935
   90.0000   -68.3790     5.0227     4.6825  -999.2500  -999.2500   220.2584
   90.5000   -68.3774     4.9613     4.6032  -999.2500  -999.2500   224.0796
   91.0000   -68.5292     4.8673     4.5240  -999.2500  -999.2500   230.9128
   91.5000   -68.5273     4.7126     4.3692  -999.2500  -999.2500   237.7460
   92.0000   -68.6791     4.5492     4.2144  -999.2500  -999.2500   251.3564
   92.5000   -68.8305     4.4119     3.9841  -999.2500  -999.2500   267.2257
   93.0000   -68.8287     4.2745     3.8243  -999.2500  -999.2500   284.6011
   93.5000   -68.3684     4.0310     3.5889  -999.2500  -999.2500   312.5431
   94.0000   -68.0611     3.8178     3.2923  -999.2500  -999.2500   329.9939
   94.5000   -68.0494     3.7108     3.0620  -999.2500  -999.2500   335.2221
   95.0000   -68.3639     3.6342     2.9072  -999.2500  -999.2500   332.8936
   95.5000   -68.2095     3.6335     2.7525  -999.2500  -999.2500   330.8155
   96.0000   -67.7288     3.6934     2.6732  -999.2500  -999.2500   342.0191
   96.5000   -66.8300     3.5258     2.6695  -999.2500  -999.2500   358.6351
   97.0000   -66.5230     3.1760     2.6658  -999.2500  -999.2500   374.9376
   97.5000   -67.5919     3.2511     2.6621  -999.2500  -999.2500   376.9737
   98.0000   -67.7433     3.2656     2.7348  -999.2500  -999.2500   376.2768
   98.5000   -68.0476     3.1548     2.6546  -999.2500  -999.2500   382.3711
   99.0000   -67.8928     3.0211     2.4999  -999.2500  -999.2500   406.5236
   99.5000   -67.7384     2.9445     2.2696  -999.2500  -999.2500   426.9111
  100.0000   -67.7369     2.8830     2.0393  -999.2500  -999.2500   481.1841
  100.5000   -67.5825     2.7609     1.8089  -999.2500  -999.2500   500.0564
  101.0000   -67.5810     2.6843     1.7296  -999.2500  -999.2500   500.1129
  101.5000   -67.5795     2.5773     1.8015  -999.2500  -999.2500   500.1694
  102.0000   -67.4250     2.5159     1.8734  -999.2500  -999.2500   500.2259
  102.5000   -67.1177     2.5151     2.0198  -999.2500  -999.2500   500.2824
  103.0000   -66.7900     2.5601     2.0925  -999.2500  -999.2500   498.9856
  103.5000   -65.8710     2.6047     2.3154  -999.2500  -999.2500   471.0868
  104.0000   -65.4313     2.6646     2.6138  -999.2500  -999.2500   428.1739
  104.5000   -66.8055     2.7549     2.9868  -999.2500  -999.2500   373.2601
  105.0000   -67.5686     3.2453     3.4362  -999.2500  -999.2500   333.7749
  105.5000   -68.1790     3.6717     3.6591  -999.2500  -999.2500   283.4694
  106.0000   -68.4830     3.7846     3.8074  -999.2500  -999.2500   255.6377
  106.5000   -68.7877     3.7381     3.8027  -999.2500  -999.2500   256.4204
  107.0000   -68.6329     3.6918     3.7235  -999.2500  -999.2500   267.7453
  107.5000   -68.0198     3.6304     3.7198  -999.2500  -999.2500   285.8474
  108.0000   -68.0182     3.5993     3.5650  -999.2500  -999.2500   302.4433
  108.5000   -68.6284     3.5378     3.4756  -999.2500  -999.2500   313.7682
  109.0000   -68.6269     3.4612     3.1790  -999.2500  -999.2500   323.5871
  109.5000   -68.4725     3.3543     3.0242  -999.2500  -999.2500   340.1831
  110.0000   -68.1651     3.2473     2.7939  -999.2500  -999.2500   367.3213
  110.5000   -68.0005     3.1252     2.4881  -999.2500  -999.2500   401.9895
  111.0000   -67.5505     3.0030     2.2578  -999.2500  -999.2500   448.7060
  111.5000   -67.0899     2.8809     1.9520  -999.2500  -999.2500   491.6574
  112.0000   -66.9355     2.7735     1.8727  -999.2500  -999.2500   499.9703
  112.5000   -66.7811     2.6973     1.8690  -999.2500  -999.2500   500.0000
  113.0000   -66.7796     2.6813     1.8653  -999.2500  -999.2500   500.0301
  113.5000   -67.3897     2.8322     1.9381  -999.2500  -999.2500   485.2979
  114.0000   -66.9295     3.1046     2.2355  -999.2500  -999.2500   437.2918
  114.5000   -66.3164     3.1647     2.5339  -999.2500  -999.2500   390.9396
  115.0000   -66.4681     3.1031     2.9079  -999.2500  -999.2500   361.6018
  115.5000   -67.2308     3.3451     3.4529  -999.2500  -999.2500   329.2520
  116.0000   -67.6884     4.1335     4.2044  -999.2500  -999.2500   258.4986
  116.5000   -67.8395     4.5576     4.6339  -999.2500  -999.2500   226.1488
  117.0000   -67.8379     4.6631     4.9313  -999.2500  -999.2500   206.6003
  117.5000   -67.6835     4.6777     5.0787  -999.2500  -999.2500   196.8408
  118.0000   -67.0601     4.7223     4.9994  -999.2500  -999.2500   195.3571
  118.5000   -66.5897     4.7519     4.9202  -999.2500  -999.2500   202.1713
  119.0000   -66.3025     4.7967     4.9165  -999.2500  -999.2500   205.9661
  119.5000   -66.6068     4.8272     4.8372  -999.2500  -999.2500   204.4824
  120.0000   -67.8285     4.9398     4.9100  -999.2500  -999.2500   200.0015
  120.5000   -67.9803     5.2191     5.0564  -999.2500  -999.2500   194.0071
  121.0000   -67.9784     5.4156     5.2037  -999.2500  -999.2500   188.0127
  121.5000   -67.9769     5.6425     5.3511  -999.2500  -999.2500   181.2654
  122.0000   -68.1283     5.7783     5.4985  -999.2500  -999.2500   176.7575
  122.5000   -68.7384     5.8990     5.7213  -999.2500  -999.2500   172.2887
  123.0000   -69.3485     6.0045     5.7931  -999.2500  -999.2500   170.7229
  123.5000   -68.4296     6.0494     5.7893  -999.2500  -999.2500   170.0891
  124.0000   -68.1223     6.0639     5.7848  -999.2500  -999.2500   170.1262
  124.5000   -67.9679     6.0478     5.7055  -999.2500  -999.2500   170.1559
  125.0000   -67.9664     6.0167     5.7018  -999.2500  -999.2500   171.6917
  125.5000   -68.1178     6.0007     5.6981  -999.2500  -999.2500   172.4744
  126.0000   -68.2692     6.0000     5.6944  -999.2500  -999.2500   173.2572
  126.5000   -68.8789     5.9841     5.6907  -999.2500  -999.2500   174.7929
  127.0000   -69.6419     5.9530     5.6114  -999.2500  -999.2500   176.3287
  127.5000   -70.0995     5.9522     5.6077  -999.2500  -999.2500   177.1114
  128.0000   -70.0976     5.9361     5.5285  -999.2500  -999.2500   177.8941
  128.5000   -70.0961     5.9050     5.4492  -999.2500  -999.2500   179.4299
  129.0000   -70.0946     5.8739     5.4455  -999.2500  -999.2500   180.9657
  129.5000   -70.0931     5.8428     5.3663  -999.2500  -999.2500   182.5014
  130.0000   -70.0916     5.8269     5.3625  -999.2500  -999.2500   184.0371
  130.5000   -69.9372     5.8110     5.2832  -999.2500  -999.2500   184.8199
  131.0000   -69.9357     5.7647     5.2039  -999.2500  -999.2500   186.3556
  131.5000   -69.9342     5.7488     5.1994  -999.2500  -999.2500   187.8916
