~VERSION INFORMATION
 VERS.                2.0:   CWLS LOG ASCII STANDARD - VERSION 2.0
 WRAP.                 NO:   ONE LINE PER DEPTH STEP
~WELL INFORMATION
#MNEM.UNIT      DATA TYPE    INFORMATION
#----------   ------------   ------------------------------
 STRT.F           27.0000:   START DEPTH
 STOP.F          670.0000:   STOP DEPTH
 STEP.F            0.5000:   STEP LENGTH
 NULL.          -999.2500:   NO VALUE
 COMP. LAWRENCE/ALLISON INC:   COMPANY
 WELL. SX 11 WP 26 #26-11:   WELL
 FLD .           N.P.R #3:   FIELD
 LOC .      S11 T38N R78W:   LOCATION
 CNTY.            NATRONA:   COUNTY
 STAT.            WYOMING:   STATE
 CTRY. UNITED STATES OF AMERICA:   COUNTRY
 SRVC.            Unknown:   SERVICE COMPANY
 DATE.        11-SEP-1984:   LOGDATE
 API .       490251097700:   API NUMBER
~CURVE INFORMATION
#MNEM.UNIT       API CODE    CURVE DESCRIPTION
#----------   ------------   ------------------------------
 DEPT.F                  :   
 CNC .DEC    42 890 03 00:   NEUTRON POROSITY SANDSTONE
 AC  .US/F   60 520 00 00:   ACCOUSTIC SONIC
 SPR .MV     07 010 01 00:   SPONTANEOUS POTENTIAL
 RILD.OHMM   07 120 46 00:   INDUCTION LOG DEEP RESISTIVITY
 RILM.OHMM   07 120 44 00:   INDUCTION LOG MEDIUM RESISTIVITY
 RFOC.OHMM   07 220 04 00:   RESISTIVITY FOCUSED LOG
 GRD .GAPI   45 310 01 00:   GAMMA RAY FROM DENSITY LOG
 CALD.IN     45 280 60 00:   CALIPER FROM DENSITY LOG
 DEN .G/C3   45 350 01 00:   COMPENSATED BULK DENSTIY
 CORR.G/C3   45 356 01 00:   DENSITY CORRECTION
 PORD.DEC    45 890 12 00:   POROSITY DENSITY SANDSTONE
~PARAMETER INFORMATION
#MNEM.UNIT          VALUE    DESCRIPTION
#----------   ------------   ------------------------------
 PD  .                 GL:   PERMANENT DATUM
 EPD .F              5186:   ELEVATION PERMANENT DATUM
 LMF .                 GL:   LOG MEASURED FROM
 DMF .                 GL:   DRILLING MEASURED FROM
 EGL .F              5186:   GROUND LEVEL
 DATE.            9-11-84:   RUN DATE
 RUN .                  1:   RUN NUMBER
 DD  .F               672:   DEPTH DRILLER
 DL  .F               668:   DEPTH LOGGER
 BLI .F               668:   BOTTOM LOG INTERVAL
 TLI .F                45:   TOP LOG INTERVAL
 CS  .IN            8.625:   CASING SIZE
 CBD .F                42:   CASING BOTTOM DRILLER
 CBL .F                45:   CASING BOTTOM LOGGER
 BS  .IN            7.875:   BIT SIZE
 BSD .F               672:   BIT SIZE AT DEPTH
 DFT .          KCL WATER:   DRILLING FLUID TYPE
 MSS .               TANK:   MUD SAMPLE SOURCE
 RMS .OHMM            .36:   RESISTIVITY MUD SAMPLE
 MST .F                82:   MUD SAMPLE TEMPERATURE
 MFSS.                  C:   MUD FILTRATE SAMPLE SOURCE
 MCSS.                  C:   MUD CAKE SAMPLE SOURCE
 TCS .HRS               3:   TIME CURCULATED STOPPED
 MRT .F               100:   MAXIMUM RECORDED TEMPERATURE
 LUN .            HL 6307:   LOGGING UNIT NUMBER
 LUL .           GILLETTE:   LOGGING UNIT LOCATION
 ENGI.      FAHLSING/MACK:   RECORDING ENGINEER
 WITN.            JOHNSON:   WITNESSED BY
 CLNT.            A2DTECH:   CLIENT CODE
 ORIG.       2", 5" PRINT:   ORIGIN OF DATA
 UWI .       490251097700:   UNIQUE WELL ID
 DICO. A2D Technologies, Inc.:   DIGITIZING COMPANY
~OTHER INFORMATION
~A   DEPT      CNC          AC       SPR       RILD       RILM       RFOC        GRD       CALD        DEN       CORR       PORD   
# ...
  393.0000     0.3183   105.6550   -39.1910     6.4720     6.7150     8.0160   114.8670     7.8660     2.4790     0.0300     0.1210
  393.5000     0.3374   105.4190   -39.3320     6.1680     6.3440     8.1410   114.2890     7.8660     2.4720     0.0310     0.1250
  394.0000     0.3294   105.1820   -39.4740     5.7330     5.9320     8.2660   113.6190     7.8650     2.4640     0.0160     0.1290
  394.5000     0.3281   105.5000   -39.6160     5.2980     5.5200     8.4530   111.6640     7.8640     2.4650     0.0030     0.1280
  395.0000     0.3284   107.5720   -39.7580     4.8200     5.1080     7.9730   110.7320     7.8640     2.4660     0.0070     0.1290
  395.5000     0.3395   109.8890   -39.8990     4.7320     4.8200     7.0130   113.3890     7.8630     2.4570     0.0130     0.1400
  396.0000     0.3539   111.9570   -40.0400     4.7930     4.8920     6.0530   116.0590     7.8620     2.4250     0.0190     0.1530
  396.5000     0.3474   112.4600   -40.1230     4.8490     4.9570     5.1880   117.4650     7.8620     2.4040     0.0250     0.1640
  397.0000     0.3270   110.8000   -40.0580     4.9050     5.0220     5.8700   113.9800     7.8610     2.4260     0.0310     0.1640
  397.5000     0.2988   108.5410   -39.9970     4.9610     5.0940     7.0960   110.1120     7.8600     2.4560     0.0370     0.1390
  398.0000     0.2944   106.2820   -39.9040     5.0010     5.2630     7.9990   111.8720     7.8600     2.4720     0.0410     0.1210
  398.5000     0.2963   105.5880   -39.2510     5.3050     5.6020     7.6390   115.0010     7.8590     2.4790     0.0430     0.1170
  399.0000     0.2922   105.3410   -38.6210     5.6430     5.9410     7.8050   116.1650     7.8590     2.4860     0.0440     0.1110
  399.5000     0.2853   105.1890   -37.9940     5.9810     6.2800     8.1390   111.4360     7.8610     2.5000     0.0450     0.1030
  400.0000     0.2797   105.7560   -37.3680     6.3190     6.6530     8.4720   107.7370     7.8620     2.5210     0.0470     0.0950
  400.5000     0.2787   106.5020   -36.7420     6.6570     6.8600     8.7710   104.4300     7.8630     2.5150     0.0480     0.1030
  401.0000     0.2780   107.2480   -36.1170     6.9950     7.0900     8.7710   104.4970     7.8640     2.5000     0.0490     0.1120
  401.5000     0.2774   107.9940   -35.4940     7.3630     7.3200     8.6100   105.0490     7.8650     2.4850     0.0590     0.1210
  402.0000     0.2919   107.9070   -34.8690     7.3630     7.5690     8.4530   104.2060     7.8670     2.4700     0.0680     0.1300
  402.5000     0.2969   106.8330   -34.6280     7.2950     7.5540     8.5430   102.8240     7.8680     2.4560     0.0780     0.1330
  403.0000     0.2922   105.6510   -34.8520     7.2340     7.5250     8.7150   102.9680     7.8690     2.4580     0.0590     0.1300
  403.5000     0.2863   104.6910   -35.0680     7.1730     7.4960     8.9340   107.2200     7.8700     2.4690     0.0360     0.1260
  404.0000     0.2751   104.0710   -35.2840     7.1120     7.4670     8.8080   111.4220     7.8710     2.4800     0.0180     0.1210
  404.5000     0.2769   103.4920   -35.4990     7.0960     7.4310     8.6360   115.2630     7.8730     2.4900     0.0220     0.1150
  405.0000     0.2852   102.0920   -35.8470     7.2380     7.4730     8.4530   113.1680     7.8740     2.4970     0.0250     0.1100
  405.5000     0.2867   100.4450   -36.2350     7.3560     7.5290     8.6110   109.3140     7.8750     2.4990     0.0280     0.1090
  406.0000     0.2721    99.0020   -36.6250     7.5330     7.5860     8.8770   104.7680     7.8760     2.4970     0.0320     0.1100
  406.5000     0.2675    97.6610   -37.0150     7.7110     7.6430     9.2190   100.2400     7.8780     2.4940     0.0330     0.1120
  407.0000     0.2792    96.6280   -37.4040     7.8880     7.6990     9.5610    96.7270     7.8790     2.4930     0.0330     0.1130
  407.5000     0.2841    95.5940   -37.7940     8.0730     7.7810     9.9030    99.1640     7.8770     2.4960     0.0330     0.1100
  408.0000     0.2837    95.3470   -38.1840     8.0730     7.4470    10.2570   103.7220     7.8750     2.4980     0.0330     0.1090
  408.5000     0.2831    95.8270   -38.5740     7.0640     6.8520    10.7410   108.2980     7.8730     2.4930     0.0160     0.1120
  409.0000     0.2993    96.8500   -38.9630     6.0950     6.2580    10.5800   111.8590     7.8710     2.4770    -0.0080     0.1220
  409.5000     0.3322   102.4500   -39.3530     5.1260     5.6630    10.0480   115.5210     7.8690     2.4530    -0.0320     0.1380
  410.0000     0.3912   108.6500   -39.7450     4.7330     5.0690     8.4030   119.1970     7.8670     2.4060    -0.0360     0.1660
  410.5000     0.3510   114.7510   -40.1340     4.5060     4.7760     6.1480   122.8910     7.8650     2.3590     0.0150     0.1960
  411.0000     0.3293   115.1490   -39.7810     4.2760     5.2610     4.2760   124.1660     7.8640     2.3110     0.0600     0.2280
  411.5000     0.3128   109.0830   -39.3340     4.5540     5.7550     5.4500   116.6750     7.8620     2.3030     0.0820     0.2270
  412.0000     0.3021   103.2860   -38.8830     4.9590     6.2490     7.3740   108.5550     7.8600     2.3500     0.0190     0.1870
  412.5000     0.2790    97.4890   -38.4330     5.3640     6.7420     9.2980   101.2850     7.8590     2.4000    -0.0240     0.1550
  413.0000     0.2725    95.5890   -37.9820     5.7690     7.2360    10.7410    99.8690     7.8590     2.4510    -0.0090     0.1370
  413.5000     0.2752    95.2110   -37.5310     6.4490     7.7290    10.7410    98.6920     7.8590     2.4590     0.0050     0.1300
  414.0000     0.2857    95.6720   -37.0800     7.1950     8.2230    10.6750    96.7050     7.8590     2.4650     0.0160     0.1270
  414.5000     0.2937    96.1320   -36.6290     7.9420     8.6110    10.5140    94.7250     7.8590     2.4710     0.0100     0.1250
  415.0000     0.2924    96.6680   -36.1780     8.3760     8.7710    10.3520    93.6140     7.8590     2.4780     0.0040     0.1220
  415.5000     0.2912    97.2570   -35.7260     8.3230     8.7050    10.1910    96.0450     7.8590     2.4790     0.0040     0.1210
  416.0000     0.2862    97.8460   -35.3040     8.2590     8.6520     9.9780    99.6110     7.8590     2.4780     0.0090     0.1220
  416.5000     0.2701    98.3250   -34.8980     8.1480     8.6110    10.1500   103.1670     7.8590     2.4780     0.0130     0.1230
  417.0000     0.2725    98.6170   -34.4910     8.5250     9.0000    10.2570   106.3460     7.8590     2.4740     0.0100     0.1260
  417.5000     0.2796    98.9080   -34.0840     8.8910     9.3160    10.1560   107.7890     7.8590     2.4680     0.0070     0.1280
  418.0000     0.2823    99.2130   -33.6770     9.2560     9.6320    10.0580   107.7840     7.8590     2.4680     0.0100     0.1290
  418.5000     0.2680    98.6220   -33.2640     9.6220     9.9480     9.9600   103.0510     7.8590     2.4720     0.0210     0.1250
  419.0000     0.2497    97.3430   -32.7000     9.9880    10.2650     9.7960    98.3650     7.8590     2.4730     0.0320     0.1220
  419.5000     0.2522    95.9130   -31.5680    10.3540    10.5810    11.3540    93.6280     7.8590     2.4710     0.0340     0.1260
  420.0000     0.2701    94.4830   -30.4480    10.7190    10.8970    13.1810    88.1310     7.8580     2.4580     0.0320     0.1350
  420.5000     0.2744    93.5360   -29.3290    11.0850    11.2130    15.0080    82.5620     7.8560     2.4330     0.0300     0.1480
  421.0000     0.2743    97.5460   -28.2110    11.4510    11.5290    16.7120    76.9900     7.8540     2.4090     0.0320     0.1620
  421.5000     0.2746   100.5450   -27.0920    11.8170    11.8460    15.1590    71.3940     7.8520     2.3840     0.0580     0.1760
  422.0000     0.2860   103.5430   -25.9730    12.1820    12.3970    13.0680    66.3620     7.8510     2.3520     0.0850     0.1890
  422.5000     0.2894   106.7830   -24.8540    12.5080    12.9830    11.1440    61.7850     7.8490     2.3560     0.1140     0.1960
  423.0000     0.2856   107.2520   -23.7390    12.7300    13.5690    11.7390    57.6990     7.8470     2.3650     0.0730     0.1850
