~VERSION INFORMATION
 VERS.                2.0:   CWLS LOG ASCII STANDARD - VERSION 2.0
 WRAP.                 NO:   ONE LINE PER DEPTH STEP
~WELL INFORMATION
#MNEM.UNIT      DATA TYPE    INFORMATION
#----------   ------------   ------------------------------
 STRT.F           10.0000:   START DEPTH
 STOP.F          570.0000:   STOP DEPTH
 STEP.F            0.5000:   STEP LENGTH
 NULL.          -999.2500:   NO VALUE
 COMP. BROWN JOHN E&C INC:   COMPANY
 WELL.   STX 10 #85-14-10:   WELL
 FLD .             TEAPOT:   FIELD
 LOC .      S10 T38N R78W:   LOCATION
 CNTY.            NATRONA:   COUNTY
 STAT.            WYOMING:   STATE
 CTRY. UNITED STATES OF AMERICA:   COUNTRY
 SRVC.           Gearhart:   SERVICE COMPANY
 DATE.        29-JUN-1986:   LOGDATE
 API .       490251108400:   API NUMBER
~CURVE INFORMATION
#MNEM.UNIT       API CODE    CURVE DESCRIPTION
#----------   ------------   ------------------------------
 DEPT.F                  :   
 LL  .OHMM   07 220 00 00:   LATEROLOG RES.
 RILD.OHMM   07 120 46 00:   INDUCTION LOG DEEP RESISTIVITY
 RILM.OHMM   07 120 44 00:   INDUCTION LOG MEDIUM RESISTIVITY
 SPR .MV     07 010 01 00:   SPONTANEOUS POTENTIAL
 GRR .GAPI   07 310 01 00:   GAMMA RAY FROM RES. LOG.
~PARAMETER INFORMATION
#MNEM.UNIT          VALUE    DESCRIPTION
#----------   ------------   ------------------------------
 PD  .                 GL:   PERMANENT DATUM
 EPD .F              5191:   ELEVATION PERMANENT DATUM
 LMF .                 KB:   LOG MEASURED FROM
 DAPD.F                 5:   FEET ABOVE PERMANENT DATUM
 DMF .                 KB:   DRILLING MEASURED FROM
 EKB .F              5196:   KELLING BUSHING
 EGL .F              5191:   GROUND LEVEL
 DATE.          6-29-1986:   RUN DATE
 RUN .                  1:   RUN NUMBER
 DD  .F               579:   DEPTH DRILLER
 DL  .F               572:   DEPTH LOGGER
 BLI .F               570:   BOTTOM LOG INTERVAL
 CS  .IN            8.625:   CASING SIZE
 CBD .F                47:   CASING BOTTOM DRILLER
 CBL .F                46:   CASING BOTTOM LOGGER
 BS  .IN            7.875:   BIT SIZE
 BSD .F               579:   BIT SIZE AT DEPTH
 DFT .                MUD:   DRILLING FLUID TYPE
 DFD .                8.9:   DRILLING FLUID DENSITY
 DFV .                 32:   DRILLING FLUID VISCOSITY
 DFPH.                  9:   DRILLING FLUID PH
 MSS .           FLOWLINE:   MUD SAMPLE SOURCE
 RMS .OHMM            1.3:   RESISTIVITY MUD SAMPLE
 MST .F                62:   MUD SAMPLE TEMPERATURE
 RMF .OHMM             .9:   RESISTIVITY MUD FILTRATE SAMPLE
 MFST.F                63:   MUD FILTRATE SAMPLE TEMPERATURE
 RMC .OHMM            1.5:   RESISTIVITY MUD CAKE
 MCST.F                63:   MUD CAKE SAMPLE TEMPERATURE
 MFSS.               MEAS:   MUD FILTRATE SAMPLE SOURCE
 MCSS.               MEAS:   MUD CAKE SAMPLE SOURCE
 RMB .OHMM            1.3:   RESISTIVITY MUD AT BHT
 BHT .F                64:   BOTTOM HOLE TEMPERATURE
 TCS .HRS            1300:   TIME CURCULATED STOPPED
 TLAB.HRS            1600:   TIME LOGGER AT BOTTOM
 MRT .F                64:   MAXIMUM RECORDED TEMPERATURE
 LUN .               7609:   LOGGING UNIT NUMBER
 LUL .           GILLETTE:   LOGGING UNIT LOCATION
 ENGI.             WAGNER:   RECORDING ENGINEER
 WITN.            JENNING:   WITNESSED BY
 CLNT.            A2DTECH:   CLIENT CODE
 ORIG.      2" & 5" PRINT:   ORIGIN OF DATA
 UWI .       490251108400:   UNIQUE WELL ID
 DICO. A2D Technologies, Inc.:   DIGITIZING COMPANY
~OTHER INFORMATION
~A   DEPT       LL       RILD       RILM        SPR         GRR  
# ...
  376.0000    13.3255    16.5209    14.0746   -33.4889    70.2518
  376.5000    13.4037    16.5209    13.9986   -34.6215    70.8265
  377.0000    13.4823    16.5209    13.9217   -34.8052    71.4330
  377.5000    13.5836    16.5209    13.8453   -37.2140    72.0790
  378.0000    13.4575    16.5209    13.7693   -39.3128    72.8385
  378.5000    13.3327    16.5209    13.6937   -38.0267    74.0443
  379.0000    13.2089    16.3676    13.6185   -36.5761    75.2652
  379.5000    12.9828    16.0445    13.5177   -39.8754    76.3390
  380.0000    12.7909    15.8135    13.3231   -42.1423    75.8060
  380.5000    12.6018    15.5862    13.1308   -35.6171    74.2138
  381.0000    12.4156    15.3622    12.9412   -38.8128    72.6443
  381.5000    12.2597    15.1413    12.7542   -38.0940    71.0589
  382.0000    12.1459    14.9235    12.5713   -36.4371    69.3570
  382.5000    12.2826    14.7089    12.4888   -37.3783    69.8624
  383.0000    12.3844    14.4974    12.6044   -38.0255    72.4273
  383.5000    12.4904    14.3240    12.6889   -37.3410    74.8629
  384.0000    12.4904    14.2127    12.7255   -41.3119    74.8618
  384.5000    12.0483    14.1023    12.5493   -46.8833    73.3011
  385.0000    11.7325    13.9678    12.4222   -45.0096    72.7085
  385.5000    11.3747    13.9686    12.2965   -44.0325    74.0864
  386.0000    11.3755    13.9688    12.1721   -43.9267    77.5638
  386.5000    11.5641    14.0816    12.1459   -42.2278    80.3275
  387.0000    11.7007    14.1967    12.1459   -41.3960    78.6093
  387.5000    11.8385    14.3127    12.2430   -40.5384    75.1462
  388.0000    11.9778    14.4297    12.3411   -40.1814    73.5478
  388.5000    12.1188    14.5431    12.4402   -40.1551    74.7006
  389.0000    12.2614    14.6510    12.5400   -41.0796    75.4846
  389.5000    12.3745    14.7597    12.6406   -41.5442    74.3848
  390.0000    12.4536    14.8691    12.7420   -42.6583    73.3021
  390.5000    12.5511    14.9108    12.8442   -44.6958    72.3554
  391.0000    12.6494    14.7274    12.9472   -46.7357    73.9851
  391.5000    12.7255    14.5791    12.9649   -47.4095    75.0690
  392.0000    12.7255    14.4323    12.8036   -46.3331    76.0118
  392.5000    12.1973    14.2870    12.6124   -43.9362    76.7347
  393.0000    11.8421    14.1432    12.4241   -45.1876    76.3436
  393.5000    11.4972    14.0008    12.2386   -45.2598    74.4939
  394.0000    11.2800    13.8599    12.0559   -46.0774    73.5237
  394.5000    11.1674    13.7968    11.8900   -48.4958    73.4937
  395.0000    11.1675    13.7472    11.7670   -50.0397    77.0004
  395.5000    11.1685    13.7108    11.6997   -51.7437    80.1076
  396.0000    11.3365    13.9204    11.8340   -53.8573    81.4591
  396.5000    11.4852    14.2317    11.9876   -54.5547    82.3349
  397.0000    11.8363    14.7724    12.1416   -54.6178    81.4010
  397.5000    12.2476    15.9757    12.2642   -52.4457    80.4498
  398.0000    12.6626    17.1820    13.0155   -50.0355    80.8843
  398.5000    13.4648    18.4645    13.7203   -47.5886    81.0486
  399.0000    15.0839    20.2134    15.1511   -46.7970    79.7401
  399.5000    17.3799    22.4410    16.6085   -47.7799    75.9735
  400.0000    19.9946    24.9473    18.2061   -48.9164    71.1794
  400.5000    23.0060    27.7263    19.9574   -49.3283    66.4169
  401.0000    25.1945    30.8148    21.8771   -49.8303    61.8940
  401.5000    26.2761    34.0958    23.3797   -50.9262    60.8509
  402.0000    27.0255    36.3379    24.3708   -51.9949    59.7063
  402.5000    27.4228    39.3145    25.3292   -52.4512    58.5386
  403.0000    27.8306    38.7272    26.2935   -53.4106    57.3275
  403.5000    28.1119    38.0211    26.5774   -54.3906    58.3197
  404.0000    27.5297    37.3280    25.7885   -55.3703    60.3524
  404.5000    27.0180    36.6475    25.3112   -56.3498    62.3853
  405.0000    26.5180    35.9794    24.8929   -57.3200    64.4393
  405.5000    26.0272    35.3235    24.8939   -57.8222    66.1730
  406.0000    25.5956    34.6795    25.0176   -55.3292    67.5331
  406.5000    26.3363    34.4902    25.3929   -52.5543    67.7678
  407.0000    27.3823    34.3793    25.7731   -51.9200    65.8706
  407.5000    28.4689    34.2688    26.1589   -52.3472    63.0880
  408.0000    29.4473    34.1588    26.5812   -52.9419    63.5447
  408.5000    29.4473    34.0495    26.5854   -53.7197    66.8530
  409.0000    27.9740    33.9418    26.3405   -54.8843    67.6240
  409.5000    26.4782    33.5511    26.1085   -56.0471    66.9100
  410.0000    25.0597    32.6322    25.6046   -57.2130    66.2354
  410.5000    23.3352    31.7385    24.6588   -58.3739    65.8021
  411.0000    22.6873    30.8692    23.6917   -58.0982    67.0267
  411.5000    21.8553    30.0238    22.7635   -57.1571    68.3500
  412.0000    21.0538    29.2015    21.8596   -56.3866    69.6803
  412.5000    20.6553    28.4017    21.4495   -57.5180    70.9889
  413.0000    20.3890    27.5871    21.0799   -57.8197    70.5079
  413.5000    20.1262    27.0775    20.7203   -57.5983    68.8706
  414.0000    19.9005    26.8263    20.3668   -57.2952    67.5068
  414.5000    19.7141    26.8263    20.0934   -59.2138    66.6670
  415.0000    19.8315    26.8263    20.1332   -58.9747    67.6365
  415.5000    19.9120    26.8265    20.2441   -59.6389    68.7174
  416.0000    19.9930    26.8266    20.3556   -60.8035    68.7237
  416.5000    20.0744    26.8246    20.4716   -62.0107    66.9380
  417.0000    20.2816    26.8323    20.2877   -61.6689    65.3640
  417.5000    19.8430    26.3733    20.1012   -60.6652    63.7906
  418.0000    19.1803    26.0469    19.9074   -59.7334    63.0141
  418.5000    18.6494    25.6387    18.8183   -63.1260    64.4153
  419.0000    18.6494    25.0957    18.8241   -61.5097    65.7669
  419.5000    18.4764    24.5642    18.7981   -59.0529    66.6485
  420.0000    18.1351    24.0440    18.6523   -58.1658    66.8120
  420.5000    17.9668    23.5348    18.5077   -64.3643    67.0345
  421.0000    17.5798    22.9183    18.1351   -65.1394    68.3778
  421.5000    17.0179    22.2360    17.6251   -64.0334    69.7729
  422.0000    16.4738    21.5742    17.1215   -63.4089    70.4654
  422.5000    15.9472    20.9319    16.6323   -63.4662    69.9365
  423.0000    15.4374    20.3085    16.1570   -62.2508    69.4630
  423.5000    15.1353    19.7042    15.6954   -63.0157    69.1978
  424.0000    14.8488    19.1177    15.3336   -62.5684    70.2995
  424.5000    14.5678    18.8683    15.2891   -59.8632    71.3714
  425.0000    14.2921    18.7033    15.2443   -59.6163    72.4361
  425.5000    13.9688    18.5406    15.1995   -61.8510    73.0842
  426.0000    14.2330    18.3791    15.1916   -64.1848    72.7058
  426.5000    14.4995    18.2189    15.2563   -65.0156    70.6389
  427.0000    14.4995    18.0600    15.3212   -64.9490    68.6003
  427.5000    14.6353    17.9026    15.3864   -64.8685    66.5908
  428.0000    14.4995    17.7465    15.4518   -64.5596    65.8496
  428.5000    14.2028    17.5917    15.5176   -63.7969    68.4585
  429.0000    13.9155    17.4713    15.5836   -62.7091    71.0169
  429.5000    13.6341    17.4199    15.6499   -63.0287    73.3527
  430.0000    13.4533    17.3353    15.7165   -62.8086    71.6387
  430.5000    13.2455    17.2518    15.7834   -59.7670    69.8984
  431.0000    13.0409    17.1687    15.8505   -64.4617    70.1268
  431.5000    12.8395    17.0859    15.9206   -67.6047    70.4196
  432.0000    12.6411    17.0036    15.7705   -68.0946    70.2788
  432.5000    12.4459    16.9123    15.4140   -64.7487    68.3755
  433.0000    12.3518    16.8197    15.0913   -62.4285    66.6610
  433.5000    12.3157    16.7275    14.7160   -59.5278    67.6704
  434.0000    12.2810    16.5560    14.2760   -57.1045    70.4422
  434.5000    12.1796    16.2845    13.8484   -61.3339    73.0753
  435.0000    12.0011    16.0173    13.4378   -63.4148    75.1398
  435.5000    11.8236    15.7545    13.0782   -64.7496    75.4740
  436.0000    11.6492    15.4961    13.0749   -65.7058    72.3060
  436.5000    11.4852    15.2419    13.0615   -67.0646    68.9650
