~VERSION INFORMATION
 VERS.                2.0:   CWLS LOG ASCII STANDARD - VERSION 2.0
 WRAP.                 NO:   ONE LINE PER DEPTH STEP
~WELL INFORMATION
#MNEM.UNIT      DATA TYPE    INFORMATION
#----------   ------------   ------------------------------
 STRT.F         1500.0000:   START DEPTH
 STOP.F         3480.0000:   STOP DEPTH
 STEP.F            0.5000:   STEP LENGTH
 NULL.          -999.2500:   NO VALUE
 COMP. FLUOR DANIEL (NOPSR). INC.:   COMPANY
 WELL.   22-STX-26 #22-26:   WELL
 FLD .             NPR #3:   FIELD
 LOC .      S26 T38N R78W:   LOCATION
 CNTY.            NATRONA:   COUNTY
 STAT.            WYOMING:   STATE
 CTRY. UNITED STATES OF AMERICA:   COUNTRY
 SRVC.            Unknown:   SERVICE COMPANY
 DATE.        14-JUN-1995:   LOGDATE
 API .       490252272400:   API NUMBER
~CURVE INFORMATION
#MNEM.UNIT       API CODE    CURVE DESCRIPTION
#----------   ------------   ------------------------------
 DEPT.F                  :   
 ROP .MIN/FT 91 810 01 00:   RATE OF DRILLING PENETRATION
 TGAS.UNITS  91 830 01 00:   TOTAL GAS FROM HOTWIRE
~PARAMETER INFORMATION
#MNEM.UNIT          VALUE    DESCRIPTION
#----------   ------------   ------------------------------
 EKB .F              5348:   KELLING BUSHING
 EGL .F              5338:   GROUND LEVEL
 DATE.            6-14-95:   RUN DATE
 DD  .F              3480:   DEPTH DRILLER
 BLI .F              3480:   BOTTOM LOG INTERVAL
 TLI .F              1500:   TOP LOG INTERVAL
 CS  .IN            9.625:   CASING SIZE
 CBD .F                87:   CASING BOTTOM DRILLER
 ENGI.               HUSK:   RECORDING ENGINEER
 WITN.              TOWER:   WITNESSED BY
 CLNT.            A2DTECH:   CLIENT CODE
 ORIG.           5" PRINT:   ORIGIN OF DATA
 UWI .       490252272400:   UNIQUE WELL ID
 DICO. A2D Technologies, Inc.:   DIGITIZING COMPANY
~OTHER INFORMATION
~A  DEPT         ROP       TGAS 
# ...
 1864.5000     0.4517    45.6924
 1865.0000     0.4523    45.0806
 1865.5000     0.4529    44.8887
 1866.0000     0.4535    44.2809
 1866.5000     0.4540    44.0850
 1867.0000     0.4546    44.1064
 1867.5000     0.4552    43.4946
 1868.0000     0.4558    43.5120
 1868.5000     0.4563    43.3148
 1869.0000     0.4569    43.3362
 1869.5000     0.4575    43.3536
 1870.0000     0.4581    43.3697
 1870.5000     0.4586    43.1725
 1871.0000     0.4592    42.7700
 1871.5000     0.4598    42.7927
 1872.0000     0.4604    42.5942
 1872.5000     0.4610    42.6169
 1873.0000     0.4615    42.6330
 1873.5000     0.4621    42.8597
 1874.0000     0.5353    43.2944
 1874.5000     0.5344    43.7304
 1875.0000     0.5334    44.3744
 1875.5000     0.5324    45.2291
 1876.0000     0.5314    46.0824
 1876.5000     0.5305    47.1463
 1877.0000     0.5295    47.9996
 1877.5000     0.5285    49.2728
 1878.0000     0.5275    49.7075
 1878.5000     0.5266    50.3528
 1879.0000     0.5256    50.5782
 1879.5000     0.5246    50.7798
 1880.0000     0.5236    50.7481
 1880.5000     0.5227    50.7164
 1881.0000     0.5217    50.6847
 1881.5000     0.5207    50.6530
 1882.0000     0.5197    50.6213
 1882.5000     0.5188    50.5896
 1883.0000     0.5178    50.5579
 1883.5000     0.5168    50.5263
 1884.0000     0.6525    50.4946
 1884.5000     0.6526    50.4629
 1885.0000     0.6525    50.4312
 1885.5000     0.6524    50.3995
 1886.0000     0.6523    50.3678
 1886.5000     0.6522    50.3361
 1887.0000     0.6521    50.3045
 1887.5000     0.6520    50.2728
 1888.0000     0.6519    50.2411
 1888.5000     0.6518    50.2094
 1889.0000     0.6517    50.1777
 1889.5000     0.6516    50.1460
 1890.0000     0.6515    50.1143
 1890.5000     0.6514    50.0827
 1891.0000     0.6514    50.0510
 1891.5000     0.6513    50.0193
 1892.0000     0.4939    49.9876
 1892.5000     0.4945    49.7753
 1893.0000     0.4948    49.3675
 1893.5000     0.4952    49.1756
 1894.0000     0.4955    48.9824
 1894.5000     0.4958    48.3732
 1895.0000     0.4962    48.1800
 1895.5000     0.4965    47.5682
 1896.0000     0.4968    46.9577
 1896.5000     0.4972    46.5605
 1897.0000     0.4975    45.9447
 1897.5000     0.4978    45.3328
 1898.0000     0.4982    44.5144
 1898.5000     0.4985    43.6933
 1899.0000     0.4988    42.6669
 1899.5000     0.4991    41.8430
 1900.0000     0.4995    40.3967
 1900.5000     0.4998    38.9490
 1901.0000     0.5001    37.7093
 1901.5000     0.5005    36.2589
 1902.0000     0.5008    34.8139
 1902.5000     0.5011    33.7821
 1903.0000     0.5015    32.7530
 1903.5000     0.5018    31.9305
 1904.0000     0.5021    30.9041
 1904.5000     0.5025    29.4538
 1905.0000     0.5028    27.1702
 1905.5000     0.5031    25.3025
 1906.0000     0.5035    23.6455
 1906.5000     0.5038    22.1952
 1907.0000     0.5041    21.1634
 1907.5000     0.5045    20.1370
 1908.0000     0.5048    19.3172
 1908.5000     0.5051    18.7000
 1909.0000     0.5055    18.0936
 1909.5000     0.5058    17.9017
 1910.0000     0.5061    17.9191
 1910.5000     0.5065    17.9352
 1911.0000     0.5068    17.9526
 1911.5000     0.5071    17.9555
 1912.0000     0.5075    17.9536
 1912.5000     0.5078    17.9517
 1913.0000     0.5081    17.9498
 1913.5000     0.5085    17.9479
 1914.0000     0.6429    17.9460
 1914.5000     0.6434    17.9441
 1915.0000     0.6439    17.9422
 1915.5000     0.6444    17.9403
 1916.0000     0.6449    17.9384
 1916.5000     0.6454    17.9365
 1917.0000     0.6459    17.9346
 1917.5000     0.6464    17.9326
 1918.0000     0.5629    17.9307
 1918.5000     0.5635    17.9288
 1919.0000     0.5640    17.9269
 1919.5000     0.5645    17.9250
 1920.0000     0.5650    17.9231
 1920.5000     0.5655    17.9212
 1921.0000     0.5660    17.9193
 1921.5000     0.5665    17.9174
 1922.0000     0.5670    17.9155
 1922.5000     0.5675    17.9136
 1923.0000     0.5680    17.9117
 1923.5000     0.5685    17.9098
 1924.0000     0.6843    17.9079
 1924.5000     0.6849    17.9060
 1925.0000     0.6853    17.9041
 1925.5000     0.6753    17.9022
 1926.0000     0.6758    17.9003
 1926.5000     0.6763    17.8984
 1927.0000     0.6768    17.8965
 1927.5000     0.6773    17.8946
 1928.0000     0.6778    17.8927
 1928.5000     0.6783    17.8908
 1929.0000     0.6788    17.8889
 1929.5000     0.6793    17.8870
 1930.0000     0.5749    17.8851
 1930.5000     0.5755    17.8832
 1931.0000     0.5760    17.8813
 1931.5000     0.5765    17.8794
 1932.0000     0.5770    17.8775
 1932.5000     0.5775    17.8755
 1933.0000     0.5779    17.8736
 1933.5000     0.5784    17.8717
 1934.0000     0.5789    17.8698
 1934.5000     0.5794    17.8679
 1935.0000     0.5799    17.8660
 1935.5000     0.5804    17.8641
 1936.0000     0.5809    17.8622
 1936.5000     0.5814    17.8603
 1937.0000     0.5819    17.8584
 1937.5000     0.5824    17.8565
 1938.0000     0.5829    17.8546
 1938.5000     0.5834    17.8527
 1939.0000     0.5839    17.8508
 1939.5000     0.5844    17.8489
 1940.0000     0.5849    17.8470
 1940.5000     0.5854    17.8451
 1941.0000     0.5859    17.8432
 1941.5000     0.5864    17.8413
 1942.0000     0.5869    17.8394
 1942.5000     0.5874    17.8375
 1943.0000     0.5879    17.8356
 1943.5000     0.5884    17.8337
 1944.0000     0.5889    17.8318
 1944.5000     0.5894    17.8299
 1945.0000     0.5899    17.8280
 1945.5000     0.5904    17.8261
 1946.0000     0.5909    17.8242
 1946.5000     0.5914    17.8223
 1947.0000     0.5919    17.8203
 1947.5000     0.5924    17.8184
 1948.0000     0.6854    17.8165
 1948.5000     0.6821    17.8146
 1949.0000     0.6787    17.8127
 1949.5000     0.6754    17.8108
 1950.0000     0.6721    17.8089
 1950.5000     0.6688    17.8070
 1951.0000     0.6654    17.8051
 1951.5000     0.6621    17.8032
 1952.0000     0.5653    17.8013
 1952.5000     0.5658    17.7994
 1953.0000     0.5661    17.7975
 1953.5000     0.5664    17.7956
 1954.0000     0.5666    17.7937
 1954.5000     0.5669    17.7918
 1955.0000     0.5672    17.7899
 1955.5000     0.5674    17.7880
 1956.0000     0.5677    17.7861
 1956.5000     0.5680    17.7842
 1957.0000     0.5683    17.7823
 1957.5000     0.5685    17.7804
 1958.0000     0.5688    17.7785
 1958.5000     0.5691    17.7766
 1959.0000     0.5694    17.7747
 1959.5000     0.5696    17.7728
 1960.0000     0.5699    17.7709
 1960.5000     0.5702    17.7690
 1961.0000     0.5705    17.7671
 1961.5000     0.5707    17.7652
 1962.0000     0.5710    17.7632
 1962.5000     0.5713    17.7613
 1963.0000     0.5716    17.7594
 1963.5000     0.5718    17.7575
 1964.0000     0.5721    17.7556
 1964.5000     0.5724    17.7537
 1965.0000     0.5726    17.7518
 1965.5000     0.5729    17.7499
 1966.0000     0.5732    17.7480
 1966.5000     0.5735    17.7461
 1967.0000     0.5737    17.7442
 1967.5000     0.5740    17.7423
 1968.0000     0.5743    17.7404
 1968.5000     0.5746    17.7385
 1969.0000     0.5748    17.7366
 1969.5000     0.5751    17.7347
 1970.0000     0.5754    17.7328
 1970.5000     0.5757    17.7309
 1971.0000     0.5759    17.7290
 1971.5000     0.5762    17.7271
 1972.0000     0.5765    17.7252
 1972.5000     0.5768    17.7233
 1973.0000     0.5770    17.7214
 1973.5000     0.5773    17.7195
 1974.0000     0.5776    17.7176
 1974.5000     0.5779    17.7157
 1975.0000     0.5781    17.7138
 1975.5000     0.5784    17.7119
 1976.0000     0.6732    17.7100
 1976.5000     0.6737    17.7081
 1977.0000     0.6742    17.7061
 1977.5000     0.6747    17.7042
 1978.0000     0.6752    17.7023
 1978.5000     0.6757    17.7004
 1979.0000     0.6762    17.6985
 1979.5000     0.6767    17.6966
 1980.0000     0.6771    17.6947
 1980.5000     0.6776    17.6928
 1981.0000     0.6781    17.6909
 1981.5000     0.6786    17.6890
 1982.0000     0.6791    17.6871
 1982.5000     0.6796    17.6983
 1983.0000     0.6801    17.4996
 1983.5000     0.6806    17.5185
 1984.0000     0.6811    17.5339
 1984.5000     0.6816    17.7573
 1985.0000     0.6821    17.7727
 1985.5000     0.6826    17.9961
