~VERSION INFORMATION
 VERS.                2.0:   CWLS LOG ASCII STANDARD - VERSION 2.0
 WRAP.                 NO:   ONE LINE PER DEPTH STEP
~WELL INFORMATION
#MNEM.UNIT      DATA TYPE    INFORMATION
#----------   ------------   ------------------------------
 STRT.F          131.0000:   START DEPTH
 STOP.F         1085.0000:   STOP DEPTH
 STEP.F            0.5000:   STEP LENGTH
 NULL.          -999.2500:   NO VALUE
 COMP. U S NAVY-INTEX OIL:   COMPANY
 WELL.     UPR #3 #66-S-2:   WELL
 FLD .             TEAPOT:   FIELD
 LOC .       S2 T38N R78W:   LOCATION
 CNTY.            NATRONA:   COUNTY
 STAT.            WYOMING:   STATE
 CTRY. UNITED STATES OF AMERICA:   COUNTRY
 SRVC.       Schlumberger:   SERVICE COMPANY
 DATE.        18-JUL-1964:   LOGDATE
 API .       490250641300:   API NUMBER
~CURVE INFORMATION
#MNEM.UNIT       API CODE    CURVE DESCRIPTION
#----------   ------------   ------------------------------
 DEPT.F                  :   
 ASN .OHMM   05 041 16 00:   AMPLIFIED SHORT NORMAL 16"
 CILD.MMHO   05 110 46 00:   CONDUCTIVITY INDUCTION LOG DEEP
 ILD .OHMM   05 120 46 00:   INDUCTION LOG DEEP
 SPR .MV     05 010 01 00:   SPONTANEOUS POTENTIAL FROM RES.
 GR  .GAPI   30 310 01 00:   GAMMA RAY
 CALS.IN     60 280 50 00:   CALIPER FROM SONIC LOG
 DT  .US/F   60 520 33 00:   INTERVAL TRANSIT TIME
~PARAMETER INFORMATION
#MNEM.UNIT          VALUE    DESCRIPTION
#----------   ------------   ------------------------------
 PD  .                 GL:   PERMANENT DATUM
 EPD .F              5204:   ELEVATION PERMANENT DATUM
 LMF .                 KB:   LOG MEASURED FROM
 DAPD.F                 5:   FEET ABOVE PERMANENT DATUM
 DMF .                 KB:   DRILLING MEASURED FROM
 EKB .F              5209:   KELLING BUSHING
 EGL .F              5204:   GROUND LEVEL
 DATE.          7-18-1964:   RUN DATE
 RUN .                  1:   RUN NUMBER
 DD  .F              1085:   DEPTH DRILLER
 DL  .F              1086:   DEPTH LOGGER
 BLI .F              1085:   BOTTOM LOG INTERVAL
 TLI .F               131:   TOP LOG INTERVAL
 CS  .IN            8.625:   CASING SIZE
 CBD .F                10:   CASING BOTTOM DRILLER
 BS  .IN             6.75:   BIT SIZE
 BSD .F              5204:   BIT SIZE AT DEPTH
 DFT .                GEL:   DRILLING FLUID TYPE
 DFD .                9.5:   DRILLING FLUID DENSITY
 DFV .                 47:   DRILLING FLUID VISCOSITY
 DFL .                 10:   DRILLING FLUID LOSS
 MSS .           FLOWLINE:   MUD SAMPLE SOURCE
 RMS .OHMM           2.58:   RESISTIVITY MUD SAMPLE
 MST .F                93:   MUD SAMPLE TEMPERATURE
 RMF .OHMM           2.27:   RESISTIVITY MUD FILTRATE SAMPLE
 MFST.F                93:   MUD FILTRATE SAMPLE TEMPERATURE
 MFSS.                 FP:   MUD FILTRATE SAMPLE SOURCE
 TCS .HRS             1.5:   TIME CURCULATED STOPPED
 LUN .               3527:   LOGGING UNIT NUMBER
 LUL .              CSPR.:   LOGGING UNIT LOCATION
 ENGI.            WINKLER:   RECORDING ENGINEER
 WITN.          JORGENSEN:   WITNESSED BY
 CLNT.            A2DTECH:   CLIENT CODE
 ORIG.    1" , 2.5" PRINT:   ORIGIN OF DATA
 UWI .       490250641300:   UNIQUE WELL ID
 DICO. A2D Technologies, Inc.:   DIGITIZING COMPANY
~OTHER INFORMATION
~A   DEPT      ASN       CILD        ILD        SPR         GR       CALS         DT   
# ...
  813.5000     6.8410   181.4819     5.5864   -29.1265    65.1764     6.4353   101.6593
  814.0000     6.5745   187.4304     5.1428   -29.0932    64.8852     6.3455   103.3080
  814.5000     6.3674   190.3937     4.9861   -28.4777    63.5335     6.2404   105.0320
  815.0000     6.2196   191.8657     4.8510   -27.7926    62.6364     6.2418   106.1539
  815.5000     6.0679   193.3358     5.0030   -26.9489    62.4968     6.3495   107.2007
  816.0000     5.9833   193.3134     5.1548   -26.7381    65.5798     6.4572   107.5719
  816.5000     6.1561   193.0219     5.3532   -26.7366    66.6145     6.5346   106.8864
  817.0000     6.4396   189.8258     5.5139   -27.1776    70.1113     6.5967   106.3530
  817.5000     6.6874   183.3211     5.8234   -27.4926    71.7899     6.6436   105.2176
  818.0000     6.8522   175.5521     6.0595   -27.6250    75.7412     6.6450   103.3298
  818.5000     6.9933   168.2963     6.3601   -27.3257    75.9046     6.5519   102.5707
  819.0000     7.1007   162.7212     6.6613   -27.3242    76.3711     6.4805   102.4888
  819.5000     7.2339   158.9178     6.9618   -27.3228    74.4133     6.4822   102.4821
  820.0000     7.2939   156.5173     6.9647   -27.9166    71.3949     6.5291   102.2497
  820.5000     7.3023   155.7941     7.1164   -28.2127    70.4978     6.6064   101.8668
  821.0000     7.2653   154.2799     7.1193   -27.9137    70.2037     6.6382   101.7849
  821.5000     7.2065   154.2582     6.9733   -27.9122    70.5216     6.6547   102.0116
  822.0000     7.1181   154.2365     6.9762   -27.6131    67.2002     6.6561   102.1595
  822.5000     7.1780   155.7073     6.8254   -27.6116    67.2121     6.6574   101.6879
  823.0000     7.1489   157.1782     6.6844   -27.6101    69.6483     6.6587   101.0793
  823.5000     7.0823   158.6490     6.5159   -27.9065    67.1153     6.6601   100.9221
  824.0000     6.9246   161.7315     6.2123   -27.9048    64.2206     6.6614   101.1412
  824.5000     6.7709   166.3754     5.9087   -27.7733    64.5355     6.6172   101.8117
  825.0000     6.5875   171.0194     5.7044   -27.6042    64.0929     6.5881   102.4070
  825.5000     6.4338   178.6497     5.3016   -27.7703    61.0745     6.5895   102.7765
  826.0000     6.2940   188.2092     4.9980   -28.1962    56.2380     6.6063   103.0725
  826.5000     6.1719   199.9827     4.6944   -28.1947    54.7347     6.6077   103.5156
  827.0000     5.9669   216.2242     4.3909   -27.8957    53.3800     6.6090   103.8852
  827.5000     5.7301   230.7332     4.1815   -28.1918    54.6071     6.5948   104.4804
  828.0000     5.4636   242.9848     4.0357   -29.6785    58.4069     6.5810   105.4520
  828.5000     5.1971   249.4659     3.7414   -28.7842    61.6006     6.5979   107.5521
  829.0000     4.9603   252.4293     3.7443   -26.9950    62.5216     6.6144   109.0503
  829.5000     4.7235   252.4076     3.5984   -26.3795    62.8366     6.6309   109.7961
  830.0000     4.3976   252.3859     3.6013   -25.8037    63.1515     6.6348   108.5704
  830.5000     4.1608   250.8716     3.7530   -26.1583    62.8604     6.6336   107.6479
  831.0000     5.4216   241.8947     4.0615   -26.7708    64.8527     6.6350   106.7254
  831.5000     5.8831   222.4700     4.5367   -26.9898    69.0994     6.6372   104.3501
  832.0000     6.1231   201.2334     5.1528   -26.9881    68.8083     6.6529   102.8386
  832.5000     6.3294   189.0673     5.6200   -26.9866    66.2444     6.6849   101.9289
  833.0000     6.4843   180.0749     6.0437   -27.2827    65.7988     6.7015   101.3203
  833.5000     6.6392   173.8931     6.4494   -27.2812    69.2986     6.6724   100.8622
  834.0000     6.7624   167.7118     6.6627   -26.9819    71.2802     6.6434   100.4040
  834.5000     6.8957   163.5746     6.9722   -26.9804    70.2315     6.6295   100.1716
  835.0000     6.9853   160.4725     7.0536   -27.2768    67.9707     6.6004   100.0897
  835.5000     7.1639   157.3707     7.2059   -27.2752    67.8281     6.5863   100.1599
  836.0000     7.2831   154.2686     7.3576   -27.2737    68.4491     6.5727   100.3773
  836.5000     7.3727   150.6004     7.5093   -27.2723    65.2792     6.5585   100.5964
  837.0000     7.4030   149.0862     7.6610   -27.5685    64.3818     6.5146   100.6652
  837.5000     7.4332   147.5719     7.6639   -27.8646    64.8485     6.4704   100.6582
  838.0000     7.4952   146.0577     7.8156   -28.2043    65.1634     6.4408   100.6516
  838.5000     7.5907   144.5434     7.9673   -28.5194    65.1758     6.3955   100.4168
  839.0000     7.6783   141.5367     7.9702   -28.8343    65.4933     6.3653   100.2619
  839.5000     7.7403   141.5100     7.9841   -29.0493    65.0507     6.4001   100.2551
  840.0000     7.8319   139.9004     8.1250   -29.0476    64.9081     6.4622   100.2470
  840.5000     7.8938   138.4851     8.1280   -29.0461    65.5291     6.4940   100.1650
  841.0000     7.9695   136.9701     8.1310   -29.0446    69.1773     6.4953   100.0831
  841.5000     8.0770   136.5647     8.1339   -29.3405    72.5226     6.4811    99.9260
  842.0000     8.1805   135.4328     8.1369   -29.0414    72.9891     6.4524    99.6936
  842.5000     8.2998   136.9072     7.9911   -29.0400    73.9101     6.4082    99.2354
  843.0000     8.4191   136.8806     7.9940   -28.7409    71.0432     6.3940    98.7773
  843.5000     8.4493   138.3507     7.9970   -28.7395    70.1431     6.4108    98.4696
  844.0000     8.4499   138.3284     8.0006   -29.0356    69.2489     6.4274    98.5398
  844.5000     8.3911   136.8095     8.0034   -29.3318    66.5335     6.4135    98.9077
  845.0000     8.2730   136.7878     8.0063   -29.6379    64.4242     6.3997    99.2773
  845.5000     8.1213   136.7661     8.0092   -29.9242    68.5280     6.4011    99.7973
  846.0000     7.9992   136.7444     8.0121   -29.8750    72.3474     6.4331   100.4678
  846.5000     7.8831   136.7227     8.0150   -29.6235    74.1600     6.4800   101.1383
  847.0000     7.7927   138.1940     8.0179   -29.2391    78.5658     6.4814   101.5831
  847.5000     7.6924   141.1819     7.8671   -28.9212    79.9414     6.4523   101.5764
  848.0000     7.6119   144.3584     7.7123   -28.6032    80.1048     6.4688   101.4944
  848.5000     7.4779   148.7885     7.3859   -28.4271    81.1773     6.5006   101.7379
  849.0000     7.2787   153.6470     6.7758   -28.4256    79.8256     6.5171   102.6082
  849.5000     6.7058   159.7835     5.9762   -28.4238    78.9285     6.5793   103.2787
  850.0000     6.4689   169.4034     5.2084   -28.4224    77.7293     6.6110   103.7987
  850.5000     6.1134   183.3811     4.4990   -28.1233    76.6806     6.6427   104.3940
  851.0000     5.5799   201.8354     4.0377   -28.1219    73.8138     6.6289   103.7908
  851.5000     5.1947   218.7993     3.5764   -27.8228    68.0682     6.6302   104.8779
  852.0000     4.5425   234.0099     3.1150   -28.1190    65.8074     6.6316   106.5651
  852.5000     4.1869   299.1380     2.6940   -27.8199    64.6073     6.6636   108.4418
  853.0000     3.7622   414.0417     2.3993   -27.5208    62.9526     6.6954   110.0929
  853.5000     3.4641   440.8856     2.2533   -27.4866    64.0251     6.7271   111.7439
  854.0000     3.2807   475.1923     1.9586   -27.1171    72.2189     6.7437   115.3513
  854.5000     3.0973   490.0960     1.8125   -26.6235    78.5945     6.6994   121.3333
  855.0000     2.9535   497.5370     1.8156   -26.3244    81.3337     6.6704   126.6282
  855.5000     2.8730   497.2018     1.6696   -26.6208    78.9215     6.6717   128.2792
  856.0000     2.8558   467.4651     1.5237   -26.4921    74.0849     6.6730   128.8779
  856.5000     2.9632   431.1865     1.6924   -26.0223    69.9939     6.6592   125.1855
  857.0000     3.4802   392.5488     2.1766   -26.1855    71.7213     6.6453   121.6446
  857.5000     4.1633   329.0430     2.8274   -26.6143    73.4041     6.6315   116.5237
  858.0000     4.6090   285.6796     3.7064   -26.9105    76.0908     6.6333   111.5775
  858.5000     5.0547   238.6796     4.3750   -26.9090    79.9053     6.6494   108.6885
