~VERSION INFORMATION
 VERS.                2.0:   CWLS LOG ASCII STANDARD - VERSION 2.0
 WRAP.                 NO:   ONE LINE PER DEPTH STEP
~WELL INFORMATION
#MNEM.UNIT      DATA TYPE    INFORMATION
#----------   ------------   ------------------------------
 STRT.F            0.0000:   START DEPTH
 STOP.F          437.0000:   STOP DEPTH
 STEP.F            0.5000:   STEP LENGTH
 NULL.          -999.2500:   NO VALUE
 COMP. BROWN JOHN E&C INC:   COMPANY
 WELL. NPR 3 SX-10 #64-1-10:   WELL
 FLD .             TEAPOT:   FIELD
 LOC .      S10 T38N R78W:   LOCATION
 CNTY.            NATRONA:   COUNTY
 STAT.            WYOMING:   STATE
 CTRY. UNITED STATES OF AMERICA:   COUNTRY
 SRVC.     Atlas Wireline:   SERVICE COMPANY
 DATE.        29-APR-1991:   LOGDATE
 API .       490251133600:   API NUMBER
~CURVE INFORMATION
#MNEM.UNIT       API CODE    CURVE DESCRIPTION
#----------   ------------   ------------------------------
 DEPT.F                  :   
 GRR .GAPI   07 310 01 00:   GAMMA RAY
 RILD.OHMM   07 120 46 00:   INDUCTION LOG DEEP RESISTIVITY
 RILM.OHMM   07 120 44 00:   INDUCTION LOG MEDIUM RESISTIVITY
~PARAMETER INFORMATION
#MNEM.UNIT          VALUE    DESCRIPTION
#----------   ------------   ------------------------------
 EPD .F              5185:   ELEVATION PERMANENT DATUM
 LMF .                 KB:   LOG MEASURED FROM
 DAPD.F                 5:   FEET ABOVE PERMANENT DATUM
 DMF .                 KB:   DRILLING MEASURED FROM
 EKB .F              5190:   KELLING BUSHING
 EGL .F              5185:   GROUND LEVEL
 DATE.        29-APR-1991:   RUN DATE
 RUN .                  1:   RUN NUMBER
 DD  .F               440:   DEPTH DRILLER
 DL  .F               439:   DEPTH LOGGER
 BLI .F               437:   BOTTOM LOG INTERVAL
 CS  .IN            8.625:   CASING SIZE
 CBD .F                44:   CASING BOTTOM DRILLER
 CBL .F                44:   CASING BOTTOM LOGGER
 BS  .IN            7.875:   BIT SIZE
 BSD .F               440:   BIT SIZE AT DEPTH
 DFT .                AIR:   DRILLING FLUID TYPE
 LUN .           HL- 6272:   LOGGING UNIT NUMBER
 LUL .             CASPER:   LOGGING UNIT LOCATION
 ENGI.            KINNETT:   RECORDING ENGINEER
 WITN.             STRONG:   WITNESSED BY
 CLNT.            A2DTECH:   CLIENT CODE
 ORIG.           5" PRINT:   ORIGIN OF DATA
 UWI .       490251133600:   UNIQUE WELL ID
 DICO. A2D Technologies, Inc.:   DIGITIZING COMPANY
~OTHER INFORMATION
~A    DEPT      GRR      RILD       RILM   
# ...
  364.0000    98.1143    13.9441    14.1791
  364.5000    98.1234    13.9431    14.0760
  365.0000    97.6708    13.8425    14.0740
  365.5000    95.8445    13.8415    13.9717
  366.0000    92.1783    13.7416    13.9697
  366.5000    92.8765    13.7406    13.8682
  367.0000    95.1827    13.7397    13.8662
  367.5000    99.7859    13.6405    13.8643
  368.0000   101.1733    13.6395    13.8623
  368.5000    99.5744    13.6386    13.8603
  369.0000    99.1194    13.5401    13.7596
  369.5000   102.8409    13.4422    13.7576
  370.0000   106.9834    13.3451    13.7491
  370.5000   107.8803    13.2488    13.5582
  371.0000   104.8329    13.2479    13.5563
  371.5000   103.7637    13.1523    13.4573
  372.0000   105.8425    13.0573    13.3595
  372.5000   105.1624    13.0564    13.2624
  373.0000   104.2504    13.0555    13.1659
  373.5000   104.0321    12.9613    13.0702
  374.0000   104.2709    12.8677    12.9752
  374.5000   106.3473    12.7748    12.9733
  375.0000   109.8021    12.6826    12.9715
  375.5000   111.6488    12.5911    12.9697
  376.0000   111.6708    12.5002    12.8754
  376.5000   111.2053    12.4100    12.7818
  377.0000   110.2956    12.4091    12.7800
  377.5000   108.9287    12.3195    12.6870
  378.0000   107.1001    12.3187    12.6853
  378.5000   105.0418    12.3176    12.5930
  379.0000   102.5241    12.3167    12.5911
  379.5000   102.9926    12.3158    12.5890
  380.0000   108.2850    12.2270    12.5873
  380.5000   110.8209    12.2261    12.4957
  381.0000   110.1269    12.1378    12.4940
  381.5000   108.0682    12.1370    12.4031
  382.0000   108.6249    12.1361    12.4014
  382.5000   111.3861    12.0485    12.3112
  383.0000   110.8686    11.9616    12.2217
  383.5000   109.9566    11.9607    12.2200
  384.0000   111.3462    11.7895    12.0446
  384.5000   111.5850    11.7044    11.9570
  385.0000   110.6752    11.6199    11.8701
  385.5000   112.2923    11.5342    11.6998
  386.0000   117.5847    11.3710    11.6147
  386.5000   116.4453    11.2779    11.4441
  387.0000   113.9275    11.0476    11.2751
  387.5000   111.8692    10.9678    11.0424
  388.0000   109.5812    10.8108    10.7290
  388.5000   109.8200    10.6561    10.5751
  389.0000   110.0588    10.4285    10.2752
  389.5000   109.1491    10.1328     9.9838
  390.0000   106.8611     9.9164     9.8405
  390.5000   108.7079     9.7046     9.7690
  391.0000   112.1626     9.4973     9.5601
  391.5000   118.1441     9.1621     9.1570
  392.0000   122.0583     8.7755     8.5234
  392.5000   124.5981     8.4052     7.8209
  393.0000   124.8330     7.9930     7.0743
  393.5000   124.0819     7.4392     6.3990
  394.0000   123.0135     6.6799     5.8715
  394.5000   128.1087     5.7419     5.6237
  395.0000   133.3708     5.5825     5.5433
  395.5000   132.6908     5.6285     5.5874
  396.0000   126.4977     5.7441     5.8003
  396.5000   123.0612     5.9108     6.3025
  397.0000   116.6384     6.1703     6.8667
  397.5000   111.3642     6.4412     7.4814
  398.0000   110.2225     7.0198     8.2096
  398.5000   114.1389     7.7053     8.9445
  399.0000   113.9160     8.3373     9.4027
  399.5000   113.9274     8.9567     9.6744
  400.0000   116.6929     9.5043     9.8460
  400.5000   120.8368     9.9056    10.0242
  401.0000   123.6024    10.1162    10.0948
  401.5000   122.6926    10.3355    10.3121
  402.0000   116.7293    10.6355    10.4593
  402.5000   116.6846    10.7884    10.6847
  403.0000   120.8823    11.0223    10.9151
  403.5000   125.2558    11.2612    11.2304
  404.0000   126.4164    11.4232    11.5549
  404.5000   126.6523    11.6708    11.8041
  405.0000   125.0556    11.8386    12.0585
  405.5000  -999.2500    12.0090    12.2306
  406.0000  -999.2500    12.2692    12.3167
  406.5000  -999.2500    12.3569    12.4925
  407.0000  -999.2500    12.6245    12.5961
  407.5000  -999.2500    12.7145    12.7596
  408.0000  -999.2500    12.8973    12.9417
  408.5000  -999.2500    12.9893    13.0332
  409.0000  -999.2500    13.1760    13.2193
  409.5000  -999.2500    13.2772    13.3123
  410.0000  -999.2500    13.3645    13.4060
  410.5000  -999.2500    13.5564    13.4037
  411.0000  -999.2500    13.5555    13.3062
  411.5000  -999.2500    13.5545    13.3044
  412.0000  -999.2500    13.5536    13.3025
  412.5000  -999.2500    13.4557    13.2849
  413.0000  -999.2500    13.3586    13.2988
  413.5000  -999.2500    13.3577    13.3924
  414.0000  -999.2500    13.3567    13.2950
  414.5000  -999.2500    13.3558    13.2931
  415.0000  -999.2500    13.3548    13.2911
  415.5000  -999.2500    13.2584    13.2889
  416.0000  -999.2500    13.1627    13.2870
  416.5000  -999.2500    13.1618    13.1904
  417.0000  -999.2500    13.1609    13.0011
  417.5000  -999.2500    13.0659    12.9066
  418.0000  -999.2500    12.9716    12.8127
  418.5000  -999.2500    12.8691    12.5388
  419.0000  -999.2500    12.6936    12.2708
  419.5000  -999.2500    12.4223    12.0947
  420.0000  -999.2500    12.2445    11.8361
  420.5000  -999.2500    12.0692    11.6663
  421.0000  -999.2500    11.8965    11.4989
  421.5000  -999.2500    11.5592    11.4153
  422.0000  -999.2500    11.3123    11.2514
  422.5000  -999.2500    11.0706    11.0874
  423.0000  -999.2500    10.9122    10.8529
  423.5000  -999.2500    10.6791    10.6208
  424.0000  -999.2500    10.5263    10.4681
  424.5000  -999.2500    10.3756    10.2443
  425.0000  -999.2500    10.2271    10.0973
  425.5000  -999.2500    10.1533    10.0239
  426.0000  -999.2500    10.0800     9.9510
  426.5000  -999.2500    10.0072     9.9496
  427.0000  -999.2500    10.0022     9.9482
  427.5000  -999.2500     9.8633     9.9468
  428.0000  -999.2500     9.8626     9.9454
  428.5000  -999.2500     9.7912     9.8731
  429.0000  -999.2500     9.7905     9.8717
  429.5000  -999.2500     9.7898     9.8703
  430.0000  -999.2500     9.7892     9.7985
  430.5000  -999.2500     9.7885     9.7972
  431.0000  -999.2500     9.7878     9.7958
  431.5000  -999.2500     9.7871     9.7944
  432.0000  -999.2500     9.7864     9.7929
  432.5000  -999.2500     9.7857     9.7913
  433.0000  -999.2500     9.7850     9.7899
  433.5000  -999.2500     9.7843     9.7885
  434.0000  -999.2500     9.7836     9.7871
  434.5000  -999.2500     9.7829     9.7858
  435.0000  -999.2500     9.7822     9.7844
  435.5000  -999.2500     9.7116     9.7132
  436.0000  -999.2500     9.7109     9.7119
  436.5000  -999.2500     9.7102     9.7105
  437.0000  -999.2500     9.7094     9.7091
