~VERSION INFORMATION
 VERS.                2.0:   CWLS LOG ASCII STANDARD - VERSION 2.0
 WRAP.                 NO:   ONE LINE PER DEPTH STEP
~WELL INFORMATION
#MNEM.UNIT      DATA TYPE    INFORMATION
#----------   ------------   ------------------------------
 STRT.F           12.0000:   START DEPTH
 STOP.F          508.5000:   STOP DEPTH
 STEP.F            0.5000:   STEP LENGTH
 NULL.          -999.2500:   NO VALUE
 COMP. LAWRENCE-ALLISON INC:   COMPANY
 WELL.   NPR #71-16-SX-10:   WELL
 FLD .           NPR NO.3:   FIELD
 LOC .      S10 T38N R78W:   LOCATION
 CNTY.            NATRONA:   COUNTY
 STAT.            WYOMING:   STATE
 CTRY. UNITED STATES OF AMERICA:   COUNTRY
 SRVC.           Gearhart:   SERVICE COMPANY
 DATE.        09-JUL-1986:   LOGDATE
 API .       490251109600:   API NUMBER
~CURVE INFORMATION
#MNEM.UNIT       API CODE    CURVE DESCRIPTION
#----------   ------------   ------------------------------
 DEPT.F                  :   
 GRR .GAPI   07 310 01 00:   GAMMA RAY FROM RES. LOG.
 RILD.OHMM   07 120 46 00:   INDUCTION LOG DEEP RESISTIVITY
 RILM.OHMM   07 120 44 00:   INDUCTION LOG MEDIUM
~PARAMETER INFORMATION
#MNEM.UNIT          VALUE    DESCRIPTION
#----------   ------------   ------------------------------
 PD  .                 GL:   PERMANENT DATUM
 EPD .F              5152:   ELEVATION PERMANENT DATUM
 LMF .                 KB:   LOG MEASURED FROM
 DAPD.F                 5:   FEET ABOVE PERMANENT DATUM
 DMF .                 KB:   DRILLING MEASURED FROM
 EKB .F              5157:   KELLING BUSHING
 EGL .F              5152:   GROUND LEVEL
 DATE.           7-9-1986:   RUN DATE
 RUN .                  1:   RUN NUMBER
 DD  .F               520:   DEPTH DRILLER
 DL  .F               518:   DEPTH LOGGER
 BLI .F               509:   BOTTOM LOG INTERVAL
 TLI .F                47:   TOP LOG INTERVAL
 CS  .IN            8.625:   CASING SIZE
 CBD .F                47:   CASING BOTTOM DRILLER
 CBL .F                47:   CASING BOTTOM LOGGER
 BS  .IN            7.875:   BIT SIZE
 BSD .F               520:   BIT SIZE AT DEPTH
 DFT .                AIR:   DRILLING FLUID TYPE
 TCS .HRS            0830:   TIME CURCULATED STOPPED
 TLAB.HRS            1119:   TIME LOGGER AT BOTTOM
 MRT .F                65:   MAXIMUM RECORDED TEMPERATURE
 LUN .               7609:   LOGGING UNIT NUMBER
 LUL .           GILLETTE:   LOGGING UNIT LOCATION
 ENGI.         WEATHERMON:   RECORDING ENGINEER
 WITN.           JENNINGS:   WITNESSED BY
 CLNT.            A2DTECH:   CLIENT CODE
 ORIG.       2", 5" PRINT:   ORIGIN OF DATA
 UWI .       490251109600:   UNIQUE WELL ID
 DICO. A2D Technologies, Inc.:   DIGITIZING COMPANY
~OTHER INFORMATION
~A   DEPT       GRR      RILD       RILM   
   12.0000    74.6964  -999.2500  -999.2500
   12.5000    74.6964  -999.2500  -999.2500
   13.0000    74.6333  -999.2500  -999.2500
   13.5000    74.4714  -999.2500  -999.2500
   14.0000    74.2671  -999.2500  -999.2500
   14.5000    74.0633  -999.2500  -999.2500
   15.0000    73.8585  -999.2500  -999.2500
   15.5000    73.6552  -999.2500  -999.2500
   16.0000    73.5320  -999.2500  -999.2500
   16.5000    73.9442  -999.2500  -999.2500
   17.0000    74.3551  -999.2500  -999.2500
   17.5000    74.7593  -999.2500  -999.2500
   18.0000    75.1135  -999.2500  -999.2500
   18.5000    74.1041  -999.2500  -999.2500
   19.0000    72.6478  -999.2500  -999.2500
   19.5000    73.2479  -999.2500  -999.2500
   20.0000    73.8517  -999.2500  -999.2500
   20.5000    74.4586  -999.2500  -999.2500
   21.0000    74.4851  -999.2500  -999.2500
   21.5000    73.8923  -999.2500  -999.2500
   22.0000    72.8786  -999.2500  -999.2500
   22.5000    72.4144  -999.2500  -999.2500
   23.0000    72.1648  -999.2500  -999.2500
   23.5000    70.8962  -999.2500  -999.2500
   24.0000    69.6282  -999.2500  -999.2500
   24.5000    69.8688  -999.2500  -999.2500
   25.0000    70.5320  -999.2500  -999.2500
   25.5000    70.7421  -999.2500  -999.2500
   26.0000    69.1553  -999.2500  -999.2500
   26.5000    67.6121  -999.2500  -999.2500
   27.0000    67.4633  -999.2500  -999.2500
   27.5000    68.7868  -999.2500  -999.2500
   28.0000    70.1217  -999.2500  -999.2500
   28.5000    71.4172  -999.2500  -999.2500
   29.0000    73.7978  -999.2500  -999.2500
   29.5000    76.6038  -999.2500  -999.2500
   30.0000    79.4350  -999.2500  -999.2500
   30.5000    81.9134  -999.2500  -999.2500
   31.0000    80.8614  -999.2500  -999.2500
   31.5000    76.4607  -999.2500  -999.2500
   32.0000    73.0300  -999.2500  -999.2500
   32.5000    73.9230  -999.2500  -999.2500
   33.0000    77.6249  -999.2500  -999.2500
   33.5000    81.3995  -999.2500  -999.2500
   34.0000    81.4972  -999.2500  -999.2500
   34.5000    81.3549  -999.2500  -999.2500
   35.0000    81.2287  -999.2500  -999.2500
   35.5000    81.1015  -999.2500  -999.2500
   36.0000    80.9640  -999.2500  -999.2500
   36.5000    80.8338  -999.2500  -999.2500
   37.0000    79.9993  -999.2500  -999.2500
   37.5000    78.6489  -999.2500  -999.2500
   38.0000    77.5946  -999.2500  -999.2500
   38.5000    78.9355  -999.2500  -999.2500
   39.0000    81.5754  -999.2500  -999.2500
   39.5000    83.5769  -999.2500  -999.2500
   40.0000    84.8864  -999.2500  -999.2500
   40.5000    82.6626  -999.2500  -999.2500
   41.0000    79.2757  -999.2500  -999.2500
   41.5000    75.5257  -999.2500  -999.2500
   42.0000    73.2647  -999.2500  -999.2500
   42.5000    71.8936  -999.2500  -999.2500
   43.0000    71.8460  -999.2500  -999.2500
   43.5000    71.9549  -999.2500  -999.2500
   44.0000    72.7190  -999.2500  -999.2500
   44.5000    75.4287  -999.2500  -999.2500
   45.0000    77.8162  -999.2500  -999.2500
   45.5000    82.3442  -999.2500  -999.2500
   46.0000    87.1076  -999.2500  -999.2500
   46.5000    93.6048  -999.2500  -999.2500
   47.0000    98.8658    12.5630   319.7210
   47.5000   102.7267     6.7674    71.2192
   48.0000   105.5366     5.3157     9.8548
   48.5000   107.5317     4.8109     8.9964
   49.0000   107.4848     4.7663     7.0325
   49.5000   107.0301     5.2234     5.4559
   50.0000   106.0842     5.7821     5.1310
   50.5000   105.1547     6.4024     5.2783
   51.0000   105.3425     7.0891     5.6541
   51.5000   106.5738     7.8488     6.3668
   52.0000   108.1303     8.2589     7.1004
   52.5000   109.7074     8.1275     7.6639
   53.0000   111.1278     8.0274     7.6496
   53.5000   110.9591     7.9294     7.6218
   54.0000   109.7970     7.8810     7.5929
   54.5000   107.4481     7.9770     7.5644
   55.0000   106.2229     8.0516     7.5365
   55.5000   105.8797     8.1270     7.5224
   56.0000   105.8309     8.1801     7.6460
   56.5000   107.8693     8.1802     7.7858
   57.0000   111.4483     8.1801     7.9280
   57.5000   114.8480     8.1800     8.0292
   58.0000   114.6832     8.1877     8.0583
   58.5000   110.1317     8.2566     8.1001
   59.0000   108.3708     8.3339     8.1421
   59.5000   107.5821     8.4708     8.1800
   60.0000   107.4879     8.6704     8.2428
   60.5000   107.4758     8.8388     8.3124
   61.0000   108.2985     8.9258     8.4481
   61.5000   109.5158     9.0138     8.5700
   62.0000   109.9503     9.1026     8.6937
   62.5000   108.4881     9.2186     8.8332
   63.0000   106.8488     9.4601     9.0412
   63.5000   105.4324     9.7081     9.2543
   64.0000   104.3438     9.9625     9.4724
   64.5000   104.2297    10.0922     9.6899
   65.0000   104.8191    10.1972     9.8606
   65.5000   105.4855    10.4497    10.0343
   66.0000   105.4866    10.7399    10.2110
   66.5000   103.5685    11.0381    10.3909
   67.0000   101.6842    11.3447    10.6041
   67.5000   101.0288    11.5681    10.8938
   68.0000   101.0078    11.8323    11.1915
   68.5000   100.4602    12.1024    11.4973
   69.0000    97.5865    12.3788    11.8115
   69.5000    96.4451    12.6614    12.1342
   70.0000    95.8201    12.9505    12.4658
   70.5000    93.5719    13.2462    12.8064
   71.0000    90.9481    13.4004    13.1531
   71.5000    88.9770    13.3653    13.0746
   72.0000    89.8793    13.3265    12.9897
   72.5000    91.8287    13.2878    12.8525
   73.0000    93.9860    13.1767    12.7167
   73.5000    96.1721    13.0359    12.5824
   74.0000    96.9267    12.9104    12.4495
   74.5000    97.3600    12.8056    12.3180
   75.0000    97.1795    12.6573    12.1878
   75.5000    96.0876    12.5109    12.0591
   76.0000    95.0117    12.4022    11.9317
   76.5000    93.9140    12.3302    11.8057
   77.0000    94.0167    12.1521    11.6810
   77.5000    94.3735    11.9835    11.5576
   78.0000    95.3533    11.9831    11.5453
   78.5000    96.7328    11.9832    11.6062
   79.0000    98.1112    11.9834    11.6533
   79.5000    99.4880    12.0238    11.7007
   80.0000    99.2099    12.0686    11.7477
   80.5000    96.5865    12.1135    11.8725
   81.0000    94.3594    12.1588    11.8731
   81.5000    92.8210    12.2042    11.8727
   82.0000    92.1497    12.1188    11.8573
   82.5000    91.7279    12.0196    11.7037
   83.0000    92.9410    11.9215    11.5519
   83.5000    96.4807    11.7902    11.4021
   84.0000   100.2139    11.6260    11.2544
   84.5000   101.5760    11.4205    11.1086
   85.0000   100.9752    11.2446    10.9648
   85.5000   100.3425    11.0715    10.8227
   86.0000    99.7883    10.9179    10.6825
   86.5000    98.9645    10.9088    10.5442
   87.0000    96.2699    10.8180    10.3727
   87.5000    93.3874    10.7279    10.2843
   88.0000    92.2681    10.6386    10.2269
   88.5000    93.2632    10.5501    10.1700
   89.0000    93.7169    10.4623    10.1133
   89.5000    93.1016    10.3752    10.0569
   90.0000    91.9467    10.2889    10.0401
   90.5000    92.3404    10.2289    10.0012
   91.0000    95.3934    10.1813     9.9239
   91.5000    98.3049    10.1340     9.8472
   92.0000    99.3835    10.1500     9.7632
   92.5000   100.0016    10.1627     9.7747
   93.0000   101.6795    10.1751     9.7975
   93.5000   103.3698    10.1876     9.8205
   94.0000   102.9569    10.1999     9.8433
   94.5000    98.7254    10.2129     9.8548
   95.0000    94.1484    10.2278     9.8549
   95.5000    90.4055    10.1346     9.8549
   96.0000    90.9622    10.0213     9.8551
   96.5000    94.1626     9.8979     9.7239
   97.0000    97.9273     9.7757     9.5399
   97.5000   100.6798     9.6281     9.3594
   98.0000    99.7041     9.4798     9.1823
   98.5000    97.8144     9.3156     9.0086
   99.0000    97.3724     9.1367     8.8381
   99.5000    98.0019     8.9785     8.6709
  100.0000   100.0555     8.8131     8.4930
  100.5000   100.6149     8.8118     8.5121
  101.0000    99.1556     8.8127     8.5361
  101.5000    97.8698     8.8128     8.5602
  102.0000    97.0186     8.8128     8.5843
  102.5000    96.1314     8.8128     8.6086
