~VERSION INFORMATION
 VERS.                2.0:   CWLS LOG ASCII STANDARD - VERSION 2.0
 WRAP.                 NO:   ONE LINE PER DEPTH STEP
~WELL INFORMATION
#MNEM.UNIT      DATA TYPE    INFORMATION
#----------   ------------   ------------------------------
 STRT.F           31.0000:   START DEPTH
 STOP.F         1450.0000:   STOP DEPTH
 STEP.F            0.5000:   STEP LENGTH
 NULL.          -999.2500:   NO VALUE
 COMP. FENIX & SCISSON INC:   COMPANY
 WELL.    NPR-3 SX #86-14:   WELL
 FLD .             TEAPOT:   FIELD
 LOC .      S14 T38N R78W:   LOCATION
 CNTY.            NATRONA:   COUNTY
 STAT.            WYOMING:   STATE
 CTRY. UNITED STATES OF AMERICA:   COUNTRY
 SRVC.            Unknown:   SERVICE COMPANY
 DATE.        05-APR-1978:   LOGDATE
 API .       490251060800:   API NUMBER
~CURVE INFORMATION
#MNEM.UNIT       API CODE    CURVE DESCRIPTION
#----------   ------------   ------------------------------
 DEPT.F                  :   
 CALD.IN     45 280 60 00:   CALIPER
 GRD .GAPI   45 310 01 00:   GAMMA RAY FROM DENSITY LOG
 RHOB.G/C3   45 350 01 00:   BULK DENSITY
 CORR.G/C3   45 356 01 00:   DENSITY CORRECTION
 DPHI.DEC    45 890 12 00:   DENSITY POROSITY SANDSTONE
 SPR .MV     05 010 01 00:   SPONTANEOUS POTENTIAL FROM RES.
 SN  .OHMM   05 040 16 00:   SHORT NORMAL 16"
 ILD .OHMM   05 120 46 00:   INDUCTION LOG DEEP
~PARAMETER INFORMATION
#MNEM.UNIT          VALUE    DESCRIPTION
#----------   ------------   ------------------------------
 PD  .                 GL:   PERMANENT DATUM
 EPD .F              5367:   ELEVATION PERMANENT DATUM
 LMF .                 KB:   LOG MEASURED FROM
 DMF .                 KB:   DRILLING MEASURED FROM
 EKB .F              5371:   KELLING BUSHING
 EGL .F              5369:   GROUND LEVEL
 DATE.           4-5-1978:   RUN DATE
 RUN .                  1:   RUN NUMBER
 DD  .F              1455:   DEPTH DRILLER
 DL  .F              1446:   DEPTH LOGGER
 BLI .F              1440:   BOTTOM LOG INTERVAL
 TLI .F               100:   TOP LOG INTERVAL
 CS  .IN            8.625:   CASING SIZE
 CBD .F                40:   CASING BOTTOM DRILLER
 BS  .IN            7.875:   BIT SIZE
 BSD .F              1455:   BIT SIZE AT DEPTH
 DFT .                KCL:   DRILLING FLUID TYPE
 DFD .                8.6:   DRILLING FLUID DENSITY
 DFV .                 31:   DRILLING FLUID VISCOSITY
 DFPH.                 10:   DRILLING FLUID PH
 DFL .                8.4:   DRILLING FLUID LOSS
 MSS .           FLOWLINE:   MUD SAMPLE SOURCE
 RMS .OHMM            .95:   RESISTIVITY MUD SAMPLE
 MST .F                54:   MUD SAMPLE TEMPERATURE
 RMF .OHMM            .95:   RESISTIVITY MUD FILTRATE SAMPLE
 MFST.F                62:   MUD FILTRATE SAMPLE TEMPERATURE
 RMC .OHMM             .8:   RESISTIVITY MUD CAKE
 MCST.F                62:   MUD CAKE SAMPLE TEMPERATURE
 MFSS.               MEAS:   MUD FILTRATE SAMPLE SOURCE
 RMB .OHMM            .66:   RESISTIVITY MUD AT BHT
 BHT .F                78:   BOTTOM HOLE TEMPERATURE
 TCS .HRS               6:   TIME CURCULATED STOPPED
 MRT .F                78:   MAXIMUM RECORDED TEMPERATURE
 LUN .               2958:   LOGGING UNIT NUMBER
 LUL .               CASP:   LOGGING UNIT LOCATION
 ENGI.             MILLER:   RECORDING ENGINEER
 WITN.           MCGINLEY:   WITNESSED BY
 CLNT.            A2DTECH:   CLIENT CODE
 ORIG.        2" 5" PRINT:   ORIGIN OF DATA
 UWI .       490251060800:   UNIQUE WELL ID
 DICO. A2D Technologies, Inc.:   DIGITIZING COMPANY
~OTHER INFORMATION
~A   DEPT     CALD         GRD      RHOB       CORR       DPHI        SPR         SN        ILD   
# ...
 1408.0000     7.9210    83.4361     2.4492     0.0202     0.1090   -47.5443     7.6718     5.8745
 1408.5000     7.9154    83.0063     2.4531     0.0202     0.1116   -47.4875     8.5040     6.6473
 1409.0000     7.9099    81.6307     2.4557     0.0202     0.1143   -47.4300     8.9385     7.3677
 1409.5000     7.9044    80.9410     2.4599     0.0202     0.1141   -47.0827     9.4085     7.8379
 1410.0000     7.8988    82.0647     2.4563     0.0216     0.1109   -46.5787     9.6381     8.1311
 1410.5000     7.8934    82.2933     2.4524     0.0250     0.1090   -45.1823     9.8098     8.1597
 1411.0000     7.8937    82.3033     2.4554     0.0284     0.1050   -43.8236     9.9844     8.1882
 1411.5000     7.9033    82.5852     2.4595     0.0318     0.0980   -43.0164    10.1131     8.2167
 1412.0000     7.9128    84.0763     2.4752     0.0352     0.0911   -42.3981    10.2195     8.2454
 1412.5000     7.9223    84.3814     2.4926     0.0382     0.0843   -42.3191    10.3267     8.2713
 1413.0000     7.9319    84.4625     2.4943     0.0383     0.0775   -42.1548    10.4478     8.4200
 1413.5000     7.9416    85.2699     2.5024     0.0382     0.0802   -40.7476    10.6711     8.6358
 1414.0000     7.9490    86.3761     2.5121     0.0353     0.0848   -40.0205    10.8991     8.8570
 1414.5000     7.9292    85.9969     2.5052     0.0265     0.0887   -40.0540    11.1319     9.0839
 1415.0000     7.9096    84.9426     2.4938     0.0261     0.0913   -40.0851    11.3358     9.3166
 1415.5000     7.8902    84.6512     2.4826     0.0263     0.0915   -40.1177    11.3839     9.4875
 1416.0000     7.8708    84.5501     2.4816     0.0333     0.0838   -40.1494    11.4332     9.6131
 1416.5000     7.8675    84.4595     2.4881     0.0500     0.0785   -40.1817    11.5692     9.7405
 1417.0000     7.8652    84.3590     2.5039     0.0452     0.0737   -40.2195    11.6459     9.8696
 1417.5000     7.8628    83.8957     2.5123     0.0372     0.0821   -39.9731    11.5614    10.0001
 1418.0000     7.8604    81.4963     2.4974     0.0291     0.0862   -39.6580    11.4937    10.0449
 1418.5000     7.8579    76.8729     2.4866     0.0305     0.0883   -39.3379    11.4261    10.0192
 1419.0000     7.8555    75.1877     2.4865     0.0339     0.0887   -39.2370    11.3277     9.9996
 1419.5000     7.8530    73.9705     2.4865     0.0388     0.0885   -39.2568    11.3380     9.9797
 1420.0000     7.8506    70.9029     2.4907     0.0469     0.0844   -39.2790    11.3609     9.9515
 1420.5000     7.8481    70.4926     2.4986     0.0498     0.0792   -39.3013    11.3832    10.0157
 1421.0000     7.8457    74.6404     2.5068     0.0422     0.0769   -39.3233    11.4055    10.1375
 1421.5000     7.8432    73.9289     2.4977     0.0348     0.0851   -39.3453    11.4279    10.3283
 1422.0000     7.8408    72.5508     2.4848     0.0309     0.0911   -39.3669    11.4495    10.5856
 1422.5000     7.8384    73.8028     2.4826     0.0342     0.0971   -39.3894    11.4710    10.8493
 1423.0000     7.8359    75.6353     2.4749     0.0335     0.1018   -39.4093    11.4927    11.1194
 1423.5000     7.8335    76.4786     2.4655     0.0330     0.1062   -39.7489    11.5142    11.3268
 1424.0000     7.8310    75.7663     2.4595     0.0323     0.1024   -40.3364    11.5382    11.2035
 1424.5000     7.8319    74.7757     2.4693     0.0379     0.1006   -40.8327    11.4600    11.1052
 1425.0000     7.8352    75.3084     2.4666     0.0402     0.0990   -40.8907    11.3712    11.0173
 1425.5000     7.8384    75.3010     2.4749     0.0403     0.0972   -40.9607    11.2817    10.8058
 1426.0000     7.8417    75.3002     2.4704     0.0427     0.1019   -41.0257    11.2120    10.7215
 1426.5000     7.8450    75.3000     2.4677     0.0508     0.0957   -41.2001    11.1762    10.6172
 1427.0000     7.8481    75.2956     2.4768     0.0525     0.0914   -41.3807    11.1411    10.6736
 1427.5000     7.8446    75.2975     2.4858     0.0477     0.0886   -41.5558    11.1199    10.7491
 1428.0000     7.8329    75.3425     2.4870     0.0429     0.0950   -41.9302    11.1598    10.8251
 1428.5000     7.8212    77.5713     2.4739     0.0380     0.0997   -42.3862    11.1891    10.9159
 1429.0000     7.8094    82.3550     2.4734     0.0363     0.1015   -42.6568    11.2230    10.6323
 1429.5000     7.7979    83.7302     2.4706     0.0362     0.1017   -42.7587    11.1010    10.2944
 1430.0000     7.7911    79.6139     2.4650     0.0362     0.0995   -42.9951    10.9560     9.9672
 1430.5000     7.7951    80.6429     2.4703     0.0362     0.0973  -999.2500    10.8128     9.8601
 1431.0000     7.7989    81.6965     2.4789     0.0362     0.0973  -999.2500    10.6715     9.8601
 1431.5000     7.8028    80.5504     2.4734     0.0363     0.0985  -999.2500    10.5195     9.8601
 1432.0000     7.8066    81.6915     2.4602     0.0474     0.0944  -999.2500    10.4473     9.7865
 1432.5000     7.8104    83.0577     2.4779     0.0598     0.0962  -999.2500    10.3684     9.5593
 1433.0000     7.8142    85.1435     2.4788     0.0640     0.0959  -999.2500    10.2901     9.3374
 1433.5000     7.8181    83.0939     2.4779     0.0681     0.0993  -999.2500    10.2124     9.1201
 1434.0000     7.8219    81.5404     2.4677     0.0811     0.0964  -999.2500    10.1354     8.9224
 1434.5000     7.8258    78.3317     2.4808     0.1050     0.0930  -999.2500    10.0589     8.7482
 1435.0000     7.8299    80.7655     2.4875     0.1057     0.0975  -999.2500    10.0442     8.5835
 1435.5000     7.8179    83.5659     2.4782     0.1088     0.0994  -999.2500    10.0838     8.6512
 1436.0000     7.8040    83.1212     2.4723     0.1211     0.1010  -999.2500    10.1165     8.7426
 1436.5000     7.7902    78.3148     2.4625     0.1331     0.1038  -999.2500    10.1494     8.6875
 1437.0000     7.7764  -999.2500     2.4629     0.1451     0.0989  -999.2500    10.1823     8.6035
 1437.5000     7.7489  -999.2500     2.4730     0.1575     0.0939  -999.2500    10.2317     8.5202
 1438.0000     7.7097  -999.2500     2.4839     0.1584     0.0913  -999.2500    10.1992     8.4378
 1438.5000     7.6708  -999.2500     2.4736     0.1228     0.1187  -999.2500    10.1351     8.3562
 1439.0000     7.6451  -999.2500     2.4321     0.0944     0.1407  -999.2500    10.0445     8.2713
 1439.5000     7.6210  -999.2500     2.3874     0.1115     0.1712  -999.2500    10.1205     8.3241
 1440.0000     7.5142  -999.2500     2.3518     0.1473     0.1796  -999.2500    10.2623     8.3802
 1440.5000     7.2936  -999.2500     2.3404     0.1850     0.1772  -999.2500    10.4049  -999.2500
 1441.0000     6.9914  -999.2500     2.3427     0.2145     0.1758  -999.2500  -999.2500  -999.2500
 1441.5000     6.9235  -999.2500     2.3314     0.1896     0.2119  -999.2500  -999.2500  -999.2500
 1442.0000     6.9025  -999.2500     2.2703     0.1844     0.2614  -999.2500  -999.2500  -999.2500
 1442.5000     6.7386  -999.2500     2.1710     0.2023     0.2850  -999.2500  -999.2500  -999.2500
 1443.0000     6.4175  -999.2500     2.1717     0.2033     0.2806  -999.2500  -999.2500  -999.2500
 1443.5000     6.0807  -999.2500     2.1749     0.2017     0.2811  -999.2500  -999.2500  -999.2500
 1444.0000     5.9454  -999.2500     2.1749  -999.2500     0.2832  -999.2500  -999.2500  -999.2500
 1444.5000  -999.2500  -999.2500     2.1677  -999.2500     0.2840  -999.2500  -999.2500  -999.2500
 1445.0000  -999.2500  -999.2500  -999.2500  -999.2500     0.2797  -999.2500  -999.2500  -999.2500
 1445.5000  -999.2500  -999.2500  -999.2500  -999.2500     0.2794  -999.2500  -999.2500  -999.2500
 1446.0000  -999.2500  -999.2500     2.1679  -999.2500     0.2794  -999.2500  -999.2500  -999.2500
 1446.5000  -999.2500  -999.2500     2.1679  -999.2500     0.2794  -999.2500  -999.2500  -999.2500
 1447.0000  -999.2500  -999.2500     2.1679  -999.2500     0.2794  -999.2500  -999.2500  -999.2500
 1447.5000  -999.2500  -999.2500     2.1679  -999.2500     0.2794  -999.2500  -999.2500  -999.2500
 1448.0000  -999.2500  -999.2500     2.1679  -999.2500     0.2794  -999.2500  -999.2500  -999.2500
