~VERSION INFORMATION
 VERS.                2.0:   CWLS LOG ASCII STANDARD - VERSION 2.0
 WRAP.                 NO:   ONE LINE PER DEPTH STEP
~WELL INFORMATION
#MNEM.UNIT      DATA TYPE    INFORMATION
#----------   ------------   ------------------------------
 STRT.F           16.0000:   START DEPTH
 STOP.F         2438.0000:   STOP DEPTH
 STEP.F            0.5000:   STEP LENGTH
 NULL.          -999.2500:   NO VALUE
 COMP. FENIX & SCISSON INC:   COMPANY
 WELL.      15 SHX #27-27:   WELL
 FLD .             TEAPOT:   FIELD
 LOC .      S27 T39N R78W:   LOCATION
 CNTY.            NATRONA:   COUNTY
 STAT.            WYOMING:   STATE
 CTRY. UNITED STATES OF AMERICA:   COUNTRY
 SRVC.            Unknown:   SERVICE COMPANY
 DATE.        09-JUN-1978:   LOGDATE
 API .       490251064100:   API NUMBER
~CURVE INFORMATION
#MNEM.UNIT       API CODE    CURVE DESCRIPTION
#----------   ------------   ------------------------------
 DEPT.F                  :   
 CALD.IN     45 280 60 00:   CALIPER FROM DENSITY LOG
 GRD .GAPI   45 310 01 00:   GAMMA RAY FROM DENSITY LOG
 CORR.G/C3   45 356 01 00:   DENSITY CORRECTION
 RHOB.G/C3   45 350 01 00:   BULK DENSITY
 DPHI.DEC    45 890 10 00:   DENSITY POROSITY LIMESTONE
~PARAMETER INFORMATION
#MNEM.UNIT          VALUE    DESCRIPTION
#----------   ------------   ------------------------------
 PD  .                 GL:   PERMANENT DATUM
 EPD .F              5062:   ELEVATION PERMANENT DATUM
 LMF .                 KB:   LOG MEASURED FROM
 DAPD.F                10:   FEET ABOVE PERMANENT DATUM
 DMF .                 KB:   DRILLING MEASURED FROM
 EKB .F              5072:   KELLING BUSHING
 EGL .F              5062:   GROUND LEVEL
 DATE.        09-JUN-1978:   RUN DATE
 RUN .                  1:   RUN NUMBER
 DD  .F              2450:   DEPTH DRILLER
 DL  .F              2445:   DEPTH LOGGER
 BLI .F              2438:   BOTTOM LOG INTERVAL
 TLI .F                10:   TOP LOG INTERVAL
 CS  .IN            9.625:   CASING SIZE
 CBD .F               688:   CASING BOTTOM DRILLER
 CBL .F               694:   CASING BOTTOM LOGGER
 BS  .IN             8.75:   BIT SIZE
 BSD .F              2450:   BIT SIZE AT DEPTH
 DFT .           AIR MIST:   DRILLING FLUID TYPE
 TCS .HRS               1:   TIME CURCULATED STOPPED
 LUN .               2958:   LOGGING UNIT NUMBER
 LUL .                CPR:   LOGGING UNIT LOCATION
 ENGI.             MILLER:   RECORDING ENGINEER
 WITN.           MCGINLEY:   WITNESSED BY
 CLNT.            A2DTECH:   CLIENT CODE
 ORIG.           5" PRINT:   ORIGIN OF DATA
 UWI .       490251064100:   UNIQUE WELL ID
 DICO. A2D Technologies, Inc.:   DIGITIZING COMPANY
~OTHER INFORMATION
~A   DEPT     CALD         GRD      CORR       RHOB       DPHI   
# ...
 2395.0000     8.9373    71.1060    -0.0188     2.5340     0.0359
 2395.5000     9.0619    74.2596    -0.0187     2.5263     0.0358
 2396.0000     9.1406    75.7581    -0.0186     2.5195     0.0361
 2396.5000     9.1885    76.3920    -0.0200     2.5204     0.0364
 2397.0000     9.1577    77.0260    -0.0307     2.5089     0.0376
 2397.5000     9.0519    78.5816    -0.0414     2.4874     0.0551
 2398.0000     8.9796    83.8238    -0.0428     2.4451     0.0693
 2398.5000     8.9662    84.1505    -0.0348     2.4413     0.0569
 2399.0000     9.1067    76.1822    -0.0121     2.4445     0.0199
 2399.5000     9.1393    75.5868     0.1301     2.5146     0.0039
 2400.0000     9.0798    75.6068     0.1487     2.5900     0.0193
 2400.5000     8.7884    76.9107     0.1025     2.5933     0.0288
 2401.0000     8.7610    81.9967     0.0232     2.5325     0.0334
 2401.5000     8.7468    91.3239    -0.0097     2.5210     0.0383
 2402.0000     8.7640   101.3236    -0.0297     2.5010     0.0331
 2402.5000     8.7498   103.6429     0.0028     2.4933     0.0300
 2403.0000     8.7670   102.7363     0.0121     2.4996     0.0173
 2403.5000     8.8299    95.0708     0.0569     2.5043     0.0084
 2404.0000     9.0461    86.7910     0.1140     2.5783     0.0087
 2404.5000     9.1089    78.8183     0.1187     2.6269     0.0154
 2405.0000     8.9571    76.0684     0.0742     2.6197     0.0320
 2405.5000     8.7737    73.9330    -0.0028     2.5757     0.0342
 2406.0000     8.7453    68.5717    -0.0058     2.5354     0.0342
 2406.5000     8.7779    68.7557    -0.0057     2.5246     0.0342
 2407.0000     8.7947    75.1364    -0.0056     2.5208     0.0341
 2407.5000     8.8116    80.8040    -0.0055     2.5317     0.0344
 2408.0000     8.8744    82.1496    -0.0054     2.5371     0.0347
 2408.5000     8.9219    77.0993    -0.0055     2.5380     0.0350
 2409.0000     8.9694    74.8102    -0.0067     2.5380     0.0350
 2409.5000     8.9863    74.3607    -0.0097     2.5358     0.0347
 2410.0000     8.9724    74.0686    -0.0112     2.5297     0.0347
 2410.5000     8.7282    72.5513    -0.0111     2.5228     0.0347
 2411.0000     8.6687    75.4850    -0.0110     2.5175     0.0346
 2411.5000     8.8086    77.4970    -0.0109     2.5137     0.0349
 2412.0000     8.8408    74.5929    -0.0108     2.5137     0.0355
 2412.5000     8.8423    78.4487    -0.0107     2.5146     0.0377
 2413.0000     8.8437    79.2320    -0.0137     2.5138     0.0444
 2413.5000     8.8606    78.4181    -0.0336     2.4869     0.0543
 2414.0000     8.9081    76.4705    -0.0535     2.4392     0.0821
 2414.5000     8.9096    77.8983    -0.0750     2.3961     0.1245
 2415.0000     8.8651    77.9134    -0.0842     2.3429     0.1663
 2415.5000     8.8666    77.9285    -0.0872     2.2824     0.2080
 2416.0000     8.9152    82.2446    -0.0717     2.2130     0.2265
 2416.5000     8.9974    81.6453     0.2696     2.2068     0.2092
 2417.0000     9.2242    72.9046     0.4324     2.8510    -0.0061
 2417.5000     9.7012    68.6186     0.2938     2.7537     0.0278
 2418.0000     9.2885    68.1728     0.0894     2.5468     0.0320
 2418.5000     8.9833    73.4106     0.0105     2.5368     0.0295
 2419.0000     8.9234    80.9525     0.0106     2.5407     0.0307
 2419.5000     8.8483    78.8074     0.0107     2.5562     0.0319
 2420.0000     8.8037    79.1741     0.0062     2.5539     0.0325
 2420.5000     8.7592    80.3871     0.0016     2.5462     0.0325
 2421.0000     8.7454    79.9413    -0.0014     2.5399     0.0325
 2421.5000     8.7469    77.6522    -0.0012     2.5441     0.0325
 2422.0000     8.7488    75.3632    -0.0027     2.5449     0.0321
 2422.5000     8.7503    77.2215    -0.0026     2.5388     0.0321
 2423.0000     8.7518    77.6974    -0.0025     2.5389     0.0318
 2423.5000     8.7533    77.5589    -0.0024     2.5451     0.0318
 2424.0000     8.7548    75.1162    -0.0008     2.5467     0.0318
 2424.5000     8.7562    73.2880    -0.0007     2.5452     0.0314
 2425.0000     8.7577    79.4474    -0.0006     2.5406     0.0311
 2425.5000     8.7592    79.1553    -0.0005     2.5407     0.0311
 2426.0000     8.7607    75.6373    -0.0004     2.5415     0.0314
 2426.5000     8.7623    81.7183    -0.0018     2.5439     0.0339
 2427.0000     8.7791    85.8095    -0.0048     2.5447     0.0348
 2427.5000     8.7652    83.9812    -0.0078     2.5448     0.0347
 2428.0000     8.7054    80.6131    -0.0093     2.5433     0.0344
 2428.5000     8.7226    81.0890    -0.0122     2.5403     0.0341
 2429.0000     8.7241    75.7315    -0.0152     2.5326     0.0347
 2429.5000     8.6336    76.0538    -0.0182     2.5335     0.0359
 2430.0000     8.5887    76.2212    -0.0227     2.5320     0.0371
 2430.5000     8.5905  -999.2500    -0.0257     2.5174     0.0374
 2431.0000     8.3620  -999.2500    -0.0256     2.5105     0.0374
 2431.5000     8.3021  -999.2500    -0.0255     2.5013     0.0377
 2432.0000     8.4151  -999.2500    -0.0254     2.4929     0.0395
 2432.5000     8.4896  -999.2500    -0.0269     2.4907     0.0374
 2433.0000     8.5984  -999.2500    -0.0268     2.4915     0.0383
 2433.5000     8.7226  -999.2500    -0.0267     2.4915     0.0420
 2434.0000     8.5554  -999.2500    -0.0266     2.4834     0.0493
 2434.5000     8.5258  -999.2500    -0.0219     2.4552     0.0574
 2435.0000     8.5584  -999.2500    -0.0125     2.4409     0.0674
 2435.5000     8.8053  -999.2500    -0.0001     2.4217     0.0884
 2436.0000     8.9602  -999.2500     0.0077     2.4002     0.0967
 2436.5000     8.8390  -999.2500     0.0325     2.3987     0.0949
 2437.0000     8.6383  -999.2500     0.0572     2.4049     0.0871
 2437.5000     8.5202  -999.2500     0.1004     2.4134     0.0807
 2438.0000     8.5215  -999.2500     0.1192     2.4143     0.0797
