~VERSION INFORMATION
 VERS.                2.0:   CWLS LOG ASCII STANDARD - VERSION 2.0
 WRAP.                 NO:   ONE LINE PER DEPTH STEP
~WELL INFORMATION
#MNEM.UNIT      DATA TYPE    INFORMATION
#----------   ------------   ------------------------------
 STRT.F          520.5000:   START DEPTH
 STOP.F         3119.5000:   STOP DEPTH
 STEP.F            0.5000:   STEP LENGTH
 NULL.          -999.2500:   NO VALUE
 COMP.   FLUOR DANIEL INC:   COMPANY
 WELL. NAVAL PETROLEUM RESERVE 3 X-10 #52-10:   WELL
 FLD .            WILDCAT:   FIELD
 LOC .      S10 T38N R78W:   LOCATION
 CNTY.            NATRONA:   COUNTY
 STAT.            WYOMING:   STATE
 CTRY. UNITED STATES OF AMERICA:   COUNTRY
 SRVC.            Unknown:   SERVICE COMPANY
 DATE.        16-AUG-1995:   LOGDATE
 API .       490252275200:   API NUMBER
~CURVE INFORMATION
#MNEM.UNIT       API CODE    CURVE DESCRIPTION
#----------   ------------   ------------------------------
 DEPT.F                  :   
 ROP .MIN/FT 91 810 01 00:   RAT OF DRILLING PENETRATION
 TGAS.UNITS  91 830 01 00:   TOTAL GAS FROM HOTWIRE
~PARAMETER INFORMATION
#MNEM.UNIT          VALUE    DESCRIPTION
#----------   ------------   ------------------------------
 EKB .F              5206:   KELLING BUSHING
 EGL .F              5196:   GROUND LEVEL
 DATE.            8-16-95:   RUN DATE
 DD  .F              3120:   DEPTH DRILLER
 CS  .IN            9.625:   CASING SIZE
 CBD .F               508:   CASING BOTTOM DRILLER
 BS  .IN             8.75:   BIT SIZE
 BSD .F              3120:   BIT SIZE AT DEPTH
 ENGI.               HUSK:   RECORDING ENGINEER
 WITN.              TOWER:   WITNESSED BY
 CLNT.            A2DTECH:   CLIENT CODE
 ORIG.           5" PRINT:   ORIGIN OF DATA
 UWI .       490252275200:   UNIQUE WELL ID
 DICO. A2D Technologies, Inc.:   DIGITIZING COMPANY
~OTHER INFORMATION
~A   DEPT        ROP     TGAS   
# ...
 2100.0000     0.5351    54.2443
 2100.5000     0.5336    53.8901
 2101.0000     0.5324    53.8869
 2101.5000     0.5421    53.8834
 2102.0000     0.5407    53.8800
 2102.5000     0.5395    53.8765
 2103.0000     0.5384    53.8731
 2103.5000     0.5372    53.8696
 2104.0000     0.5360    53.8662
 2104.5000     0.5348    53.8627
 2105.0000     0.5443    53.8593
 2105.5000     0.5428    53.8558
 2106.0000     0.5416    53.8524
 2106.5000     0.5405    53.8489
 2107.0000     0.5393    53.8455
 2107.5000     0.5381    53.8421
 2108.0000     0.5370    53.8386
 2108.5000     0.5358    53.8352
 2109.0000     0.5346    53.8317
 2109.5000     0.5335    53.8283
 2110.0000     0.5323    53.8248
 2110.5000     0.5311    53.8214
 2111.0000     0.5299    53.8179
 2111.5000     0.5285    53.8145
 2112.0000     0.4956    53.8110
 2112.5000     0.4097    53.8076
 2113.0000     0.4085    53.8041
 2113.5000     0.4073    53.8007
 2114.0000     0.4062    53.7972
 2114.5000     0.4050    53.7938
 2115.0000     0.4038    53.7903
 2115.5000     0.4027    53.7869
 2116.0000     0.4015    53.7834
 2116.5000     0.4003    53.7800
 2117.0000     0.4097    53.7765
 2117.5000     0.4083    53.7731
 2118.0000     0.4180    53.7697
 2118.5000     0.4059    53.7662
 2119.0000     0.4157    53.7628
 2119.5000     0.4142    53.7593
 2120.0000     0.4130    53.7559
 2120.5000     0.4024    53.7524
 2121.0000     0.4023    53.7490
 2121.5000     0.3915    53.7455
 2122.0000     0.3914    53.7421
 2122.5000     0.3913    53.7386
 2123.0000     0.3911    53.7352
 2123.5000     0.3910    53.7317
 2124.0000     0.3909    53.7283
 2124.5000     0.3908    53.7248
 2125.0000     0.3906    53.7214
 2125.5000     0.3905    53.7179
 2126.0000     0.3903    53.7145
 2126.5000     0.3902    53.7110
 2127.0000     0.3901    53.7076
 2127.5000     0.3900    53.7041
 2128.0000     0.3898    53.7007
 2128.5000     0.3897    53.6973
 2129.0000     0.3896    53.6938
 2129.5000     0.3894    53.6904
 2130.0000     0.3893    53.6869
 2130.5000     0.3891    53.6835
 2131.0000     0.3890    53.6800
 2131.5000     0.3889    53.6766
 2132.0000     0.3888    53.6731
 2132.5000     0.3886    53.6697
 2133.0000     0.3885    53.6662
 2133.5000     0.3884    53.6628
 2134.0000     0.3882    53.6593
 2134.5000     0.3881    53.6559
 2135.0000     0.3880    53.6524
 2135.5000     0.3772    53.6490
 2136.0000     0.3771    53.6455
 2136.5000     0.3876    53.6421
 2137.0000     0.3874    53.6386
 2137.5000     0.3873    53.6352
 2138.0000     0.3872    53.6317
 2138.5000     0.3870    53.6283
 2139.0000     0.3869    53.6249
 2139.5000     0.3868    53.6214
 2140.0000     0.3866    53.6180
 2140.5000     0.3865    53.6145
 2141.0000     0.3864    53.6111
 2141.5000     0.3862    53.6076
 2142.0000     0.3861    53.6042
 2142.5000     0.3860    53.6007
 2143.0000     0.3859    53.5973
 2143.5000     0.3857    53.5938
 2144.0000     0.3856    53.5904
 2144.5000     0.3854    53.5869
 2145.0000     0.3853    53.5835
 2145.5000     0.3852    53.5800
 2146.0000     0.3851    53.5766
 2146.5000     0.3849    53.5731
 2147.0000     0.3848    53.5697
 2147.5000     0.3847    53.5662
 2148.0000     0.3845    53.5628
 2148.5000     0.3844    53.5593
 2149.0000     0.3949    53.5559
 2149.5000     0.3841    53.5525
 2150.0000     0.3840    53.5490
 2150.5000     0.3839    53.5456
 2151.0000     0.3837    53.5421
 2151.5000     0.3836    53.5387
 2152.0000     0.3835    53.5352
 2152.5000     0.3833    53.5318
 2153.0000     0.3832    53.5283
 2153.5000     0.3831    53.5249
 2154.0000     0.3829    53.5214
 2154.5000     0.3828    53.5180
 2155.0000     0.3827    53.5145
 2155.5000     0.3825    53.5111
 2156.0000     0.3930    53.5076
 2156.5000     0.3929    53.5042
 2157.0000     0.3927    53.5007
 2157.5000     0.3926    53.4973
 2158.0000     0.3925    53.4938
 2158.5000     0.3923    53.4904
 2159.0000     0.3922    53.4869
 2159.5000     0.3921    53.4835
 2160.0000     0.4247    53.4800
 2160.5000     0.4768    53.4766
 2161.0000     0.4770    53.4732
 2161.5000     0.4771    53.4697
 2162.0000     0.4772    53.4663
 2162.5000     0.4774    53.4628
 2163.0000     0.4881    53.4594
 2163.5000     0.4882    53.4559
 2164.0000     0.4884    53.4525
 2164.5000     0.4885    53.4490
 2165.0000     0.4886    53.4456
 2165.5000     0.4888    53.4421
 2166.0000     0.4889    53.4387
 2166.5000     0.4890    53.4352
 2167.0000     0.4891    53.4318
 2167.5000     0.4893    53.4283
 2168.0000     0.4894    53.4249
 2168.5000     0.4896    53.4214
 2169.0000     0.4897    53.4180
 2169.5000     0.4898    53.4145
 2170.0000     0.4899    53.4111
 2170.5000     0.4901    53.4076
 2171.0000     0.4902    53.4042
 2171.5000     0.4904    53.4008
 2172.0000     0.4905    53.3973
 2172.5000     0.4906    53.3939
 2173.0000     0.4907    53.3904
 2173.5000     0.4909    53.3870
 2174.0000     0.4910    53.3835
 2174.5000     0.4911    53.3801
 2175.0000     0.4913    53.3766
 2175.5000     0.4914    53.3732
 2176.0000     0.4915    53.3697
 2176.5000     0.4917    53.3663
 2177.0000     0.5024    53.3628
 2177.5000     0.5025    53.3594
 2178.0000     0.5026    53.3559
 2178.5000     0.5028    53.3525
 2179.0000     0.5029    53.3490
 2179.5000     0.5031    53.3456
 2180.0000     0.4926    53.3421
 2180.5000     0.4927    53.3387
 2181.0000     0.4929    53.3353
 2181.5000     0.4824    53.3318
 2182.0000     0.4931    53.3284
 2182.5000     0.4826    53.3249
 2183.0000     0.4828    53.3215
 2183.5000     0.4829    53.3180
 2184.0000     0.4831    53.3146
 2184.5000     0.4832    53.3111
 2185.0000     0.4833    53.3077
 2185.5000     0.4835    53.3042
 2186.0000     0.4836    53.3008
 2186.5000     0.4837    53.2973
 2187.0000     0.4839    53.2939
 2187.5000     0.4840    53.2904
 2188.0000     0.4841    53.2870
 2188.5000     0.4843    53.2835
 2189.0000     0.4844    53.2801
 2189.5000     0.4845    53.2766
 2190.0000     0.4846    53.2732
 2190.5000     0.4848    53.2697
 2191.0000     0.4849    53.2663
 2191.5000     0.4851    53.2629
 2192.0000     0.4852    54.4785
 2192.5000     0.4853    57.9403
 2193.0000     0.4854    61.0053
 2193.5000     0.4856    64.5811
 2194.0000     0.4857    68.2448
 2194.5000     0.4859    70.0533
 2195.0000     0.4860    70.4049
 2195.5000     0.4861    70.4419
 2196.0000     0.4968    70.4789
 2196.5000     0.4863    70.5227
 2197.0000     0.4971    68.4460
 2197.5000     0.4974    66.3693
 2198.0000     0.5079    64.2926
 2198.5000     0.5081    57.9906
 2199.0000     0.5188    55.9139
 2199.5000     0.5295    55.9499
 2200.0000     0.5403    55.9859
 2200.5000     0.5401    54.9379
 2201.0000     0.5400    53.9452
 2201.5000     0.5399    53.9842
 2202.0000     0.5397    54.0211
 2202.5000     0.5396    54.0581
 2203.0000     0.5394    54.0951
 2203.5000     0.5393    54.1277
 2204.0000     0.5392    54.1411
 2204.5000     0.5390    54.1546
 2205.0000     0.5389    54.1680
 2205.5000     0.5388    54.1814
 2206.0000     0.5387    54.1949
 2206.5000     0.5491    54.2083
 2207.0000     0.5490    54.2218
 2207.5000     0.5489    54.2352
 2208.0000     0.5487    54.2486
 2208.5000     0.5486    54.2621
 2209.0000     0.5485    54.2755
 2209.5000     0.5589    54.2889
 2210.0000     0.5588    54.3024
 2210.5000     0.5586    54.3158
 2211.0000     0.5479    54.3292
 2211.5000     0.5478    54.3427
 2212.0000     0.5477    54.3561
 2212.5000     0.5581    54.3695
 2213.0000     0.5580    54.3830
 2213.5000     0.5579    54.3964
 2214.0000     0.5577    54.4099
 2214.5000     0.5576    54.4233
 2215.0000     0.5575    54.4367
 2215.5000     0.5573    54.4502
 2216.0000     0.5572    54.4636
 2216.5000     0.5571    54.4770
 2217.0000     0.5569    54.4905
 2217.5000     0.5568    54.5039
 2218.0000     0.5566    54.5173
 2218.5000     0.5565    54.5308
 2219.0000     0.5564    54.5442
 2219.5000     0.5563    54.5577
 2220.0000     0.5561    54.5711
 2220.5000     0.5454    54.5845
 2221.0000     0.5559    54.5980
