~VERSION INFORMATION
 VERS.                2.0:   CWLS LOG ASCII STANDARD - VERSION 2.0
 WRAP.                 NO:   ONE LINE PER DEPTH STEP
~WELL INFORMATION
#MNEM.UNIT      DATA TYPE    INFORMATION
#----------   ------------   ------------------------------
 STRT.F           60.0000:   START DEPTH
 STOP.F          945.0000:   STOP DEPTH
 STEP.F            0.5000:   STEP LENGTH
 NULL.          -999.2500:   NO VALUE
 COMP.          U.S. NAVY:   COMPANY
 WELL. RES 3 TEAPOT DOM #48S-35:   WELL
 FLD .           TEAPOT E:   FIELD
 LOC .      S35 T39N R78W:   LOCATION
 CNTY.            NATRONA:   COUNTY
 STAT.            WYOMING:   STATE
 CTRY. UNITED STATES OF AMERICA:   COUNTRY
 SRVC.       Schlumberger:   SERVICE COMPANY
 DATE.        15-JUL-1964:   LOGDATE
 API .       490250649200:   API NUMBER
~CURVE INFORMATION
#MNEM.UNIT       API CODE    CURVE DESCRIPTION
#----------   ------------   ------------------------------
 DEPT.F                  :   
 SPR .MV     05 010 01 00:   SPONTANEOUS POTENTIAL FROM RES.
 ILD .OHMM   05 120 46 00:   INDUCTION LOG DEEP
 ASN .OHMM   05 041 18 00:   AMPLIFIED SHORT NORMAL 18"
 CILD.MMHO   05 110 46 00:   CONDUCTIVITY INDUCTION LOG DEEP
 CALS.IN     60 280 50 00:   CALIPER FROM SONIC LOG
 DT  .US/F   60 520 00 00:   INTERVAL TRANSIT TIME
 GR  .GAPI   30 310 01 00:   GAMMA RAY
~PARAMETER INFORMATION
#MNEM.UNIT          VALUE    DESCRIPTION
#----------   ------------   ------------------------------
 PD  .                 GL:   PERMANENT DATUM
 EPD .F              5123:   ELEVATION PERMANENT DATUM
 LMF .                 KB:   LOG MEASURED FROM
 DAPD.F                 5:   FEET ABOVE PERMANENT DATUM
 DMF .                 KB:   DRILLING MEASURED FROM
 EKB .F              5128:   KELLING BUSHING
 EGL .F              5123:   GROUND LEVEL
 DATE.        15-JUL-1964:   RUN DATE
 RUN .                  1:   RUN NUMBER
 DD  .F               945:   DEPTH DRILLER
 DL  .F               946:   DEPTH LOGGER
 BLI .F               945:   BOTTOM LOG INTERVAL
 TLI .F                94:   TOP LOG INTERVAL
 CS  .IN            8.625:   CASING SIZE
 CBD .F                10:   CASING BOTTOM DRILLER
 BS  .IN             6.75:   BIT SIZE
 BSD .F               945:   BIT SIZE AT DEPTH
 DFT .                GEL:   DRILLING FLUID TYPE
 DFD .                9.5:   DRILLING FLUID DENSITY
 DFV .                 44:   DRILLING FLUID VISCOSITY
 DFPH.                8.0:   DRILLING FLUID PH
 DFL .               10.5:   DRILLING FLUID LOSS
 MSS .           FLOWLINE:   MUD SAMPLE SOURCE
 RMS .OHMM           3.37:   RESISTIVITY MUD SAMPLE
 MST .F                74:   MUD SAMPLE TEMPERATURE
 RMF .OHMM           2.97:   RESISTIVITY MUD FILTRATE SAMPLE
 MFST.F                78:   MUD FILTRATE SAMPLE TEMPERATURE
 MFSS.                 FP:   MUD FILTRATE SAMPLE SOURCE
 TCS .HRS             1.5:   TIME CURCULATED STOPPED
 MRT .F       T. L. T. M.:   MAXIMUM RECORDED TEMPERATURE
 LUN .               3527:   LOGGING UNIT NUMBER
 LUL .               CSPR:   LOGGING UNIT LOCATION
 ENGI.            WINKLER:   RECORDING ENGINEER
 WITN.          JORGENSEN:   WITNESSED BY
 CLNT.            A2DTECH:   CLIENT CODE
 ORIG.           2" PRINT:   ORIGIN OF DATA
 UWI .       490250649200:   UNIQUE WELL ID
 DICO. A2D Technologies, Inc.:   DIGITIZING COMPANY
~OTHER INFORMATION
~A   DEPT      SPR        ILD        ASN       CILD         CALS       DT         GR   
# ...
  606.0000   -44.0690     7.2147     9.0661   137.7893     6.7003   100.4599    96.5847
  606.5000   -44.0682     7.2159     9.0125   138.5376     6.6996   100.1621    96.1206
  607.0000   -44.0675     7.2174     8.9511   138.9695     6.6989    99.7144    90.0970
  607.5000   -44.0667     7.2189     8.9039   139.2813     6.6829    99.5663    90.8402
  608.0000   -44.0659     7.2204     8.8548   139.2720     6.6821    99.5708    98.0497
  608.5000   -44.0652     7.2220     8.8164   140.3939     6.6663    99.6497    99.6973
  609.0000   -44.0644     7.2234     8.7641   141.6263     6.6505    99.8916    98.4836
  609.5000   -44.0636     7.1498     8.7358   142.2803     6.6193   100.7881   103.1344
  610.0000   -44.0630     7.1516     8.6667   142.5758     6.6186   101.1685   105.6822
  610.5000   -44.0623     7.1199     8.6367   143.0506     6.6179   100.6445   107.0270
  611.0000   -44.0613     7.0735     8.6382   144.5288     6.6020   100.2713   111.3792
  611.5000   -44.0607     7.0060     8.6972   144.7576     6.5860   100.0488   115.1300
  612.0000   -44.0600     7.0075     8.7219   146.0301     6.6006   100.3547   116.6273
  612.5000   -44.0592     7.0090     8.7425   147.2222     6.5997   101.2625   115.7121
  613.0000   -44.0585     7.0105     8.6947   147.6969     6.5990   101.5675   112.3952
  613.5000   -44.0577     7.0120     8.6086   148.2803     6.5983   102.3009   106.3716
  614.0000   -44.1379     7.0136     8.5177   148.2727     6.5974   104.2122   104.7088
  614.5000   -44.3828     7.0150     8.4574   148.2651     6.5967   103.0863   105.6003
  615.0000   -44.6551     7.0315     8.4257   148.2565     6.6113   102.8629   106.9451
  615.5000   -44.6544     7.0931     8.3981   147.9445     6.6104   103.8531   107.5401
  616.0000   -44.6537     7.0944     8.4046   146.6967     6.6095   104.7558   106.7774
  616.5000   -44.6528     7.1049     8.4304   145.2030     6.6088   104.8347   103.7613
  617.0000   -44.6522     7.1726     8.5036   143.2068     6.6081   104.8382    99.6925
  617.5000   -44.6514     7.1739     8.5843   141.4013     6.6073   104.7663    93.0652
  618.0000   -44.8976     7.2503     8.6841   139.7473     6.6065   104.6955    92.9062
  618.5000   -45.1424     7.2522     8.7814   138.0178     6.6057   104.6991    94.5517
  619.0000   -45.2488     7.3283     8.8838   136.8327     6.6050   104.5520    96.9491
  619.5000   -45.0140     7.4048     8.9999   136.0682     6.6043   104.2541   102.0533
  620.0000   -44.9475     7.4512     9.1381   136.0606     6.6034   103.7152   103.0995
  620.5000   -44.9467     7.4827     9.2254   136.0520     6.5876   102.7550   100.9813
  621.0000   -45.0960     7.4094     9.1955   136.3535     6.5717   102.2310   100.8223
  621.5000   -45.2796     7.3718     9.1739   136.8609     6.5256   102.0076   100.0618
  622.0000   -45.9939     7.3253     9.1168   138.3031     6.4794   101.8614    94.0381
  622.5000   -45.8433     7.2639     9.0458   139.0545     6.5089   101.7896    97.4881
  623.0000   -45.8381     7.1574     8.9954   141.3180     6.5537   102.0201    99.1315
  623.5000   -45.5917     7.0360     8.9409   142.0682     6.5682   103.1540    99.7244
  624.0000   -45.3453     6.9685     8.8865   143.1618     6.5826   104.0619   100.0187
  624.5000   -44.9408     6.9430     8.8428   145.0827     6.5966   104.0576    93.2431
  625.0000   -44.6152     6.8966     8.8063   146.9698     6.5959   103.7685    95.4880
  625.5000   -44.1565     6.8231     8.7531   148.3053     6.5952   103.6958    96.2334
  626.0000   -44.0389     6.7286     8.6957   150.3626     6.6098   103.7003    83.1378
  626.5000   -44.0382     6.6761     8.6416   152.0453     6.6240   103.7792    82.8306
  627.0000   -44.0374     6.6357     8.5534   154.2780     6.6231   103.9344    88.6845
  627.5000   -44.0366     6.5143     8.4353   157.9152     6.6377   104.0133    89.8788
  628.0000   -44.0360     6.4558     8.2817   158.9091     6.6521   104.2429    88.6651
  628.5000   -44.0353     6.4572     8.1721   159.4167     6.6666   104.3972    87.4534
  629.0000   -44.0343     6.3837     8.0708   158.9597     6.6655   104.6379    88.4974
  629.5000   -43.9845     6.4605     8.0070   157.7120     6.6801   104.9327    89.0925
  630.0000   -43.8830     6.4918     8.0496   156.3630     6.6792   105.1624    85.1741
  630.5000   -43.7324     6.6132     8.1773   154.8356     6.6783   105.3920    87.4189
  631.0000   -43.5817     6.6899     8.2635   152.9998     6.6776   105.5463    91.0172
  631.5000   -43.5809     6.7152     8.3493   148.7641     6.6769   105.4000    91.7648
  632.0000   -43.4303     6.7677     8.4180   147.0605     6.6762   104.8761    94.9097
  632.5000   -43.4058     6.8141     8.4706   144.0906     6.6907   104.2768    95.6551
  633.0000   -43.2788     6.9205     8.5293   141.1652     6.6292   103.6775    93.6895
  633.5000   -43.2781     6.9971     8.5837   140.1565     6.4772   103.3052    90.3704
  634.0000   -43.1275     7.0375     8.6410   138.8786     6.4159   103.2325    86.0009
  634.5000   -43.1266     7.0870     8.7068   138.8712     6.4303   103.5384    85.2426
  635.0000   -43.1259     7.2266     8.8093   138.6869     6.5807   103.8434    87.7882
  635.5000   -43.1252     7.2279     8.8792   138.0979     6.6405   104.1625    89.5841
  636.0000   -43.1244     7.2294     8.9447   137.3333     6.6551   104.4543    90.1791
  636.5000   -43.1237     7.2311     8.9779   137.3257     6.6847   104.5323    87.4594
  637.0000   -43.1229     7.1304     9.0051   138.0747     6.6991   104.0092    88.0523
  637.5000   -43.5033     7.0840     9.0053   138.3839     6.6980   103.1839    90.9008
  638.0000   -43.5713     7.0375     8.9672   141.1314     6.6822   102.6608    92.6967
  638.5000   -43.5704     7.0117     8.8959   142.5971     6.6512   102.1369    89.5302
  639.0000   -43.5697     7.0136     8.8255   144.1076     6.6201   101.6883    88.0200
  639.5000   -43.4191     7.0150     8.7978   144.8559     6.5891   101.3151    93.5710
  640.0000   -43.2682     7.0165     8.7658   144.8485     6.5884   101.0073    98.3744
  640.5000   -43.0620     7.0181     8.7509   144.8409     6.5877   100.8701    98.9694
  641.0000   -42.9655     7.0195     8.7510   144.8327     6.5868   100.9499    96.1015
  641.5000   -42.8163     7.0959     8.7512   144.4394     6.5861   100.9534    93.0832
  642.0000   -42.8156     7.1726     8.7607   142.3232     6.5853   101.1108    93.8264
  642.5000   -42.9647     7.2789     8.7704   139.5066     6.5999   101.2629    97.7276
  643.0000   -43.1329     7.4033     8.8117   136.1515     6.5990   101.4172    99.0724
  643.5000   -43.5932     7.6270     8.8810   133.3462     6.6135   101.8729    96.5074
  644.0000   -44.0119     7.7271     8.9803   130.3925     6.6279   102.2533    93.0379
  644.5000   -44.2329     7.8546     9.1725   129.1288     6.6270   102.7099    87.1646
  645.0000   -44.3104     7.9760     9.3033   126.5908     6.6263   103.1656    84.4493
  645.5000   -44.0096     8.1004     9.4374   122.9395     6.6254   103.3198    85.9444
  646.0000   -43.5911     8.2340     9.6234   120.3332     6.6247   103.3234    88.6425
  646.5000   -43.4086     8.3883     9.7560   118.2343     6.6239   102.9381    83.3708
  647.0000   -43.4078     8.5488     9.9092   115.9341     6.6385   102.2764    76.8938
  647.5000   -43.6956     8.7633     9.9379   114.3182     6.6375   101.8279    75.3814
  648.0000   -44.1559     8.8726     9.8581   112.1505     6.6367   101.2285    75.0764
  648.5000   -44.6305     9.0030     9.7743   109.9874     6.6360   100.6293    75.5167
  649.0000   -44.9376     9.1427     9.8914   108.2123     6.6353   100.0308    75.6585
  649.5000   -45.2031     9.2729    10.1793   104.5516     6.6344    99.4315    73.2395
  650.0000   -45.4273     9.4453    10.4505   102.5253     6.6339    99.0574    66.9161
  650.5000   -45.5016     9.4948    10.5965    99.9923     6.6214    99.1034    65.8562
  651.0000   -45.5006     9.6192    10.7676    98.3082     6.6089    99.0596    66.9016
