~VERSION INFORMATION
 VERS.                2.0:   CWLS LOG ASCII STANDARD - VERSION 2.0
 WRAP.                 NO:   ONE LINE PER DEPTH STEP
~WELL INFORMATION
#MNEM.UNIT      DATA TYPE    INFORMATION
#----------   ------------   ------------------------------
 STRT.F           28.0000:   START DEPTH
 STOP.F          494.0000:   STOP DEPTH
 STEP.F            0.5000:   STEP LENGTH
 NULL.          -999.2500:   NO VALUE
 COMP.    FENIX & SCISSON:   COMPANY
 WELL.        67-S-3 #3-3:   WELL
 FLD .             TEAPOT:   FIELD
 LOC .       S3 T38N R78W:   LOCATION
 CNTY.            NATRONA:   COUNTY
 STAT.            WYOMING:   STATE
 CTRY. UNITED STATES OF AMERICA:   COUNTRY
 SRVC.           BIRDWELL:   SERVICE COMPANY
 DATE.        15-OCT-1978:   LOGDATE
 API .       490251072100:   API NUMBER
~CURVE INFORMATION
#MNEM.UNIT       API CODE    CURVE DESCRIPTION
#----------   ------------   ------------------------------
 DEPT.F                  :   
 ILD .OHMM   05 120 46 00:   INDUCTION LOG DEEP
 SN  .OHMM   05 040 16 00:   SHORT NORMAL 16"
 SPR .MV     05 010 01 00:   SPONTANEOUS POTENTIAL FROM RES.
 CALD.IN     45 280 60 00:   CALIPER FROM DENSITY LOG
 CORR.G/C3   45 356 01 00:   DENSITY CORRECTION
 DPHI.DEC    45 890 12 00:   DENSITY POROSITY SANDSTONE
 GRD .GAPI   45 310 01 00:   GAMMA RAY FROM DENSITY LOG
 RHOB.G/C3   45 350 01 00:   BULK DENSITY
~PARAMETER INFORMATION
#MNEM.UNIT          VALUE    DESCRIPTION
#----------   ------------   ------------------------------
 PD  .                 GL:   PERMANENT DATUM
 EPD .F              5173:   ELEVATION PERMANENT DATUM
 LMF .                 KB:   LOG MEASURED FROM
 DAPD.F                 4:   FEET ABOVE PERMANENT DATUM
 DMF .                 KB:   DRILLING MEASURED FROM
 EKB .F              5177:   KELLING BUSHING
 EGL .F              5173:   GROUND LEVEL
 DATE.        15-OCT-1978:   RUN DATE
 RUN .                  1:   RUN NUMBER
 DD  .F               492:   DEPTH DRILLER
 DL  .F               494:   DEPTH LOGGER
 BLI .F               488:   BOTTOM LOG INTERVAL
 TLI .F                46:   TOP LOG INTERVAL
 CS  .IN            8.625:   CASING SIZE
 CBD .F                40:   CASING BOTTOM DRILLER
 BS  .IN            7.875:   BIT SIZE
 BSD .F               492:   BIT SIZE AT DEPTH
 DFT .                KCL:   DRILLING FLUID TYPE
 DFD .                8.7:   DRILLING FLUID DENSITY
 DFV .                 35:   DRILLING FLUID VISCOSITY
 DFPH.                  9:   DRILLING FLUID PH
 LUN .               2958:   LOGGING UNIT NUMBER
 LUL .               CASP:   LOGGING UNIT LOCATION
 ENGI.             MILLER:   RECORDING ENGINEER
 WITN.           DINSMORE:   WITNESSED BY
 CLNT.            A2DTECH:   CLIENT CODE
 ORIG.           5" PRINT:   ORIGIN OF DATA
 UWI .       490251072100:   UNIQUE WELL ID
 DICO. A2D Technologies, Inc.:   DIGITIZING COMPANY
~OTHER INFORMATION
~A   DEPT      ILD         SN        SPR       CALD       CORR       DPHI         GRD      RHOB   
# ...
  109.0000    10.0759     8.6062   -36.4583     7.7639     0.0000     0.1620   118.5075     2.4205
  109.5000    10.1460     8.4864   -36.6071     7.8387    -0.0015     0.1536   120.5970     2.4333
  110.0000    10.1460     8.3683   -36.6071     7.9433    -0.0015     0.1465   122.1095     2.4430
  110.5000    10.1460     8.4830   -36.6071     8.0330    -0.0015     0.1465   123.6328     2.4468
  111.0000    10.2165     8.5401   -36.6071     8.1227     0.0030     0.1462   122.5373     2.4468
  111.5000    10.1460     8.5380   -36.6071     8.1825     0.0090     0.1441   117.9104     2.4505
  112.0000     9.9373     8.3612   -36.6071     8.1976     0.0210     0.1405   116.1194     2.4551
  112.5000     9.8688     8.2448   -36.6071     8.2276     0.0330     0.1381   114.9254     2.4605
  113.0000     9.8007     8.2367   -36.6071     8.2128     0.0405     0.1384   116.1194     2.4633
  113.5000     9.7330     8.2415   -36.4583     8.1831     0.0450     0.1393   119.7015     2.4640
  114.0000     9.8007     8.2397   -36.4583     8.1833     0.0466     0.1390   123.5821     2.4603
  114.5000     9.8007     8.2377   -36.4583     8.1835     0.0480     0.1381   125.8209     2.4595
  115.0000     9.8007     8.2361   -36.3095     8.1388     0.0511     0.1369   124.2239     2.4610
  115.5000     9.7330     8.2344   -36.3095     8.1240     0.0571     0.1315   117.4627     2.4670
  116.0000     9.5329     8.1198   -36.3095     8.1242     0.0586     0.1330   117.7612     2.4738
  116.5000     9.3369     8.0623   -36.3095     8.0646     0.0601     0.1357   118.5075     2.4735
  117.0000     9.0818     8.0052   -36.3095     8.0051     0.0616     0.1381   117.3134     2.4625
  117.5000     8.8951     7.8937   -36.3095     7.9744     0.0631     0.1393   116.7164     2.4573
  118.0000     8.7122     8.0020   -36.3095     7.9457     0.0721     0.1334   116.1194     2.4633
  118.5000     8.5924     7.9999   -36.4583     7.9458     0.0751     0.1276   116.1194     2.4745
  119.0000     8.4157     8.0542   -36.4583     7.9311     0.0766     0.1243   119.1045     2.4790
  119.5000     8.2999     8.0522   -36.4583     7.9461     0.0781     0.1207   120.8955     2.4828
  120.0000     8.1858     8.0506   -36.4583     7.9313     0.0781     0.1141   118.4876     2.4865
  120.5000     8.1293     8.0490   -36.4583     7.9315     0.0766     0.1006   117.7612     2.5015
  121.0000     8.0732     7.9919   -36.4583     7.9167     0.0721     0.1000   118.0597     2.5248
  121.5000     8.0732     7.9899   -36.4583     7.9019     0.0571     0.1036   122.0896     2.5255
  122.0000     7.9621     7.8787   -36.4583     7.9021     0.0330     0.1165   120.7463     2.5067
  122.5000     7.9621     7.8771   -36.3095     7.9022     0.0090     0.1262   116.1194     2.4903
  123.0000     7.9621     7.8755   -36.0119     7.9024     0.0045     0.1345   111.9403     2.4745
  123.5000     7.9621     7.8197   -36.0119     7.8876     0.0077     0.1354   106.5672     2.4655
  124.0000     7.9621     7.8182   -35.7143     7.8878     0.0090     0.1321   107.6119     2.4625
  124.5000     7.9621     7.8166   -35.4167     7.8879     0.0090     0.1282   118.7155     2.4775
  125.0000     7.9621     7.8150   -35.4167     7.8582     0.0045     0.1309   126.4179     2.4790
  125.5000     8.0175     7.8131   -35.2679     7.8285     0.0000     0.1345   155.8209     2.4723
  126.0000     8.0732     7.8115   -35.2679     7.7988    -0.0030     0.1378   162.8358     2.4633
  126.5000     8.1293     7.8100   -35.2679     7.7691    -0.0045     0.1387   162.0896     2.4573
  127.0000     8.1858     7.8629   -35.4167     7.7231    -0.0060     0.1393   153.5821     2.4603
  127.5000     8.3576     7.9704   -35.4167     7.7097    -0.0075     0.1402   145.5224     2.4603
  128.0000     8.5331     7.9687   -35.4167     7.7099    -0.0075     0.1411   135.2239     2.4595
  128.5000     8.6521     8.0780   -35.4167     7.7100    -0.0090     0.1414   129.7015     2.4595
  129.0000     8.7727     8.1320   -35.4167     7.7251    -0.0075     0.1405   129.1045     2.4595
  129.5000     8.7727     8.1871   -35.4167     7.7103    -0.0090     0.1396   129.8652     2.4595
  130.0000     8.7122     8.1851   -35.4167     7.7105    -0.0075     0.1417   134.1791     2.4603
  130.5000     8.6521     8.1834   -35.5655     7.7106    -0.0045     0.1456   135.8209     2.4603
  131.0000     8.6521     8.1818   -35.7143     7.7100    -0.0030     0.1480   134.6269     2.4498
  131.5000     8.5924     8.1802   -35.7143     7.7109     0.0000     0.1473   130.0000     2.4453
  132.0000     8.5845     8.1785   -35.7143     7.7433     0.0030     0.1417   130.4478     2.4475
  132.5000     8.5331     8.1765   -35.8631     7.7709     0.0030     0.1345   134.0298     2.4536
  133.0000     8.5331     8.1748   -36.0119     7.7860     0.0045     0.1321   138.6567     2.4597
  133.5000     8.5331     8.1169   -36.0119     7.8160     0.0030     0.1309   140.7463     2.4678
  134.0000     8.4742     8.1153   -36.0119     7.8311     0.0000     0.1321   139.9761     2.4730
  134.5000     8.4742     8.0578   -36.0119     7.8461    -0.0015     0.1381   138.9552     2.4682
  135.0000     8.4742     8.0562   -36.0119     7.8761    -0.0015     0.1489   139.8508     2.4498
  135.5000     8.4742     8.1125   -36.0119     7.8763     0.0000     0.1470   140.0000     2.4408
  136.0000     8.5331     8.1650   -36.0119     7.8913     0.0015     0.1428   136.8657     2.4558
  136.5000     8.5331     8.1630   -36.0119     7.8915     0.0015     0.1417   136.5672     2.4543
  137.0000     8.5924     8.1613   -36.0119     7.9127     0.0015     0.1405   136.4179     2.4520
  137.5000     8.6521     8.1597   -36.0119     7.9391     0.0000     0.1381   135.2239     2.4513
  138.0000     8.7727     8.1580   -36.0119     7.9517    -0.0015     0.1354   133.8806     2.4535
  138.5000     8.8951     8.1564   -36.0119     7.9667    -0.0015     0.1297   134.6269     2.4657
  139.0000     9.0191     8.1548   -36.0119     8.0117     0.0000     0.1252   137.1731     2.4793
  139.5000     9.0191     8.1531   -36.0119     8.0118     0.0015     0.1213   137.4627     2.4865
  140.0000     9.0818     8.1511   -36.0119     8.0269     0.0045     0.1204   137.6119     2.4895
  140.5000     9.0818     8.0934   -36.0119     8.0569     0.0124     0.1207   135.8209     2.4925
  141.0000     9.0191     8.0360   -36.0119     8.0719     0.0270     0.1228   131.6418     2.4918
  141.5000     9.0191     7.9791   -36.0119     8.1020     0.0360     0.1261   129.5522     2.4865
  142.0000     8.8951     7.8138   -36.0119     8.1170     0.0435     0.1273   129.8508     2.4783
  142.5000     8.7727     7.7050   -35.8631     8.1321     0.0480     0.1246   136.4179     2.4790
  143.0000     8.5924     7.5932   -35.8631     8.1472     0.0511     0.1180   142.6866     2.4927
  143.5000     8.5331     7.4400   -35.8631     8.1473     0.0571     0.1158   143.7313     2.4985
  144.0000     8.4157     7.3365   -35.8631     8.1624     0.0556     0.1189   144.0298     2.4985
  144.5000     8.3547     7.2845   -35.8631     8.1476     0.0571     0.1189   137.3134     2.4925
  145.0000     8.1764     7.1831   -35.8631     8.1478     0.0586     0.1141   135.5224     2.4895
  145.5000     7.9621     7.1816   -35.7143     8.1479     0.0631     0.1093   134.0298     2.4925
  146.0000     7.7446     7.1802   -35.8631     8.1481     0.0646     0.1078   131.9403     2.5007
  146.5000     7.5330     7.1293   -35.6716     8.1333     0.0586     0.1129   134.4776     2.5105
  147.0000     7.3781     7.1275   -35.6716     8.1335     0.0541     0.1222   135.8209     2.5045
  147.5000     7.2264     7.0771   -35.6716     8.1038     0.0541     0.1279   135.8209     2.4869
  148.0000     7.1270     6.9785   -35.6716     8.0740     0.0571     0.1273   136.2687     2.4783
  148.5000     6.9805     6.8814   -35.6716     8.0294     0.0631     0.1162   136.8692     2.4843
  149.0000     6.9323     6.7389   -35.6716     8.0146     0.0724     0.1092   136.8657     2.5045
