~VERSION INFORMATION
 VERS.                2.0:   CWLS LOG ASCII STANDARD - VERSION 2.0
 WRAP.                 NO:   ONE LINE PER DEPTH STEP
~WELL INFORMATION
#MNEM.UNIT      DATA TYPE    INFORMATION
#----------   ------------   ------------------------------
 STRT.F          648.0000:   START DEPTH
 STOP.F         2443.0000:   STOP DEPTH
 STEP.F            0.5000:   STEP LENGTH
 NULL.          -999.2500:   NO VALUE
 COMP.    FENIX & SCISSON:   COMPANY
 WELL.  NPR #3 SHX-11 #22:   WELL
 FLD .             TEAPOT:   FIELD
 LOC .      S11 T38N R78W:   LOCATION
 CNTY.            NATRONA:   COUNTY
 STAT.            WYOMING:   STATE
 CTRY. UNITED STATES OF AMERICA:   COUNTRY
 SRVC.           BIRDWELL:   SERVICE COMPANY
 DATE.        23-APR-1978:   LOGDATE
 API .       490251061300:   API NUMBER
~CURVE INFORMATION
#MNEM.UNIT       API CODE    CURVE DESCRIPTION
#----------   ------------   ------------------------------
 DEPT.F                  :   
 CALD.IN     45 280 60 00:   CALIPER FROM DENSITY LOG
 CORR.G/C3   45 356 01 00:   DENSITY CORRECTION
 DPHI.DEC    45 890 12 00:   DENSITY POROSITY SANDSTONE
 GRD .GAPI   45 310 01 00:   GAMMA RAY FROM DENSITY LOG
 RHOB.G/C3   45 350 01 00:   BULK DENSITY
~PARAMETER INFORMATION
#MNEM.UNIT          VALUE    DESCRIPTION
#----------   ------------   ------------------------------
 PD  .                 GL:   PERMANENT DATUM
 EPD .F              5166:   ELEVATION PERMANENT DATUM
 LMF .                 KB:   LOG MEASURED FROM
 DMF .                 KB:   DRILLING MEASURED FROM
 EKB .F              5176:   KELLING BUSHING
 EGL .F              5166:   GROUND LEVEL
 DATE.        23-APR-1978:   RUN DATE
 RUN .                  1:   RUN NUMBER
 DD  .F              2450:   DEPTH DRILLER
 DL  .F              2450:   DEPTH LOGGER
 BLI .F              2443:   BOTTOM LOG INTERVAL
 TLI .F               670:   TOP LOG INTERVAL
 CS  .IN            9.625:   CASING SIZE
 CBD .F               660:   CASING BOTTOM DRILLER
 CBL .F               670:   CASING BOTTOM LOGGER
 BS  .IN             8.75:   BIT SIZE
 BSD .F              2450:   BIT SIZE AT DEPTH
 DFT .               MIST:   DRILLING FLUID TYPE
 LUN .               2958:   LOGGING UNIT NUMBER
 LUL .             CASPER:   LOGGING UNIT LOCATION
 ENGI.             MILLER:   RECORDING ENGINEER
 WITN.          MC GINLEY:   WITNESSED BY
 CLNT.            A2DTECH:   CLIENT CODE
 ORIG.           5" PRINT:   ORIGIN OF DATA
 UWI .       490251061300:   UNIQUE WELL ID
 DICO. A2D Technologies, Inc.:   DIGITIZING COMPANY
~OTHER INFORMATION
~A   DEPT     CALD       CORR       DPHI        GRD       RHOB   
# ...
 2112.0000     9.0341    -0.0044     0.0674   151.3013     2.4280
 2112.5000     9.0345    -0.0091     0.0680   148.4475     2.4279
 2113.0000     9.0348    -0.0046     0.0686   147.3938     2.4311
 2113.5000     9.0350     0.0043     0.0665   146.4900     2.4347
 2114.0000     9.0353     0.0147     0.0636   147.9850     2.4294
 2114.5000     9.0357     0.0221     0.0612   149.3290     2.4505
 2115.0000     9.0359     0.0235     0.0582   150.3743     2.4475
 2115.5000     9.0212     0.0143     0.0552   151.1197     2.4475
 2116.0000     9.0216    -0.0023     0.0546   151.2654     2.4505
 2116.5000     9.0219     0.0156     0.0546   147.5119     2.4535
 2117.0000     9.0155     0.0200     0.0513   150.0564     2.4550
 2117.5000     9.0075     0.0169     0.0498   152.9008     2.4580
 2118.0000     9.0078     0.0106     0.0498   152.2968     2.4625
 2118.5000     8.9997     0.0091     0.0513   153.4910     2.4534
 2119.0000     8.9785     0.0090     0.0562   155.7356     2.4534
 2119.5000     8.9787     0.0104     0.0550   159.4795     2.4557
 2120.0000     8.9790     0.0100     0.0526   169.8201     2.4534
 2120.5000     8.9793    -0.0050     0.0553   154.0727     2.4518
 2121.0000     8.9797    -0.0051     0.0571   151.9695     2.4512
 2121.5000     8.9799    -0.0037     0.0556   152.8648     2.4496
 2122.0000     8.9803    -0.0038     0.0557   158.4078     2.4474
 2122.5000     8.9805     0.0006     0.0548   153.0052     2.4459
 2123.0000     8.9809     0.0005     0.0533   142.5062     2.4466
 2123.5000     8.9811     0.0019     0.0527   140.2531     2.4519
 2124.0000     8.9815     0.0039     0.0515   146.3958     2.4564
 2124.5000     8.9817     0.0038     0.0506   159.4340     2.4579
 2125.0000     8.9820     0.0038     0.0497   161.8286     2.4579
 2125.5000     8.9848     0.0052     0.0491   161.2246     2.4624
 2126.0000     8.9976     0.0052     0.0492   150.5753     2.4684
 2126.5000     8.9979     0.0051     0.0489   147.1228     2.4691
 2127.0000     9.0132     0.0051     0.0483   146.3352     2.4654
 2127.5000     9.0135     0.0035     0.0468   144.7145     2.4623
 2128.0000     9.0138     0.0050     0.0441   137.6637     2.4715
 2128.5000     9.0097     0.0065     0.0450   135.1107     2.4721
 2129.0000     9.0144     0.0064     0.0493   136.1649     2.4683
 2129.5000     9.0147     0.0079     0.0478   136.9003     2.4681
 2130.0000     9.0150     0.0078     0.0461   135.0970     2.4713
 2130.5000     9.0153     0.0078     0.0433   123.5485     2.4683
 2131.0000     9.0270     0.0093     0.0419   123.9965     2.4713
 2131.5000     9.0308     0.0137     0.0410   126.9872     2.4736
 2132.0000     9.0312     0.0137     0.0422   131.0309     2.4721
 2132.5000     9.0314     0.0136     0.0443   140.0222     2.4713
 2133.0000     9.0317     0.0121     0.0459   142.8665     2.4690
 2133.5000     9.0320     0.0030     0.0480   145.5599     2.4675
 2134.0000     9.0324     0.0029     0.0492   149.1538     2.4630
 2134.5000     9.0327     0.0059     0.0492   150.9487     2.4622
 2135.0000     9.0479     0.0059     0.0490   150.6446     2.4630
 2135.5000     9.0632     0.0028     0.0532   144.3272     2.4614
 2136.0000     9.0635     0.0028     0.0544   140.4401     2.4539
 2136.5000     9.0638     0.0027     0.0505   142.0850     2.4517
 2137.0000     9.0641     0.0027     0.0484   142.3817     2.4592
 2137.5000     9.0644     0.0026     0.0509   141.7518     2.4697
 2138.0000     9.0647     0.0026     0.0476   140.2721     2.4592
 2138.5000     9.0500     0.0041     0.0449   138.3189     2.4652
 2139.0000     9.0503     0.0025     0.0434   131.2681     2.4689
 2139.5000     9.0506     0.0024     0.0434   125.8340     2.4708
 2140.0000     9.0403     0.0024     0.0419   118.2151     2.4774
 2140.5000     9.0362     0.0024     0.0390   116.1119     2.4797
 2141.0000     9.0515     0.0023     0.0375   116.5574     2.4826
 2141.5000     9.0510     0.0038     0.0414   119.1019     2.4848
 2142.0000     9.0371     0.0037     0.0435   123.8942     2.4728
 2142.5000     9.0374     0.0037     0.0451   131.3866     2.4705
 2143.0000     9.0377     0.0036     0.0463   137.2542     2.4675
 2143.5000     9.0380     0.0036     0.0469   149.2181     2.4675
 2144.0000     9.0383     0.0035     0.0475   154.0114     2.4682
 2144.5000     9.0386     0.0035     0.0482   153.8573     2.4674
 2145.0000     9.0389     0.0020     0.0479   151.9040     2.4674
 2145.5000     9.0392     0.0034     0.0470   148.0007     2.4614
 2146.0000     9.0395     0.0034     0.0464   144.3982     2.4651
 2146.5000     9.0398     0.0048     0.0461   140.7957     2.4711
 2147.0000     9.0402     0.0048     0.0446   140.6416     2.4734
 2147.5000     9.0254     0.0063     0.0398   140.1648     2.4726
 2148.0000     9.0258     0.0077     0.0423   136.8839     2.4726
 2148.5000     9.0260     0.0077     0.0453   132.8317     2.4741
 2149.0000     9.0313     0.0061     0.0477   132.3777     2.4778
 2149.5000     9.0416     0.0000     0.0496   134.2452     2.4793
 2150.0000     9.0401    -0.0060     0.0535   140.3141     2.4665
 2150.5000     9.0176    -0.0061     0.0565   145.2574     2.4522
 2151.0000     8.9976    -0.0031     0.0575   150.9503     2.4477
 2151.5000     9.0129     0.0029     0.0556   152.5952     2.4477
 2152.0000     9.0132     0.0074     0.0421   147.9423     2.4544
 2152.5000     9.0285     0.0088     0.0386   142.9905     2.4702
 2153.0000     9.0288     0.0103     0.0383   138.6384     2.4731
 2153.5000     9.0291     0.0117     0.0419   134.2863     2.4828
 2154.0000     9.0293     0.0117     0.0431   125.8852     2.4820
 2154.5000     9.0446     0.0116     0.0407   127.9799     2.4788
 2155.0000     9.0450     0.0116     0.0384   137.1211     2.4752
 2155.5000     9.0452     0.0116     0.0369   151.3598     2.4729
 2156.0000     9.0455     0.0115     0.0351   152.5549     2.4826
 2156.5000     9.0464     0.0115     0.0348   150.7505     2.4878
 2157.0000     9.0611     0.0114     0.0318   147.5978     2.4855
 2157.5000     9.0614     0.0053     0.0276   144.1453     2.4893
 2158.0000     9.0617     0.0021     0.0293   139.9852     2.4983
 2158.5000     9.0543    -0.0008     0.0354   135.8899     2.5012
 2159.0000     9.0473    -0.0008     0.0337   133.4868     2.4937
 2159.5000     9.0476    -0.0009     0.0337   129.8844     2.4915
 2160.0000     9.0479     0.0006     0.0346   125.3326     2.4889
 2160.5000     9.0332     0.0005     0.0355   123.4280     2.4875
 2161.0000     9.0335     0.0005     0.0367   126.1224     2.4860
 2161.5000     9.0338     0.0005     0.0389   128.6680     2.4852
 2162.0000     9.0192     0.0004     0.0401   125.6493     2.4844
 2162.5000     9.0045     0.0019     0.0404   120.2616     2.4829
 2163.0000     9.0049     0.0018     0.0398   119.6576     2.4821
 2163.5000     9.0051     0.0048     0.0326   123.2516     2.4821
 2164.0000     9.0054     0.0033     0.0308   130.5277     2.4836
 2164.5000     9.0057    -0.0013     0.0363   132.3254     2.4918
 2165.0000     9.0060    -0.0014     0.0432   132.6235     2.4993
 2165.5000     9.0063    -0.0014     0.0423   136.5201     2.4781
 2166.0000     9.0066     0.0001     0.0396   135.9190     2.4789
 2166.5000     9.0069     0.0000     0.0351   131.0353     2.4796
 2167.0000     9.0148     0.0000     0.0315   130.6688     2.4810
 2167.5000     9.0225    -0.0001     0.0304   132.7660     2.4885
 2168.0000     9.0228    -0.0001     0.0298   133.6641     2.4930
 2168.5000     9.0268    -0.0002     0.0298   133.6437     2.4907
 2169.0000     9.0383    -0.0017     0.0313   132.9113     2.4922
 2169.5000     9.0387    -0.0033     0.0352   121.5156     2.5019
 2170.0000     9.0390    -0.0078     0.0353   123.1634     2.4898
 2170.5000     9.0542    -0.0079     0.0341   123.9116     2.4898
 2171.0000     9.0545    -0.0079     0.0341   124.0597     2.4883
 2171.5000     9.0698    -0.0095     0.0371   130.6550     2.4852
 2172.0000     9.0701    -0.0095     0.0447   131.1252     2.4760
 2172.5000     9.0704    -0.0081     0.0471   131.1020     2.4743
