~VERSION INFORMATION
 VERS.                2.0:   CWLS LOG ASCII STANDARD - VERSION 2.0
 WRAP.                 NO:   ONE LINE PER DEPTH STEP
~WELL INFORMATION
#MNEM.UNIT      DATA TYPE    INFORMATION
#----------   ------------   ------------------------------
 STRT.F           83.0000:   START DEPTH
 STOP.F         3044.0000:   STOP DEPTH
 STEP.F            0.5000:   STEP LENGTH
 NULL.          -999.2500:   NO VALUE
 COMP.   TESORO PETROLEUM:   COMPANY
 WELL.  NPR # 3  AX #81-4:   WELL
 FLD .        TEAPOT DOME:   FIELD
 LOC .       S4 T38N R78W:   LOCATION
 CNTY.            NATRONA:   COUNTY
 STAT.            WYOMING:   STATE
 CTRY. UNITED STATES OF AMERICA:   COUNTRY
 SRVC.       Schlumberger:   SERVICE COMPANY
 DATE.        31-JUL-1969:   LOGDATE
 API .       490251002700:   API NUMBER
~CURVE INFORMATION
#MNEM.UNIT       API CODE    CURVE DESCRIPTION
#----------   ------------   ------------------------------
 DEPT.F                  :   
 CILD.MMHO   05 110 46 00:   CONDUCTIVITY INDUCTION LOG DEEP
 ILD .OHMM   05 120 46 00:   INDUCTION LOG DEEP
 SN  .OHMM   05 040 16 00:   SHORT NORMAL 16"
 SPR .MV     05 010 01 00:   SPONTANEOUS POTENTIAL FROM RES.
 CALD.IN     45 280 60 00:   CALIPER FROM DENSITY
 DPHI.DEC    45 890 12 00:   DENSITY POROSITY SANDSTONE
 GRD .GAPI   45 310 01 00:   GAMMA RAY FROM DENSITY LOG
 RHOB.G/C3   45 350 01 00:   BULK DENSITY
 DRHO.G/C3   45 356 01 00:   DENSITY CORRECTION
~PARAMETER INFORMATION
#MNEM.UNIT          VALUE    DESCRIPTION
#----------   ------------   ------------------------------
 PD  .                 GL:   PERMANENT DATUM
 EPD .F              5170:   ELEVATION PERMANENT DATUM
 LMF .                 KB:   LOG MEASURED FROM
 DAPD.F                13:   FEET ABOVE PERMANENT DATUM
 DMF .                 KB:   DRILLING MEASURED FROM
 EKB .F              5183:   KELLING BUSHING
 EGL .F              5170:   GROUND LEVEL
 DATE.            7-31-69:   RUN DATE
 RUN .                  2:   RUN NUMBER
 DD  .F              3047:   DEPTH DRILLER
 DL  .F              3044:   DEPTH LOGGER
 BLI .F              3043:   BOTTOM LOG INTERVAL
 TLI .F               626:   TOP LOG INTERVAL
 CS  .IN            10.75:   CASING SIZE
 CBD .F               625:   CASING BOTTOM DRILLER
 CBL .F               626:   CASING BOTTOM LOGGER
 BS  .IN             6.25:   BIT SIZE
 BSD .F              3047:   BIT SIZE AT DEPTH
 DFT .      FRESH GEL MUD:   DRILLING FLUID TYPE
 DFD .                9.7:   DRILLING FLUID DENSITY
 DFV .                 50:   DRILLING FLUID VISCOSITY
 DFPH.                9.5:   DRILLING FLUID PH
 DFL .                  8:   DRILLING FLUID LOSS
 MSS .          FLOW LINE:   MUD SAMPLE SOURCE
 RMS .OHMM           1.35:   RESISTIVITY MUD SAMPLE
 MST .F                74:   MUD SAMPLE TEMPERATURE
 RMF .OHMM            .81:   RESISTIVITY MUD FILTRATE SAMPLE
 MFST.F                74:   MUD FILTRATE SAMPLE TEMPERATURE
 MFSS.                  M:   MUD FILTRATE SAMPLE SOURCE
 RMB .OHMM            .83:   RESISTIVITY MUD AT BHT
 BHT .F               121:   BOTTOM HOLE TEMPERATURE
 TCS .HRS               4:   TIME CURCULATED STOPPED
 MRT .F               121:   MAXIMUM RECORDED TEMPERATURE
 LUN .               4507:   LOGGING UNIT NUMBER
 LUL .               CSPR:   LOGGING UNIT LOCATION
 ENGI.               MIXA:   RECORDING ENGINEER
 WITN.                MAY:   WITNESSED BY
 CLNT.            A2DTECH:   CLIENT CODE
 ORIG.     1", 2.5" PRINT:   ORIGIN OF DATA
 UWI .       490251002700:   UNIQUE WELL ID
 DICO. A2D Technologies, Inc.:   DIGITIZING COMPANY
~OTHER INFORMATION
~A   DEPT      CILD       ILD         SN        SPR       CALD       DPHI        GRD       RHOB       DRHO   
# ...
 2528.5000   134.2593     7.5077     9.0903   -14.9031    10.7655     0.0566   115.0434     2.5493     0.0117
 2529.0000   134.4628     7.5077     9.0872   -14.9046    10.7651     0.0501   112.0899     2.5553     0.0131
 2529.5000   135.8025     7.5195     9.0841   -14.9060    10.7646     0.0436   111.7274     2.5634     0.0189
 2530.0000   136.1364     7.6625     9.0810   -14.9075    10.7641     0.0356   111.4006     2.5765     0.0229
 2530.5000   137.3457     7.6625     9.0779   -14.9090    10.7637     0.0284   108.6589     2.5913     0.0277
 2531.0000   137.8116     7.6625     9.0748   -14.6019    10.7633     0.0342   105.3486     2.5817     0.0308
 2531.5000   138.8889     7.6625     9.0717   -14.6034    10.7628     0.0483   103.2121     2.5704     0.0291
 2532.0000   138.8889     7.6192     9.0680   -14.6049    10.7624     0.0445   103.5342     2.5776     0.0159
 2532.5000   138.8889     7.4580     8.9093   -14.6065    10.7619     0.0478   106.2405     2.5670     0.0148
 2533.0000   139.6169     7.3529     8.7505   -14.6080    10.7615     0.0518   106.8329     2.5585     0.0170
 2533.5000   141.2253     7.2283     8.7475   -14.6096    10.7610     0.0440   107.4253     2.5644     0.0212
 2534.0000   143.6929     7.0433     8.7445   -14.6111    10.7606     0.0347   109.8249     2.5775     0.0261
 2534.5000   146.9114     6.8934     8.7414   -14.6127    10.7601     0.0397   118.9402     2.5809     0.0309
 2535.0000   150.1288     6.5711     8.7383   -14.6142    10.7597     0.0494   124.2628     2.5704     0.0333
 2535.5000   153.3467     6.2489     8.6929   -14.6157    10.7593     0.0542   123.1212     2.5605     0.0251
 2536.0000   157.6854     5.9267     8.4206   -14.6173    10.7588     0.0566   118.8788     2.5549     0.0176
 2536.5000   161.3239     5.7047     8.3127   -14.6188    10.7584     0.0524   116.3991     2.5553     0.0128
 2537.0000   166.6667     5.5437     7.8217   -14.6204    10.7579     0.0466   116.3886     2.5661     0.0085
 2537.5000   168.2099     5.4954     7.3793   -14.6219    10.7575     0.0390   115.7570     2.5752     0.0130
 2538.0000   169.7531     5.4954     7.1620   -14.6235    10.7569     0.0374   114.3201     2.5857     0.0217
 2538.5000   169.7531     5.8050     7.2838   -14.4540    10.7565     0.0451   114.2201     2.5797     0.0307
 2539.0000   168.2099     6.1146     7.5366   -14.1353    10.7561     0.0487   115.4558     2.5720     0.0354
 2539.5000   166.6290     6.4241     7.7723   -13.6224    10.7557     0.0454   115.3200     2.5662     0.0321
 2540.0000   164.8148     6.4241     8.0114   -13.3951    10.7562     0.0437   114.1465     2.5686     0.0175
 2540.5000   159.9894     6.4241     8.2608   -13.8313    10.7847     0.0466   115.9266     2.5738     0.0138
 2541.0000   155.3959     6.4241     8.3894   -14.4732    10.7842     0.0458   118.6549     2.5671     0.0168
 2541.5000   152.4778     6.4241     8.3863   -14.8747    10.7837     0.0389   120.7163     2.5661     0.0203
 2542.0000   151.9650     6.4241     8.2726   -15.2534    10.7833     0.0300   117.4863     2.5750     0.0216
 2542.5000   154.7516     6.4241     8.1068   -15.2548    10.7828     0.0275   110.8498     2.5929     0.0203
 2543.0000   156.3608     6.3689     7.9091   -14.9477    10.7824     0.0339   106.6229     2.5879     0.0190
 2543.5000   158.5320     6.1146     7.7503   -14.6405    10.7819     0.0442   104.8057     2.5627     0.0179
 2544.0000   161.1213     6.0341     7.7473   -14.0247    10.7815     0.0464   109.1733     2.5607     0.0183
 2544.5000   162.7301     5.7584     7.7443   -14.0262    10.7810     0.0397   112.0146     2.5698     0.0232
 2545.0000   165.0975     5.5972     7.7414   -13.7191    10.7806     0.0325   110.7163     2.5818     0.0329
 2545.5000   166.6667     5.3769     7.5796   -13.7451    10.7802     0.0253   106.9114     2.5955     0.0429
 2546.0000   166.6667     5.1858     7.4239   -14.0309    10.7797     0.0223   106.1215     2.6040     0.0465
 2546.5000   165.7112     5.3294     7.5931   -14.0324    10.7793     0.0357   105.1752     2.5965     0.0474
 2547.0000   161.0396     5.5735     7.7997   -14.0340    10.7489     0.0397   100.4874     2.5861     0.0422
 2547.5000   153.5172     5.9037     8.2541   -14.0355    10.7485     0.0337    96.7052     2.5801     0.0347
 2548.0000   144.3184     6.3871     8.6137   -14.0370    10.7480     0.0301    96.5602     2.5921     0.0324
 2548.5000   137.1030     6.7732     9.0542   -14.0386    10.7476     0.0306   100.0944     2.5922     0.0339
 2549.0000   132.7160     7.0954     9.3764   -14.0401    10.7472     0.0236   104.8068     2.5943     0.0350
 2549.5000   129.6296     7.5273     9.5826   -14.0417    10.7467     0.0227   106.4864     2.6049     0.0362
 2550.0000   126.5432     7.8947     9.5794   -14.0432    10.7463     0.0294   103.4896     2.6102     0.0369
 2550.5000   125.0000     8.2170     9.6481   -14.0448    10.7458     0.0355   102.2485     2.6006     0.0354
 2551.0000   123.4521     8.5913     9.7290   -14.0463    10.7454     0.0447   105.2482     2.5841     0.0265
 2551.5000   120.2337     8.7461     9.7259   -14.0478    10.7449     0.0479   109.4550     2.5704     0.0172
 2552.0000   117.0155     8.9009     9.7227   -14.0494    10.7327     0.0483   111.2523     2.5640     0.0110
 2552.5000   113.7999     9.2105     9.7196   -14.2373    10.7142     0.0509   110.6399     2.5649     0.0080
 2553.0000   111.1111     9.2105     9.7165   -14.3611    10.7137     0.0534   108.7571     2.5573     0.0075
 2553.5000   111.1111     9.3653     9.7134   -14.3627    10.7133     0.0554   107.0045     2.5503     0.0089
 2554.0000   111.1111     9.3653     9.7103   -14.3642    10.6943     0.0546   107.1683     2.5506     0.0146
 2554.5000   111.5729     9.3653     9.7066   -14.5985    10.6623     0.0540   108.7888     2.5642     0.0176
 2555.0000   112.6543     9.3653     9.7036   -14.6759    10.6522     0.0492   111.8027     2.5684     0.0198
 2555.5000   113.2473     9.3345     9.7006   -14.6777    10.6517     0.0444   112.8448     2.5692     0.0173
 2556.0000   114.1975     9.1734     9.6977   -14.6792    10.6513     0.0511   112.0434     2.5641     0.0099
 2556.5000   114.1975     8.9254     9.6947   -14.6807    10.6509     0.0540   114.5746     2.5595     0.0086
 2557.0000   115.7769     8.5415     9.6916   -14.6822    10.6206     0.0513   114.8278     2.5670     0.0132
 2557.5000   118.9944     8.3804     9.6885   -14.9923    10.6201     0.0440   112.5942     2.5805     0.0207
 2558.0000   122.2122     8.1568     9.6854   -14.6852    10.6197     0.0365   111.3787     2.5866     0.0280
 2558.5000   124.4432     7.8346     9.6562   -14.6533    10.6193     0.0411   109.5828     2.5818     0.0325
 2559.0000   127.1032     7.5125     9.4904   -14.0709    10.6188     0.0424   107.4469     2.5746     0.0320
 2559.5000   129.2038     7.1902     9.3246   -14.0327    10.6184     0.0355   110.0222     2.5869     0.0176
 2560.0000   131.9963     6.9556     9.2056   -13.7652    10.6179     0.0303   109.2751     2.5971     0.0136
 2560.5000   135.8025     6.7945     9.1489   -13.8300    10.6175     0.0337   105.6507     2.5908     0.0109
 2561.0000   137.3457     6.7337     9.0436   -14.0772    10.6170     0.0413   102.0262     2.5789     0.0111
 2561.5000   137.3457     6.7337     9.0405   -14.0787    10.6306     0.0470   103.8234     2.5726     0.0138
 2562.0000   137.3457     6.7337     9.0374   -14.0802    10.6460     0.0473   106.8470     2.5663     0.0191
 2562.5000   135.8025     6.7337     9.0343   -14.0818    10.6455     0.0393   108.0203     2.5607     0.0236
 2563.0000   135.8025     6.7337     9.0312   -14.0833    10.6451     0.0328   106.8055     2.5675     0.0293
 2563.5000   135.8025     6.8885     8.9332   -14.0849    10.6654     0.0252   109.2594     2.5873     0.0354
 2564.0000   135.6376     6.8885     8.8692   -14.0864    10.6965     0.0252   110.9227     2.6050     0.0415
 2564.5000   134.2593     6.8885     8.8660   -14.0880    10.7034     0.0419   105.7191     2.6069     0.0476
