~VERSION INFORMATION
 VERS.                2.0:   CWLS LOG ASCII STANDARD - VERSION 2.0
 WRAP.                 NO:   ONE LINE PER DEPTH STEP
~WELL INFORMATION
#MNEM.UNIT      DATA TYPE    INFORMATION
#----------   ------------   ------------------------------
 STRT.F           36.0000:   START DEPTH
 STOP.F         3160.0000:   STOP DEPTH
 STEP.F            0.5000:   STEP LENGTH
 NULL.          -999.2500:   NO VALUE
 COMP.    FENIX & SCISSON:   COMPANY
 WELL.        NPR-3 #28-3:   WELL
 FLD .             TEAPOT:   FIELD
 LOC .       S3 T38N R78W:   LOCATION
 CNTY.            NATRONA:   COUNTY
 STAT.            WYOMING:   STATE
 CTRY. UNITED STATES OF AMERICA:   COUNTRY
 SRVC.            Unknown:   SERVICE COMPANY
 DATE.        01-JUL-1978:   LOGDATE
 API .       490251066500:   API NUMBER
~CURVE INFORMATION
#MNEM.UNIT       API CODE    CURVE DESCRIPTION
#----------   ------------   ------------------------------
 DEPT.F                  :   
 ILD .OHMM   05 120 46 00:   INDUCTION LOG DEEP
 SN  .OHMM   05 040 16 00:   SHORT NORMAL 16"
 SPR .MV     05 010 01 00:   SPONTANEOUS POTENTIAL FROM RES.
 CALD.IN     45 280 60 00:   CALIPER FROM DENSITY LOG
 CORR.G/C3   45 356 01 00:   DENSITY CORRECTION
 DPHI.DEC    45 890 12 00:   DENSITY POROSITY SANDSTONE
 GRD .GAPI   45 310 01 00:   GAMMA RAY FROM DENSITY LOG
 RHOB.G/C3   45 350 01 00:   BULK DENSITY
 GR  .GAPI   30 310 01 00:   GAMMA RAY
~PARAMETER INFORMATION
#MNEM.UNIT          VALUE    DESCRIPTION
#----------   ------------   ------------------------------
 PD  .                 GL:   PERMANENT DATUM
 EPD .F              5264:   ELEVATION PERMANENT DATUM
 LMF .                 KB:   LOG MEASURED FROM
 DAPD.F                 4:   FEET ABOVE PERMANENT DATUM
 DMF .                 KB:   DRILLING MEASURED FROM
 EKB .F              5268:   KELLING BUSHING
 EGL .F              5264:   GROUND LEVEL
 DATE.        01-JUL-1978:   RUN DATE
 RUN .                  1:   RUN NUMBER
 DD  .F               630:   DEPTH DRILLER
 DL  .F               636:   DEPTH LOGGER
 BLI .F               630:   BOTTOM LOG INTERVAL
 TLI .F                50:   TOP LOG INTERVAL
 CS  .IN            8.625:   CASING SIZE
 CBD .F                40:   CASING BOTTOM DRILLER
 BS  .IN            7.875:   BIT SIZE
 BSD .F               630:   BIT SIZE AT DEPTH
 DFT .                KCL:   DRILLING FLUID TYPE
 DFD .                8.6:   DRILLING FLUID DENSITY
 DFV .                 32:   DRILLING FLUID VISCOSITY
 DFPH.                9.5:   DRILLING FLUID PH
 MSS .           FLOWLINE:   MUD SAMPLE SOURCE
 BHT .F                74:   BOTTOM HOLE TEMPERATURE
 TCS .HRS               1:   TIME CURCULATED STOPPED
 MRT .F                74:   MAXIMUM RECORDED TEMPERATURE
 LUN .               2958:   LOGGING UNIT NUMBER
 LUL .               CASP:   LOGGING UNIT LOCATION
 ENGI.             MILLER:   RECORDING ENGINEER
 WITN.           MCGINLEY:   WITNESSED BY
 CLNT.            A2DTECH:   CLIENT CODE
 ORIG.        2" 5" PRINT:   ORIGIN OF DATA
 UWI .       490251066500:   UNIQUE WELL ID
 DICO. A2D Technologies, Inc.:   DIGITIZING COMPANY
~OTHER INFORMATION
~A   DEPT      ILD         SN        SPR       CALD       CORR       DPHI         GRD      RHOB         GR   
# ...
  182.0000    10.0566     8.6646   -38.5235     7.6475    -0.0018     0.1349    89.3192     2.4620  -999.2500
  182.5000    10.0547     8.6624   -38.5292     7.6490     0.0028     0.1361    88.2816     2.4584  -999.2500
  183.0000     9.9832     8.6600   -38.5349     7.6352     0.0059     0.1319    88.1255     2.4622  -999.2500
  183.5000     9.9814     8.6572   -38.5406     7.6363     0.0075     0.1303    88.5979     2.4661  -999.2500
  184.0000     9.9796     8.7155   -38.5477     7.6375     0.0091     0.1266    88.3097     2.4705  -999.2500
  184.5000     9.9778     8.7127   -38.5535     7.6386     0.0033     0.1231    86.0761     2.4735  -999.2500
  185.0000     9.9760     8.7104   -38.4090     7.6398    -0.0041     0.1216    84.5900     2.4788  -999.2500
  185.5000     9.9050     8.6419   -38.4147     7.6410    -0.0116     0.1279    84.7481     2.4811  -999.2500
  186.0000     9.8350     8.5858   -38.2703     7.6422    -0.0172     0.1302    84.3084     2.4655  -999.2500
  186.5000     9.7655     8.5244   -38.2775     7.6436    -0.0126     0.1248    81.9254     2.4745  -999.2500
  187.0000     9.5635     8.5222   -38.4333     7.6447    -0.0050     0.1370    76.1495     2.4684  -999.2500
  187.5000     9.4301     8.4030   -38.4390     7.6459    -0.0004     0.1382    73.7214     2.4573  -999.2500
  188.0000     9.2990     8.3429   -38.4447     7.6470     0.0013     0.1422    78.9639     2.4538  -999.2500
  188.5000     9.1697     8.2257   -38.4505     7.6482    -0.0001     0.1417    83.1579     2.4494  -999.2500
  189.0000     9.0422     8.1669   -38.4576     7.6643    -0.0015     0.1402    84.8108     2.4450  -999.2500
  189.5000     8.7941     8.0527   -38.6135     7.6655    -0.0043     0.1438    87.6595     2.4390  -999.2500
  190.0000     8.5524     7.9401   -38.6192     7.6667    -0.0042     0.1494    90.2093     2.4354  -999.2500
  190.5000     8.3755     7.8290   -38.7751     7.6528    -0.0040     0.1437    88.7231     2.4392  -999.2500
  191.0000     8.2021     7.7191   -38.9309     7.6543    -0.0024     0.1437    92.6203     2.4430  -999.2500
  191.5000     8.0881     7.6640   -38.9381     7.6554    -0.0008     0.1407    95.0206     2.4393  -999.2500
  192.0000     7.9679     7.6424   -39.0939     7.6566     0.0008     0.1524    93.9829     2.4371  -999.2500
  192.5000     7.8644     7.6072   -39.0996     7.6578     0.0025     0.1490    91.3010     2.4476  -999.2500
  193.0000     7.8630     7.6051   -39.1054     7.6589     0.0071     0.1490    90.2631     2.4342  -999.2500
  193.5000     7.8615     7.6557   -39.2613     7.6601     0.0102     0.1448    92.7085     2.4380  -999.2500
  194.0000     7.9695     7.7069   -39.4185     7.6613     0.0088     0.1385    97.3082     2.4433  -999.2500
  194.5000     8.0789     7.7583   -39.4242     7.6477     0.0028     0.1370   100.7548     2.4576  -999.2500
  195.0000     8.2463     7.8096   -39.4300     7.6489    -0.0028     0.1346   103.0056     2.4584  -999.2500
  195.5000     8.3595     7.8616   -39.4357     7.6501    -0.0042     0.1318   103.1637     2.4577  -999.2500
  196.0000     8.5330     7.9141   -39.4414     7.6512    -0.0040     0.1366    99.7344     2.4585  -999.2500
  196.5000     8.7780     7.9668   -39.4485     7.6524    -0.0039     0.1353    93.7639     2.4594  -999.2500
  197.0000     9.0143     8.0196   -39.3027     7.6535    -0.0038     0.1327    93.4736     2.4608  -999.2500
  197.5000     9.1385     8.0729   -39.1582     7.6547    -0.0022     0.1389    93.7834     2.4602  -999.2500
  198.0000     9.1364     8.1268   -39.0150     7.6409    -0.0005     0.1458    93.3436     2.4445  -999.2500
  198.5000     9.0715     8.1804   -38.8708     7.6271     0.0018     0.1445    92.4554     2.4409  -999.2500
  199.0000     8.8837     8.1783   -39.0281     7.6136     0.0042     0.1421    90.3713     2.4417  -999.2500
  199.5000     8.7602     8.1761   -39.0338     7.6148     0.0059     0.1376    87.0915     2.4470  -999.2500
  200.0000     8.6987     8.2305   -39.4895     7.6009     0.0045     0.1349    83.3649     2.4575  -999.2500
  200.5000     8.6971     8.2294   -39.6432     7.5871     0.0031     0.1346    83.5245     2.4575  -999.2500
  201.0000     8.6360     8.2283   -39.6461     7.5733     0.0002     0.1358    83.9831     2.4576  -999.2500
  201.5000     8.6349     8.2272   -39.6490     7.5595    -0.0027     0.1355    83.8412     2.4569  -999.2500
  202.0000     8.6337     8.2261   -39.6518     7.5610    -0.0056     0.1343    83.2559     2.4547  -999.2500
  202.5000     8.6323     8.2248   -39.6547     7.5771    -0.0070     0.1369    82.3642     2.4518  -999.2500
  203.0000     8.6910     8.2237   -39.6577     7.5782    -0.0084     0.1384    82.0803     2.4488  -999.2500
  203.5000     8.7502     8.2227   -39.6611     7.5943    -0.0083     0.1402    84.7836     2.4473  -999.2500
  204.0000     8.7490     8.2215   -39.6640     7.5969    -0.0067     0.1425    84.4922     2.4452  -999.2500
  204.5000     8.7478     8.2204   -39.6669     7.6119    -0.0067     0.1437    85.4017     2.4453  -999.2500
  205.0000     8.7464     8.2191   -39.6697     7.6130    -0.0066     0.1333    87.0561     2.4475  -999.2500
  205.5000     8.6850     8.2180   -39.6727     7.6142    -0.0065     0.1308    87.0662     2.4603  -999.2500
  206.0000     8.6839     8.2170   -39.6762     7.6154    -0.0049     0.1320    86.9268     2.4715  -999.2500
  206.5000     8.6827     8.1593   -39.6791     7.6165    -0.0018     0.1389    85.5097     2.4544  -999.2500
  207.0000     8.6816     8.1582   -39.6819     7.6177    -0.0002     0.1412    81.2695     2.4492  -999.2500
  207.5000     8.6204     8.1570   -39.5345     7.6188     0.0014     0.1388    81.5785     2.4485  -999.2500
  208.0000     8.5599     8.1557   -39.6877     7.6203     0.0029     0.1314    84.8771     2.4598  -999.2500
  208.5000     8.4999     8.1548   -39.6912     7.6214    -0.0015     0.1284    90.2684     2.4658  -999.2500
  209.0000     8.4987     8.1537   -39.6941     7.6226    -0.0088     0.1303    93.5670     2.4644  -999.2500
  209.5000     8.4387     8.1525   -39.5461     7.6237    -0.0147     0.1349    95.0719     2.4614  -999.2500
  210.0000     8.3219     8.1514   -39.5497     7.6249    -0.0161     0.1414    91.9930     2.4555  -999.2500
  210.5000     8.3208     8.1503   -39.7027     7.6260    -0.0159     0.1501    85.8271     2.4429  -999.2500
  211.0000     8.3197     8.1492   -39.7063     7.6272    -0.0114     0.1539    84.7909     2.4273  -999.2500
  211.5000     8.3186     8.1479   -39.7092     7.6284    -0.0069     0.1494    82.7084     2.4281  -999.2500
  212.0000     8.3175     8.1469   -39.7120     7.6298    -0.0008     0.1437    82.1180     2.4371  -999.2500
  212.5000     8.3162     8.1458   -39.7149     7.6310     0.0037     0.1434    84.9707     2.4394  -999.2500
  213.0000     8.3151     8.1444   -39.7178     7.6321     0.0083     0.1449    85.1470     2.4394  -999.2500
  213.5000     8.3719     8.1434   -39.7207     7.6333     0.0114     0.1428    84.6920     2.4440  -999.2500
  214.0000     8.3705     8.1423   -39.7242     7.6344     0.0085     0.1377    85.4738     2.4500  -999.2500
  214.5000     8.3694     8.1412   -39.5762     7.6356     0.0040     0.1328    85.3127     2.4568  -999.2500
  215.0000     8.3683     8.1401   -39.5798     7.6368    -0.0020     0.1314    84.4259     2.4621  -999.2500
  215.5000     8.3669     8.1390   -39.5827     7.6382    -0.0063     0.1377    84.1346     2.4613  -999.2500
  216.0000     8.3658     8.1377   -39.5856     7.6393    -0.0091     0.1400    86.3894     2.4562  -999.2500
  216.5000     8.4230     8.1366   -39.5891     7.6405    -0.0075     0.1412    87.4458     2.4517  -999.2500
  217.0000     8.4216     8.1356   -39.5920     7.6417    -0.0044     0.1421    87.6054     2.4480  -999.2500
  217.5000     8.4205     8.1345   -39.5948     7.6428    -0.0013     0.1421    88.5476     2.4473  -999.2500
  218.0000     8.4191     8.1334   -39.5977     7.6440     0.0017     0.1411    91.5146     2.4474  -999.2500
