~VERSION INFORMATION
 VERS.                2.0:   CWLS LOG ASCII STANDARD - VERSION 2.0
 WRAP.                 NO:   ONE LINE PER DEPTH STEP
~WELL INFORMATION
#MNEM.UNIT      DATA TYPE    INFORMATION
#----------   ------------   ------------------------------
 STRT.F           84.0000:   START DEPTH
 STOP.F         1141.0000:   STOP DEPTH
 STEP.F            0.5000:   STEP LENGTH
 NULL.          -999.2500:   NO VALUE
 COMP.           U S NAVY:   COMPANY
 WELL.     NPR#3 #78-S-11:   WELL
 FLD .             TEAPOT:   FIELD
 LOC .      S11 T38N R78W:   LOCATION
 CNTY.            NATRONA:   COUNTY
 STAT.            WYOMING:   STATE
 CTRY. UNITED STATES OF AMERICA:   COUNTRY
 SRVC.       Schlumberger:   SERVICE COMPANY
 DATE.        28-AUG-1966:   LOGDATE
 API .       490250970700:   API NUMBER
~CURVE INFORMATION
#MNEM.UNIT       API CODE    CURVE DESCRIPTION
#----------   ------------   ------------------------------
 DEPT.F                  :   
 SPR .MV     05 010 01 00:   SPONTANEOUS POTENTIAL FROM RES.
 ASN .OHMM   05 041 16 00:   AMPLIFIED SHORT NORMAL 16"
 ILD .OHMM   05 120 46 00:   INDUCTION LOG DEEP
 CILD.MMHO   05 110 46 00:   CONDUCTIVITY INDUCTION LOG DEEP
 GRD .GAPI   45 310 01 00:   GAMMA RAY FROM DENSITY LOG
 CALD.IN     45 280 60 00:   CALIPER FROM DENSITY LOG
 DPHI.DEC    45 890 12 00:   DENSITY POROSITY SANDSTONE
 RHOB.G/C3   45 350 01 00:   BULK DENSITY
~PARAMETER INFORMATION
#MNEM.UNIT          VALUE    DESCRIPTION
#----------   ------------   ------------------------------
 PD  .                 GL:   PERMANENT DATUM
 EPD .F              5245:   ELEVATION PERMANENT DATUM
 LMF .                 KB:   LOG MEASURED FROM
 DAPD.F                 5:   FEET ABOVE PERMANENT DATUM
 DMF .                 KB:   DRILLING MEASURED FROM
 EKB .F              5250:   KELLING BUSHING
 EGL .F              5245:   GROUND LEVEL
 DATE.            8-28-66:   RUN DATE
 RUN .                  1:   RUN NUMBER
 DD  .F              1142:   DEPTH DRILLER
 DL  .F              1142:   DEPTH LOGGER
 BLI .F              1141:   BOTTOM LOG INTERVAL
 TLI .F                85:   TOP LOG INTERVAL
 CS  .IN            8.625:   CASING SIZE
 CBD .F                10:   CASING BOTTOM DRILLER
 BS  .IN             6.75:   BIT SIZE
 BSD .F              1142:   BIT SIZE AT DEPTH
 DFT .           CHEM GEL:   DRILLING FLUID TYPE
 DFD .               10.7:   DRILLING FLUID DENSITY
 DFV .                 40:   DRILLING FLUID VISCOSITY
 MSS .          FLOW LINE:   MUD SAMPLE SOURCE
 RMS .OHMM           1.58:   RESISTIVITY MUD SAMPLE
 MST .F                70:   MUD SAMPLE TEMPERATURE
 RMF .OHMM            .93:   RESISTIVITY MUD FILTRATE SAMPLE
 MFST.F                70:   MUD FILTRATE SAMPLE TEMPERATURE
 MFSS.                  M:   MUD FILTRATE SAMPLE SOURCE
 RMB .OHMM           1.19:   RESISTIVITY MUD AT BHT
 BHT .F                94:   BOTTOM HOLE TEMPERATURE
 TCS .HRS               1:   TIME CURCULATED STOPPED
 MRT .F                94:   MAXIMUM RECORDED TEMPERATURE
 LUN .               4507:   LOGGING UNIT NUMBER
 LUL .               CSPR:   LOGGING UNIT LOCATION
 ENGI.             KNOBEL:   RECORDING ENGINEER
 WITN.         MAY/TUTTLE:   WITNESSED BY
 CLNT.            A2DTECH:   CLIENT CODE
 ORIG.           5" PRINT:   ORIGIN OF DATA
 UWI .       490250970700:   UNIQUE WELL ID
 DICO. A2D Technologies, Inc.:   DIGITIZING COMPANY
~OTHER INFORMATION
~A   DEPT      SPR          ASN        ILD      CILD       GRD       CALD       DPHI       RHOB   
# ...
  570.0000   -42.2024    14.4352    12.3117    84.0602    91.1798     7.4426     0.1426     2.3976
  570.5000   -42.5070    14.6591    12.4591    83.3233    93.3297     7.4421     0.1513     2.3849
  571.0000   -42.8116    14.9580    12.6055    81.8249    91.7296     7.4417     0.1582     2.3798
  571.5000   -43.2671    15.2570    12.8270    80.3059    89.7724     7.4413     0.1642     2.3775
  572.0000   -43.4209    15.7061    13.0476    78.0355    88.3509     7.4408     0.1635     2.3821
  572.5000   -44.0272    16.0051    13.1949    76.6160    87.4652     7.4404     0.1581     2.3933
  573.0000   -44.0241    16.4542    13.4906    74.3753    87.1133     7.4399     0.1642     2.3709
  573.5000   -43.5806    16.9033    13.7130    72.1383    86.9418     7.4246     0.1728     2.3732
  574.0000   -43.2819    17.5026    14.0086    70.6494    87.3079     7.4241     0.1560     2.3994
  574.5000   -42.2298    18.2520    14.3803    69.1568    87.6721     7.4237     0.1294     2.4250
  575.0000   -41.9311    18.8512    14.8270    66.9198    85.3577     7.4382     0.1235     2.4593
  575.5000   -42.2357    19.6757    15.4990    65.4272    84.2916     7.4377     0.1165     2.4720
  576.0000   -42.8420    20.8005    16.4712    63.1902    82.8719     7.4522     0.1185     2.4691
  576.5000   -42.6934    21.4749    17.6687    60.1975    78.4147     7.4517     0.1122     2.4893
  577.0000   -42.2439    22.2243    18.7160    52.6936    78.0646     7.4513     0.1077     2.4833
  577.5000   -41.7944    23.2740    19.7634    44.4341    77.0003     7.4507     0.1089     2.4722
  578.0000   -41.4957    25.0744    21.1110    44.4527    74.1502     7.4503     0.1131     2.4655
  578.5000   -42.7060    27.9260    21.2650    44.4676    70.9430     7.4498     0.1074     2.4767
  579.0000   -43.0106    29.1258    20.8783    46.7381    68.6287     7.4494     0.0933     2.5052
  579.5000   -42.7119    28.7451    20.1989    49.7605    67.0286     7.4490     0.0795     2.5702
  580.0000   -41.6591    27.8419    19.1441    54.2867    68.4643     7.4187     0.0478     2.5889
  580.5000   -41.5112    26.8136    18.3022    59.5648    74.7513     7.3885     0.0382     2.5815
  581.0000   -42.5707    23.2296    17.0946    63.3390    78.7046     7.3433     0.0576     2.5554
  581.5000   -45.1378    21.4524    16.1899    68.6171    80.8428     7.3280     0.0870     2.4985
  582.0000   -46.7999    19.1325    15.3254    77.6545    82.1358     7.3275     0.1178     2.4646
  582.5000   -47.2553    17.5546    14.1454    76.9175    84.3034     7.3122     0.1343     2.4123
  583.0000   -46.8058    16.6523    13.6404    74.6767    85.8300     7.3267     0.1528     2.3908
  583.5000   -46.5064    16.2756    13.5616    73.9398    87.8014     7.3262     0.1639     2.3807
  584.0000   -46.5101    16.0490    13.4077    73.9549    89.7727     7.3258     0.1534     2.3897
  584.5000   -46.5130    15.8225    13.4040    75.6850    91.9227     7.3402     0.1426     2.4138
  585.0000   -46.9685    15.7461    12.9498    81.7042    93.7155     7.3398     0.1372     2.4182
  585.5000   -47.2731    15.5946    12.2704    85.5385    94.6136     7.3393     0.1572     2.3876
  586.0000   -47.5777    15.4431    11.5910    92.8150    91.9439     7.3240     0.1554     2.3913
  586.5000   -47.4298    15.0664    10.9867   107.1156    91.4135     7.2937     0.1518     2.4071
  587.0000   -47.1172    14.4644    10.3824   121.4162    91.7795     7.2933     0.1593     2.3892
  587.5000   -46.1039    13.6373     9.1775   133.4611    95.0009     7.2928     0.1617     2.3743
  588.0000   -41.2555    11.6840     7.9725   144.0023    97.3294     7.2924     0.1635     2.3825
  588.5000   -40.0518     9.1398     7.2181   153.0398   101.2651     7.2920     0.1494     2.4072
  589.0000   -39.3006     8.4124     6.4636   162.8291   106.2721     7.2933     0.1320     2.4409
  589.5000   -38.5494     7.9569     6.1596   171.1147   108.9578     7.3209     0.1224     2.4581
  590.0000   -37.9491     7.4141     6.0817   173.3815   110.2149     7.3203     0.1166     2.4738
  590.5000   -37.3487     7.2476     6.1531   171.1407   111.8291     7.3349     0.1086     2.4971
  591.0000   -36.7476     7.2617     6.1484   168.9037   111.6576     7.3343     0.0938     2.5083
  591.5000   -36.4489     7.3801     6.1447   165.9111   109.7004     7.3489     0.0835     2.5166
  592.0000   -36.4526     7.5139     6.1410   162.9184   108.1004     7.3484     0.0807     2.5114
  592.5000   -36.4556     7.6177     6.2875   159.1739   108.6432     7.3629     0.1023     2.4815
  593.0000   -36.6094     7.6767     6.3588   158.4332   110.4360     7.3774     0.1211     2.4502
  593.5000   -36.7632     7.7054     6.3550   159.9556   111.8716     7.3768     0.1148     2.4517
  594.0000   -36.5973     7.6287     6.4265   161.4742   113.1287     7.3914     0.1232     2.4502
  594.5000   -36.3166     7.4922     6.5728   161.4891   112.7786     7.3909     0.1247     2.4398
  595.0000   -36.1687     7.2656     6.5691   160.7521   109.5714     7.3904     0.1250     2.4376
  595.5000   -35.8700     7.1592     6.6404   159.2631   107.2332     7.3900     0.1297     2.4257
  596.0000   -35.7222     7.2029     6.7118   157.0225   103.9902     7.3895     0.1327     2.4167
  596.5000   -35.2726     7.3367     6.7831   155.4937   101.7179     7.3891     0.1273     2.4166
  597.0000   -34.8239     7.5005     6.8545   153.2228   102.3500     7.3886     0.1231     2.4370
  597.5000   -34.0727     7.6643     6.8506   150.3002   104.3094     7.3882     0.1183     2.4468
  598.0000   -33.4716     7.7081     6.9221   149.5633   106.4014     7.3878     0.1087     2.4640
  598.5000   -34.5311     7.7067     6.9175   150.3338   107.4799     7.3873     0.1156     2.4666
  599.0000   -34.9865     7.6753     6.9137   150.3486   108.5584     7.3869     0.1204     2.4566
  599.5000   -34.9895     7.5989     6.9100   153.3710   109.6370     7.3864     0.1228     2.4484
  600.0000   -34.6908     7.5375     6.8321   156.6278   107.9131     7.4009     0.1162     2.4559
  600.5000   -34.6125     7.4774     6.8635   161.9063   106.4363     7.3802     0.1123     2.4731
  601.0000   -34.5342     7.4173     6.8945   164.9259   105.1964     7.3562     0.1182     2.4575
  601.5000   -34.4559     7.3537     6.5132   167.9454   107.0050     7.3562     0.1194     2.4455
  602.0000   -34.4067     7.2924     6.2820   169.4589   110.2143     7.3562     0.1134     2.4515
  602.5000   -34.2604     7.2162     6.2010   170.9724   107.1697     7.3562     0.1194     2.4725
  603.0000   -34.1141     7.1099     6.0448   170.9799   105.5892     7.3562     0.1086     2.4793
  603.5000   -34.1197     7.0036     5.9638   170.9874   106.3209     7.3562     0.1254     2.4359
  604.0000   -34.1242     7.0474     5.9579   168.7359   107.9382     7.3562     0.1191     2.4547
  604.5000   -34.1287     7.1513     6.0271   167.9885   109.1928     7.3562     0.1170     2.4607
  605.0000   -34.1332     7.1652     6.1712   164.9858   110.0893     7.3562     0.1110     2.4614
  605.5000   -34.1377     7.1184     6.2428   161.9812   108.8089     7.3562     0.1053     2.4816
  606.0000   -34.1422     7.4079     6.4596   159.7278   104.1642     7.3562     0.0891     2.5295
  606.5000   -34.1467     7.6466     6.5361   156.7252   102.0803     7.3711     0.0960     2.5079
  607.0000   -33.9992     7.7009     6.7479   153.7206   101.5535     7.3711     0.0975     2.4802
  607.5000   -33.8529     7.5946     6.9044   150.7160   102.2946     7.3711     0.1029     2.4534
  608.0000   -33.8585     7.6232     7.1850   148.4645   103.7428     7.3711     0.1085     2.4504
  608.5000   -33.8630     7.6971     7.4058   146.9660   106.0750     7.3711     0.1082     2.4781
  609.0000   -33.8675     7.7860     7.6986   144.7144   106.5892     7.3711     0.1016     2.4968
  609.5000   -34.7770     7.9199     7.9194   143.9670   104.2314     7.3711     0.0980     2.4759
  610.0000   -35.3848     8.0238     8.2122   141.7174   102.8453     7.3711     0.1130     2.4550
