~VERSION INFORMATION
 VERS.                2.0:   CWLS LOG ASCII STANDARD - VERSION 2.0
 WRAP.                 NO:   ONE LINE PER DEPTH STEP
~WELL INFORMATION
#MNEM.UNIT      DATA TYPE    INFORMATION
#----------   ------------   ------------------------------
 STRT.F           30.5000:   START DEPTH
 STOP.F          692.0000:   STOP DEPTH
 STEP.F            0.5000:   STEP LENGTH
 NULL.          -999.2500:   NO VALUE
 COMP. FENIX & SCISSON INC:   COMPANY
 WELL.   27-S-11-WP #3-11:   WELL
 FLD .  TEAPOT DOME NPR-3:   FIELD
 LOC .      S11 T38N R78W:   LOCATION
 CNTY.            NATRONA:   COUNTY
 STAT.            WYOMING:   STATE
 CTRY. UNITED STATES OF AMERICA:   COUNTRY
 SRVC.       Schlumberger:   SERVICE COMPANY
 DATE.        18-FEB-1978:   LOGDATE
 API .       490251058100:   API NUMBER
~CURVE INFORMATION
#MNEM.UNIT       API CODE    CURVE DESCRIPTION
#----------   ------------   ------------------------------
 DEPT.F                  :   
 CALD.IN     45 280 60 00:   CALIPER FROM DENSITY LOG
 CORR.G/C3   45 356 01 00:   DENSITY CORRECTION
 DPHI.DEC    45 890 12 00:   DENSITY POROSITY SANDSTONE
 GRD .GAPI   45 310 01 00:   GAMMA RAY FROM DENSITY LOG
 RHOB.G/C3   45 350 01 00:   BULK DENSITY
 ILD .OHMM   05 110 46 00:   INDUCTION LOG DEEP
 SN  .OHMM   05 040 16 00:   SHORT NORMAL 16"
 SPR .MV     05 010 01 00:   SPONTANEOUS POTENSIAL FROM RES.
~PARAMETER INFORMATION
#MNEM.UNIT          VALUE    DESCRIPTION
#----------   ------------   ------------------------------
 PD  .                 GL:   PERMANENT DATUM
 EPD .F              5195:   ELEVATION PERMANENT DATUM
 LMF .                 KB:   LOG MEASURED FROM
 DAPD.F                 4:   FEET ABOVE PERMANENT DATUM
 DMF .                 KB:   DRILLING MEASURED FROM
 EKB .F              5199:   KELLING BUSHING
 EGL .F              5195:   GROUND LEVEL
 DATE.        18-FEB-1978:   RUN DATE
 RUN .                  1:   RUN NUMBER
 DD  .F               690:   DEPTH DRILLER
 DL  .F               695:   DEPTH LOGGER
 BLI .F               688:   BOTTOM LOG INTERVAL
 TLI .F                40:   TOP LOG INTERVAL
 CS  .IN            8.625:   CASING SIZE
 CBD .F                40:   CASING BOTTOM DRILLER
 CBL .F                40:   CASING BOTTOM LOGGER
 BS  .IN            7.875:   BIT SIZE
 BSD .F               690:   BIT SIZE AT DEPTH
 DFT .       LIGNO/ SULF.:   DRILLING FLUID TYPE
 DFD .                8.8:   DRILLING FLUID DENSITY
 DFV .                 33:   DRILLING FLUID VISCOSITY
 DFPH.               10.0:   DRILLING FLUID PH
 DFL .                5.0:   DRILLING FLUID LOSS
 MSS .           FLOWLINE:   MUD SAMPLE SOURCE
 RMS .OHMM            1.7:   RESISTIVITY MUD SAMPLE
 MST .F                66:   MUD SAMPLE TEMPERATURE
 RMF .OHMM            2.0:   RESISTIVITY MUD FILTRATE SAMPLE
 MFST.F                58:   MUD FILTRATE SAMPLE TEMPERATURE
 RMC .OHMM            3.0:   RESISTIVITY MUD CAKE
 MCST.F                60:   MUD CAKE SAMPLE TEMPERATURE
 MFSS.               MEAS:   MUD FILTRATE SAMPLE SOURCE
 RMB .OHMM           1.65:   RESISTIVITY MUD AT BHT
 BHT .F                68:   BOTTOM HOLE TEMPERATURE
 TCS .HRS               2:   TIME CURCULATED STOPPED
 MRT .F                68:   MAXIMUM RECORDED TEMPERATURE
 LUN .               2958:   LOGGING UNIT NUMBER
 LUL .             CASPER:   LOGGING UNIT LOCATION
 ENGI.            POINTER:   RECORDING ENGINEER
 WITN.           MCGINLEY:   WITNESSED BY
 CLNT.            A2DTECH:   CLIENT CODE
 ORIG.           5" PRINT:   ORIGIN OF DATA
 UWI .       490251058100:   UNIQUE WELL ID
~OTHER INFORMATION
~A   DEPT     CALD       CORR       DPHI         GRD      RHOB        ILD         SN        SPR   
# ...
  516.5000     7.9599     0.0021     0.1485    72.9823     2.3943    14.0969    15.1890   -42.4882
  517.0000     7.9575     0.0034     0.1237    72.3614     2.4265    13.9870    15.1753   -42.2072
  517.5000     7.8936     0.0078     0.1064    71.5890     2.4604    13.8780    15.1617   -40.0940
  518.0000     7.8605     0.0228     0.0792    71.1233     2.4973    13.9667    15.2544   -39.1962
  518.5000     7.8274     0.0500     0.0786    71.8624     2.5246    14.1489    15.4555   -39.3792
  519.0000     7.7789     0.0666     0.0763    72.3058     2.5229    14.4402    15.7692   -39.5561
  519.5000     7.6997     0.0755     0.0718    71.8327     2.5167    15.0439    16.5461   -39.8857
  520.0000     7.5590     0.1118     0.0589    69.6967     2.5348    15.5667    17.2401   -40.5207
  520.5000     7.3876     0.1588     0.0516    73.8154     2.5560    15.8843    18.7337   -40.5450
  521.0000     7.2931     0.1632     0.0614    75.7277     2.5772    15.6501    20.3566   -40.5692
  521.5000     7.2599     0.1459     0.1036    69.9516     2.5466    15.2054    21.8127   -40.5935
  522.0000     7.2267     0.1229     0.1289    65.8459     2.4917    14.7734    22.7276   -40.6178
  522.5000     7.2238     0.1079     0.1605    64.9257     2.4115    14.3535    22.5488   -40.6420
  523.0000     7.2214     0.1108     0.1584    66.1193     2.3856    14.1185    21.9065   -40.6663
  523.5000     7.2190     0.1198     0.1423    67.9226     2.3923    13.5165    19.4317   -40.5374
  524.0000     7.2166     0.1379     0.1376    71.2411     2.4051    12.5326    15.9593   -40.5622
  524.5000     7.2455     0.1574     0.1374    76.5294     2.4194    12.0916    14.8671   -40.5864
  525.0000     7.2738     0.1512     0.1475    78.0297     2.4270    11.9137    14.2429   -40.7634
  525.5000     7.3021     0.1282     0.1524    78.4694     2.4245    11.9038    13.6448   -40.9445
  526.0000     7.3607     0.1083     0.1528    79.8261     2.4015    11.8940    13.3493   -41.7282
  526.5000     7.4043     0.0975     0.1513    82.2277     2.3953    11.8841    13.0602   -41.7527
  527.0000     7.3865     0.0913     0.1483    81.3000     2.3975    11.8743    13.0484   -41.1339
  527.5000     7.3687     0.0896     0.1454    80.9822     2.4034    11.9477    13.0366   -40.7320
  528.0000     7.3964     0.0894     0.1430    80.9674     2.4079    11.9378    13.0247   -40.7573
  528.5000     7.4100     0.0892     0.1419    80.8010     2.4092    11.9280    12.9140   -41.1155
  529.0000     7.4684     0.0875     0.1413    80.0286     2.4106    11.9181    12.8203   -41.5742
  529.5000     7.5582     0.0828     0.1417    79.1047     2.4158    11.9082    12.8087   -41.5985
  530.0000     7.7094     0.0705     0.1433    78.6354     2.4149    11.8153    12.6169   -40.4014
  530.5000     7.8606     0.0445     0.1470    79.3781     2.4056    11.6415    12.4303   -40.4257
  531.0000     7.9350     0.0322     0.1492    79.6667     2.4025    11.4701    12.4191   -40.4499
  531.5000     7.9940     0.0305     0.1447    80.1071     2.4023    11.3013    12.4079   -40.4742
  532.0000     8.0071     0.0334     0.1348    81.3034     2.4022    11.2130    12.3967   -40.4985
  532.5000     7.9124     0.0423     0.1239    79.1636     2.4112    11.2036    12.3855   -40.5227
  533.0000     7.7863     0.0530     0.1085    76.8761     2.4582    11.1942    12.3744   -40.5470
  533.5000     7.6750     0.0589     0.1067    76.1074     2.4718    11.1831    12.2770   -39.9606
  534.0000     7.6281     0.0631     0.1083    78.3616     2.4732    11.2523    12.2659   -38.3054
  534.5000     7.6257     0.0614     0.1149    82.2862     2.4700    11.2429    12.2549   -38.1710
  535.0000     7.6540     0.0567     0.1212    84.3926     2.4599    11.2336    12.2438   -38.3540
  535.5000     7.6829     0.0550     0.1292    85.5899     2.4484    11.2243    12.2328   -39.4469
  536.0000     7.7414     0.0548     0.1404    87.6963     2.4361    11.2150    12.2218   -40.3872
  536.5000     7.8311     0.0562     0.1411    86.0148     2.4223    11.2868    12.2965   -40.8695
  537.0000     7.8600     0.0560     0.1442    82.6666     2.4183    11.1964    12.2854   -40.8938
  537.5000     7.8879     0.0574     0.1482    80.9722     2.4121    11.2657    12.2744   -41.0707
  538.0000     7.8854     0.0557     0.1486    80.5152     2.4059    11.3378    12.2633   -41.0950
  538.5000     7.9137     0.0555     0.1432    79.7397     2.4035    11.4080    12.2523   -41.1193
  539.0000     7.9112     0.0522     0.1330    78.3612     2.4216    11.4766    12.2412   -40.8382
  539.5000     7.9088     0.0473     0.1324    75.4676     2.4283    11.4667    12.2302   -40.5571
  540.0000     7.9218     0.0413     0.1337    73.1801     2.4274    11.4572    12.1339   -40.2760
  540.5000     7.9188     0.0351     0.1323    77.2562     2.4333    11.4477    12.0385   -39.9939
  541.0000     7.9318     0.0303     0.1302    79.9686     2.4378    11.4349    11.9437   -39.7130
  541.5000     7.9294     0.0287     0.1272    81.0144     2.4384    11.1130    11.8496   -39.7381
  542.0000     7.9583     0.0285     0.1249    81.1515     2.4398    11.0263    11.8389   -39.6097
  542.5000     7.9553     0.0299     0.1225    81.2878     2.4511    11.0152    11.8281   -39.4809
  543.0000     7.9529     0.0312     0.1205    81.5869     2.4570    10.9293    11.8173   -39.6583
  543.5000     7.9505     0.0356     0.1196    82.7202     2.4584    10.7684    11.8066   -39.6825
  544.0000     7.9481     0.0370     0.1197    84.8760     2.4567    10.7595    11.7938   -39.5541
  544.5000     7.9452     0.0399     0.1206    84.2551     2.4536    10.7506    11.7832   -39.5786
  545.0000     7.9275     0.0429     0.1219    83.4827     2.4503    10.7417    11.7725   -39.6031
  545.5000     7.9097     0.0456     0.1239    83.9225     2.4464    10.8082    11.8445   -39.6275
  546.0000     7.8919     0.0499     0.1275    84.2144     2.4425    10.9537    11.9197   -39.6519
  546.5000     7.8435     0.0529     0.1318    84.3511     2.4393    11.0989    12.0768   -39.6763
  547.0000     7.7796     0.0587     0.1425    84.3326     2.4315    11.2437    12.3191   -39.8534
  547.5000     7.6543     0.0616     0.1590    85.0753     2.4200    11.4752    13.0168   -40.0354
  548.0000     7.6058     0.0645     0.1784    86.8787     2.4008    11.9549    13.8506   -40.3650
  548.5000     7.6199     0.0522     0.1870    88.8718     2.3779    12.6329    14.8413   -40.9999
  549.0000     7.7158     0.0459     0.1922    86.3824     2.3427    13.6325    15.9029   -42.3983
  549.5000     7.8899     0.0442     0.1868    83.0427     2.3358    14.8146    16.8036   -43.3386
  550.0000     7.9341     0.0334     0.1848    81.0369     2.3394    16.3262    18.0055   -43.8190
  550.5000     7.9158     0.0150     0.2231    78.8694     2.2960    17.8865    19.0148   -45.5253
  551.0000     7.9133     0.0118     0.2261    76.4785     2.2767    19.1887    21.5396   -45.7049
  551.5000     7.9109     0.0131     0.2223    72.2148     2.2774    20.5623    23.3962   -45.8845
  552.0000     7.9085     0.0129     0.2172    69.1667     2.2764    22.2911    24.3757   -46.3695
  552.5000     7.9061     0.0142     0.2163    66.8762     2.2733    22.2727    24.8523   -46.8550
  553.0000     7.9037     0.0171     0.2149    64.8887     2.2731    21.9449    25.0024   -46.7286
  553.5000     7.9013     0.0185     0.2101    62.9012     2.2784    21.7738    24.9616   -46.4502
  554.0000     7.9143     0.0212     0.1986    61.6712     2.2977    21.3037    24.9291   -45.8732
  554.5000     7.9118     0.0240     0.1950    63.9262     2.3196    20.9902    24.5464   -45.5880
  555.0000     7.9094     0.0254     0.1923    67.3932     2.3292    20.9728    23.8409   -45.4623
  555.5000     7.9069     0.0282     0.1915    70.5572     2.3333    20.9554    23.6140   -45.3365
  556.0000     7.8891     0.0280     0.1912    72.3576     2.3316    20.6470    23.4413   -45.3702
  556.5000     7.8708     0.0278     0.1910    71.0642     2.3315    20.6299    23.0853   -45.3971
