~VERSION INFORMATION
 VERS.                2.0:   CWLS LOG ASCII STANDARD - VERSION 2.0
 WRAP.                 NO:   ONE LINE PER DEPTH STEP
~WELL INFORMATION
#MNEM.UNIT      DATA TYPE    INFORMATION
#----------   ------------   ------------------------------
 STRT.F           34.0000:   START DEPTH
 STOP.F          638.0000:   STOP DEPTH
 STEP.F            0.5000:   STEP LENGTH
 NULL.          -999.2500:   NO VALUE
 COMP. FENIX & SCISSON INC:   COMPANY
 WELL. S N.P.R. #3 #33-34:   WELL
 FLD .             TEAPOT:   FIELD
 LOC .      S34 T39N R78W:   LOCATION
 CNTY.            NATRONA:   COUNTY
 STAT.            WYOMING:   STATE
 CTRY. UNITED STATES OF AMERICA:   COUNTRY
 SRVC.       Schlumberger:   SERVICE COMPANY
 DATE.        18-MAR-1977:   LOGDATE
 API .       490251030400:   API NUMBER
~CURVE INFORMATION
#MNEM.UNIT       API CODE    CURVE DESCRIPTION
#----------   ------------   ------------------------------
 DEPT.F                  :   
 LL8 .OHMM   07 220 08 00:   LATEROLOG-8 RES.
 ILD .OHMM   07 120 46 00:   INDUCTION LOG DEEP
 ILM .OHMM   07 120 44 00:   INDUCTION LOG MEDIUM
 SPR .MV     07 010 01 00:   SPONTANEOUS POTENTIAL
 GRD .GAPI   45 310 01 00:   GAMMA RAY FROM DENSITY LOG
 CALD.IN     45 280 60 00:   CALIPER FROM DENSITY LOG
 RHOB.G/C3   45 350 01 00:   BULK DENSITY
 CORR.G/C3   45 356 01 00:   DENSITY CORRECTION
 DPHI.DEC    45 890 12 00:   DENSITY POROSITY SANDSTONE
~PARAMETER INFORMATION
#MNEM.UNIT          VALUE    DESCRIPTION
#----------   ------------   ------------------------------
 PD  .                 GL:   PERMANENT DATUM
 EPD .F              5081:   ELEVATION PERMANENT DATUM
 LMF .                 KB:   LOG MEASURED FROM
 DAPD.F                 5:   FEET ABOVE PERMANENT DATUM
 DMF .                 KB:   DRILLING MEASURED FROM
 EKB .F              5086:   KELLING BUSHING
 EGL .F              5081:   GROUND LEVEL
 DATE.            3-18-77:   RUN DATE
 RUN .                  1:   RUN NUMBER
 DD  .F               631:   DEPTH DRILLER
 DL  .F               637:   DEPTH LOGGER
 BLI .F               631:   BOTTOM LOG INTERVAL
 TLI .F                45:   TOP LOG INTERVAL
 CS  .IN            8.625:   CASING SIZE
 CBD .F                40:   CASING BOTTOM DRILLER
 CBL .F                45:   CASING BOTTOM LOGGER
 BS  .IN            7.875:   BIT SIZE
 BSD .F               631:   BIT SIZE AT DEPTH
 DFT .            KCL MUD:   DRILLING FLUID TYPE
 DFD .                8.7:   DRILLING FLUID DENSITY
 DFV .                 31:   DRILLING FLUID VISCOSITY
 DFPH.                  8:   DRILLING FLUID PH
 DFL .                8.2:   DRILLING FLUID LOSS
 MSS .                PIT:   MUD SAMPLE SOURCE
 RMS .OHMM            .27:   RESISTIVITY MUD SAMPLE
 MST .F                60:   MUD SAMPLE TEMPERATURE
 RMF .OHMM            .25:   RESISTIVITY MUD FILTRATE SAMPLE
 MFST.F                60:   MUD FILTRATE SAMPLE TEMPERATURE
 MFSS.                  M:   MUD FILTRATE SAMPLE SOURCE
 TCS .HRS            0400:   TIME CURCULATED STOPPED
 TLAB.HRS            0530:   TIME LOGGER AT BOTTOM
 LUN .               7711:   LOGGING UNIT NUMBER
 LUL .               CSPR:   LOGGING UNIT LOCATION
 ENGI.             SAYLER:   RECORDING ENGINEER
 WITN.         STUEBINGER:   WITNESSED BY
 CLNT.            A2DTECH:   CLIENT CODE
 ORIG.        2" 5" PRINT:   ORIGIN OF DATA
 UWI .       490251030400:   UNIQUE WELL ID
 DICO. A2D Technologies, Inc.:   DIGITIZING COMPANY
~OTHER INFORMATION
~A   DEPT      LL8        ILD        ILM        SPR         GRD      CALD       RHOB       CORR       DPHI   
# ...
  289.5000     9.2542     8.8120     9.0634   -42.7142   100.3258     8.2366     2.4691     0.0049     0.1094
  290.0000     9.2269     8.7874     9.0381   -42.6993   102.1280     8.2366     2.4823     0.0101     0.1058
  290.5000     9.1997     8.7628     9.0128   -42.6843   103.4517     8.2366     2.4786     0.0153     0.1026
  291.0000     9.1726     8.7383     8.9876   -42.6694   104.0743     8.2366     2.4750     0.0169     0.1051
  291.5000     9.1456     8.7139     8.9624   -42.6543   104.2495     8.2366     2.4837     0.0186     0.1019
  292.0000     9.1186     8.6895     8.9374   -42.6396   104.3539     8.2366     2.4866     0.0203     0.0990
  292.5000     9.0918     8.6652     8.9123   -42.6253   103.5352     8.2366     2.4826     0.0220     0.1009
  293.0000     9.0650     8.6409     8.8873   -42.6665   102.2467     8.2366     2.4818     0.0236     0.1038
  293.5000     9.0382     8.6168     8.8622   -42.7904   102.2402     8.2366     2.4878     0.0253     0.0972
  294.0000     9.0116     8.5518     8.8066   -42.9133   103.2350     8.2366     2.4851     0.0239     0.0983
  294.5000     8.9850     8.4739     8.7265   -43.0365   103.0236     8.2366     2.4880     0.0231     0.0994
  295.0000     8.9586     8.3967     8.6472   -43.1598   101.4627     8.2366     2.4983     0.0259     0.0924
  295.5000     8.9321     8.3202     8.5684   -43.2830    99.9344     8.2366     2.5084     0.0286     0.0843
  296.0000     8.9059     8.2858     8.5213   -43.4061    98.4232     8.2366     2.5077     0.0311     0.0838
  296.5000     8.8797     8.2664     8.5014   -43.5293    98.2143     8.2366     2.4999     0.0263     0.0901
  297.0000     8.8514     8.2470     8.4815   -43.6526    98.6588     8.2366     2.4921     0.0182     0.0950
  297.5000     8.8021     8.2277     8.4617   -43.7760    99.0988     8.2366     2.4843     0.0222     0.0999
  298.0000     8.7491     8.2085     8.4419   -43.8992    99.5398     8.2366     2.4764     0.0210     0.1047
  298.5000     8.6964     8.1893     8.4221   -44.0020    99.9800     8.2362     2.4716     0.0160     0.1083
  299.0000     8.6440     8.1701     8.4024   -43.9677   100.4220     8.2359     2.4699     0.0116     0.1086
  299.5000     8.5920     8.1510     8.3828   -43.9319   100.8574     8.2355     2.4682     0.0131     0.1095
  300.0000     8.5402     8.1320     8.3631   -43.8967   101.4815     8.2352     2.4665     0.0163     0.1106
  300.5000     8.4888     8.1129     8.3436   -43.8615   102.1605     8.2348     2.4648     0.0121     0.1118
  301.0000     8.4376     8.0939     8.3241   -43.8262   102.8530     8.2345     2.4630     0.0081     0.1131
  301.5000     8.3868     8.0750     8.3046   -43.7911   103.1682     8.2341     2.4612     0.0041     0.1142
  302.0000     8.3363     8.0561     8.2851   -43.7559   102.8023     8.2338     2.4627     0.0035     0.1123
  302.5000     8.2860     8.0373     8.2657   -43.7207   102.6399     8.2335     2.4723     0.0058     0.1070
  303.0000     8.2361     8.0185     8.2461   -43.6853   102.4799     8.2331     2.4705     0.0093     0.1094
  303.5000     8.1865     8.0005     8.2244   -43.6504   101.8932     8.2328     2.4649     0.0121     0.1124
  304.0000     8.1489     8.0483     8.2633   -43.6192   100.4483     8.2324     2.4616     0.0142     0.1151
  304.5000     8.2863     8.0942     8.3109   -43.4913    99.0137     8.2321     2.4590     0.0116     0.1156
  305.0000     8.3989     8.1405     8.3584   -43.3516    97.5861     8.2317     2.4564     0.0091     0.1161
  305.5000     8.5131     8.1870     8.4061   -43.2103    96.3838     8.2314     2.4538     0.0089     0.1166
  306.0000     8.6288     8.2338     8.4542   -43.0694    97.0909     8.2311     2.4510     0.0119     0.1168
  306.5000     8.7468     8.2808     8.5025   -42.9287    98.2156     8.2307     2.4524     0.0100     0.1170
  307.0000     8.7842     8.3281     8.5510   -42.7879    99.3412     8.2304     2.4579     0.0057     0.1151
  307.5000     8.8062     8.3757     8.5999   -42.6471   100.0047     8.2300     2.4636     0.0066     0.1126
  308.0000     8.8283     8.4237     8.6490   -42.5062    99.5990     8.2297     2.4693     0.0088     0.1101
  308.5000     8.8506     8.4721     8.6983   -42.3654    97.5255     8.2294     2.4690     0.0105     0.1115
  309.0000     8.8731     8.5317     8.7701   -42.2212    96.8508     8.2290     2.4588     0.0089     0.1159
  309.5000     8.8956     8.4897     8.7378   -42.1965    97.5649     8.2287     2.4460     0.0043     0.1222
  310.0000     8.9183     8.4330     8.6799   -42.4366    98.8133     8.2283     2.4447     0.0055     0.1192
  310.5000     8.9332     8.3767     8.6224   -42.5790   100.0526     8.2280     2.4648     0.0102     0.1141
  311.0000     8.8320     8.3210     8.5651   -42.7286   101.1775     8.2276     2.4669     0.0080     0.1110
  311.5000     8.7435     8.2657     8.5082   -42.8742   101.2007     8.2273     2.4612     0.0005     0.1127
  312.0000     8.6559     8.2108     8.4517   -43.0193   101.3692     8.2269     2.4562    -0.0067     0.1150
  312.5000     8.5692     8.1562     8.3954   -43.1647   102.1075     8.2266     2.4742     0.0110     0.1155
  313.0000     8.4834     8.1020     8.3396   -43.3101   102.8187     8.2263     2.4633     0.0141     0.1157
  313.5000     8.3985     8.0227     8.2688   -43.4555   103.5265     8.2259     2.4527     0.0165     0.1146
  314.0000     8.3145     7.9177     8.1607   -43.6009   104.2403     8.2256     2.4613     0.0158     0.1126
  314.5000     8.2312     7.8142     8.0540   -43.7463   104.4522     8.2252     2.4660     0.0117     0.1121
  315.0000     8.1488     7.7120     7.9486   -43.8916   103.0238     8.2249     2.4633     0.0084     0.1134
  315.5000     8.0672     7.6111     7.8446   -44.0376   101.8076     8.2246     2.4607     0.0121     0.1135
  316.0000     7.9865     7.5116     7.7420   -44.1866   101.9226     8.2242     2.4580     0.0176     0.1130
  316.5000     7.9065     7.4133     7.6407   -44.1128   101.6889     8.2239     2.4557     0.0105     0.1162
  317.0000     7.8274     7.3164     7.5406   -44.0044   100.8278     8.2235     2.4586     0.0076     0.1149
  317.5000     7.7490     7.2207     7.4423   -43.8942    99.9763     8.2232     2.4616     0.0083     0.1138
  318.0000     7.6714     7.1669     7.3643   -43.7845    99.1321     8.2228     2.4646     0.0090     0.1127
  318.5000     7.6413     7.0976     7.2982   -43.6751    98.5948     8.2225     2.4677     0.0098     0.1116
  319.0000     7.7118     7.0979     7.2982   -43.5656    99.2679     8.2221     2.4703     0.0105     0.1106
  319.5000     7.6413     7.1862     7.3761   -43.4560   100.3424     8.2218     2.4639     0.0107     0.1110
  320.0000     7.7907     7.2491     7.4417   -43.3466   101.2455     8.2215     2.4513     0.0067     0.1176
  320.5000     7.9185     7.3124     7.5080   -43.2392   101.5934     8.2211     2.4444     0.0045     0.1214
  321.0000     8.0005     7.3762     7.5748   -43.0821   100.2657     8.2208     2.4494     0.0048     0.1200
  321.5000     8.0005     7.4405     7.6422   -42.9144    97.5985     8.2204     2.4565     0.0056     0.1171
  322.0000     8.0005     7.5053     7.7102   -42.7459    97.2370     8.2201     2.4638     0.0064     0.1142
  322.5000     8.0557     7.5708     7.7789   -42.5776    99.0238     8.2197     2.4578     0.0072     0.1158
  323.0000     8.1143     7.6368     7.8481   -42.4093   101.4627     8.2194     2.4573     0.0079     0.1178
  323.5000     8.1734     7.7033     7.9179   -42.2408   103.8437     8.2191     2.4608     0.0071     0.1150
  324.0000     8.2328     7.7705     7.9884   -42.0729   105.6059     8.2187     2.4390     0.0012     0.1205
  324.5000     8.2927     7.8384     8.0595   -41.9055   105.5394     8.2184     2.4271     0.0031     0.1270
  325.0000     8.3531     7.9068     8.1314   -41.8228   103.6525     8.2180     2.4470     0.0085     0.1162
  325.5000     8.4138     7.9781     8.2041   -41.9333   101.3415     8.2177     2.4571     0.0138     0.1162
