~VERSION INFORMATION
 VERS.                2.0:   CWLS LOG ASCII STANDARD - VERSION 2.0
 WRAP.                 NO:   ONE LINE PER DEPTH STEP
~WELL INFORMATION
#MNEM.UNIT      DATA TYPE    INFORMATION
#----------   ------------   ------------------------------
 STRT.F            2.0000:   START DEPTH
 STOP.F          510.5000:   STOP DEPTH
 STEP.F            0.5000:   STEP LENGTH
 NULL.          -999.2500:   NO VALUE
 COMP. LAWRENCE/ALLISON INC:   COMPANY
 WELL.   NPR #3 #58-12 SX:   WELL
 FLD .             TEAPOT:   FIELD
 LOC .       S3 T38N R78W:   LOCATION
 CNTY.            NATRONA:   COUNTY
 STAT.            WYOMING:   STATE
 CTRY. UNITED STATES OF AMERICA:   COUNTRY
 SRVC.           Gearhart:   SERVICE COMPANY
 DATE.        20-JUN-1988:   LOGDATE
 API .       490251123500:   API NUMBER
~CURVE INFORMATION
#MNEM.UNIT       API CODE    CURVE DESCRIPTION
#----------   ------------   ------------------------------
 DEPT.F                  :   
 GRR .GAPI   07 310 01 00:   GAMMA RAY FROM RES. LOG.
 RILD.OHMM   07 120 46 00:   INDUCTION LOG DEEP RESISTIVITY
 RILM.OHMM   07 120 44 00:   INDUCTION LOG MEDIUM RESISTIVITY
~PARAMETER INFORMATION
#MNEM.UNIT          VALUE    DESCRIPTION
#----------   ------------   ------------------------------
 PD  .                 GL:   PERMANENT DATUM
 EPD .F              5195:   ELEVATION PERMANENT DATUM
 LMF .                 KB:   LOG MEASURED FROM
 DAPD.F                10:   FEET ABOVE PERMANENT DATUM
 DMF .                 KB:   DRILLING MEASURED FROM
 EKB .F              5205:   KELLING BUSHING
 EGL .F              5195:   GROUND LEVEL
 DATE.            6-20-88:   RUN DATE
 RUN .                  1:   RUN NUMBER
 DD  .F               515:   DEPTH DRILLER
 DL  .F               519:   DEPTH LOGGER
 BLI .F             510.5:   BOTTOM LOG INTERVAL
 TLI .F                50:   TOP LOG INTERVAL
 CS  .IN            9.625:   CASING SIZE
 CBD .F                50:   CASING BOTTOM DRILLER
 CBL .F                50:   CASING BOTTOM LOGGER
 BS  .IN             8.75:   BIT SIZE
 BSD .F               515:   BIT SIZE AT DEPTH
 DFT .                AIR:   DRILLING FLUID TYPE
 TLAB.HRS            0414:   TIME LOGGER AT BOTTOM
 MRT .F                70:   MAXIMUM RECORDED TEMPERATURE
 LUN .               7597:   LOGGING UNIT NUMBER
 LUL .           GILLETTE:   LOGGING UNIT LOCATION
 ENGI.          HUCKFELDT:   RECORDING ENGINEER
 WITN.             STRONG:   WITNESSED BY
 CLNT.            A2DTECH:   CLIENT CODE
 ORIG.       2", 5" PRINT:   ORIGIN OF DATA
 UWI .       490251123500:   UNIQUE WELL ID
 DICO. A2D Technologies, Inc.:   DIGITIZING COMPANY
~OTHER INFORMATION
~A    DEPT      GRR      RILD       RILM   
# ...
  184.0000   114.3893     9.0710     8.7416
  184.5000   113.7101     9.0710     8.8228
  185.0000   113.8668     9.0710     8.8207
  185.5000   114.1115     9.0709     8.8236
  186.0000   115.4025     9.0718     8.8228
  186.5000   116.7688     9.0762     8.8228
  187.0000   117.2958     9.1560     8.8229
  187.5000   116.9422     9.1371     8.8231
  188.0000   114.8885     9.0779     8.8228
  188.5000   112.8479     9.0428     8.8011
  189.0000   112.0715     9.0079     8.6966
  189.5000   113.0563     8.9731     8.5935
  190.0000   114.6384     8.9385     8.4915
  190.5000   116.2623     8.9048     8.3907
  191.0000   115.7300     8.7072     8.2911
  191.5000   114.8063     8.5253     8.1927
  192.0000   114.0567     8.3474     8.1183
  192.5000   114.8885     8.1731     7.9695
  193.0000   116.1275     7.9695     7.8285
  193.5000   117.2578     7.5342     7.6801
  194.0000   116.7883     6.9061     7.3983
  194.5000   116.6820     6.3335     7.1325
  195.0000   117.5101     5.7732     6.6576
  195.5000   117.9894     5.2426     6.2098
  196.0000   116.6845     4.7570     5.6680
  196.5000   114.4730     4.3169     5.0584
  197.0000   112.5047     3.9173     4.5094
  197.5000   112.4026     3.5546     4.0206
  198.0000   112.8731     3.2259     3.5849
  198.5000   113.1404     3.1508     3.1965
  199.0000   110.4746     3.1074     2.8501
  199.5000   107.8654     3.0642     2.7516
  200.0000   106.0071     3.0176     2.8062
  200.5000   106.7941     3.0170     2.8553
  201.0000   110.4843     3.2557     2.9356
  201.5000   114.4785     3.5790     3.0462
  202.0000   116.9969     3.9344     3.3274
  202.5000   119.4775     4.3251     3.7040
  203.0000   120.0922     4.7045     4.1220
  203.5000   119.5642     5.0861     4.5878
  204.0000   119.0252     5.6069     5.1061
  204.5000   119.4418     6.0680     5.6829
  205.0000   120.1698     6.3597     6.1340
  205.5000   120.9057     6.5221     6.4193
  206.0000   121.6304     6.5600     6.7269
  206.5000   122.1307     6.5975     6.9415
  207.0000   122.0332     6.6267     6.9373
  207.5000   121.9462     6.3575     6.6854
  208.0000   121.8581     6.1448     6.4817
  208.5000   121.7646     5.9386     6.2697
  209.0000   122.2360     5.7393     6.0646
  209.5000   125.5180     5.5467     5.8662
  210.0000   128.7120     5.3605     5.6743
  210.5000   131.2824     5.1806     5.4886
  211.0000   130.6376     5.0658     5.3091
  211.5000   128.1082     5.1955     5.1613
  212.0000   126.1423     5.3751     5.1559
  212.5000   124.6086     5.5608     5.1554
  213.0000   124.3813     5.7746     5.4045
  213.5000   125.1375     6.0057     5.5427
  214.0000   125.7754     6.2453     5.7994
  214.5000   125.7441     6.4945     6.0680
  215.0000   124.9154     6.7536     6.3491
  215.5000   123.6646     7.0230     6.6431
  216.0000   122.3868     7.3033     6.9508
  216.5000   122.1130     7.5942     7.2728
  217.0000   123.0151     7.8987     7.6096
  217.5000   124.1756     8.0697     7.9621
  218.0000   125.3321     8.2769     8.1183
  218.5000   124.4236     8.2665     8.1183
  219.0000   123.2115     8.2701     8.1183
  219.5000   121.9557     8.1542     8.1183
  220.0000   123.0087     8.0077     8.1183
  220.5000   125.1766     7.8639     8.1183
  221.0000   127.1827     7.7226     8.1183
  221.5000   128.1370     7.5595     7.9695
  222.0000   128.0934     7.2965     7.7193
  222.5000   128.0031     7.0426     7.5394
  223.0000   127.9144     6.7973     7.2510
  223.5000   127.8337     6.5385     6.9831
  224.0000   128.0253     6.2839     6.7252
  224.5000   129.5248     6.0393     6.4404
  225.0000   130.9450     5.8041     6.0007
  225.5000   131.0100     5.6427     5.5910
  226.0000   130.9353     5.6082     5.2093
  226.5000   128.7229     5.6409     5.0658
  227.0000   125.7359     5.6555     5.1129
  227.5000   122.2718     5.7058     5.2111
  228.0000   121.7877     6.0105     5.7225
  228.5000   122.1006     6.3454     6.0194
  229.0000   121.4458     6.7025     6.3357
  229.5000   120.6386     7.0797     6.6669
  230.0000   120.6402     7.4701     7.0154
  230.5000   123.3940     7.6752     7.3822
  231.0000   126.7830     7.8805     7.6801
  231.5000   128.5096     8.0522     7.7426
  232.0000   129.8929     8.0909     7.8048
  232.5000   131.3150     8.1298     7.8668
  233.0000   130.0246     8.1689     7.9295
  233.5000   127.3233     8.2081     7.9928
  234.0000   125.8635     8.2475     8.0565
  234.5000   126.4844     8.2698     8.1182
  235.0000   125.7713     8.2629     8.1182
  235.5000   124.5458     8.2581     8.1114
  236.0000   124.2762     8.2534     8.1057
  236.5000   127.3409     8.2486     8.1001
  237.0000   130.4399     8.2438     8.0945
  237.5000   133.5832     8.2390     8.0889
  238.0000   133.2624     8.2343     8.0833
  238.5000   131.2843     8.2295     8.0777
  239.0000   129.8133     8.2247     8.0722
  239.5000   129.2654     8.2200     8.0666
  240.0000   129.0290     8.2152     8.0610
  240.5000   128.7887     8.2105     8.0554
  241.0000   128.5775     8.2059     8.0476
  241.5000   128.8496     8.2010     8.0469
  242.0000   130.0977     8.1940     8.0533
  242.5000   130.9709     8.1969     7.8307
  243.0000   130.8049     7.8371     7.5925
  243.5000   130.6646     7.6022     7.3616
  244.0000   130.9792     7.3748     7.1377
  244.5000   131.8995     7.1543     6.9206
  245.0000   134.1889     6.9404     6.7102
  245.5000   135.7456     6.8118     6.5025
  246.0000   134.8728     6.7222     6.4426
  246.5000   132.5802     6.6338     6.3833
  247.0000   130.5743     6.5160     6.4372
  247.5000   131.4232     6.3963     6.2008
  248.0000   132.3926     6.2789     6.0333
  248.5000   133.3528     6.1632     5.8723
  249.0000   134.3567     6.1513     5.7157
  249.5000   133.0513     6.1515     5.6082
  250.0000   130.9324     6.1515     5.4522
  250.5000   129.4203     6.2087     5.7249
  251.0000   130.1196     6.3755     6.0728
  251.5000   130.8315     6.5976     6.3282
  252.0000   130.1788     6.8284     6.3225
  252.5000   129.0271     7.0673     6.7621
  253.0000   129.4861     7.3135     7.0692
  253.5000   130.2295     7.5394     7.3901
  254.0000   129.2418     7.4039     7.7256
  254.5000   126.6560     7.1477     7.8962
  255.0000   123.9471     6.9005     7.6801
  255.5000   123.0363     6.6617     7.1940
  256.0000   123.0057     6.4312     6.6547
  256.5000   124.5253     6.2878     6.1559
  257.0000   127.0069     6.0333     5.6944
  257.5000   129.4802     5.9904     5.3006
  258.0000   132.0825     5.9479     5.3016
  258.5000   129.9374     5.9281     5.4781
  259.0000   126.3226     5.9281     5.7022
  259.5000   124.6551     6.1978     5.9372
  260.0000   123.9829     6.5132     6.1813
  260.5000   123.5198     6.8447     6.5025
  261.0000   123.0483     7.1930     6.5017
  261.5000   123.5594     7.5591     7.1280
  262.0000   125.4420     7.9438     7.4011
  262.5000   127.3355     8.0627     7.6804
  263.0000   125.1879     8.0978     7.9703
  263.5000   122.2689     8.1331     8.2707
  264.0000   119.3447     8.1685     8.5833
  264.5000   116.5560     8.2041     8.6764
  265.0000   116.1033     8.2395     8.7039
  265.5000   116.9127     8.2702     8.7314
  266.0000   119.2536     8.3224     8.7590
  266.5000   121.5727     8.3779     8.7867
  267.0000   123.8844     8.4335     8.8145
  267.5000   125.9062     8.4895     8.8424
  268.0000   124.7168     8.5459     8.8704
  268.5000   121.8938     8.5814     8.9048
  269.0000   119.0813     8.4979     8.8366
  269.5000   117.2524     8.4375     8.7493
  270.0000   118.5092     8.3564     8.6612
  270.5000   120.0446     8.2687     8.5814
  271.0000   121.5873     8.3552     8.7441
  271.5000   122.4987     8.5822     8.8883
  272.0000   120.6889     8.8171     9.0348
  272.5000   118.7943     9.1537     9.1553
  273.0000   116.8492     8.9119     9.2033
  273.5000   116.5524     8.5048     9.4128
  274.0000   118.2783     8.1198     9.0601
  274.5000   120.0123     7.7522     8.1920
