~VERSION INFORMATION
 VERS.                2.0:   CWLS LOG ASCII STANDARD - VERSION 2.0
 WRAP.                 NO:   ONE LINE PER DEPTH STEP
~WELL INFORMATION
#MNEM.UNIT      DATA TYPE    INFORMATION
#----------   ------------   ------------------------------
 STRT.F           15.0000:   START DEPTH
 STOP.F          692.0000:   STOP DEPTH
 STEP.F            0.5000:   STEP LENGTH
 NULL.          -999.2500:   NO VALUE
 COMP.    FENIX & SCISSON:   COMPANY
 WELL. S 15 NPR #3 #73-15:   WELL
 FLD .             TEAPOT:   FIELD
 LOC .      S15 T38N R78W:   LOCATION
 CNTY.            NATRONA:   COUNTY
 STAT.            WYOMING:   STATE
 CTRY. UNITED STATES OF AMERICA:   COUNTRY
 SRVC.              Welex:   SERVICE COMPANY
 DATE.        23-FEB-1977:   LOGDATE
 API .       490251057900:   API NUMBER
~CURVE INFORMATION
#MNEM.UNIT       API CODE    CURVE DESCRIPTION
#----------   ------------   ------------------------------
 DEPT.F                  :   
 SPR .MV     07 010 01 00:   SPONTANEOUS POTENTIAL
 SGRD.OHMM   07 220 05 00:   SHALLOW GUARD RESISTIVITY
 ILD .OHMM   07 120 46 00:   INDUCTION LOG DEEP
 ILM .OHMM   07 120 44 00:   INDUCTION LOG MEDIUM
 CALD.IN     45 280 60 00:   CALIPER
 GRD .GAPI   45 310 01 00:   GAMMA RAY FROM DENSITY LOG
 CORR.G/C3   45 356 01 00:   DENSITY CORRECTION
 DPHI.DEC    45 890 10 00:   DENSITY POROSITY SANDSTONE
 RHOB.G/C3   45 350 01 00:   BULK DENSITY
~PARAMETER INFORMATION
#MNEM.UNIT          VALUE    DESCRIPTION
#----------   ------------   ------------------------------
 PD  .                 GL:   PERMANENT DATUM
 EPD .F              5251:   ELEVATION PERMANENT DATUM
 LMF .                 GL:   LOG MEASURED FROM
 DMF .                 GL:   DRILLING MEASURED FROM
 EGL .F              5251:   GROUND LEVEL
 DATE.            2-23-77:   RUN DATE
 RUN .                  1:   RUN NUMBER
 DD  .F               686:   DEPTH DRILLER
 DL  .F               695:   DEPTH LOGGER
 BLI .F               693:   BOTTOM LOG INTERVAL
 TLI .F                42:   TOP LOG INTERVAL
 CS  .IN            8.625:   CASING SIZE
 CBD .F                42:   CASING BOTTOM DRILLER
 CBL .F                42:   CASING BOTTOM LOGGER
 BS  .IN            7.875:   BIT SIZE
 BSD .F               686:   BIT SIZE AT DEPTH
 DFT .           CHEM GEL:   DRILLING FLUID TYPE
 DFD .                8.8:   DRILLING FLUID DENSITY
 DFV .                 33:   DRILLING FLUID VISCOSITY
 DFPH.                  7:   DRILLING FLUID PH
 DFL .               11.2:   DRILLING FLUID LOSS
 MSS .          FLOW LINE:   MUD SAMPLE SOURCE
 RMS .OHMM            .32:   RESISTIVITY MUD SAMPLE
 MST .F                68:   MUD SAMPLE TEMPERATURE
 RMF .OHMM            .28:   RESISTIVITY MUD FILTRATE SAMPLE
 MFST.F                68:   MUD FILTRATE SAMPLE TEMPERATURE
 RMC .OHMM            .61:   RESISTIVITY MUD CAKE
 MCST.F                68:   MUD CAKE SAMPLE TEMPERATURE
 MFSS.           MEASURED:   MUD FILTRATE SAMPLE SOURCE
 MCSS.           MEASURED:   MUD CAKE SAMPLE SOURCE
 RMB .OHMM           .410:   RESISTIVITY MUD AT BHT
 BHT .F                53:   BOTTOM HOLE TEMPERATURE
 TCS .HRS               2:   TIME CURCULATED STOPPED
 MRT .F                53:   MAXIMUM RECORDED TEMPERATURE
 LUN .               8611:   LOGGING UNIT NUMBER
 LUL .           GILLETTE:   LOGGING UNIT LOCATION
 ENGI.            C. DOAK:   RECORDING ENGINEER
 WITN.         STUEBINGER:   WITNESSED BY
 CLNT.            A2DTECH:   CLIENT CODE
 ORIG. 1", 2.5", 5" PRINT:   ORIGIN OF DATA
 UWI .       490251057900:   UNIQUE WELL ID
 DICO. A2D Technologies, Inc.:   DIGITIZING COMPANY
~OTHER INFORMATION
~A   DEPT      SPR       SGRD        ILD        ILM       CALD         GRD      CORR       DPHI       RHOB   
# ...
  672.0000   -57.5812    10.0960     6.6411     8.9861     7.9721   129.8446     0.0915     0.0778     2.5165
  672.5000   -57.5334     9.4178     6.6080     8.9394     7.9721   132.5733     0.0907     0.0813     2.5113
  673.0000   -57.4867     8.5564     6.6080     8.8796     7.9721   134.8303     0.0898     0.0849     2.5062
  673.5000   -57.4451     8.7380     6.6080     8.9638     7.9721   133.4102     0.0889     0.0884     2.5008
  674.0000   -57.4100     9.5917     6.7355     9.1034     7.9721   135.6477     0.0880     0.0919     2.4955
  674.5000   -57.3293    10.5275     6.8935     9.2452     7.9721   105.7959     0.0871     0.0936     2.4904
  675.0000   -57.6074    11.0939     7.0551     9.3892     7.9710    53.2757     0.0861     0.0894     2.4908
  675.5000   -58.1556    11.4376     7.2206     9.5354     7.9694  -999.2500     0.0853     0.0848     2.5024
  676.0000   -58.5098    11.7773     7.3899     9.6839     7.9679  -999.2500     0.0847     0.0817     2.5129
  676.5000   -58.4849    12.1266     7.5633     9.8347     7.9664  -999.2500     0.0877     0.0746     2.5240
  677.0000   -57.5472    12.4870     7.7406     9.9479     7.9648  -999.2500     0.0904     0.0681     2.5349
  677.5000   -57.4117    12.6075     7.9475    10.0152     7.9633  -999.2500     0.0932     0.0617     2.5457
  678.0000   -57.4871    12.5823     7.8906    10.0814     7.9618  -999.2500     0.0961     0.0551     2.5560
  678.5000   -57.5879    12.5532     7.7696    10.1480     7.9603  -999.2500     0.0990     0.0540     2.5516
  679.0000   -57.6710    12.5241     7.6505    10.2150     7.9587  -999.2500     0.1005     0.0578     2.5483
  679.5000   -57.7776    12.4951     7.5331    10.2825     7.9572  -999.2500     0.0992     0.0537     2.5529
  680.0000   -57.8704    12.4662     7.4176    10.3505     7.9557  -999.2500     0.0982     0.0514     2.5571
  680.5000   -57.9746    12.4373     7.3818    10.4189     7.9542  -999.2500     0.0971     0.0593     2.5460
  681.0000   -58.0946    12.4085     7.3818    10.4814     7.9526  -999.2500     0.0960     0.0668     2.5341
  681.5000   -58.0622    12.3784     7.5194    10.5165     7.9511  -999.2500     0.0949     0.0698     2.5321
  682.0000   -58.0596    12.3787     7.7316    10.5681     7.9496  -999.2500     0.0938     0.0698     2.5318
  682.5000   -57.3941    12.3786     8.8069    10.6203     7.9481  -999.2500     0.0927     0.0717     2.5290
  683.0000   -50.4504    12.3780    10.4550    10.6759     7.9465  -999.2500     0.0934     0.0738     2.5260
  683.5000   -31.4075    12.6358    12.4115    10.7309     7.9450  -999.2500     0.0946     0.0746     2.5260
  684.0000   -13.8171    12.8425    14.7342    10.7787     7.9435  -999.2500     0.0959     0.0746     2.5272
  684.5000    -2.8859    12.6210  -999.2500    10.8872     7.9420  -999.2500     0.0971     0.0732     2.5289
  685.0000    -3.3275    12.4278  -999.2500    10.8335     7.9404  -999.2500     0.0983     0.0706     2.5297
  685.5000  -999.2500    12.2914  -999.2500    13.5020     7.9389  -999.2500     0.0997     0.0729     2.5245
  686.0000  -999.2500    12.0407  -999.2500    18.5877     7.9373  -999.2500     0.1004     0.0755     2.5185
  686.5000  -999.2500    11.7951  -999.2500    29.1482     7.9359  -999.2500     0.0991     0.0777     2.5179
  687.0000  -999.2500    11.5546  -999.2500    20.9618     7.9344  -999.2500     0.0978     0.0738     2.5198
  687.5000  -999.2500    11.0311  -999.2500    15.3263     7.9325  -999.2500     0.0963     0.0750     2.5224
  688.0000  -999.2500    10.4429  -999.2500    11.9089     7.9349  -999.2500     0.0968     0.0777     2.5191
  688.5000  -999.2500     9.8861  -999.2500     9.2543     7.9400  -999.2500     0.0934     0.0803     2.5149
  689.0000  -999.2500     9.3590  -999.2500     7.1992     7.9448  -999.2500     0.0902     0.0829     2.5116
  689.5000  -999.2500     8.8111  -999.2500     5.5788     7.9494  -999.2500     0.0855     0.0856     2.5079
  690.0000  -999.2500     8.2192  -999.2500     4.3231     7.9542  -999.2500     0.0865     0.0882     2.5039
  690.5000  -999.2500     7.6670  -999.2500     4.0893     7.9589  -999.2500     0.0906     0.0891     2.5007
  691.0000  -999.2500     7.2468  -999.2500     4.0893     7.9637  -999.2500     0.0945     0.0878     2.4972
  691.5000  -999.2500     6.0254  -999.2500     4.0893     7.9684  -999.2500     0.0966     0.0865     2.5018
  692.0000  -999.2500     5.9152  -999.2500     4.0893     7.9721  -999.2500     0.0964     0.0865     2.4942
