~VERSION INFORMATION
 VERS.                2.0:   CWLS LOG ASCII STANDARD - VERSION 2.0
 WRAP.                 NO:   ONE LINE PER DEPTH STEP
~WELL INFORMATION
#MNEM.UNIT      DATA TYPE    INFORMATION
#----------   ------------   ------------------------------
 STRT.F           84.0000:   START DEPTH
 STOP.F          860.0000:   STOP DEPTH
 STEP.F            0.5000:   STEP LENGTH
 NULL.          -999.2500:   NO VALUE
 COMP.               NAVY:   COMPANY
 WELL. 52-S-11  NPR #3 #52S-11:   WELL
 FLD .        TEAPOT DOME:   FIELD
 LOC .      S11 T38N R78W:   LOCATION
 CNTY.            NATRONA:   COUNTY
 STAT.            WYOMING:   STATE
 CTRY. UNITED STATES OF AMERICA:   COUNTRY
 SRVC.       Schlumberger:   SERVICE COMPANY
 DATE.        01-JUL-1962:   LOGDATE
 API .       490250637300:   API NUMBER
~CURVE INFORMATION
#MNEM.UNIT       API CODE    CURVE DESCRIPTION
#----------   ------------   ------------------------------
 DEPT.F                  :   
 ASN .OHMM   05 041 16 00:   AMPLIFIED SHORT NORMAL 16"
 CILD.MMHO   05 110 46 00:   CONDUCTIVITY INDUCTION LOG DEEP
 ILD .OHMM   05 120 46 00:   INDUCTION LOG DEEP
 SPR .MV     05 010 01 00:   SPONTANEOUS POTENTIAL FROM RES.
 GR  .GAPI   30 310 01 00:   GAMMA RAY
~PARAMETER INFORMATION
#MNEM.UNIT          VALUE    DESCRIPTION
#----------   ------------   ------------------------------
 LMF .                 KB:   LOG MEASURED FROM
 DMF .                 KB:   DRILLING MEASURED FROM
 EKB .F              5191:   KELLING BUSHING
 EGL .F              5186:   GROUND LEVEL
 DATE.           7-1-1962:   RUN DATE
 RUN .                  1:   RUN NUMBER
 DD  .F               860:   DEPTH DRILLER
 DL  .F               861:   DEPTH LOGGER
 BLI .F               860:   BOTTOM LOG INTERVAL
 TLI .F                91:   TOP LOG INTERVAL
 CBD .F                10:   CASING BOTTOM DRILLER
 BS  .IN             6.75:   BIT SIZE
 BSD .F               860:   BIT SIZE AT DEPTH
 DFT .            GEL-OIL:   DRILLING FLUID TYPE
 DFD .               10.2:   DRILLING FLUID DENSITY
 DFV .                 45:   DRILLING FLUID VISCOSITY
 DFL .                  4:   DRILLING FLUID LOSS
 MSS .           FLOWLINE:   MUD SAMPLE SOURCE
 RMS .OHMM           5.54:   RESISTIVITY MUD SAMPLE
 MST .F                75:   MUD SAMPLE TEMPERATURE
 RMB .OHMM           5.19:   RESISTIVITY MUD AT BHT
 BHT .F                80:   BOTTOM HOLE TEMPERATURE
 TCS .HRS               1:   TIME CURCULATED STOPPED
 MRT .F                80:   MAXIMUM RECORDED TEMPERATURE
 LUN .               2503:   LOGGING UNIT NUMBER
 LUL .              CSPR.:   LOGGING UNIT LOCATION
 ENGI.             KNOBEL:   RECORDING ENGINEER
 WITN.          JORGENSEN:   WITNESSED BY
 CLNT.            A2DTECH:   CLIENT CODE
 ORIG.      2" & 5" PRINT:   ORIGIN OF DATA
 UWI .       490250637300:   UNIQUE WELL ID
 DICO. A2D Technologies, Inc.:   DIGITIZING COMPANY
~OTHER INFORMATION
~A   DEPT      ASN       CILD        ILD        SPR         GR   
# ...
  694.0000     7.1510   153.5402     6.9497   -25.0795    77.6341
  694.5000     7.3057   146.7869     7.1736   -27.8294    69.8857
  695.0000     7.4658   143.8100     7.3216   -26.9208    63.8084
  695.5000     7.5861   141.5883     7.3944   -25.0919    61.8281
  696.0000     7.6913   140.8773     7.4719   -24.4937    59.5164
  696.5000     7.6905   140.9216     7.5381   -24.0424    57.2607
  697.0000     7.6746   140.2105     7.5334   -23.8960    56.7979
  697.5000     7.7042   139.5105     7.6065   -23.9035    57.7008
  698.0000     7.7339   139.5548     7.6018   -23.9095    57.8452
  698.5000     7.7783   138.8327     7.5981   -23.9154    52.0712
  699.0000     7.8381   138.1217     7.5944   -24.0739    52.6706
  699.5000     7.9281   137.4106     7.6675   -24.6896    64.8027
  700.0000     7.9948   136.6996     7.6756   -25.6705    70.7132
  700.5000     8.0628   137.5000     7.7353   -27.1411    67.5124
  701.0000     8.0165   137.4320     7.7297   -28.0603    67.3486
  701.5000     7.9553   135.3170     7.6494   -27.0007    61.1149
  702.0000     7.9396   133.0882     7.7208   -25.0250    60.1924
  702.5000     7.9841   129.3489     7.8680   -24.7246    59.5733
  703.0000     8.0590   125.6096     7.9394   -25.1895    61.2304
  703.5000     8.2095   122.6256     7.9339   -24.7381    70.6265
  704.0000     8.5003   119.6415     7.9294   -23.9819    74.8633
  704.5000     8.7979   120.4339     7.9249   -22.9209    85.1728
  705.0000     8.8125   125.0028     7.8446   -22.3171    82.8815
  705.5000     8.6905   137.1245     7.5366   -21.8658    89.6980
  706.0000     8.5234   152.2673     6.8493   -21.7194    89.0789
  706.5000     7.9024   174.9631     6.0102   -21.8780    87.2458
  707.0000     6.8880   191.6165     5.5505   -22.3426    70.2383
  707.5000     6.2368   196.2240     5.3185   -22.6535    70.8332
  708.0000     6.1301   197.7341     5.0105   -22.5071    66.4205
  708.5000     6.3412   197.7794     5.0060   -21.9033    66.4084
  709.0000     6.1587   197.0612     5.1568   -22.0618    66.2445
  709.5000     6.2337   195.5878     5.4615   -23.4397    57.5820
  710.0000     7.0952   182.0297     5.9020   -24.2079    58.9356
  710.5000     8.2594   146.5684     6.5045   -24.8237    56.4955
  711.0000     8.8033   128.4786     7.4105   -25.5919    56.0282
  711.5000     9.2756   116.4311     8.2406   -26.0552    49.6448
  712.0000     9.5278   111.1812     8.8432   -26.5185    50.9984
  712.5000     9.6179   108.1972     9.0663   -26.6770    47.7997
  713.0000     9.6625   111.2554     8.7583   -26.5305    43.9940
  713.5000     9.6315   113.5584     8.5263   -26.5366    46.5615
  714.0000     9.6006   114.3508     8.4459   -26.8476    46.0880
  714.5000     9.6301   114.3882     8.4415   -27.3110    42.2401
  715.0000     9.6899   114.3502     8.5129   -27.6231    38.0780
  715.5000     9.8223   112.9516     8.8119   -27.3227    26.5981
  716.0000    10.2739   109.2216     9.1199   -27.3302    21.0076
  716.5000    10.7893   103.2164     9.6364   -27.6411    19.7448
  717.0000    11.3046    95.7006    10.0872   -28.2569     5.2002
  717.5000    12.4093    89.6954    10.8415   -28.8726     4.7328
  718.0000    13.9932    79.9138    11.5957   -29.3359    13.5219
  718.5000    14.6693    73.1534    12.1224   -30.2566    16.5448
  719.0000    15.1941    67.1482    13.1801   -32.3967    20.3263
  719.5000    16.0971    61.8983    14.3137   -35.1466    28.9636
  720.0000    18.0592    58.1590    15.0680   -37.8965    28.3446
  720.5000    19.3404    55.9302    15.6705   -40.6464    26.5115
  721.0000    20.4704    54.4561    16.1213   -44.4634    18.7604
  721.5000    21.0709    52.9759    16.4203   -43.0715    18.5966
  722.0000    21.0662    51.5098    16.4917   -41.6951    14.9446
  722.5000    20.7589    50.7917    16.4871   -40.7953    22.2133
  723.0000    19.6952    50.0735    16.4058   -39.9158    23.2664
  723.5000    19.5393    50.1199    16.2496   -39.9218    22.0373
  724.0000    19.8372    50.9123    16.0934   -40.9948    23.5295
  724.5000    20.0596    52.4600    15.7854   -43.5923    34.3162
  725.0000    19.8278    54.0077    15.4016   -44.2066    33.6874
  725.5000    17.8564    56.3106    15.0177   -42.5372    37.0137
  726.0000    16.6415    58.6136    14.5580   -42.3893    35.1806
  726.5000    16.7155    60.9166    14.0983   -43.0066    34.9070
  727.0000    17.0860    63.9749    13.5628   -41.6406    26.5850
  727.5000    16.5422    65.5225    13.1789   -38.1405    25.1292
  728.0000    16.1687    67.8255    12.8710   -36.4697    27.0898
  728.5000    15.9361    69.3732    12.6361   -35.5611    26.1669
  729.0000    15.4776    70.1662    12.4826   -34.8026    26.4745
  729.5000    15.0190    70.2039    12.7047   -34.2011    41.6096
  730.0000    15.3169    69.4845    12.8531   -34.2073    42.9746
  730.5000    16.1443    68.7664    13.0004   -35.1293    32.4592
  731.0000    16.0640    66.5469    13.1477   -36.8121    24.3639
  731.5000    15.5298    65.0734    13.2949   -37.7327    21.0339
  732.0000    15.1469    64.3460    13.5928   -38.5009    22.7327
  732.5000    15.9743    62.8818    13.9677   -38.8118    25.6121
  733.0000    17.1043    60.6531    14.3426   -38.8178    27.2723
  733.5000    16.7970    59.1703    14.7175   -38.6699    22.8565
  734.0000    16.6411    58.4522    14.9408   -38.3710    15.7124
  734.5000    17.3928    57.7417    15.2397   -38.3785    10.8445
  735.0000    18.3715    57.0242    15.4654   -38.3845    11.2876
  735.5000    18.8218    56.3066    15.6860   -38.5429    17.6488
  736.0000    17.3788    54.8038    15.9080   -39.0063    25.0752
  736.5000    16.8446    53.3600    15.9806   -39.7745    25.6671
  737.0000    16.9912    52.6418    16.0520   -40.3902    25.2028
  737.5000    18.3481    51.9237    16.0464   -39.9263    27.1634
  738.0000    19.1755    51.9701    15.9661   -39.6400    25.4791
  738.5000    18.7107    52.7625    15.8857   -39.9524    28.6536
  739.0000    18.0944    53.5549    15.6536   -40.7206    39.1119
  739.5000    17.4689    55.8578    15.4974   -41.7937    39.5581
  740.0000    16.3452    57.4055    15.0377   -42.5619    35.7523
  740.5000    16.2009    59.7085    14.5780   -42.2630    36.4960
  741.0000    16.0449    62.0115    14.1183   -40.5922    43.0119
  741.5000    15.7376    62.8039    13.7322   -38.4640    27.0636
  742.0000    15.3547    64.3516    13.4942   -36.9456    26.7480
  742.5000    15.0475    65.1440    13.3321   -35.8846    23.3975
  743.0000    14.8915    65.9366    13.1130   -35.7366    24.6024
  743.5000    14.8868    65.9743    13.0326   -37.5734    22.7663
  744.0000    14.8065    66.0121    12.9523   -38.9514    25.7891
  744.5000    14.7262    66.0570    13.0237   -39.5671    23.8043
  745.0000    14.6459    66.0941    13.0962   -40.0304    23.6405
  745.5000    14.6412    66.1312    13.0906   -39.7022    20.4417
  746.0000    14.5609    66.1683    13.1632   -38.9512    20.7331
  746.5000    14.5562    66.2055    13.3093   -38.2207    26.1838
  747.0000    14.5515    65.4780    13.3807   -37.7679    35.4282
  747.5000    14.5468    64.7598    13.3763   -37.6214    33.8986
  748.0000    14.6178    64.0509    13.4477   -38.3911    28.5755
  748.5000    14.6888    63.3328    13.5950   -39.3118    28.5634
  749.0000    14.7598    63.3699    13.6664   -40.3848    19.9028
  749.5000    14.9063    63.4070    13.7378   -41.1530    26.5675
  750.0000    14.9773    63.4441    13.7330   -41.3100    32.3278
  750.5000    15.0082    62.9633    13.7292   -40.5520    36.7133
  751.0000    15.0392    62.7484    13.7253   -40.2502    36.2489
  751.5000    15.0701    64.2900    13.7216   -39.4910    38.3634
  752.0000    15.1065    65.0812    13.6277   -38.4269    39.7211
  752.5000    14.9500    66.6215    13.4856   -37.2104    34.0959
  753.0000    14.7935    66.6513    13.4060   -37.0610    30.2955
  753.5000    14.4857    66.6811    13.3264   -37.8263    33.0157
  754.0000    14.3292    67.4661    13.2468   -37.8293    42.4148
  754.5000    14.1727    68.2512    13.0913   -37.8329    42.4058
