~VERSION INFORMATION
 VERS.                2.0:   CWLS LOG ASCII STANDARD - VERSION 2.0
 WRAP.                 NO:   ONE LINE PER DEPTH STEP
~WELL INFORMATION
#MNEM.UNIT      DATA TYPE    INFORMATION
#----------   ------------   ------------------------------
 STRT.F           30.0000:   START DEPTH
 STOP.F          677.0000:   STOP DEPTH
 STEP.F            0.5000:   STEP LENGTH
 NULL.          -999.2500:   NO VALUE
 COMP. FENIX & SCISSON INC:   COMPANY
 WELL. TEAPOT DOME #27 SX -2:   WELL
 FLD .             TEAPOT:   FIELD
 LOC .       S2 T38N R78W:   LOCATION
 CNTY.            NATRONA:   COUNTY
 STAT.            WYOMING:   STATE
 CTRY. UNITED STATES OF AMERICA:   COUNTRY
 SRVC.            Unknown:   SERVICE COMPANY
 DATE.        28-JAN-1978:   LOGDATE
 API .       490251056500:   API NUMBER
~CURVE INFORMATION
#MNEM.UNIT       API CODE    CURVE DESCRIPTION
#----------   ------------   ------------------------------
 DEPT.F                  :   
 ILD .OHMM   05 120 46 00:   INDUCTION LOG DEEP
 SN  .OHMM   05 040 16 00:   SHORT NORMAL 16"
 SPR .MV     05 010 01 00:   SPONTANEOUS POTENSIAL
 CALD.IN     45 280 60 00:   CALIPER FROM DENSITY LOG
 CORR.G/C3   45 356 01 00:   DENSITY CORRECTION
 DPHI.DEC    45 890 12 00:   DENSITY POROSITY SANDSTONE
 GRD .GAPI   45 310 01 00:   GAMMA RAY FROM DENSITY LOG
 RHOB.G/C3   45 350 01 00:   BULK DENSITY
~PARAMETER INFORMATION
#MNEM.UNIT          VALUE    DESCRIPTION
#----------   ------------   ------------------------------
 PD  .                 GL:   PERMANENT DATUM
 EPD .F              5147:   ELEVATION PERMANENT DATUM
 LMF .                 KB:   LOG MEASURED FROM
 DAPD.F                 4:   FEET ABOVE PERMANENT DATUM
 DMF .                 KB:   DRILLING MEASURED FROM
 EKB .F              5151:   KELLING BUSHING
 EGL .F              5147:   GROUND LEVEL
 DATE.        28-JAN-1978:   RUN DATE
 RUN .                  1:   RUN NUMBER
 DD  .F               675:   DEPTH DRILLER
 DL  .F               678:   DEPTH LOGGER
 BLI .F               677:   BOTTOM LOG INTERVAL
 TLI .F                40:   TOP LOG INTERVAL
 CS  .IN            8.625:   CASING SIZE
 CBD .F                40:   CASING BOTTOM DRILLER
 CBL .F                40:   CASING BOTTOM LOGGER
 BS  .IN            7.875:   BIT SIZE
 BSD .F               675:   BIT SIZE AT DEPTH
 DFT .                KCL:   DRILLING FLUID TYPE
 DFD .                8.6:   DRILLING FLUID DENSITY
 DFV .                .34:   DRILLING FLUID VISCOSITY
 DFPH.                9.5:   DRILLING FLUID PH
 MSS .           FLOWLINE:   MUD SAMPLE SOURCE
 RMS .OHMM           0.38:   RESISTIVITY MUD SAMPLE
 MST .F                60:   MUD SAMPLE TEMPERATURE
 RMF .OHMM           0.36:   RESISTIVITY MUD FILTRATE SAMPLE
 MFST.F                62:   MUD FILTRATE SAMPLE TEMPERATURE
 RMC .OHMM            0.7:   RESISTIVITY MUD CAKE
 MCST.F                63:   MUD CAKE SAMPLE TEMPERATURE
 MFSS.               MEAS:   MUD FILTRATE SAMPLE SOURCE
 MCSS.               MEAS:   MUD CAKE SAMPLE SOURCE
 RMB .OHMM           0.31:   RESISTIVITY MUD AT BHT
 BHT .F                76:   BOTTOM HOLE TEMPERATURE
 TCS .HRS               3:   TIME CURCULATED STOPPED
 MRT .F                76:   MAXIMUM RECORDED TEMPERATURE
 LUN .               2958:   LOGGING UNIT NUMBER
 LUL .             CASPER:   LOGGING UNIT LOCATION
 ENGI.           REYNOLDS:   RECORDING ENGINEER
 WITN.     MR. HARRINGTON:   WITNESSED BY
 CLNT.            A2DTECH:   CLIENT CODE
 ORIG.           5" PRINT:   ORIGIN OF DATA
 UWI .       490251056500:   UNIQUE WELL ID
 DICO. A2D Technologies, Inc.:   DIGITIZING COMPANY
~OTHER INFORMATION
~A   DEPT      ILD         SN        SPR       CALD       CORR       DPHI        GRD       RHOB   
# ...
  475.5000     8.5017     8.4085   -64.1046     8.5945     0.0914     0.1074   109.1233     2.4825
  476.0000     8.5671     8.5966   -64.2360     8.5968     0.0976     0.1083   106.3339     2.4789
  476.5000     8.5738     8.8393   -64.2111     8.5987     0.0903     0.1053   105.4676     2.4850
  477.0000     8.5217     8.4883   -64.1912     8.6005     0.0619     0.0921   105.0444     2.4927
  477.5000     8.3542     8.4351   -64.1663     8.6023     0.0604     0.0945   105.2145     2.5121
  478.0000     8.1339     8.3838   -63.9969     8.6042     0.0383     0.1111   106.4242     2.4823
  478.5000     7.6531     8.3343   -63.9770     8.6061     0.0369     0.1347   107.2130     2.4607
  479.0000     6.7171     7.6286   -63.9571     8.6080     0.0401     0.1577   109.4271     2.4493
  479.5000     6.4111     7.3763   -63.9372     8.6102     0.0507     0.1660   114.0341     2.4108
  480.0000     6.3285     7.2312   -63.9123     8.6120     0.0449     0.1694   116.4222     2.3713
  480.5000     6.3334     7.2369   -63.7429     8.6138     0.0406     0.1464   113.6275     2.3691
  481.0000     6.3822     7.3938   -63.4240     8.6157     0.0453     0.1253   113.2103     2.4171
  481.5000     6.4361     7.6144   -63.1052     8.6180     0.0499     0.0977   110.8210     2.4838
  482.0000     6.5718     8.0447   -62.6368     8.6198     0.0455     0.0902   105.4179     2.4966
  482.5000     6.7604     8.6844   -62.1635     8.6217     0.0457     0.0887   104.9953     2.5087
  483.0000     7.0024     9.2467   -61.9941     8.6235     0.0459     0.0911   104.8634     2.5140
  483.5000     8.4964     9.6442   -61.6753     8.6254     0.0521     0.0913   104.8899     2.5111
  484.0000     9.4291     9.9215   -61.5059     8.6273     0.0552     0.0838   105.9487     2.5081
  484.5000     9.7666    10.0687   -61.3363     8.6443     0.0479     0.0811   106.2691     2.5151
  485.0000     9.8418    10.1462   -60.7137     8.6313     0.0421     0.0816   107.0300     2.5204
  485.5000     9.9175    10.2244   -60.3948     8.6332     0.0407     0.0858   108.9743     2.5228
  486.0000     9.9253    10.3031   -60.3749     8.6350     0.0439     0.0873   109.7352     2.5169
  486.5000     9.9350    10.3826   -60.0560     8.6221     0.0471     0.0872   109.1647     2.5147
  487.0000    10.0114    10.5368   -60.0359     8.6091     0.0472     0.0869   106.8218     2.5126
  487.5000    10.1580    10.6179   -59.8655     8.5966     0.0474     0.0859   105.3664     2.5150
  488.0000    10.3068    10.7736   -59.8418     8.5831     0.0475     0.0898   103.6125     2.5151
  488.5000    10.6165    11.0071   -59.6724     8.5702     0.0507     0.0963   100.9710     2.5062
  489.0000    10.9844    11.3261   -59.5030     8.5576     0.0585     0.1002    98.9213     2.5093
  489.5000    11.3776    11.9762   -59.3333     8.5596     0.0601     0.0996    96.5757     2.5214
  490.0000    11.8663    12.5773   -59.0098     8.5618     0.0587     0.0876    90.4044     2.5259
  490.5000    12.7212    13.3917   -58.6909     8.5784     0.0589     0.0965    83.6057     2.5096
  491.0000    14.2152    14.3573   -58.5215     8.5803     0.0575     0.0985    83.3311     2.5000
  491.5000    15.4504    15.0779   -58.3522     8.5821     0.0547     0.1036    80.2459     2.4864
  492.0000    17.2614    15.7292   -58.1824     8.5840     0.0489     0.1227    77.6044     2.4651
  492.5000    18.3782    16.1811   -58.0084     8.5863     0.0430     0.1330    75.9887     2.4412
  493.0000    19.1694    16.6459   -57.3906     8.5881     0.0567     0.1672    73.3032     2.4174
  493.5000    20.1328    17.1241   -56.7727     8.5747     0.0644     0.1842    71.4551     2.3805
  494.0000    21.5833    17.4952   -56.1549     8.5770     0.0795     0.2042    71.4817     2.3421
  494.5000    22.8221    17.7669   -55.6716     8.5788     0.1224     0.2147    71.0592     2.3190
  495.0000    23.6392    18.1400   -54.9143     8.5811     0.1519     0.2119    70.4887     2.3056
  495.5000    23.8210    18.2797   -54.1470     8.5830     0.1595     0.2044    69.8959     2.3089
  496.0000    23.6763    18.4205   -53.6787     8.5848     0.1627     0.1891    67.8738     2.3373
  496.5000    23.5370    18.6906   -53.3598     8.5866     0.1749     0.1786    67.2980     2.3613
  497.0000    23.7181    18.7154   -53.3393     8.5885     0.1945     0.1705    67.6204     2.3734
  497.5000    23.5739    18.9833   -53.3150     8.5904     0.1920     0.1668    68.0855     2.3704
  498.0000    23.5931    19.2617   -53.2951     8.5774     0.1649     0.1605    68.8464     2.3878
  498.5000    23.7785    19.4100   -53.2752     8.5797     0.1455     0.1593    69.4601     2.4067
  499.0000    23.9614    19.4253   -53.2552     8.5815     0.1262     0.1772    69.6338     2.3828
  499.5000    24.6492    19.5750   -53.2347     8.5833     0.1158     0.1915    69.8030     2.3507
  500.0000    25.7079    19.7296   -53.2104     8.5852     0.1055     0.2085    69.6710     2.3313
  500.5000    25.9056    20.0188   -53.1905     8.5875     0.0997     0.2190    69.8455     2.3270
  501.0000    26.1100    20.0346   -53.1706     8.5876     0.1059     0.2317    69.8669     2.2994
  501.5000    27.2315    20.3284   -53.1507     8.5849     0.1225     0.2386    70.1830     2.2838
  502.0000    28.2064    20.3444   -53.1300     8.5823     0.1362     0.2468    70.5892     2.2480
  502.5000    28.8175    20.3645   -53.0979     8.5797     0.1483     0.2499    70.9955     2.2458
  503.0000    29.2449    20.3805   -53.0765     8.5771     0.1606     0.2486    71.3195     2.2459
  503.5000    29.4698    20.3953   -53.2099     8.5745     0.1607     0.2441    71.3232     2.2460
  504.0000    29.4929    20.4117   -53.0337     8.5719     0.1368     0.2247    71.4937     2.2588
  504.5000    29.5161    20.4315   -53.0120     8.5692     0.1190     0.2164    72.2559     2.2911
  505.0000    29.5392    20.1640   -52.9856     8.5666     0.1192     0.2093    76.2726     2.3091
  505.5000    27.4135    19.6357   -52.9642     8.5672     0.1208     0.2197    76.8876     2.2935
  506.0000    26.5074    19.3825   -52.9428     8.5694     0.1137     0.2233    76.9151     2.2869
  506.5000    26.3412    19.1326   -52.9215     8.5716     0.1064     0.2101    76.9377     2.3091
  507.0000    26.0068    19.0163   -53.0495     8.5740     0.0960     0.2029    77.1082     2.3185
  507.5000    25.4956    19.0351   -53.0228     8.5763     0.0902     0.2008    77.5745     2.3201
  508.0000    25.1716    19.0501   -53.0014     8.5939     0.0874     0.2013    78.1894     2.3209
  508.5000    24.3397    18.9306   -53.2790     8.5962     0.0921     0.2046    78.9567     2.3210
  509.0000    24.0260    18.9493   -53.5565     8.5984     0.0983     0.2099    79.5710     2.3173
  509.5000    24.0450    18.4528   -53.5351     8.6007     0.1074     0.2120    78.5581     2.3115
  510.0000    23.5770    18.0899   -53.8127     8.6030     0.1091     0.2064    78.2840     2.3108
  510.5000    23.2686    17.7341   -53.9408     8.6058     0.0913     0.1959    79.2041     2.3192
  511.0000    22.9733    17.2661   -53.9141     8.6060     0.0870     0.1784    79.8149     2.3514
  511.5000    22.2141    17.0433   -54.0475     8.6052     0.0812     0.1777    79.8374     2.3590
  512.0000    21.6126    16.5936   -54.6187     8.6045     0.0588     0.1759    83.5583     2.3614
  512.5000    20.4904    16.2705   -55.1899     8.6038     0.0440     0.1615    83.7288     2.3742
  513.0000    19.5425    15.8411   -55.4674     8.6031     0.0442     0.1707    84.1953     2.3907
  513.5000    18.6385    15.5296   -55.4460     8.6024     0.0459     0.1773    83.0399     2.3691
  514.0000    18.2722    15.3293   -55.4247     8.6017     0.0445     0.1784    82.1749     2.3632
  514.5000    18.0367    15.1316   -55.4033     8.6010     0.0447     0.1763    82.0439     2.3618
  515.0000    18.0517    15.1465   -55.3812     8.6003     0.0425     0.1754    81.6283     2.3672
  515.5000    18.0687    15.0515   -55.3551     8.5996     0.0403     0.1744    81.2071     2.3703
