~VERSION INFORMATION
 VERS.                2.0:   CWLS LOG ASCII STANDARD - VERSION 2.0
 WRAP.                 NO:   ONE LINE PER DEPTH STEP
~WELL INFORMATION
#MNEM.UNIT      DATA TYPE    INFORMATION
#----------   ------------   ------------------------------
 STRT.F          700.0000:   START DEPTH
 STOP.F         2111.0000:   STOP DEPTH
 STEP.F            0.5000:   STEP LENGTH
 NULL.          -999.2500:   NO VALUE
 COMP. FENIX & SCISSON INC:   COMPANY
 WELL.    35 SAX 34 #3-34:   WELL
 FLD .             TEAPOT:   FIELD
 LOC .      S34 T39N R78W:   LOCATION
 CNTY.            NATRONA:   COUNTY
 STAT.            WYOMING:   STATE
 CTRY. UNITED STATES OF AMERICA:   COUNTRY
 SRVC.            Unknown:   SERVICE COMPANY
 DATE.        29-MAY-1978:   LOGDATE
 API .       490251061700:   API NUMBER
~CURVE INFORMATION
#MNEM.UNIT       API CODE    CURVE DESCRIPTION
#----------   ------------   ------------------------------
 DEPT.F                  :   
 CALD.IN     45 280 60 00:   CALIPER FROM DENSITY LOG
 GRD .GAPI   45 310 01 00:   GAMMA RAY FROM DENSITY LOG
 RHOB.G/C3   45 350 01 00:   BULK DENSITY
 DPHI.DEC    45 890 00 00:   DENSITY POROSITY
 CORR.G/C3   45 356 01 00:   DENSITY CORRECTION
~PARAMETER INFORMATION
#MNEM.UNIT          VALUE    DESCRIPTION
#----------   ------------   ------------------------------
 PD  .                 GL:   PERMANENT DATUM
 EPD .F              5105:   ELEVATION PERMANENT DATUM
 LMF .                 KB:   LOG MEASURED FROM
 DAPD.F                10:   FEET ABOVE PERMANENT DATUM
 DMF .                 KB:   DRILLING MEASURED FROM
 EKB .F              5115:   KELLING BUSHING
 EGL .F              5105:   GROUND LEVEL
 DATE.          5-29-1978:   RUN DATE
 RUN .                  1:   RUN NUMBER
 DD  .F              2111:   DEPTH DRILLER
 DL  .F              2118:   DEPTH LOGGER
 BLI .F              2110:   BOTTOM LOG INTERVAL
 TLI .F               720:   TOP LOG INTERVAL
 CS  .IN            9.625:   CASING SIZE
 CBD .F               711:   CASING BOTTOM DRILLER
 CBL .F               721:   CASING BOTTOM LOGGER
 BS  .IN             8.75:   BIT SIZE
 BSD .F              2111:   BIT SIZE AT DEPTH
 DFT .                OIL:   DRILLING FLUID TYPE
 TCS .HRS               1:   TIME CURCULATED STOPPED
 LUN .               2958:   LOGGING UNIT NUMBER
 LUL .               CASP:   LOGGING UNIT LOCATION
 ENGI.             MILLER:   RECORDING ENGINEER
 WITN.           MCGINLEY:   WITNESSED BY
 CLNT.            A2DTECH:   CLIENT CODE
 ORIG.           5" PRINT:   ORIGIN OF DATA
 UWI .       490251061700:   UNIQUE WELL ID
 DICO. A2D Technologies, Inc.:   DIGITIZING COMPANY
~OTHER INFORMATION
~A   DEPT     CALD         GRD      RHOB       DPHI       CORR   
# ...
 1798.0000     9.8560    86.0574     2.2701     0.1537     0.3164
 1798.5000     9.7733    87.5403     2.2966     0.1483     0.3077
 1799.0000     9.6929    86.4797     2.3022     0.1429     0.2990
 1799.5000     9.6111    85.3794     2.3188     0.1357     0.2905
 1800.0000     9.4904    82.1696     2.3253     0.1408     0.2874
 1800.5000     9.3237    78.8802     2.3310     0.1489     0.2842
 1801.0000     9.1523    78.9387     2.3285     0.1478     0.2738
 1801.5000     9.0425    80.1548     2.3181     0.1457     0.2723
 1802.0000     8.9096    85.0651     2.3176     0.1552     0.2736
 1802.5000     8.7787    90.4422     2.3207     0.1678     0.2578
 1803.0000     8.6905    91.4949     2.3103     0.1804     0.2373
 1803.5000     8.6531    90.4361     2.2908     0.1804     0.2354
 1804.0000     8.7413    87.2056     2.2720     0.1621     0.2508
 1804.5000     9.1444    83.5938     2.2711     0.1454     0.2722
 1805.0000     9.5136    79.9670     2.2827     0.1429     0.2813
 1805.5000     9.5480    76.5387     2.3137     0.1404     0.2727
 1806.0000     9.5742    75.1163     2.3248     0.1397     0.2672
 1806.5000     9.6030    75.7326     2.3280     0.1487     0.2635
 1807.0000     9.6674    76.5533     2.3278     0.1569     0.2532
 1807.5000     9.7340    76.9884     2.3174     0.1651     0.2454
 1808.0000     9.4872    76.3728     2.3045     0.1734     0.2461
 1808.5000     9.4740    75.7896     2.2915     0.1756     0.2501
 1809.0000     9.4761    75.8940     2.2782     0.1596     0.2538
 1809.5000     9.8927    77.5383     2.2765     0.1528     0.2625
 1810.0000     9.5025    80.2449     2.2929     0.1639     0.2712
 1810.5000     9.4109    80.3524     2.3058     0.1749     0.2702
 1811.0000     9.4043    80.3332     2.2957     0.1851     0.2694
 1811.5000     9.3972    80.5371     2.2835     0.1701     0.2738
 1812.0000     9.3952    82.7547     2.2676     0.1465     0.2912
 1812.5000     9.4094    84.9272     2.2956     0.1253     0.3071
 1813.0000     9.4232    88.5315     2.3129     0.1177     0.3047
 1813.5000     9.4372    80.0689     2.3335     0.1107     0.3010
 1814.0000     9.4517    81.1932     2.3643     0.1006     0.2850
 1814.5000     9.4192    82.9368     2.3752     0.1044     0.2631
 1815.0000     9.3820    84.5508     2.3850     0.1111     0.2509
 1815.5000     9.3447    86.2642     2.3814     0.1124     0.2384
 1816.0000     9.2977    88.0933     2.3753     0.1118     0.2325
 1816.5000     9.1965    89.9065     2.3713     0.1127     0.2384
 1817.0000     9.0972    92.3356     2.3704     0.1138     0.2441
 1817.5000     9.0974    95.2255     2.3695     0.1150     0.2495
 1818.0000     9.1026    98.1512     2.3679     0.1175     0.2507
 1818.5000     9.1073    99.1216     2.3643     0.1245     0.2514
 1819.0000     9.1117    99.4268     2.3608     0.1190     0.2509
 1819.5000     9.1121    99.6792     2.3578     0.1111     0.2505
 1820.0000     9.1662    99.9240     2.3667     0.1047     0.2501
 1820.5000     9.2281    99.7526     2.3766     0.1086     0.2493
 1821.0000     9.2756    98.3683     2.3778     0.1098     0.2372
 1821.5000     9.2822    97.0448     2.3778     0.1094     0.2239
 1822.0000     9.2894    95.8282     2.3777     0.1090     0.2247
 1822.5000     9.2967    99.2122     2.3777     0.1084     0.2286
 1823.0000     9.3042   105.5872     2.3777     0.1078     0.2326
 1823.5000     9.3176   111.9523     2.3778     0.1115     0.2339
 1824.0000     9.4569   118.3359     2.3766     0.1146     0.2258
 1824.5000     9.1904   126.0078     2.3749     0.1127     0.2179
 1825.0000     9.2705   139.6980     2.3732     0.1090     0.2156
 1825.5000     9.3489   150.0468     2.3737     0.1147     0.2156
 1826.0000     9.4201   153.2900     2.3765     0.1228     0.2147
 1826.5000     9.2476   147.8129     2.3658     0.1301     0.2078
 1827.0000     9.2061   145.2855     2.3542     0.1288     0.2142
 1827.5000     9.1837   146.2710     2.3506     0.1271     0.2261
 1828.0000     9.1599   148.4286     2.3497     0.1239     0.2351
 1828.5000     9.0366   150.5526     2.3532     0.1145     0.2390
 1829.0000     8.9061   152.2823     2.3634     0.1050     0.2431
 1829.5000     8.8027   151.2487     2.3741     0.0955     0.2383
 1830.0000     8.7666   147.9690     2.3843     0.0918     0.2300
 1830.5000     8.5957   144.7609     2.3964     0.1009     0.2141
 1831.0000     7.1790   142.5202     2.4007     0.1082     0.1986
 1831.5000     7.3042   147.2218     2.3907     0.1154     0.1832
 1832.0000     7.8325   158.4431     2.3783     0.1221     0.1693
 1832.5000     8.4615   169.7515     2.3573     0.1253     0.1696
 1833.0000     8.5666   176.7407     2.3510     0.1321     0.1697
 1833.5000     8.6031   171.6730     2.3487     0.1393     0.1674
 1834.0000     8.6620   164.3928     2.3394     0.1426     0.1633
 1834.5000     8.8489   167.0248     2.3296     0.1397     0.1623
 1835.0000     9.0135   171.2306     2.3259     0.1415     0.1631
 1835.5000     9.0404   165.4102     2.3258     0.1432     0.1625
 1836.0000     9.0635   154.5132     2.3251     0.1449     0.1597
 1836.5000     9.0880   143.0512     2.3213     0.1519     0.1576
 1837.0000     9.0964   135.8463     2.3204     0.1586     0.1577
 1837.5000     9.1004   129.8626     2.3087     0.1653     0.1599
 1838.0000     9.1042   124.0320     2.2960     0.1670     0.1646
 1838.5000     9.1081   127.1730     2.2896     0.1623     0.1719
 1839.0000     9.1119   130.9561     2.2947     0.1633     0.1852
 1839.5000     9.1252   133.7160     2.2969     0.1591     0.1941
 1840.0000     9.1891   131.7267     2.2981     0.1486     0.2030
 1840.5000     9.2793   125.2329     2.3060     0.1392     0.2120
 1841.0000     9.2873   118.8925     2.3180     0.1348     0.2137
 1841.5000     9.2806   113.4904     2.3300     0.1303     0.2084
 1842.0000     9.2730   108.7712     2.3419     0.1257     0.2018
 1842.5000     9.2970    98.4701     2.3486     0.1234     0.1982
 1843.0000     9.3245    88.5633     2.3516     0.1292     0.1960
 1843.5000     9.3523    78.2566     2.3514     0.1295     0.1938
 1844.0000     9.3802    74.9024     2.3504     0.1318     0.1966
 1844.5000     9.3877    77.2635     2.3494     0.1230     0.2070
 1845.0000     9.3213    81.0779     2.3497     0.1157     0.2216
 1845.5000     9.2278    83.8904     2.3589     0.1106     0.2365
 1846.0000     9.1342    84.3829     2.3687     0.1181     0.2369
 1846.5000     9.0640    84.5216     2.3697     0.1217     0.2336
 1847.0000     9.0132    84.4611     2.3647     0.1191     0.2301
 1847.5000     8.9717    81.0038     2.3600     0.1150     0.2296
 1848.0000     8.9359    76.9871     2.3626     0.1039     0.2325
 1848.5000     8.9001    73.9127     2.3753     0.0887     0.2354
 1849.0000     8.8642    77.6085     2.3937     0.0827     0.2348
 1849.5000     8.8284    84.6695     2.4115     0.0952     0.2219
 1850.0000     8.7924    87.8010     2.4158     0.1095     0.2095
 1850.5000     8.7751    88.7862     2.3980     0.1134     0.1965
 1851.0000     8.7751    89.3705     2.3830     0.1040     0.1992
 1851.5000     8.7944    89.0811     2.3789     0.0972     0.2069
 1852.0000     8.8529    88.4716     2.3869     0.0904     0.2147
 1852.5000     8.9113    87.8731     2.3956     0.0869     0.2203
 1853.0000     8.9321    88.4819     2.4043     0.0923     0.2198
 1853.5000     8.9294    93.9387     2.4079     0.0966     0.2151
 1854.0000     8.9263    99.2756     2.4037     0.0858     0.2121
 1854.5000     8.9232   103.5447     2.4024     0.0715     0.2151
 1855.0000     8.9201   104.4209     2.4165     0.0786     0.2181
 1855.5000     8.9170   105.2231     2.4319     0.0897     0.2200
 1856.0000     8.9163   104.6375     2.4341     0.0962     0.2027
 1856.5000     8.9347   103.2534     2.4076     0.1027     0.1848
 1857.0000     8.9543   101.8863     2.3976     0.1113     0.1821
 1857.5000     9.0097   100.5171     2.3875     0.1199     0.1788
 1858.0000     9.0170    99.1547     2.3680     0.1153     0.1760
 1858.5000     8.9895    98.0818     2.3606     0.1110     0.1885
