~VERSION INFORMATION
 VERS.                2.0:   CWLS LOG ASCII STANDARD - VERSION 2.0
 WRAP.                 NO:   ONE LINE PER DEPTH STEP
~WELL INFORMATION
#MNEM.UNIT      DATA TYPE    INFORMATION
#----------   ------------   ------------------------------
 STRT.F           29.0000:   START DEPTH
 STOP.F          882.0000:   STOP DEPTH
 STEP.F            0.5000:   STEP LENGTH
 NULL.          -999.2500:   NO VALUE
 COMP. FENIX & SCISSON INC:   COMPANY
 WELL. NAVAL PETROLEUM RESERVE 3 S-14 #42-14:   WELL
 FLD .             TEAPOT:   FIELD
 LOC .      S14 T38N R78W:   LOCATION
 CNTY.            NATRONA:   COUNTY
 STAT.            WYOMING:   STATE
 CTRY. UNITED STATES OF AMERICA:   COUNTRY
 SRVC.              Welex:   SERVICE COMPANY
 DATE.        03-MAY-1977:   LOGDATE
 API .       490251035400:   API NUMBER
~CURVE INFORMATION
#MNEM.UNIT       API CODE    CURVE DESCRIPTION
#----------   ------------   ------------------------------
 DEPT.F                  :   
 CALD.IN     45 280 60 00:   CALIPER FROM DENSITY LOG
 GRD .GAPI   45 310 01 00:   GAMMA RAY FROM DENSITY LOG
 CORR.G/C3   45 356 01 00:   DENSITY CORRECTION
 DPHI.DEC    45 890 12 00:   DENSITY POROSITY SANDSTONE
 RHOB.G/C3   45 350 01 00:   BULK DENSITY
 SPR .MV     07 010 01 00:   SPONTANEOUS POTENTIAL
 ILD .OHMM   07 120 46 00:   INDUCTION LOG DEEP
 ILM .OHMM   07 120 44 00:   INDUCTION LOG MEDIUM
 SGRD.OHMM   07 221 05 00:   SHALLOW SHORT GUARD RESISTIVITY
~PARAMETER INFORMATION
#MNEM.UNIT          VALUE    DESCRIPTION
#----------   ------------   ------------------------------
 PD  .                 GL:   PERMANENT DATUM
 EPD .F              5206:   ELEVATION PERMANENT DATUM
 LMF .                 GL:   LOG MEASURED FROM
 DMF .                 GL:   DRILLING MEASURED FROM
 EGL .F              5206:   GROUND LEVEL
 DATE.        03-MAY-1977:   RUN DATE
 RUN .                  1:   RUN NUMBER
 DD  .F               855:   DEPTH DRILLER
 DL  .F               884:   DEPTH LOGGER
 BLI .F               882:   BOTTOM LOG INTERVAL
 TLI .F                28:   TOP LOG INTERVAL
 CS  .IN            8.625:   CASING SIZE
 BS  .IN               12:   BIT SIZE
 BSD .F               855:   BIT SIZE AT DEPTH
 DFT .            KCL MUD:   DRILLING FLUID TYPE
 DFD .                8.7:   DRILLING FLUID DENSITY
 BHT .F                75:   BOTTOM HOLE TEMPERATURE
 TCS .HRS            0130:   TIME CURCULATED STOPPED
 MRT .F                75:   MAXIMUM RECORDED TEMPERATURE
 ENGI.            C. DOAK:   RECORDING ENGINEER
 WITN.            R. LYON:   WITNESSED BY
 CLNT.            A2DTECH:   CLIENT CODE
 ORIG.           5" PRINT:   ORIGIN OF DATA
 UWI .       490251035400:   UNIQUE WELL ID
 DICO. A2D Technologies, Inc.:   DIGITIZING COMPANY
~OTHER INFORMATION
~A   DEPT       CALD      GRD       CORR       DPHI         RHOB      SPR        ILD        ILM       SGRD   
# ...
  795.5000     7.9322   102.1893     0.0453     0.1264     2.4583   -30.0909    10.9726     9.1039    13.5873
  796.0000     7.9467   101.2810     0.0514     0.1221     2.4730   -30.1142    10.9600     9.1027    13.6806
  796.5000     7.9463    98.7260     0.0587     0.1155     2.4860   -30.2432    10.8187     9.1012    13.4916
  797.0000     7.9459   102.7936     0.0542     0.1129     2.4882   -30.3936    10.5221     9.1000    13.3978
  797.5000     7.9454   106.0386     0.0436     0.1141     2.4822   -30.3950    10.3048     9.1619    13.3046
  798.0000     7.9450   109.6213     0.0391     0.1240     2.4702   -30.5455    10.0919     9.1607    13.3960
  798.5000     7.9445   112.3058     0.0406     0.1272     2.4627   -30.8450    10.1606     9.0964    13.4881
  799.0000     7.9440   111.9963     0.0465     0.1191     2.4731   -30.9958    10.1589     9.0949    13.5808
  799.5000     7.9587   109.2915     0.0554     0.1203     2.4836   -31.1462    10.1575     8.9688    13.5796
  800.0000     7.9582   106.5868     0.0614     0.1158     2.5075   -31.6632    10.1708     8.8400    13.5646
  800.5000     7.9623   102.6651     0.0524     0.1045     2.4895   -32.0960    10.2604     8.8099    13.4740
  801.0000     7.9657   100.7355     0.0478     0.1030     2.4850   -32.5288    10.3617     8.7800    13.3835
  801.5000     7.9692    98.9334     0.0508     0.1147     2.4895   -32.9592    10.2160     8.7173    13.2888
  802.0000     7.9727   101.4725     0.0463     0.1176     2.4775   -32.9663    10.0030     8.7156    13.1028
  802.5000     7.9762   103.5626     0.0352     0.1248     2.4603   -33.1225     9.9306     8.7743    12.8185
  803.0000     7.9797   104.0060     0.0223     0.1299     2.4520   -33.2787    10.0648     8.7725    12.6500
  803.5000     7.9832   102.5516     0.0237     0.1320     2.4647   -33.3075    10.1313     8.8317    12.8228
  804.0000     7.9868    98.6037     0.0327     0.1260     2.4669   -33.4439    10.0581     8.8299    13.0880
  804.5000     7.9867    96.0530     0.0372     0.1257     2.4624   -33.4510     9.9167     8.8277    13.2677
  805.0000     7.9865    96.7958     0.0401     0.1296     2.4572   -33.4582     9.7099     8.8259    13.4479
  805.5000     7.9864    94.5445     0.0401     0.1287     2.4616   -33.6144     9.7740     8.8859    13.4356
  806.0000     7.9862    96.4849     0.0386     0.1284     2.4556   -33.6215     9.7699     8.8836    13.2553
  806.5000     7.9861    99.9495     0.0355     0.1311     2.4511   -33.7779     9.9027     8.8819    13.1605
  807.0000     7.9859   101.5631     0.0355     0.1324     2.4586   -33.9357     9.9689     8.8801    13.0663
  807.5000     7.9858   101.1068     0.0355     0.1283     2.4720   -33.9429    10.0348     8.8779    13.0628
  808.0000     7.9857   101.4005     0.0354     0.1224     2.4735   -34.0991     9.9615     8.8761    13.0594
  808.5000     8.0005   103.0414     0.0355     0.1236     2.4705   -34.2552     9.8177     8.7525    12.9659
  809.0000     8.0003   103.6345     0.0399     0.1251     2.4697   -34.5605     9.6825     8.6306    12.8723
  809.5000     8.0001   104.8263     0.0413     0.1245     2.4734   -35.0303     9.4805     8.4517    12.8689
  810.0000     8.0000   105.7788     0.0398     0.1209     2.4794   -35.3217     9.3472     8.2765    12.6888
  810.5000     7.9998   109.6038     0.0383     0.1176     2.4734   -35.7760     9.2797     8.2745    12.6854
  811.0000     7.9997   107.6519     0.0323     0.1263     2.4651   -36.0812     9.2127     8.2728    12.5946
  811.5000     7.9995   103.9036     0.0263     0.1245     2.4688   -36.3864     9.2097     8.2712    12.4172
  812.0000     7.9994   100.0056     0.0247     0.1233     2.4599   -36.8407     9.2058     8.2695    11.9923
  812.5000     7.9992   107.9340     0.0037     0.1392     2.4428   -37.2950     9.1394     8.2679    11.8245
  813.0000     7.9991   108.8264     0.0172     0.1451     2.4314   -37.6019     9.1363     8.2092    11.6590
  813.5000     7.9989   109.5677     0.0097     0.1463     2.4336   -38.0562     9.0704     8.2072    11.7368
  814.0000     7.9988   111.2087     0.0171     0.1386     2.4493   -38.2124     9.0049     8.2056    11.6528
  814.5000     7.9987   112.8496     0.0231     0.1314     2.4553   -38.5176     9.0019     8.1474    11.5694
  815.0000     7.9985   115.8379     0.0324     0.1290     2.4620   -38.9719     8.9368     7.8690    11.3184
  815.5000     7.9983   118.8261     0.0470     0.1260     2.4709   -39.4357     8.6895     7.6001    11.0162
  816.0000     7.9982   123.9240     0.0469     0.1248     2.4559   -40.0312     8.5082     7.3296    10.7871
  816.5000     7.9980   126.7473     0.0424     0.1338     2.4484   -40.6345     8.2734     6.9436    10.6362
  817.0000     7.9979   128.5379     0.0379     0.1398     2.4379   -41.0887     7.9896     6.6142    10.4150
  817.5000     7.9978   131.9753     0.0349     0.1422     2.4349   -41.5430     7.7690     6.3004    10.1985
  818.0000     7.9826   140.8019     0.0302     0.1478     2.4319   -41.9972     7.5497     5.9191    10.0492
  818.5000     7.9825   136.1554     0.0273     0.1526     2.4214   -42.4516     7.2446     5.4467     9.7108
  819.0000     7.9823   126.2694     0.0258     0.1511     2.4285   -42.9075     6.8052     5.0033     9.5089
  819.5000     7.9822   119.7443     0.0258     0.1490     2.4408   -43.3618     6.1752     4.7084     9.3112
  820.0000     7.9821   109.1906     0.0273     0.1344     2.4662   -43.6670     5.6036     4.5162     8.9304
  820.5000     7.9819   104.9946     0.0302     0.1224     2.4744   -43.8232     5.1202     4.4226     8.2742
  821.0000     7.9818   110.0787     0.0333     0.1224     2.4744   -43.8304     4.7091     4.3912     7.3895
  821.5000     7.9666   106.3290     0.0376     0.1224     2.4751   -43.3835     4.5489     4.4208     4.1704
  822.0000     7.9665   111.1136     0.0391     0.1194     2.4830   -42.6542     4.5790     4.6213     3.5562
  822.5000     7.9664   113.9596     0.0406     0.1117     2.4960   -41.9162     4.8378     5.1449     8.5555
  823.0000     7.9662   113.3462     0.0405     0.1081     2.4930   -41.4763     5.3278     5.4364    10.7456
  823.5000     7.9661   116.6338     0.0390     0.1135     2.4788   -40.8873     5.9903     5.7843    11.2756
  824.0000     7.9659   115.5801     0.0375     0.1161     2.4877   -40.5961     6.8797     6.0700    11.1167
  824.5000     7.9657   113.3289     0.0345     0.1111     2.4914   -40.1560     7.8931     6.5033    11.0374
  825.0000     7.9656   114.6704     0.0299     0.1135     2.4787   -39.7165     8.3971     7.1625    11.1118
  825.5000     7.9505   115.7126     0.0269     0.1191     2.4757   -39.4274     8.5119     7.5684    10.9555
  826.0000     7.9504   119.5400     0.0269     0.1212     2.4794   -39.2838     8.3915     7.7255    11.1822
  826.5000     7.9502   123.0349     0.0284     0.1219     2.4689   -38.9947     8.5646     7.6707    11.4928
  827.0000     7.9501   120.3345     0.0328     0.1221     2.4726   -39.0018     8.8629     7.5639    11.4897
  827.5000     7.9499   116.7360     0.0418     0.1176     2.4838   -38.7109     9.1886     7.5624    10.9438
  828.0000     7.9497   114.3350     0.0432     0.1111     2.4965   -38.4200     9.3608     7.8265    11.2471
  828.5000     7.9496   112.5328     0.0432     0.1078     2.5003   -38.1309     9.3569     7.9893    11.3229
  829.0000     7.9495   110.3795     0.0417     0.1078     2.5009   -37.8400     9.5498     7.9873    11.2411
  829.5000     7.9493   108.3282     0.0416     0.1108     2.5002   -37.5491     9.5466     8.0411    11.3161
  830.0000     7.9492   111.3165     0.0401     0.1069     2.4964   -37.4054     9.4124     8.1515    12.0395
  830.5000     7.9490   113.7059     0.0386     0.1054     2.4912   -37.2652     9.4092     8.3228    12.2886
  831.0000     7.9488   114.5998     0.0341     0.1099     2.4852   -37.1047     9.5371     8.6710    12.3705
  831.5000     7.9487   114.1435     0.0295     0.1176     2.4739   -36.8344     9.7330     8.9124    12.5386
