~VERSION INFORMATION
 VERS.                2.0:   CWLS LOG ASCII STANDARD - VERSION 2.0
 WRAP.                 NO:   ONE LINE PER DEPTH STEP
~WELL INFORMATION
#MNEM.UNIT      DATA TYPE    INFORMATION
#----------   ------------   ------------------------------
 STRT.F           65.0000:   START DEPTH
 STOP.F          860.0000:   STOP DEPTH
 STEP.F            0.5000:   STEP LENGTH
 NULL.          -999.2500:   NO VALUE
 COMP.          U.S. NAVY:   COMPANY
 WELL. NPR 3 TEAPOT DOM #71-S-34:   WELL
 FLD .             TEAPOT:   FIELD
 LOC .      S34 T39N R78W:   LOCATION
 CNTY.            NATRONA:   COUNTY
 STAT.            WYOMING:   STATE
 CTRY. UNITED STATES OF AMERICA:   COUNTRY
 SRVC. Schlumberger Well Surveying Corp:   SERVICE COMPANY
 DATE.        22-FEB-1961:   LOGDATE
 API .       490250657300:   API NUMBER
~CURVE INFORMATION
#MNEM.UNIT       API CODE    CURVE DESCRIPTION
#----------   ------------   ------------------------------
 DEPT.F                  :   
 GR  .GAPI   30 310 01 00:   GAMMA RAY
 ASN .OHMM   05 041 16 00:   AMPLIFIED SHORT NORMAL 16"
 CILD.MMHO   05 110 46 00:   CONDUCTIVITY INDUCTION LOG DEEP
 ILD .OHMM   05 120 46 00:   INDUCTION LOG DEEP
 SPR .MV     05 010 01 00:   SPONTANEOUS POTENTIAL FROM RES.
~PARAMETER INFORMATION
#MNEM.UNIT          VALUE    DESCRIPTION
#----------   ------------   ------------------------------
 LMF .                 KB:   LOG MEASURED FROM
 DMF .                 KB:   DRILLING MEASURED FROM
 EKB .F              5067:   KELLING BUSHING
 EGL .F              5063:   GROUND LEVEL
 DATE.        22-FEB-1961:   RUN DATE
 RUN .                  1:   RUN NUMBER
 DD  .F               861:   DEPTH DRILLER
 DL  .F               861:   DEPTH LOGGER
 BLI .F               860:   BOTTOM LOG INTERVAL
 TLI .F                80:   TOP LOG INTERVAL
 CBD .F                12:   CASING BOTTOM DRILLER
 BS  .IN            7.875:   BIT SIZE
 BSD .F               861:   BIT SIZE AT DEPTH
 DFT .       GEL-OIL EMUL:   DRILLING FLUID TYPE
 DFD .                9.6:   DRILLING FLUID DENSITY
 DFV .                 38:   DRILLING FLUID VISCOSITY
 DFPH.                  9:   DRILLING FLUID PH
 DFL .               15.4:   DRILLING FLUID LOSS
 MSS .           FLOWLINE:   MUD SAMPLE SOURCE
 RMS .OHMM           0.86:   RESISTIVITY MUD SAMPLE
 MST .F                68:   MUD SAMPLE TEMPERATURE
 RMF .OHMM           0.52:   RESISTIVITY MUD FILTRATE SAMPLE
 MFST.F                68:   MUD FILTRATE SAMPLE TEMPERATURE
 RMC .OHMM           1.98:   RESISTIVITY MUD CAKE
 MCST.F                68:   MUD CAKE SAMPLE TEMPERATURE
 MFSS.               MEAS:   MUD FILTRATE SAMPLE SOURCE
 MCSS.               MEAS:   MUD CAKE SAMPLE SOURCE
 RMB .OHMM           0.77:   RESISTIVITY MUD AT BHT
 BHT .F                78:   BOTTOM HOLE TEMPERATURE
 TCS .HRS               1:   TIME CURCULATED STOPPED
 MRT .F                78:   MAXIMUM RECORDED TEMPERATURE
 LUN .               2523:   LOGGING UNIT NUMBER
 LUL .               CSPR:   LOGGING UNIT LOCATION
 ENGI.             KNOBEL:   RECORDING ENGINEER
 WITN.          JORGENSEN:   WITNESSED BY
 CLNT.            A2DTECH:   CLIENT CODE
 ORIG.      2" , 5" PRINT:   ORIGIN OF DATA
 UWI .       490250657300:   UNIQUE WELL ID
 DICO. A2D Technologies, Inc.:   DIGITIZING COMPANY
~OTHER INFORMATION
~A   DEPT       GR          ASN       CILD        ILD      SPR   
   65.0000  -999.2500     0.1408     0.0000     0.0000   -25.6506
   65.5000  -999.2500     0.1408     0.0000     0.0000   -25.7108
   66.0000  -999.2500     0.1498     0.0000     0.0000   -25.9655
   66.5000  -999.2500     0.1565     0.0000     0.0000   -25.9665
   67.0000  -999.2500     0.1565     0.0000     0.0000   -26.1740
   67.5000  -999.2500     0.1565     0.0000     0.0000   -26.4381
   68.0000  -999.2500     0.1721     0.0000     0.0000   -26.6917
   68.5000  -999.2500     0.1779     0.0000     0.0784   -27.1481
   69.0000  -999.2500     0.1879     0.0000     0.0784   -27.6944
   69.5000  -999.2500     0.2137     0.0000     0.0854   -27.8519
   70.0000  -999.2500     0.2441     0.0000     0.2351   -28.0094
   70.5000  -999.2500     0.3130     0.0000     0.2351   -28.1670
   71.0000  -999.2500     0.3812     0.8840     0.3150   -28.0110
   71.5000  -999.2500     0.4529    15.8970     0.3918   -27.8549
   72.0000  -999.2500     0.5634   135.4020     0.4159   -27.6992
   72.5000  -999.2500     0.6827   232.9745     0.5486   -27.5431
   73.0000  -999.2500     0.7931   216.5120     0.5951   -27.3746
   73.5000  -999.2500     0.8920   209.4031     0.7053   -27.2312
   74.0000  -999.2500     0.9077   202.2309     0.7053   -26.8600
   74.5000  -999.2500     0.9250   198.4750     0.7053   -26.6058
   75.0000  -999.2500     0.9390   197.1656     0.7053   -26.3976
   75.5000  -999.2500     0.9513   194.5493     0.7053   -26.2448
   76.0000  -999.2500     0.9703   193.2811     0.7053   -25.9812
   76.5000  -999.2500     0.9703   192.9747     0.7053   -25.8869
   77.0000  -999.2500     0.9651   195.3211     0.7053   -25.6494
   77.5000  -999.2500     0.9546   198.9224     0.7053   -25.5134
   78.0000  -999.2500     0.9293   202.7743     0.7095   -25.3574
   78.5000  -999.2500     0.8837   207.0646     0.9671   -25.3279
   79.0000  -999.2500     0.8607   211.2617     1.2247   -25.1583
   79.5000  -999.2500     0.8451   213.4731     1.5674   -25.0731
   80.0000  -999.2500     0.8482   215.6733     1.8966   -24.8694
   80.5000  -999.2500     0.8764   216.4538     2.1541   -24.7343
   81.0000  -999.2500     0.9850   215.6557     2.4295   -24.6905
   81.5000  -999.2500     1.1394   214.3665     2.7108   -24.5192
   82.0000  -999.2500     1.3459   212.8474     3.0052   -24.3386
   82.5000  -999.2500     1.7113   210.1683     3.3699   -24.2385
   83.0000  -999.2500     2.5761   208.1479     3.6708   -24.1102
   83.5000  -999.2500     3.5681   205.9078     4.0914   -23.9820
   84.0000  -999.2500     4.1484   203.1031     4.3887   -23.7992
   84.5000  -999.2500     5.5577   201.1455     4.5455   -23.8002
   85.0000  -999.2500     6.1307   199.8563     4.5455   -23.6442
   85.5000  -999.2500     6.3942   199.1727     4.5455   -23.4881
   86.0000  -999.2500     6.4163   199.1693     4.5455   -23.4891
   86.5000  -999.2500     6.4163   199.2072     4.4671   -23.4052
   87.0000  -999.2500     6.3970   200.7281     4.4671   -23.3046
   87.5000  -999.2500     6.3537   200.9861     4.3887   -23.1779
   88.0000  -999.2500     6.3061   202.2883     4.3103   -23.3354
   88.5000  -999.2500     6.2572   203.0682     4.3103   -23.3362
   89.0000  -999.2500     6.2128   203.8486     4.2179   -23.3371
   89.5000  -999.2500     6.1829   204.6275     4.1536   -23.3378
   90.0000  -999.2500     6.1487   206.2435     4.1536   -23.4953
   90.5000  -999.2500     6.1346   207.1068     4.1536   -23.4962
   91.0000  -999.2500     6.0972   208.5340     4.0752   -23.4969
   91.5000  -999.2500     6.0714   210.0980     4.1063   -23.4976
   92.0000  -999.2500     6.0407   211.6617     4.1536   -23.4984
   92.5000  -999.2500     6.0250   212.4406     4.1536   -23.4992
   93.0000  -999.2500     6.0407   213.5136     4.1792   -23.5000
   93.5000  -999.2500     6.0660   214.7845     4.2320   -23.5008
   94.0000  -999.2500     6.1114   215.2926     4.2320   -23.5016
   94.5000  -999.2500     6.1346   215.5611     4.2320   -23.5024
   95.0000  -999.2500     6.1659   214.7726     4.3103   -23.5031
   95.5000  -999.2500     6.1689   211.8534     4.3103   -23.5039
   96.0000  -999.2500     6.1972   208.1609     4.3887   -23.5048
   96.5000  -999.2500     6.2593   204.5725     4.4671   -23.5055
   97.0000  -999.2500     6.3305   201.0580     4.5825   -23.3495
   97.5000  -999.2500     6.4632   197.0937     4.7113   -23.3248
   98.0000  -999.2500     6.5809   192.0214     4.9373   -23.2288
   98.5000  -999.2500     6.7354   187.2636     5.1573   -23.1951
   99.0000  -999.2500     6.9327   181.6588     5.4075   -23.1961
   99.5000  -999.2500     7.0443   174.7681     5.4859   -23.0906
  100.0000  -999.2500     7.2457   170.5852     5.5381   -23.0408
  100.5000  -999.2500     7.5567   166.1402     5.4075   -23.0415
  101.0000  -999.2500     7.6682   166.1364     5.3589   -22.9963
  101.5000  -999.2500     7.5430   170.4584     5.2301   -22.8864
  102.0000  -999.2500     7.3543   181.0186     5.0940   -22.8871
  102.5000  -999.2500     7.1811   186.6053     4.9726   -22.8879
  103.0000  -999.2500     7.0423   189.9033     4.7806   -22.8888
  103.5000  -999.2500     6.9474   193.5458     4.7022   -22.8895
  104.0000  -999.2500     6.8601   195.8934     4.6238   -22.9039
  104.5000  -999.2500     6.7606   197.5300     4.6238   -23.0479
  105.0000  -999.2500     6.7011   198.2367     4.6238   -23.0486
  105.5000  -999.2500     6.6354   197.1565     4.6238   -23.0494
  106.0000  -999.2500     6.6197   195.0836     4.7022   -23.0503
  106.5000  -999.2500     6.6257   192.7704     4.6238   -23.0509
  107.0000  -999.2500     6.6368   188.9106     4.7022   -23.0517
  107.5000  -999.2500     6.7293   184.8940     4.7806   -23.0527
  108.0000  -999.2500     6.8119   178.7252     5.0355   -23.0533
  108.5000  -999.2500     6.9484   173.0786     5.2931   -23.0541
  109.0000  -999.2500     7.1186   166.0733     5.5643   -23.0549
  109.5000  -999.2500     7.3362   161.3885     5.7299   -23.0556
  110.0000  -999.2500     7.5430   156.3480     5.9718   -23.0564
  110.5000  -999.2500     7.8887   151.1711     6.2696   -23.0572
  111.0000  -999.2500     8.1615   145.3056     6.5428   -23.0580
  111.5000  -999.2500     8.4194   139.4084     6.6716   -23.0588
  112.0000  -999.2500     8.5659   144.1059     6.7398   -23.0596
  112.5000  -999.2500     8.7050   149.3274     6.5961   -23.0603
  113.0000  -999.2500     8.7637   155.0705     6.2555   -23.0611
  113.5000  -999.2500     8.5334   158.8597     5.8777   -23.0619
  114.0000  -999.2500     8.1218   163.2968     5.6938   -23.0627
  114.5000  -999.2500     7.6526   166.0303     5.4859   -23.0636
  115.0000  -999.2500     7.5211   169.2137     5.3579   -23.0643
  115.5000  -999.2500     7.4178   171.6445     5.3075   -23.0650
  116.0000  -999.2500     7.3352   172.2884     5.2508   -23.0658
  116.5000  -999.2500     7.3843   172.2845     5.3733   -23.0666
  117.0000  -999.2500     7.4491   170.7132     5.5805   -23.0674
  117.5000  -999.2500     7.4984   169.1412     5.7210   -23.0682
  118.0000  -999.2500     7.6072   168.5528     5.7597   -23.1693
  118.5000  -999.2500     7.7152   167.5562     5.7210   -23.2265
  119.0000  -999.2500     7.7585   166.7790     5.5643   -23.2273
  119.5000  -999.2500     7.7934   166.7751     5.5311   -23.2281
  120.0000  -999.2500     7.6526   166.7710     5.4023   -23.2288
  120.5000  -999.2500     7.5239   168.4496     5.2508   -23.2296
  121.0000  -999.2500     7.4463   170.8490     5.2231   -23.2304
  121.5000  -999.2500     7.3865   172.2449     5.0940   -23.2312
  122.0000  -999.2500     7.3433   174.5820     5.0940   -23.2320
  122.5000  -999.2500     7.2919   176.2605     5.0157   -23.2328
  123.0000  -999.2500     7.2299   178.5026     5.0157   -23.2335
  123.5000  -999.2500     7.1782   180.3905     5.0157   -23.2343
  124.0000  -999.2500     7.1362   181.7137     4.9373   -23.2351
  124.5000  -999.2500     7.1172   183.9765     5.0157   -23.3928
  125.0000  -999.2500     7.0970   185.0183     5.0157   -23.3934
  125.5000  -999.2500     7.0736   186.3205     5.0940   -23.3942
