~VERSION INFORMATION
 VERS.                2.0:   CWLS LOG ASCII STANDARD - VERSION 2.0
 WRAP.                 NO:   ONE LINE PER DEPTH STEP
~WELL INFORMATION
#MNEM.UNIT      DATA TYPE    INFORMATION
#----------   ------------   ------------------------------
 STRT.F          660.0000:   START DEPTH
 STOP.F         2899.5000:   STOP DEPTH
 STEP.F            0.5000:   STEP LENGTH
 NULL.          -999.2500:   NO VALUE
 COMP. LAWRENCE/ALLISON INC:   COMPANY
 WELL. NPR #3 22 X 10 #22-10:   WELL
 FLD .             TEAPOT:   FIELD
 LOC .      S10 T38N R78W:   LOCATION
 CNTY.            NATRONA:   COUNTY
 STAT.            WYOMING:   STATE
 CTRY. UNITED STATES OF AMERICA:   COUNTRY
 SRVC.            Unknown:   SERVICE COMPANY
 DATE.        11-SEP-1986:   LOGDATE
 API .       490251106200:   API NUMBER
~CURVE INFORMATION
#MNEM.UNIT       API CODE    CURVE DESCRIPTION
#----------   ------------   ------------------------------
 DEPT.F                  :   
 ROP .MIN/FT 91 810 01 00:   RATE OF DRILLING PENETRATION
 TGAS.UNITS  91 830 01 00:   TOTAL GAS FROM HOTWIRE
~PARAMETER INFORMATION
#MNEM.UNIT          VALUE    DESCRIPTION
#----------   ------------   ------------------------------
 DATE.          9-11-1986:   RUN DATE
 DD  .F              2900:   DEPTH DRILLER
 TLI .F              1380:   TOP LOG INTERVAL
 WITN. R. HUSK/K. FREDERICK:   WITNESSED BY
 CLNT.            A2DTECH:   CLIENT CODE
 ORIG.           5" PRINT:   ORIGIN OF DATA
 UWI .       490251106200:   UNIQUE WELL ID
 DICO. A2D Technologies, Inc.:   DIGITIZING COMPANY
~OTHER INFORMATION
~A   DEPT      ROP         TGAS 
  660.0000  -999.2500     3.8880
  660.5000  -999.2500     3.9137
  661.0000  -999.2500     3.9393
  661.5000  -999.2500     3.9649
  662.0000     1.5429     3.9906
  662.5000     1.5459     4.0162
  663.0000     1.5454     4.0419
  663.5000     1.5448     4.0675
  664.0000     1.5612     4.0931
  664.5000     1.6008     4.1188
  665.0000     1.6758     4.1444
  665.5000     1.7416     4.1700
  666.0000     1.7079     4.1957
  666.5000     1.6631     4.2213
  667.0000     1.5962     4.2470
  667.5000     1.5625     4.2726
  668.0000     1.5509     4.2982
  668.5000     1.5503     4.3239
  669.0000     1.5498     4.3495
  669.5000     1.5382     4.3751
  670.0000     1.5371     4.4008
  670.5000     1.5260     4.4264
  671.0000     1.5254     4.4520
  671.5000     1.5261     4.4777
  672.0000     1.5355     4.5033
  672.5000     1.5366     4.5290
  673.0000     1.5473     4.5546
  673.5000     1.5581     4.5802
  674.0000     1.5689     4.6059
  674.5000     1.5769     4.6315
  675.0000     1.5763     4.6571
  675.5000     1.5725     4.6828
  676.0000     1.5396     4.7084
  676.5000     1.4674     4.7340
  677.0000     1.4022     4.7597
  677.5000     1.3523     4.7853
  678.0000     1.3698     4.8110
  678.5000     1.4098     4.8366
  679.0000     1.4532     4.8622
  679.5000     1.5040     4.8879
  680.0000     1.5599     4.9135
  680.5000     1.5563     4.9391
  681.0000     1.5492     5.0503
  681.5000     1.5532    12.2844
  682.0000     1.5442    14.3549
  682.5000     1.5431    10.4947
  683.0000     1.5420     7.2230
  683.5000     1.5409     5.4449
  684.0000     1.5454     5.5973
  684.5000     1.5438     5.9714
  685.0000     1.5441     5.9634
  685.5000     1.5545     5.9695
  686.0000     1.5428     5.9755
  686.5000     1.4873     5.9815
  687.0000     1.3838     5.9876
  687.5000     1.3438     5.9936
  688.0000     1.3870     5.9996
  688.5000     1.4412     6.0056
  689.0000     1.5176     6.0117
  689.5000     1.5608     6.0177
  690.0000     1.5708     6.0237
  690.5000     1.5697     6.0298
  691.0000     1.5686     6.0358
  691.5000     1.5675     6.0418
  692.0000     1.5664     6.0478
  692.5000     1.5653     6.0539
  693.0000     1.5642     6.0599
  693.5000     1.5598     6.0659
  694.0000     1.5546     6.0719
  694.5000     1.5608     6.0780
  695.0000     1.5597     6.0840
  695.5000     1.5586     6.0900
  696.0000     1.5575     6.0961
  696.5000     1.5564     6.1021
  697.0000     1.5553     6.1081
  697.5000     1.5542     6.1141
  698.0000     1.5531     6.1202
  698.5000     1.5363     6.1262
  699.0000     1.4790     6.1322
  699.5000     1.3836     6.1383
  700.0000     1.3277     6.1443
  700.5000     1.4300     6.1503
  701.0000     1.5035     6.1563
  701.5000     1.5475     6.1624
  702.0000     1.5575     6.1684
  702.5000     1.5639     6.1744
  703.0000     1.5666     6.1805
  703.5000     1.5722     6.1865
  704.0000     1.5708     6.1925
  704.5000     1.5694     6.1985
  705.0000     1.5680     6.2046
  705.5000     1.5666     6.2106
  706.0000     1.5653     6.2166
  706.5000     1.5639     6.2226
  707.0000     1.5625     6.2287
  707.5000     1.5685     6.2347
  708.0000     1.5708     6.2407
  708.5000     1.5775     6.2468
  709.0000     1.5706     6.2528
  709.5000     1.5664     6.2588
  710.0000     1.5650     6.2648
  710.5000     1.5637     6.2709
  711.0000     1.5624     6.2769
  711.5000     1.5610     6.2829
  712.0000     1.5597     6.2890
  712.5000     1.5584     6.2950
  713.0000     1.5455     5.0181
  713.5000     1.5268    11.6282
  714.0000     1.4170    17.1291
  714.5000     1.2424    12.0213
  715.0000     0.9799     7.7121
  715.5000     0.7691     5.3618
  716.0000     0.7412     5.3202
  716.5000     0.7398     5.2786
  717.0000     0.7384     5.2371
  717.5000     0.7370     5.1955
  718.0000     0.7356     5.1539
  718.5000     0.7342     5.1124
  719.0000     0.7329     5.0708
  719.5000     0.7366     5.0292
  720.0000     0.7428     4.9809
  720.5000     0.7448     4.9871
  721.0000     0.7468     4.9945
  721.5000     0.7488     5.0018
  722.0000     0.7509     5.0092
  722.5000     0.7529     5.0166
  723.0000     0.7549     5.0239
  723.5000     0.7656     5.0313
  724.0000     0.7926     5.0387
  724.5000     0.8426     5.0460
  725.0000     0.9158     5.0534
  725.5000     0.9755     5.0608
  726.0000     0.9535     5.0681
  726.5000     0.8841     5.0755
  727.0000     0.8220     5.0829
  727.5000     0.7792     5.0902
  728.0000     0.7756     5.0976
  728.5000     0.7777     5.1049
  729.0000     0.7765     5.1123
  729.5000     0.7863     5.1197
  730.0000     0.7852     5.1270
  730.5000     0.7841     5.1344
  731.0000     0.7941     5.1418
  731.5000     0.7931     5.1491
  732.0000     0.7920     5.1565
  732.5000     0.7909     5.1639
  733.0000     0.7898     5.1712
  733.5000     0.7888     5.1786
  734.0000     0.7987     5.1860
  734.5000     0.7976     5.1933
  735.0000     0.7965     5.2007
  735.5000     0.7936     5.2081
  736.0000     0.7730     5.2154
  736.5000     0.7127     5.2228
  737.0000     0.6433     5.2302
  737.5000     0.6008     5.2375
  738.0000     0.6438     5.2449
  738.5000     0.7001     5.2523
  739.0000     0.7331     5.2596
  739.5000     0.7576     5.2670
  740.0000     0.7679     5.2744
  740.5000     0.7736     5.2817
  741.0000     0.7734     5.2891
  741.5000     0.7732     5.2965
  742.0000     0.7729     5.3038
  742.5000     0.7727     5.3112
  743.0000     0.7725     5.3186
  743.5000     0.7723     5.3259
  744.0000     0.7720     6.6436
  744.5000     0.7718    11.1829
  745.0000     0.7716    14.8592
  745.5000     0.7714    12.5316
  746.0000     0.7711     7.4078
  746.5000     0.7709     5.5557
  747.0000     0.7707     5.5274
  747.5000     0.7704     5.5066
  748.0000     0.7702     5.4858
  748.5000     0.7700     5.4650
  749.0000     0.7698     5.4441
  749.5000     0.7695     5.4233
  750.0000     0.7134     5.4025
  750.5000     0.6241     5.3817
  751.0000     0.5680     5.3608
  751.5000     0.5782     5.3400
  752.0000     0.6224     5.3192
  752.5000     0.6680     5.2984
  753.0000     0.7225     5.2775
  753.5000     0.7533     5.2567
  754.0000     0.7623     5.2359
  754.5000     0.7615     5.2151
  755.0000     0.7628     5.1943
  755.5000     0.7640     5.1734
  756.0000     0.7651     5.1526
  756.5000     0.7662     5.1318
  757.0000     0.7674     5.1110
  757.5000     0.7685     5.0901
  758.0000     0.7696     5.0693
  758.5000     0.7708     5.0485
  759.0000     0.7719     5.0277
  759.5000     0.7730     5.0068
  760.0000     0.7743     4.9843
  760.5000     0.7759     5.0104
  761.0000     0.7776     5.0388
  761.5000     0.7793     5.0672
  762.0000     0.7810     5.0956
  762.5000     0.7827     5.1240
  763.0000     0.7845     5.1524
  763.5000     0.7862     5.1808
  764.0000     0.7879     5.2092
  764.5000     0.7896     5.2376
  765.0000     0.7914     5.2660
  765.5000     0.7934     5.2944
  766.0000     0.8484     5.3228
  766.5000     0.9035     5.3512
  767.0000     0.9696     5.3795
  767.5000     1.0135     5.4079
  768.0000     0.9790     5.4363
  768.5000     0.9110     5.4647
  769.0000     0.8649     5.4931
  769.5000     0.8201     5.5215
  770.0000     0.7909     5.5499
  770.5000     0.7861     5.5783
  771.0000     0.7683     5.6067
  771.5000     0.7680     5.6351
  772.0000     0.7642     5.6635
  772.5000     0.7564     5.6919
  773.0000     0.7561     5.7203
  773.5000     0.7606     5.7486
  774.0000     0.7666     5.7770
  774.5000     0.7719     5.8054
  775.0000     0.7831     7.9204
  775.5000     0.7879    15.0152
  776.0000     0.8217    16.7551
  776.5000     0.8861    10.6823
  777.0000     0.9470     6.2623
  777.5000     0.9960     6.2346
  778.0000     0.9738     6.2069
  778.5000     0.9079     6.1792
  779.0000     0.8633     6.1515
  779.5000     0.8410     6.1238
  780.0000     0.8075     6.0915
  780.5000     0.8062     6.0773
  781.0000     0.8048     6.0604
