~VERSION INFORMATION
 VERS.                2.0:   CWLS LOG ASCII STANDARD - VERSION 2.0
 WRAP.                 NO:   ONE LINE PER DEPTH STEP
~WELL INFORMATION
#MNEM.UNIT      DATA TYPE    INFORMATION
#----------   ------------   ------------------------------
 STRT.F           25.0000:   START DEPTH
 STOP.F          867.0000:   STOP DEPTH
 STEP.F            0.5000:   STEP LENGTH
 NULL.          -999.2500:   NO VALUE
 COMP. LAWRENCE/ALLISON INC:   COMPANY
 WELL.    38-11 SX #35-35:   WELL
 FLD .             TEAPOT:   FIELD
 LOC .      S35 T39N R78W:   LOCATION
 CNTY.            NATRONA:   COUNTY
 STAT.            WYOMING:   STATE
 CTRY. UNITED STATES OF AMERICA:   COUNTRY
 SRVC.      Dresser Atlas:   SERVICE COMPANY
 DATE.        07-AUG-1985:   LOGDATE
 API .       490251104100:   API NUMBER
~CURVE INFORMATION
#MNEM.UNIT       API CODE    CURVE DESCRIPTION
#----------   ------------   ------------------------------
 DEPT.F                  :   
 SPR .MV     07 010 01 00:   SPONTANEOUS POTENTIAL
 RILD.OHMM   07 120 46 00:   INDUCTION LOG DEEP RESISTIVITY
 RILM.OHMM   07 120 44 00:   INDUCTION LOG MEDIUM RESISTIVITY
 RFOC.OHMM   07 220 04 00:   RESISTIVITY FOCUSED LOG
 PORD.DEC    45 890 12 00:   POROSITY DENSITY SANDSTONE
 CNC .DEC    42 890 03 00:   NEUTRON POROSITY SANDSTONE
 GRD .GAPI   45 310 01 00:   GAMMA RAY FROM DENSITY LOG
 CALD.IN     45 280 60 00:   CALIPER FROM DENSITY LOG
 CORR.G/C3   45 356 01 00:   DENSITY CORRECTION
 DEN .G/C3   45 350 01 00:   COMPENSATED BULK DENSTIY
~PARAMETER INFORMATION
#MNEM.UNIT          VALUE    DESCRIPTION
#----------   ------------   ------------------------------
 PD  .                 GL:   PERMANENT DATUM
 EPD .F              5110:   ELEVATION PERMANENT DATUM
 LMF .                 GL:   LOG MEASURED FROM
 DMF .                 GL:   DRILLING MEASURED FROM
 EGL .F              5110:   GROUND LEVEL
 DATE.             8-7-85:   RUN DATE
 RUN .                  1:   RUN NUMBER
 DD  .F               900:   DEPTH DRILLER
 DL  .F               869:   DEPTH LOGGER
 BLI .F               867:   BOTTOM LOG INTERVAL
 TLI .F                40:   TOP LOG INTERVAL
 CS  .IN            8.625:   CASING SIZE
 CBD .F                40:   CASING BOTTOM DRILLER
 CBL .F                40:   CASING BOTTOM LOGGER
 BS  .IN            7.875:   BIT SIZE
 BSD .F               900:   BIT SIZE AT DEPTH
 DFT .             4% KCL:   DRILLING FLUID TYPE
 MSS .           FLOWLINE:   MUD SAMPLE SOURCE
 RMS .OHMM           .222:   RESISTIVITY MUD SAMPLE
 MST .F                71:   MUD SAMPLE TEMPERATURE
 TCS .HRS               2:   TIME CURCULATED STOPPED
 MRT .F               100:   MAXIMUM RECORDED TEMPERATURE
 LUN .               6264:   LOGGING UNIT NUMBER
 LUL .               GLTE:   LOGGING UNIT LOCATION
 ENGI.           FAHLSING:   RECORDING ENGINEER
 WITN.              FIVAS:   WITNESSED BY
 CLNT.            A2DTECH:   CLIENT CODE
 ORIG.       2", 5" PRINT:   ORIGIN OF DATA
 UWI .       490251104100:   UNIQUE WELL ID
 DICO. A2D Technologies, Inc.:   DIGITIZING COMPANY
~OTHER INFORMATION
~A   DEPT      SPR       RILD       RILM       RFOC       PORD          CNC      GRD       CALD       CORR        DEN   
# ...
  728.5000    -7.4223    19.5810    19.4462    16.4688     0.1358     0.1950    66.2521     8.0518     0.1974     2.4753
  729.0000    -8.1812    19.9888    19.7534    17.2813     0.1013     0.1755    63.2706     8.0825     0.1391     2.5164
  729.5000    -8.7896    21.1216    21.3334    18.9016     0.0855     0.1585    59.3842     8.1132     0.0598     2.5383
  730.0000    -9.2474    22.4732    24.5817    21.5482     0.0663     0.1464    56.7216     8.1440     0.0430     2.5672
  730.5000    -9.8558    24.4112    29.6133    24.7355     0.0532     0.1459    56.4657     8.1297     0.0555     2.5893
  731.0000   -10.0123    25.9733    33.7587    29.1895     0.0496     0.1530    57.7299     8.1154     0.0555     2.5966
  731.5000   -10.4701    26.6983    34.7009    44.5634     0.0600     0.1815    61.1101     8.1162     0.0374     2.5705
  732.0000   -10.7773    26.5129    33.6444    58.6073     0.0812     0.2040    64.9134     8.1169     0.0317     2.5220
  732.5000   -11.0844    25.7894    28.7468    59.8277     0.1143     0.2304    67.9266     8.1178     0.0797     2.4674
  733.0000   -11.2410    24.3588    26.1929    53.1929     0.1487     0.2445    66.1566     8.1336     0.1038     2.4151
  733.5000   -11.6988    21.7717    22.1543    35.6354     0.1734     0.2607    62.8858     8.1343     0.0978     2.3867
  734.0000   -11.7128    19.2976    18.5151    23.2228     0.1857     0.2735    64.4102     8.1500     0.0500     2.3598
  734.5000   -11.8614    17.7631    16.4650    17.8613     0.1935     0.2759    63.8360     8.1658     0.0216     2.3509
  735.0000   -12.0181    16.9245    15.5798    15.8810     0.1953     0.2708    62.0600     8.1665     0.0382     2.3464
  735.5000   -12.0241    16.9233    15.3652    15.2345     0.1914     0.2670    62.3886     8.1672     0.0757     2.3577
  736.0000   -12.1819    16.6903    15.4708    14.9202     0.1875     0.2685    63.3091     8.1680     0.0983     2.3652
  736.5000   -12.0373    16.4605    15.5769    14.9181     0.1896     0.2756    64.5286     8.1687     0.1013     2.3581
  737.0000   -11.8926    16.1222    15.7919    15.0194     0.1950     0.2760    66.3460     8.1545     0.0686     2.3429
  737.5000   -11.7480    15.3610    16.0103    15.0001     0.1995     0.2781    68.7613     8.1402     0.0565     2.3414
  738.0000   -11.4513    14.8392    16.1200    14.7070     0.1980     0.2840    65.7955     8.1409     0.0716     2.3452
  738.5000   -11.1560    14.5342    16.1189    14.4036     0.1983     0.2792    64.3244     8.1417     0.0672     2.3475
  739.0000   -10.7117    14.4333    16.0070    14.3025     0.1995     0.2720    64.6470     8.1274     0.0567     2.3446
  739.5000   -10.5655    14.2346    16.0059    14.2022     0.1974     0.2691    66.4644     8.1283     0.0628     2.3469
  740.0000   -10.4209    14.2336    16.0048    14.2002     0.1917     0.2673    67.6839     8.1291     0.0734     2.3574
  740.5000   -10.5789    14.3312    16.0037    14.1983     0.1866     0.2658    67.7076     8.1298     0.0525     2.3664
  741.0000   -10.7355    14.3302    15.8926    14.2947     0.1839     0.2652    68.6281     8.1305     0.0226     2.3702
  741.5000   -11.1933    14.3290    15.7823    14.2928     0.1827     0.2754    70.7445     8.1613     0.0257     2.3710
  742.0000   -11.1993    14.3280    15.7652    14.2908     0.1806     0.2823    73.1759     8.1620     0.0407     2.3748
  742.5000   -11.3558    14.3272    15.5636    14.3883     0.1815     0.2847    75.2765     8.1328     0.0513     2.3726
  743.0000   -11.2097    14.2277    15.4555    14.3859     0.1848     0.2769    72.9082     8.1335     0.0589     2.3666
  743.5000   -11.3677    14.2268    15.2427    14.2850     0.1878     0.2712    72.9328     8.1191     0.0665     2.3637
  744.0000   -11.3737    14.2255    15.1369    14.0871     0.1887     0.2688    74.2639     8.1500     0.0710     2.3652
  744.5000   -11.3797    14.2246    14.9284    13.9883     0.1884     0.2694    75.3768     8.1957     0.0516     2.3667
  745.0000   -11.3856    14.0287    14.8248    13.8902     0.1896     0.2688    73.0088     8.1814     0.0412     2.3629
  745.5000   -11.3916    13.8355    14.9267    13.6978     0.1902     0.2673    72.4287     8.1672     0.0562     2.3585
  746.0000   -11.2470    13.6450    14.9254    13.5081     0.1875     0.2664    76.3447     8.1529     0.0728     2.3646
  746.5000   -11.2530    13.3646    14.7199    13.3204     0.1842     0.2694    73.3788     8.1510     0.0773     2.3692
  747.0000   -11.2590    13.2718    14.2198    13.0462     0.1848     0.2772    72.7987     8.1246     0.0609     2.3692
  747.5000   -11.0944    13.0890    13.7367    12.9457     0.1905     0.2869    74.0241     8.1253     0.0041     2.3640
  748.0000   -10.9437    12.9982    13.4544    12.7752     0.1947     0.2889    79.7279     8.1109    -0.0018     2.3521
  748.5000   -10.8250    12.9079    13.1779    12.7731     0.1983     0.2790    81.8442     8.1268     0.0282     2.3454
  749.0000   -10.8324    12.6426    13.0864    12.6835     0.1980     0.2697    81.2700     8.1425     0.0448     2.3455
  749.5000   -10.8384    12.5549    13.0855    12.4218     0.1965     0.2667    76.8094     8.1433     0.0374     2.3470
  750.0000   -10.8497    12.4677    12.9946    12.3287     0.1947     0.2652    69.0578     8.1603     0.0284     2.3506
  750.5000   -10.9320    12.3171    12.9237    12.2521     0.1919     0.2655    67.5813     8.1698     0.0165     2.3553
  751.0000   -11.0143    12.2090    12.8527    12.1755     0.1871     0.2667    70.0150     8.1765     0.0615     2.3673
  751.5000   -11.0966    12.7233    12.8083    11.9085     0.1803     0.2688    71.5037     8.1624     0.1035     2.3771
  752.0000   -11.2952    12.0380    12.8058    11.7428     0.1761     0.2698    70.6241     8.1639     0.0781     2.3839
  752.5000   -11.2952    11.7898    12.8032    11.7404     0.1803     0.2710    71.8421     8.1498     0.0452     2.3727
  753.0000   -11.4458    11.7072    12.8006    11.8194     0.1872     0.2805    73.3546     8.1513     0.0408     2.3638
  753.5000   -11.5964    11.7871    12.9758    12.0643     0.1871     0.2880    74.2693     8.1524     0.0513     2.3646
  754.0000   -11.7470    12.0315    13.1534    12.1216     0.1844     0.2832    75.4828     8.1536     0.0589     2.3691
  754.5000   -11.8976    12.3665    13.3335    12.0594     0.1851     0.2758    76.6964     8.1548     0.0589     2.3632
  755.0000   -11.8976    12.7108    13.2389    11.8916     0.1869     0.2689    74.3225     8.1560     0.0515     2.3610
  755.5000   -11.8976    12.9749    13.2362    12.0545     0.1875     0.2698    71.3508     8.1572     0.0484     2.3670
  756.0000   -11.8976    12.7953    12.9553    12.2196     0.1851     0.2749    70.1683     8.1584     0.0621     2.3723
  756.5000   -12.0482    12.4420    12.7821    12.0354     0.1821     0.2872    73.1800     8.1596     0.0696     2.3753
  757.0000   -12.0482    12.1050    12.9566    11.7996     0.1815     0.2955    74.0946     8.1608     0.0697     2.3724
  757.5000   -12.1988    11.7735    12.9539    11.7161     0.1839     0.2973    72.9166     8.1469     0.0743     2.3694
  758.0000   -12.5000    11.6910    12.7738    11.7137     0.1839     0.2944    72.0330     8.1481     0.0773     2.3740
  758.5000   -12.5000    11.6090    12.6834    11.6307     0.1797     0.2886    72.3542     8.1193     0.0727     2.3800
  759.0000   -12.5000    11.5277    12.4211    11.5484     0.1782     0.2815    73.2688     8.1205     0.0664     2.3799
  759.5000   -12.5000    11.2900    12.2484    11.3877     0.1779     0.2725    73.2866     8.1067     0.0356     2.3793
  760.0000   -12.5000    11.0572    12.0781    11.2293     0.1767     0.2701    73.0009     8.1079     0.0222     2.3864
  760.5000   -12.3494    10.9042    11.9102    10.9968     0.1717     0.2725    73.3221     8.1092     0.0492     2.3977
  761.0000   -12.1988    10.8278    11.7446    10.8438     0.1659     0.2809    74.5357     8.1106     0.0657     2.4065
  761.5000   -12.0482    10.7519    11.5017    10.7618     0.1624     0.2851    76.0482     8.1118     0.0553     2.4012
