~VERSION INFORMATION
 VERS.                2.0:   CWLS LOG ASCII STANDARD - VERSION 2.0
 WRAP.                 NO:   ONE LINE PER DEPTH STEP
~WELL INFORMATION
#MNEM.UNIT      DATA TYPE    INFORMATION
#----------   ------------   ------------------------------
 STRT.F          700.0000:   START DEPTH
 STOP.F         2111.0000:   STOP DEPTH
 STEP.F            0.5000:   STEP LENGTH
 NULL.          -999.2500:   NO VALUE
 COMP. FENIX & SCISSON INC:   COMPANY
 WELL.    35 SAX 34 #3-34:   WELL
 FLD .             TEAPOT:   FIELD
 LOC .      S34 T39N R78W:   LOCATION
 CNTY.            NATRONA:   COUNTY
 STAT.            WYOMING:   STATE
 CTRY. UNITED STATES OF AMERICA:   COUNTRY
 SRVC.            Unknown:   SERVICE COMPANY
 DATE.        29-MAY-1978:   LOGDATE
 API .       490251061700:   API NUMBER
~CURVE INFORMATION
#MNEM.UNIT       API CODE    CURVE DESCRIPTION
#----------   ------------   ------------------------------
 DEPT.F                  :   
 CALD.IN     45 280 60 00:   CALIPER FROM DENSITY LOG
 GRD .GAPI   45 310 01 00:   GAMMA RAY FROM DENSITY LOG
 RHOB.G/C3   45 350 01 00:   BULK DENSITY
 DPHI.DEC    45 890 00 00:   DENSITY POROSITY
 CORR.G/C3   45 356 01 00:   DENSITY CORRECTION
~PARAMETER INFORMATION
#MNEM.UNIT          VALUE    DESCRIPTION
#----------   ------------   ------------------------------
 PD  .                 GL:   PERMANENT DATUM
 EPD .F              5105:   ELEVATION PERMANENT DATUM
 LMF .                 KB:   LOG MEASURED FROM
 DAPD.F                10:   FEET ABOVE PERMANENT DATUM
 DMF .                 KB:   DRILLING MEASURED FROM
 EKB .F              5115:   KELLING BUSHING
 EGL .F              5105:   GROUND LEVEL
 DATE.          5-29-1978:   RUN DATE
 RUN .                  1:   RUN NUMBER
 DD  .F              2111:   DEPTH DRILLER
 DL  .F              2118:   DEPTH LOGGER
 BLI .F              2110:   BOTTOM LOG INTERVAL
 TLI .F               720:   TOP LOG INTERVAL
 CS  .IN            9.625:   CASING SIZE
 CBD .F               711:   CASING BOTTOM DRILLER
 CBL .F               721:   CASING BOTTOM LOGGER
 BS  .IN             8.75:   BIT SIZE
 BSD .F              2111:   BIT SIZE AT DEPTH
 DFT .                OIL:   DRILLING FLUID TYPE
 TCS .HRS               1:   TIME CURCULATED STOPPED
 LUN .               2958:   LOGGING UNIT NUMBER
 LUL .               CASP:   LOGGING UNIT LOCATION
 ENGI.             MILLER:   RECORDING ENGINEER
 WITN.           MCGINLEY:   WITNESSED BY
 CLNT.            A2DTECH:   CLIENT CODE
 ORIG.           5" PRINT:   ORIGIN OF DATA
 UWI .       490251061700:   UNIQUE WELL ID
 DICO. A2D Technologies, Inc.:   DIGITIZING COMPANY
~OTHER INFORMATION
~A   DEPT     CALD         GRD      RHOB       DPHI       CORR   
# ...
 1066.0000     9.4085    68.1033     2.3123     0.1517     0.2469
 1066.5000     9.3870    68.4156     2.3148     0.1398     0.2779
 1067.0000     9.3535    67.4218     2.3153     0.1277     0.2852
 1067.5000     9.3198    66.4129     2.3263     0.1246     0.2893
 1068.0000     9.2855    64.7451     2.3522     0.1419     0.2815
 1068.5000     9.3009    62.6594     2.3358     0.1551     0.2639
 1069.0000     9.3459    60.5603     2.3185     0.1683     0.2488
 1069.5000     9.3386    59.9170     2.3014     0.1792     0.2485
 1070.0000     9.3223    63.0740     2.2842     0.1792     0.2549
 1070.5000     9.3345    65.2047     2.2759     0.1748     0.2612
 1071.0000     9.3819    65.3988     2.2759     0.1732     0.2675
 1071.5000     9.4296    65.3986     2.2780     0.1744     0.2696
 1072.0000     9.3906    65.4025     2.2803     0.1720     0.2626
 1072.5000     9.3440    65.8181     2.2827     0.1691     0.2549
 1073.0000     9.3125    66.2944     2.2851     0.1662     0.2486
 1073.5000     9.3376    66.3414     2.2875     0.1632     0.2459
 1074.0000     9.4103    66.2758     2.2898     0.1684     0.2432
 1074.5000     9.4825    66.1720     2.2893     0.1739     0.2423
 1075.0000     9.5547    65.2051     2.2853     0.1757     0.2444
 1075.5000     9.6271    64.1823     2.2813     0.1764     0.2465
 1076.0000     9.7004    63.7997     2.2773     0.1723     0.2487
 1076.5000     9.6942    64.1734     2.2789     0.1693     0.2508
 1077.0000     9.6736    65.0685     2.2829     0.1743     0.2520
 1077.5000     9.6527    67.2237     2.2820     0.1772     0.2527
 1078.0000     9.6320    69.3270     2.2778     0.1652     0.2535
 1078.5000     9.6114    70.5729     2.2812     0.1518     0.2637
 1079.0000     9.5907    68.7832     2.2985     0.1349     0.2750
 1079.5000     9.5700    66.5564     2.3162     0.1457     0.2758
 1080.0000     9.5493    65.1199     2.3332     0.1417     0.2641
 1080.5000     9.5314    63.6416     2.3296     0.1357     0.2501
 1081.0000     9.5318    62.5000     2.3315     0.1416     0.2529
 1081.5000     9.5320    63.3475     2.3327     0.1457     0.2492
 1082.0000     9.5329    64.1602     2.3275     0.1412     0.2423
 1082.5000     9.4966    64.8088     2.3249     0.1369     0.2470
 1083.0000     9.4494    64.7473     2.3327     0.1326     0.2529
 1083.5000     9.3384    64.6998     2.3407     0.1297     0.2557
 1084.0000     9.2347    64.6550     2.3489     0.1275     0.2555
 1084.5000     9.2332    64.6186     2.3515     0.1252     0.2555
 1085.0000     9.2510    64.2054     2.3524     0.1229     0.2555
 1085.5000     9.2671    63.7316     2.3550     0.1206     0.2555
 1086.0000     9.3158    64.0381     2.3588     0.1208     0.2513
 1086.5000     9.3775    64.6636     2.3626     0.1213     0.2442
 1087.0000     9.4486    64.3382     2.3639     0.1200     0.2370
 1087.5000     9.5204    63.8162     2.3638     0.1187     0.2298
 1088.0000     9.5513    63.9956     2.3638     0.1207     0.2227
 1088.5000     9.5519    64.1665     2.3637     0.1200     0.2160
 1089.0000     9.5493    64.3310     2.3638     0.1095     0.2170
 1089.5000     9.5448    64.8369     2.3665     0.0978     0.2201
 1090.0000     9.5404    65.5571     2.3804     0.1052     0.2173
 1090.5000     9.5358    66.2893     2.3941     0.1154     0.2093
 1091.0000     9.5330    66.3951     2.3924     0.1190     0.2012
 1091.5000     9.5581    66.0447     2.3746     0.1202     0.1994
 1092.0000     9.5836    64.4235     2.3644     0.1202     0.2112
 1092.5000     9.6090    63.0134     2.3646     0.1186     0.2248
 1093.0000     9.6323    63.1045     2.3658     0.1230     0.2298
 1093.5000     9.6257    64.2526     2.3630     0.1239     0.2353
 1094.0000     9.5752    66.1779     2.3598     0.1227     0.2431
 1094.5000     9.5229    68.1125     2.3596     0.1203     0.2508
 1095.0000     9.5210    69.4604     2.3605     0.1142     0.2584
 1095.5000     9.5292    68.9161     2.3642     0.1086     0.2655
 1096.0000     9.4428    67.0664     2.3717     0.1074     0.2650
 1096.5000     9.3486    65.5148     2.3792     0.0994     0.2581
 1097.0000     9.3634    65.2888     2.3852     0.1093     0.2510
 1097.5000     9.4162    65.2464     2.3914     0.1235     0.2410
 1098.0000     9.4104    65.4843     2.3694     0.1377     0.2093
 1098.5000     9.3790    65.7181     2.3419     0.1460     0.2285
 1099.0000     9.3107    65.9532     2.3331     0.1531     0.2602
 1099.5000     9.2729    66.1900     2.3277     0.1533     0.2801
 1100.0000     9.2729    66.3364     2.3175     0.1417     0.2922
 1100.5000     9.2726    65.5432     2.3158     0.1293     0.3242
 1101.0000     9.2826    63.4308     2.3319     0.1269     0.3193
 1101.5000     9.2960    61.2949     2.3478     0.1172     0.3055
 1102.0000     9.3095    59.1485     2.3552     0.1082     0.2920
 1102.5000     9.3230    58.2807     2.3692     0.1210     0.2787
 1103.0000     9.3364    59.5252     2.3786     0.1319     0.2533
 1103.5000     9.3499    61.4342     2.3568     0.1365     0.2247
 1104.0000     9.3634    63.3571     2.3380     0.1280     0.2033
 1104.5000     9.3769    65.1233     2.3362     0.1193     0.1989
 1105.0000     9.3904    64.2703     2.3531     0.1173     0.1947
 1105.5000     9.3924    63.4188     2.3654     0.1182     0.1904
 1106.0000     9.3922    64.4204     2.3686     0.1201     0.1862
 1106.5000     9.3924    67.2159     2.3674     0.1220     0.1856
 1107.0000     9.4109    69.0479     2.3654     0.1195     0.1858
 1107.5000     9.4859    69.9908     2.3633     0.1146     0.1899
 1108.0000     9.5533    70.9675     2.3654     0.1130     0.1938
 1108.5000     9.6209    70.6193     2.3705     0.1134     0.1957
 1109.0000     9.6551    67.9582     2.3714     0.1164     0.1961
 1109.5000     9.6635    66.7571     2.3691     0.1190     0.1963
 1110.0000     9.6712    67.7639     2.3667     0.1183     0.1966
 1110.5000     9.6789    68.3953     2.3648     0.1184     0.1969
 1111.0000     9.6867    66.0106     2.3654     0.1215     0.1972
 1111.5000     9.6945    63.2783     2.3655     0.1176     0.1975
 1112.0000     9.7022    62.9044     2.3593     0.1038     0.1984
 1112.5000     9.7100    66.9482     2.3718     0.0906     0.2302
 1113.0000     9.7179    67.2166     2.3874     0.0996     0.2415
 1113.5000     9.7255    67.4119     2.4029     0.1102     0.2367
 1114.0000     9.7257    67.6135     2.4027     0.1207     0.2319
 1114.5000     9.7022    67.6662     2.3805     0.1298     0.2334
 1115.0000     9.6741    66.4693     2.3623     0.1250     0.2381
 1115.5000     9.6402    65.2427     2.3528     0.1204     0.2470
 1116.0000     9.6100    64.6092     2.3606     0.1158     0.2557
 1116.5000     9.6057    64.1932     2.3668     0.1133     0.2611
 1117.0000     9.6007    65.2819     2.3695     0.1133     0.2599
 1117.5000     9.5957    66.8519     2.3723     0.1137     0.2524
 1118.0000     9.5906    66.0959     2.3720     0.1151     0.2434
 1118.5000     9.5856    62.6815     2.3710     0.1167     0.2344
 1119.0000     9.5803    61.8352     2.3700     0.1210     0.2253
 1119.5000     9.5755    62.3242     2.3666     0.1269     0.2162
 1120.0000     9.5829    62.7971     2.3628     0.1242     0.2080
 1120.5000     9.6351    62.7943     2.3589     0.1199     0.2129
 1121.0000     9.6857    62.9085     2.3617     0.1182     0.2272
 1121.5000     9.7112    64.9895     2.3674     0.1178     0.2397
 1122.0000     9.7113    67.1012     2.3678     0.1158     0.2424
 1122.5000     9.7109    68.1495     2.3677     0.1067     0.2449
 1123.0000     9.6903    68.3902     2.3705     0.1009     0.2474
 1123.5000     9.6678    68.3071     2.3821     0.1065     0.2449
 1124.0000     9.6457    68.2203     2.3877     0.1133     0.2420
 1124.5000     9.6459    68.1646     2.3817     0.1215     0.2449
 1125.0000     9.6858    69.1273     2.3760     0.1273     0.2493
 1125.5000     9.7252    70.3297     2.3660     0.1291     0.2537
 1126.0000     9.7648    70.7229     2.3550     0.1321     0.2581
 1126.5000     9.7599    70.6586     2.3465     0.1349     0.2620
