~VERSION INFORMATION
 VERS.                2.0:   CWLS LOG ASCII STANDARD - VERSION 2.0
 WRAP.                 NO:   ONE LINE PER DEPTH STEP
~WELL INFORMATION
#MNEM.UNIT      DATA TYPE    INFORMATION
#----------   ------------   ------------------------------
 STRT.F           42.0000:   START DEPTH
 STOP.F          612.0000:   STOP DEPTH
 STEP.F            0.5000:   STEP LENGTH
 NULL.          -999.2500:   NO VALUE
 COMP. FENIX AND SCISSON INCORPORATED:   COMPANY
 WELL. RES 3 TEAPOT DOM #25SX11-11:   WELL
 FLD .             TEAPOT:   FIELD
 LOC .      S11 T38N R78W:   LOCATION
 CNTY.            NATRONA:   COUNTY
 STAT.            WYOMING:   STATE
 CTRY. UNITED STATES OF AMERICA:   COUNTRY
 SRVC.            Unknown:   SERVICE COMPANY
 DATE.        16-FEB-1978:   LOGDATE
 API .       490251058000:   API NUMBER
~CURVE INFORMATION
#MNEM.UNIT       API CODE    CURVE DESCRIPTION
#----------   ------------   ------------------------------
 DEPT.F                  :   
 ILD .OHMM   05 120 46 00:   INDUCTION LOG DEEP
 SN  .OHMM   05 040 16 00:   SHORT NORMAL 16"
 SPR .MV     05 010 01 00:   SPONTANEOUS POTENTIAL FROM RES.
 CALD.IN     45 280 60 00:   CALIPER FROM DENSITY LOG
 CORR.G/C3   45 356 01 00:   DENSITY CORRECTION
 DPHI.DEC    45 890 12 00:   DENSITY POROSITY SANDSTONE
 GRD .GAPI   45 310 01 00:   GAMMA RAY FROM DENSITY LOG
 RHOB.G/C3   45 350 01 00:   BULK DENSITY
~PARAMETER INFORMATION
#MNEM.UNIT          VALUE    DESCRIPTION
#----------   ------------   ------------------------------
 PD  .                 GL:   PERMANENT DATUM
 EPD .F              5167:   ELEVATION PERMANENT DATUM
 LMF .                 KB:   LOG MEASURED FROM
 DAPD.F                 3:   FEET ABOVE PERMANENT DATUM
 DMF .                 KB:   DRILLING MEASURED FROM
 EKB .F              5170:   KELLING BUSHING
 EGL .F              5167:   GROUND LEVEL
 DATE.        16-FEB-1978:   RUN DATE
 RUN .                  1:   RUN NUMBER
 DD  .F               610:   DEPTH DRILLER
 DL  .F               615:   DEPTH LOGGER
 BLI .F               610:   BOTTOM LOG INTERVAL
 TLI .F                40:   TOP LOG INTERVAL
 CS  .IN            8.625:   CASING SIZE
 CBD .F                40:   CASING BOTTOM DRILLER
 CBL .F                40:   CASING BOTTOM LOGGER
 BS  .IN            7.875:   BIT SIZE
 BSD .F               610:   BIT SIZE AT DEPTH
 DFT .        LIGNO/ SULF:   DRILLING FLUID TYPE
 DFD .                8.7:   DRILLING FLUID DENSITY
 DFV .                 30:   DRILLING FLUID VISCOSITY
 DFPH.                 10:   DRILLING FLUID PH
 DFL .                4.6:   DRILLING FLUID LOSS
 MSS .           FLOWLINE:   MUD SAMPLE SOURCE
 RMS .OHMM            1.7:   RESISTIVITY MUD SAMPLE
 MST .F                69:   MUD SAMPLE TEMPERATURE
 RMF .OHMM            1.5:   RESISTIVITY MUD FILTRATE SAMPLE
 MFST.F                70:   MUD FILTRATE SAMPLE TEMPERATURE
 RMC .OHMM            2.5:   RESISTIVITY MUD CAKE
 MCST.F                70:   MUD CAKE SAMPLE TEMPERATURE
 MFSS.               MEAS:   MUD FILTRATE SAMPLE SOURCE
 RMB .OHMM            1.6:   RESISTIVITY MUD AT BHT
 BHT .F                70:   BOTTOM HOLE TEMPERATURE
 TCS .HRS               3:   TIME CURCULATED STOPPED
 MRT .F                70:   MAXIMUM RECORDED TEMPERATURE
 LUN .               2958:   LOGGING UNIT NUMBER
 LUL .             CASPER:   LOGGING UNIT LOCATION
 ENGI.            POINTER:   RECORDING ENGINEER
 WITN.           MCGINLEY:   WITNESSED BY
 CLNT.            A2DTECH:   CLIENT CODE
 ORIG.           5" PRINT:   ORIGIN OF DATA
 UWI .       490251058000:   UNIQUE WELL ID
 DICO. A2D Technologies, Inc.:   DIGITIZING COMPANY
~OTHER INFORMATION
~A   DEPT      ILD         SN         SPR      CALD       CORR       DPHI        GRD       RHOB   
# ...
  123.0000     7.2748     7.8982    -6.9703     7.7213     0.0416     0.1122    89.0317     2.4669
  123.5000     7.3206     7.8950    -6.9893     7.7963     0.0445     0.1152    88.4333     2.4593
  124.0000     7.3655     7.8911    -6.8520     7.8561     0.0414     0.1297    89.0308     2.4517
  124.5000     7.3605     7.9990    -7.0273     7.9010     0.0458     0.1339    90.6841     2.4388
  125.0000     7.3556     8.0515    -7.1978     7.9154     0.0561     0.1355    93.6948     2.4373
  125.5000     7.2492     7.8815    -7.2167     7.9148     0.0874     0.1349    91.7282     2.4372
  126.0000     7.1942     7.6625    -7.3879     7.9120     0.1098     0.1277    90.9683     2.4416
  126.5000     7.1860     7.5014    -7.7140     7.8833     0.1232     0.0920    91.5817     2.4731
  127.0000     7.0842     7.2424    -7.7330     7.8676     0.1336     0.0761    95.1784     2.4911
  127.5000     6.8378     7.1389    -7.5957     7.8972     0.1394     0.0783    96.8332     2.5180
  128.0000     6.6000     7.0867    -7.7710     7.9269     0.1334     0.0876    96.6751     2.5360
  128.5000     6.4148     7.1332    -7.7899     7.9565     0.0649     0.1006    97.2726     2.5310
  129.0000     6.3221     7.1303    -7.8091     7.9710     0.0418     0.1054    98.4734     2.4847
  129.5000     6.4064     7.1778    -7.8327     7.9703     0.0387     0.1082    98.6265     2.4802
  130.0000     6.5367     7.2243    -7.8516     7.9698     0.0386     0.1091    93.8159     2.4816
  130.5000     6.6237     7.3225    -7.7144     7.9671     0.0385     0.1086    91.0638     2.4830
  131.0000     6.7107     7.3775    -7.5818     7.9535     0.0399     0.1083    90.6055     2.4799
  131.5000     6.7541     7.4697    -7.1510     7.9529     0.0401     0.1092    90.7505     2.4776
  132.0000     6.8440     7.5195    -7.0182     7.9523     0.0427     0.1093    91.0464     2.4783
  132.5000     6.9350     7.5689    -7.1894     7.9515     0.0441     0.1093    91.9455     2.4797
  133.0000     6.9292     7.6186    -7.2127     7.9662     0.0425     0.1097    94.8134     2.4796
  133.5000     6.9729     7.6148    -7.2317     7.9655     0.0424     0.1118    97.9367     2.4773
  134.0000     6.9681     7.6648    -7.2507     7.9649     0.0408     0.1124   101.1272     2.4750
  134.5000     7.0108     7.7151    -7.1134     7.9644     0.0407     0.1128   101.5753     2.4734
  135.0000     7.0561     7.6578    -7.2887     7.9486     0.0421     0.1116   100.2106     2.4718
  135.5000     7.0502     7.6025    -7.3077     7.9480     0.0419     0.1095    94.4732     2.4717
  136.0000     7.0946     7.8135    -7.3266     7.9473     0.0418     0.1096    90.6967     2.4777
  136.5000     7.0898     7.9188    -7.1941     7.9316     0.0417     0.1114    90.3892     2.4814
  137.0000     7.0850     7.9156    -7.2178     7.9311     0.0372     0.1145    91.2869     2.4828
  137.5000     7.0795     7.9125    -7.2368     7.9305     0.0355     0.1169    93.0910     2.4805
  138.0000     7.0747     7.9644    -7.2558     7.9299     0.0324     0.1184    97.6101     2.4682
  138.5000     7.0700     7.9604    -7.2748     7.9142     0.0339     0.1194    98.2091     2.4653
  139.0000     7.0652     7.9572    -7.1423     7.9135     0.0353     0.1216    98.2018     2.4675
  139.5000     7.0116     8.0102    -7.0097     7.9130     0.0351     0.1219    98.4976     2.4666
  140.0000     6.9584     7.8411    -6.8772     7.9123     0.0350     0.1195    99.1051     2.4590
  140.5000     6.9535     7.7837    -7.0525     7.8966     0.0349     0.1147    98.6354     2.4620
  141.0000     6.8998     7.7805    -7.2182     7.8809     0.0318     0.1088    96.0654     2.4704
  141.5000     6.8474     7.7774    -7.0857     7.8803     0.0287     0.1067    93.4955     2.4799
  142.0000     6.8428     7.8285    -6.9576     7.8647     0.0286     0.1068    93.7914     2.4828
  142.5000     6.8382     7.8790    -6.9773     7.8488     0.0270     0.1077    94.3888     2.4835
  143.0000     6.8336     7.9308    -6.8491     7.8332     0.0284     0.1077    95.4388     2.4844
  143.5000     6.8290     7.9276    -6.8681     7.8175     0.0283     0.1099    97.1623     2.4857
  144.0000     6.8751     7.9244    -6.8871     7.7716     0.0282     0.1117   104.4755     2.4863
  144.5000     6.9634     7.9212    -6.9060     7.7257     0.0296     0.1123   104.9236     2.4862
  145.0000     7.0073     7.9180    -6.7735     7.6949     0.0310     0.1081   104.0114     2.4876
  145.5000     7.0014     7.9147    -6.4894     7.7244     0.0309     0.0929   102.4973     2.4905
  146.0000     7.0466     7.9668    -6.2054     7.7842     0.0323     0.0902    98.1174     2.4958
  146.5000     7.0898     8.0183    -6.2292     7.8743     0.0322     0.0906    95.3966     2.5039
  147.0000     7.0850     8.1838    -6.2481     7.9040     0.0306     0.0924    95.2400     2.5083
  147.5000     7.0803     8.2375    -6.4186     7.9184     0.0320     0.0967    95.6852     2.5053
  148.0000     7.1248     8.2924    -6.4376     7.9329     0.0334     0.0973    97.0368     2.5014
  148.5000     7.1697     8.4043    -6.4566     7.9171     0.0347     0.0961    99.7460     2.4976
  149.0000     7.1636     8.3426    -6.7889     7.9014     0.0376     0.0944   100.6451     2.4900
  149.5000     7.2590     8.3966    -7.5599     7.8857     0.0375     0.0917   100.7904     2.4877
  150.0000     7.3568     8.4525    -7.7287     7.8247     0.0419     0.0875   100.7843     2.5041
  150.5000     7.4015     8.5080    -7.5838     7.6429     0.0388     0.0849   100.7783     2.5116
  151.0000     7.5522     8.4449    -7.5948     7.5205     0.0417     0.0825   101.3745     2.5026
  151.5000     7.7061     8.5003    -7.6036     7.6953     0.0432     0.0840   101.9720     2.5236
  152.0000     7.8088     8.5562    -7.1578     7.9734     0.0430     0.0913   102.7204     2.5183
  152.5000     7.9125     8.6723    -7.0151     7.9123     0.0430     0.0910   104.5245     2.5085
  153.0000     7.9623     8.7969    -7.0261     7.7455     0.0444     0.0898   105.9986     2.5084
  153.5000     8.0670     9.0331    -6.4266     7.5486     0.0445     0.0902   104.4801     2.5091
  154.0000     8.0615     9.3495    -7.0436     7.3667     0.0472     0.0932   103.7158     2.5091
  154.5000     8.1136     9.4765    -6.8987     7.3964     0.0441     0.0983   103.8567     2.5075
  155.0000     8.1647     9.3410    -6.9097     7.5171     0.0500     0.1008   103.8462     2.4985
  155.5000     8.1579     9.2085    -6.9185     7.5967     0.0619     0.1020   103.9868     2.4842
  156.0000     8.2092     9.2047    -6.9273     7.6664     0.0768     0.0966   103.5215     2.4883
  156.5000     8.3185     9.3297    -7.0879     7.6960     0.0875     0.0943   101.7013     2.4984
  157.0000     8.3708     9.5223    -6.9448     7.7256     0.0990     0.0901    98.8279     2.4953
  157.5000     8.3638     9.7180    -6.4990     7.7403     0.1109     0.0814   103.9433     2.5013
  158.0000     8.3582     9.8509    -6.8131     7.7547     0.1273     0.0923   106.9497     2.5186
  158.5000     8.4694     9.9837    -7.4279     7.7692     0.1302     0.0586   105.1295     2.5396
  159.0000     8.5227    10.0502    -7.2848     7.7837     0.1166     0.0644   103.7516     2.5568
  159.5000     8.6361    10.1162    -7.2940     7.7830     0.0661     0.0770   103.1458     2.5575
  160.0000     8.7511    10.1111    -7.1512     7.8126     0.0281     0.0885   103.1356     2.5086
  160.5000     8.6832    10.0370    -7.3137     7.8422     0.0265     0.0849   103.2787     2.5071
  161.0000     8.6774    10.0320    -7.1688     7.8720     0.0265     0.0856   103.5676     2.5168
  161.5000     8.6115    10.0279    -7.1798     7.9166     0.0279     0.0868   103.7108     2.5191
  162.0000     8.5462    10.0239    -7.1886     7.9613     0.0293     0.0919   103.5472     2.5145
  162.5000     8.4813    10.0198    -7.1973     7.9758     0.0292     0.0956   102.7828     2.5069
  163.0000     8.4756    10.0158    -7.3576     7.9751     0.0306     0.0917   100.6506     2.5017
