~VERSION INFORMATION
 VERS.                2.0:   CWLS LOG ASCII STANDARD - VERSION 2.0
 WRAP.                 NO:   ONE LINE PER DEPTH STEP
~WELL INFORMATION
#MNEM.UNIT      DATA TYPE    INFORMATION
#----------   ------------   ------------------------------
 STRT.F           90.0000:   START DEPTH
 STOP.F          784.0000:   STOP DEPTH
 STEP.F            0.5000:   STEP LENGTH
 NULL.          -999.2500:   NO VALUE
 COMP.               NAVY:   COMPANY
 WELL. RES 3 TEAPOT DOM #41S-11:   WELL
 FLD .             TEAPOT:   FIELD
 LOC .      S11 T38N R78W:   LOCATION
 CNTY.            NATRONA:   COUNTY
 STAT.            WYOMING:   STATE
 CTRY. UNITED STATES OF AMERICA:   COUNTRY
 SRVC.       Schlumberger:   SERVICE COMPANY
 DATE.        14-JUL-1962:   LOGDATE
 API .       490250638000:   API NUMBER
~CURVE INFORMATION
#MNEM.UNIT       API CODE    CURVE DESCRIPTION
#----------   ------------   ------------------------------
 DEPT.F                  :   
 GR  .GAPI   30 310 01 00:   GAMMA RAY
 SPR .MV     05 010 01 00:   SPONTANEOUS POTENTIAL FROM RES.
 ASN .OHMM   05 041 16 00:   AMPLIFIED SHORT NORMAL 16"
 ILD .OHMM   05 120 46 00:   INDUCTION LOG DEEP
 CILD.MMHO   05 110 46 00:   CONDUCTIVITY INDUCTION LOG DEEP
~PARAMETER INFORMATION
#MNEM.UNIT          VALUE    DESCRIPTION
#----------   ------------   ------------------------------
 LMF .                 KB:   LOG MEASURED FROM
 DMF .                 KB:   DRILLING MEASURED FROM
 EKB .F              5162:   KELLING BUSHING
 EGL .F              5157:   GROUND LEVEL
 DATE.        14-JUL-1962:   RUN DATE
 RUN .                  1:   RUN NUMBER
 DD  .F               785:   DEPTH DRILLER
 DL  .F               785:   DEPTH LOGGER
 BLI .F               784:   BOTTOM LOG INTERVAL
 TLI .F               100:   TOP LOG INTERVAL
 CBD .F                10:   CASING BOTTOM DRILLER
 BS  .IN             6.75:   BIT SIZE
 BSD .F               785:   BIT SIZE AT DEPTH
 DFT .           OIL EMUL:   DRILLING FLUID TYPE
 DFD .               10.2:   DRILLING FLUID DENSITY
 DFV .                 43:   DRILLING FLUID VISCOSITY
 DFL .                4.6:   DRILLING FLUID LOSS
 RMS .OHMM            5.2:   RESISTIVITY MUD SAMPLE
 MST .F                78:   MUD SAMPLE TEMPERATURE
 RMF .OHMM            5.2:   RESISTIVITY MUD FILTRATE SAMPLE
 MFST.F                78:   MUD FILTRATE SAMPLE TEMPERATURE
 RMC .OHMM              6:   RESISTIVITY MUD CAKE
 MCST.F                78:   MUD CAKE SAMPLE TEMPERATURE
 TCS .HRS              .5:   TIME CURCULATED STOPPED
 LUN .               2503:   LOGGING UNIT NUMBER
 LUL .               CSPR:   LOGGING UNIT LOCATION
 ENGI.           ELLERMAN:   RECORDING ENGINEER
 WITN.          JORGENSON:   WITNESSED BY
 CLNT.            A2DTECH:   CLIENT CODE
 ORIG.           5" PRINT:   ORIGIN OF DATA
 UWI .       490250638000:   UNIQUE WELL ID
 DICO. A2D Technologies, Inc.:   DIGITIZING COMPANY
~OTHER INFORMATION
~A   DEPT       GR        SPR          ASN        ILD       CILD 
   90.0000  -999.2500   -44.0780     0.0266     0.0754     0.0000
   90.5000  -999.2500   -44.0722     0.0231     0.0754     0.0502
   91.0000  -999.2500   -43.9154     0.0197     0.0754     0.1004
   91.5000  -999.2500   -43.9094     0.0162     0.0754     0.1505
   92.0000  -999.2500   -44.0549     0.0128     0.0754     0.2007
   92.5000  -999.2500   -44.5008     0.0093     0.0754     0.2509
   93.0000  -999.2500   -45.0993     0.0058     0.1508     0.3011
   93.5000  -999.2500   -45.5467     0.0024     0.1508     0.3513
   94.0000  -999.2500   -46.1731     0.0000     0.1508     0.4014
   94.5000  -999.2500   -46.8947     0.0000     0.0754     0.4516
   95.0000  -999.2500   -46.2832     0.0000     0.0754     0.5018
   95.5000  -999.2500   -45.3711     0.0000     0.0754     0.5520
   96.0000  -999.2500   -44.6100     0.0000     0.0754     0.6021
   96.5000  -999.2500   -44.3022     0.0000     0.0754     0.6523
   97.0000  -999.2500   -45.2013     0.0000     0.0754     0.7025
   97.5000  -999.2500   -45.4991     0.0000     0.1508     0.7527
   98.0000  -999.2500   -44.7366     0.0000     0.3017     0.8029
   98.5000  -999.2500   -44.1266     0.1506     0.5279    76.5576
   99.0000  -999.2500   -43.8187     0.5133     9.6531   156.8461
   99.5000  -999.2500   -43.5106     1.0773    28.7330   197.7406
  100.0000  -999.2500   -43.5036     1.3293    13.4238   196.9685
  100.5000  -999.2500   -43.7999     5.2570     5.5688   194.6812
  101.0000  -999.2500   -43.9466     5.3931     5.5053   194.6666
  101.5000  -999.2500   -44.0906     5.4687     5.5807   194.6516
  102.0000  -999.2500   -44.0967     5.5142     5.5053   198.4217
  102.5000  -999.2500   -44.0775     5.1669     5.3544   205.9829
  103.0000  -999.2500   -44.0717     5.0160     5.1282   216.5744
  103.5000  -999.2500   -44.2170     4.9709     4.9020   230.1962
  104.0000  -999.2500   -44.6644     4.7595     4.7511   241.5453
  104.5000  -999.2500   -45.2629     4.3367     4.6003   251.4595
  105.0000  -999.2500   -44.6514     4.0942     4.5249   253.6373
  105.5000  -999.2500   -44.0414     4.0198     4.5249   255.1379
  106.0000  -999.2500   -44.4888     4.4731     4.5249   254.3621
  106.5000  -999.2500   -44.9362     4.7452     4.7511   251.3173
  107.0000  -999.2500   -45.3836     4.8209     4.9774   242.2118
  107.5000  -999.2500   -45.5289     4.8512     5.2036   223.6621
  108.0000  -999.2500   -45.6742     5.1877     5.4299   200.5123
  108.5000  -999.2500   -45.5159     5.4558     5.5807   189.1341
  109.0000  -999.2500   -45.0570     5.5314     5.8069   184.5741
  109.5000  -999.2500   -44.4470     5.5467     6.0332   179.2565
  110.0000  -999.2500   -43.6858     5.6677     6.1211   173.9389
  110.5000  -999.2500   -43.3766     5.8642     6.3348   169.3385
  111.0000  -999.2500   -43.2197     5.9852     6.4857   163.3001
  111.5000  -999.2500   -43.3665     5.9400     6.6365   159.4976
  112.0000  -999.2500   -43.3592     5.9251     6.7873   155.6952
  112.5000  -999.2500   -43.5045     6.0914     7.0136   152.6503
  113.0000  -999.2500   -43.8009     6.1973     7.2398   149.6054
  113.5000  -999.2500   -43.7937     6.2881     7.4661   146.5606
  114.0000  -999.2500   -43.6368     6.3349     7.4661   145.0308
  114.5000  -999.2500   -43.3289     6.3186     7.2398   148.8005
  115.0000  -999.2500   -43.1721     6.2583     7.0136   152.5738
  115.5000  -999.2500   -43.1842     6.1376     6.7873   156.3471
  116.0000  -999.2500   -43.7633     5.9867     6.5561   160.1204
  116.5000  -999.2500   -44.0611     5.8358     6.2425   165.4089
  117.0000  -999.2500   -43.7518     5.6798     5.8824   171.6159
  117.5000  -999.2500   -43.5950     5.4736     5.7222   180.5276
  118.0000  -999.2500   -43.4380     5.3076     5.5340   191.1191
  118.5000  -999.2500   -43.4309     5.1718     5.4100   201.7106
  119.0000  -999.2500   -43.5777     5.0057     5.2582   216.8476
  119.5000  -999.2500   -44.0236     4.8548     5.0309   238.0451
  120.0000  -999.2500   -44.3214     4.6505     4.8036   256.5148
  120.5000  -999.2500   -44.6163     4.2962     4.5007   276.6487
  121.0000  -999.2500   -44.3070     4.0396     4.1913   295.5735
  121.5000  -999.2500   -43.8480     3.9038     3.8949   303.1347
  122.0000  -999.2500   -43.3891     3.7831     3.8186   301.6050
  122.5000  -999.2500   -42.9301     3.6775     3.8179   300.8328
  123.0000  -999.2500   -42.6222     3.6323     3.8929   300.0606
  123.5000  -999.2500   -42.4653     3.7382     3.9675   294.7395
  124.0000  -999.2500   -42.3071     3.9197     4.1290   284.1188
  124.5000  -999.2500   -42.4539     4.1464     4.4191   263.6497
  125.0000  -999.2500   -42.5992     4.4033     4.6451   242.4230
  125.5000  -999.2500   -42.8940     4.5395     5.0974   218.1660
  126.0000  -999.2500   -42.8882     4.6151     5.7009   195.4242
  126.5000  -999.2500   -42.7300     4.6304     5.9267   186.9648
  127.0000  -999.2500   -42.7242     4.6456     5.7748   185.5429
  127.5000  -999.2500   -42.5674     4.6458     5.6985   190.8314
  128.0000  -999.2500   -42.4106     4.6308     5.6978   195.3623
  128.5000  -999.2500   -42.2537     4.6159     5.7726   196.1089
  129.0000  -999.2500   -42.0725     4.6009     5.7719   196.8483
  129.5000  -999.2500   -41.9386     4.5709     5.7644   197.5913
  130.0000  -999.2500   -42.5371     4.4200     5.4681   202.8761
  130.5000  -999.2500   -42.9845     4.1935     4.8632   220.2858
  131.0000  -999.2500   -43.1299     4.0577     4.3338   247.5439
  131.5000  -999.2500   -43.1239     3.8746     3.8799   303.5900
  132.0000  -999.2500   -43.1168     3.4991     3.5015   395.9997
  132.5000  -999.2500   -42.9600     3.0159     3.1873   455.0741
  133.0000  -999.2500   -42.8031     2.7743     2.8956   497.4845
  133.5000  -999.2500   -42.4952     2.6838     2.8949   529.5700
  134.0000  -999.2500   -42.1873     2.7444     2.7431   539.8796
  134.5000  -999.2500   -42.4823     2.7899     2.7424   524.7098
  135.0000  -999.2500   -43.2318     2.7749     2.7417   507.2710
  135.5000  -999.2500   -43.3785     2.7147     2.8163   481.4989
  136.0000  -999.2500   -42.9181     2.7752     2.9667   434.5146
  136.5000  -999.2500   -42.3081     3.2890     3.3436   369.1364
  137.0000  -999.2500   -41.6757     3.7423     4.0226   273.8758
  137.5000  -999.2500   -41.9930     3.9866     4.6261   238.2551
  138.0000  -999.2500   -42.7425     4.0750     5.0927   218.5436
  138.5000  -999.2500   -42.8892     4.1053     5.5308   204.8927
  139.0000  -999.2500   -42.5799     4.1206     5.6058   198.0636
  139.5000  -999.2500   -42.1087     4.1056     5.3028   205.6211
  140.0000  -999.2500   -41.6606     4.1057     5.1510   211.7675
  140.5000  -999.2500   -41.3527     4.1528     5.0748   214.6829
  141.0000  -999.2500   -41.1959     4.2269     4.9985   215.4259
  141.5000  -999.2500   -41.1901     4.2421     5.0733   214.6501
  142.0000  -999.2500   -41.1843     4.1819     5.1481   215.3968
  142.5000  -999.2500   -41.1771     4.1065     5.1472   220.6816
  143.0000  -999.2500   -41.1713     4.0311     5.0710   231.5551
  143.5000  -999.2500   -41.1655     3.9538     4.8409   245.6488
  144.0000  -999.2500   -41.0087     3.8804     4.3141   266.0888
  144.5000  -999.2500   -40.8519     3.7899     4.0112   286.5287
  145.0000  -999.2500   -40.6949     3.6390     3.7839   313.0294
  145.5000  -999.2500   -40.5368     3.4881     3.5566   343.3178
  146.0000  -999.2500   -40.5310     3.3221     3.5559   367.0297
  146.5000  -999.2500   -40.3742     3.1538     3.5552   385.7093
  147.0000  -999.2500   -40.2174     3.1260     3.5542   381.9068
  147.5000  -999.2500   -40.3725     3.3074     3.5535   368.2559
  148.0000  -999.2500   -40.9596     3.4435     3.5528   353.8474
  148.5000  -999.2500   -41.7092     3.4135     3.6278   338.6813
  149.0000  -999.2500   -42.6097     3.2625     3.7024   317.3738
  149.5000  -999.2500   -42.9075     3.3706     3.8764   286.3758
  150.0000  -999.2500   -41.9940     4.4562     4.5316   248.4824
  150.5000  -999.2500   -41.0804     4.6978     5.2106   212.8702
