~VERSION INFORMATION
 VERS.                2.0:   CWLS LOG ASCII STANDARD - VERSION 2.0
 WRAP.                 NO:   ONE LINE PER DEPTH STEP
~WELL INFORMATION
#MNEM.UNIT      DATA TYPE    INFORMATION
#----------   ------------   ------------------------------
 STRT.F           29.0000:   START DEPTH
 STOP.F          882.0000:   STOP DEPTH
 STEP.F            0.5000:   STEP LENGTH
 NULL.          -999.2500:   NO VALUE
 COMP. FENIX & SCISSON INC:   COMPANY
 WELL. NAVAL PETROLEUM RESERVE 3 S-14 #42-14:   WELL
 FLD .             TEAPOT:   FIELD
 LOC .      S14 T38N R78W:   LOCATION
 CNTY.            NATRONA:   COUNTY
 STAT.            WYOMING:   STATE
 CTRY. UNITED STATES OF AMERICA:   COUNTRY
 SRVC.              Welex:   SERVICE COMPANY
 DATE.        03-MAY-1977:   LOGDATE
 API .       490251035400:   API NUMBER
~CURVE INFORMATION
#MNEM.UNIT       API CODE    CURVE DESCRIPTION
#----------   ------------   ------------------------------
 DEPT.F                  :   
 CALD.IN     45 280 60 00:   CALIPER FROM DENSITY LOG
 GRD .GAPI   45 310 01 00:   GAMMA RAY FROM DENSITY LOG
 CORR.G/C3   45 356 01 00:   DENSITY CORRECTION
 DPHI.DEC    45 890 12 00:   DENSITY POROSITY SANDSTONE
 RHOB.G/C3   45 350 01 00:   BULK DENSITY
 SPR .MV     07 010 01 00:   SPONTANEOUS POTENTIAL
 ILD .OHMM   07 120 46 00:   INDUCTION LOG DEEP
 ILM .OHMM   07 120 44 00:   INDUCTION LOG MEDIUM
 SGRD.OHMM   07 221 05 00:   SHALLOW SHORT GUARD RESISTIVITY
~PARAMETER INFORMATION
#MNEM.UNIT          VALUE    DESCRIPTION
#----------   ------------   ------------------------------
 PD  .                 GL:   PERMANENT DATUM
 EPD .F              5206:   ELEVATION PERMANENT DATUM
 LMF .                 GL:   LOG MEASURED FROM
 DMF .                 GL:   DRILLING MEASURED FROM
 EGL .F              5206:   GROUND LEVEL
 DATE.        03-MAY-1977:   RUN DATE
 RUN .                  1:   RUN NUMBER
 DD  .F               855:   DEPTH DRILLER
 DL  .F               884:   DEPTH LOGGER
 BLI .F               882:   BOTTOM LOG INTERVAL
 TLI .F                28:   TOP LOG INTERVAL
 CS  .IN            8.625:   CASING SIZE
 BS  .IN               12:   BIT SIZE
 BSD .F               855:   BIT SIZE AT DEPTH
 DFT .            KCL MUD:   DRILLING FLUID TYPE
 DFD .                8.7:   DRILLING FLUID DENSITY
 BHT .F                75:   BOTTOM HOLE TEMPERATURE
 TCS .HRS            0130:   TIME CURCULATED STOPPED
 MRT .F                75:   MAXIMUM RECORDED TEMPERATURE
 ENGI.            C. DOAK:   RECORDING ENGINEER
 WITN.            R. LYON:   WITNESSED BY
 CLNT.            A2DTECH:   CLIENT CODE
 ORIG.           5" PRINT:   ORIGIN OF DATA
 UWI .       490251035400:   UNIQUE WELL ID
 DICO. A2D Technologies, Inc.:   DIGITIZING COMPANY
~OTHER INFORMATION
~A   DEPT       CALD      GRD       CORR       DPHI         RHOB      SPR        ILD        ILM       SGRD   
# ...
  467.0000     8.0128   126.5446     0.0479     0.1014     2.5060   -42.2773     6.0599     6.1019     9.6976
  467.5000     8.0127   124.5956     0.0449     0.0990     2.5056   -42.1311     6.0590     6.1011     9.6964
  468.0000     8.0126   126.2394     0.0359     0.1071     2.4842   -41.9849     6.0165     6.1003     9.8301
  468.5000     7.9975   130.4342     0.0344     0.1136     2.4857   -41.9885     6.0574     6.0995     9.8288
  469.0000     7.9973   130.7247     0.0343     0.1166     2.4872   -41.8416     6.1006     6.0987     9.8957
  469.5000     7.9972   123.8348     0.0329     0.1200     2.4715   -41.6954     6.4001     6.1400    10.0318
  470.0000     7.9970   121.2148     0.0314     0.1234     2.4670   -41.5500     6.5787     6.3992    10.1004
  470.5000     7.9968   119.4879     0.0284     0.1289     2.4625   -41.4038     6.7623     6.7157    10.2397
  471.0000     7.9967   118.7365     0.0269     0.1257     2.4617   -41.2576     6.9031     6.9510    10.3806
  471.5000     7.9965   118.2675     0.0359     0.1209     2.4669   -41.1115     6.9501     7.0958    10.4512
  472.0000     7.9964   117.8318     0.0389     0.1143     2.4784   -40.9653     7.0459     7.2009    10.6032
  472.5000     7.9963   117.9786     0.0419     0.1095     2.4893   -40.8191     7.0448     7.2426    10.6675
  473.0000     7.9961   119.3230     0.0419     0.1092     2.4922   -40.6736     7.0438     7.1419    10.3032
  473.5000     7.9960   124.8590     0.0404     0.1122     2.4847   -40.6766     7.0429     6.9944     9.8151
  474.0000     7.9958   128.4489     0.0404     0.1156     2.4758   -40.5303     6.9453     6.8974     9.7465
  474.5000     7.9956   127.2484     0.0404     0.1200     2.4757   -40.5339     6.8965     6.7549    10.0182
  475.0000     8.0104   124.4012     0.0404     0.1224     2.4758   -40.5368     6.7538     6.6151    10.0864
  475.5000     8.0103   122.6019     0.0404     0.1248     2.4720   -40.5396     6.6601     6.5687    10.0152
  476.0000     8.0101   127.3887     0.0344     0.1272     2.4615   -40.5425     6.5225     6.5225     9.8764
  476.5000     8.0250   127.9853     0.0329     0.1255     2.4689   -40.6951     6.3878     6.4767     9.9436
  477.0000     8.0248   124.9877     0.0314     0.1276     2.4637   -40.8470     6.3429     6.4312    10.0807
  477.5000     8.0247   121.6913     0.0268     0.1303     2.4562   -40.8498     6.3421     6.4750    10.1493
  478.0000     8.0245   122.8861     0.0225     0.1318     2.4479   -40.8527     6.3852     6.5641    10.0777
  478.5000     8.0244   124.8293     0.0299     0.1298     2.4584   -40.8555     6.4733     6.6546     9.9380
  479.0000     8.0242   126.9261     0.0359     0.1231     2.4688   -40.7015     6.5626     6.7932     9.8682
  479.5000     8.0240   127.9672     0.0374     0.1171     2.4777   -40.4149     6.7457     6.9347     9.9357
  480.0000     8.0239   126.7659     0.0374     0.1145     2.4837   -40.2687     6.9338     7.0791    10.4267
  480.5000     8.0237   125.5654     0.0374     0.1145     2.4844   -40.2715     7.1273     7.2283    10.9423
  481.0000     8.0236   124.0655     0.0329     0.1151     2.4837   -39.9756     7.2253     7.4279    11.0164
  481.5000     8.0085   122.4159     0.0269     0.1127     2.4829   -39.6807     7.3758     7.5826    11.2458
  482.0000     8.0084   119.5687     0.0301     0.1130     2.4896   -39.5211     7.5297     7.7405    11.4800
  482.5000     8.0082   116.8712     0.0344     0.1126     2.4896   -39.2405     7.6865     7.8475    11.8004
  483.0000     8.0081   117.1677     0.0374     0.1100     2.4888   -39.0938     7.8463     7.9555    12.1298
  483.5000     8.0079   117.1188     0.0434     0.1058     2.5052   -38.9474     7.9545     8.1775    11.7156
  484.0000     8.0077   115.2150     0.0464     0.0999     2.4895   -38.8012     8.1199     8.3476    11.5532
  484.5000     8.0076   115.6612     0.0404     0.1163     2.4775   -38.5067     8.1754     8.4046    11.7938
  485.0000     8.0075   117.9038     0.0344     0.1220     2.4744   -38.2115     8.3454     8.5205    12.6365
  485.5000     8.0073   120.8957     0.0329     0.1235     2.4670   -38.0654     8.4022     8.5785    14.0157
  486.0000     7.9922   115.6525     0.0252     0.1289     2.4575   -37.9192     8.5180     8.6367    13.0680
  486.5000     7.9921   110.7095     0.0240     0.1360     2.4480   -37.6240     8.6355     8.6954    12.9857
  487.0000     7.9919   111.6412     0.0254     0.1424     2.4385   -37.3295     8.6940     8.7546    13.1648
  487.5000     7.9918   115.5688     0.0195     0.1451     2.4296   -37.1833     8.7532     8.8141    13.6257
  488.0000     7.9767   118.1851     0.0150     0.1481     2.4318   -37.0371     8.7520     8.8127    14.2995
  488.5000     7.9765   119.0811     0.0240     0.1448     2.4303   -37.0407     8.6905     8.8115    14.1991
  489.0000     7.9764   118.3290     0.0344     0.1391     2.4429   -37.0436     8.6295     8.8103    14.0022
  489.5000     7.9762   116.0806     0.0344     0.1344     2.4511   -37.0464     8.6281     8.6882    14.3925
  490.0000     7.9761   114.7304     0.0359     0.1365     2.4466   -37.0493     8.5085     8.6269    14.4909
  490.5000     7.9759   113.0808     0.0389     0.1401     2.4399   -37.0521     8.3905     8.4487    14.2896
  491.0000     7.9608   111.5571     0.0389     0.1438     2.4369   -37.0557     8.3894     8.3315    13.5188
  491.5000     7.9607   106.6371     0.0389     0.1389     2.4361   -37.0586     8.3883     8.2730    13.1479
  492.0000     7.9755   103.4905     0.0389     0.1257     2.4520   -37.0614     8.3870     8.1583    13.6090
  492.5000     7.9753   104.8349     0.0374     0.1198     2.4734   -37.0643     8.1009     8.1572    13.3274
  493.0000     7.9752   106.7788     0.0359     0.1195     2.4742   -37.0671     7.3018     8.0999    13.0520
  493.5000     7.9750   105.5776     0.0374     0.1201     2.4734   -37.0701     6.3515     8.1551    12.9604
  494.0000     7.9749   104.9759     0.0419     0.1180     2.4764   -37.0736     5.9321     8.1537    12.8694
  494.5000     7.9747   105.1227     0.0450     0.1183     2.4771   -37.2254     6.1826     8.1526    12.4973
  495.0000     7.9746   107.2555     0.0479     0.1192     2.4771   -37.3773     6.9050     8.1515    11.2039
  495.5000     7.9595   109.4575     0.0479     0.1153     2.4815   -37.3802     7.7117     8.2640    10.8220
  496.0000     7.9593   111.1013     0.0464     0.1126     2.4875   -37.5321     8.1493     8.3776    13.1317
  496.5000     7.9592   113.0445     0.0449     0.1147     2.4867   -37.5529     8.2672     8.3765    13.2211
  497.0000     7.9590   114.9877     0.0434     0.1136     2.4792   -37.6875     8.3756     8.4338    13.4034
  497.5000     7.9589   116.6315     0.0374     0.1199     2.4710   -37.8394     8.3742     8.4324    13.2879
  498.0000     7.9587   116.0298     0.0329     0.1232     2.4687   -37.8423     8.3154     8.3155    12.4180
  498.5000     7.9586   114.2305     0.0419     0.1235     2.4694   -37.9942     8.1436     8.1913    12.3312
  499.0000     7.9584   112.0958     0.0404     0.1235     2.4702   -37.9970     7.9754     8.0862    12.4152
  499.5000     7.9583   109.4336     0.0404     0.1223     2.4709   -38.0000     7.8562     7.9741    12.4992
  500.0000     7.9581   108.6829     0.0420     0.1262     2.4649   -38.0034     7.8670     7.9184    13.2084
  500.5000     7.9580   113.2447     0.0428     0.1247     2.4678   -38.0122     7.9079     8.0351    12.7558
  501.0000     7.9602   116.9032     0.0449     0.1211     2.4782   -38.0210     8.0249     8.1357    12.3151
  501.5000     7.9625   117.6474     0.0446     0.1172     2.4791   -38.0309     8.1354     8.1920    12.2227
  502.0000     7.9649   114.0474     0.0359     0.1274     2.4707   -38.0395     8.1898     8.2468    11.7300
  502.5000     7.9672   111.1973     0.0314     0.1277     2.4642   -38.0480     8.2454     8.2451    11.4069
  503.0000     7.9695   111.1857     0.0313     0.1316     2.4519   -38.0566     8.1865     8.0739    11.6429
