~VERSION INFORMATION
 VERS.                2.0:   CWLS LOG ASCII STANDARD - VERSION 2.0
 WRAP.                 NO:   ONE LINE PER DEPTH STEP
~WELL INFORMATION
#MNEM.UNIT      DATA TYPE    INFORMATION
#----------   ------------   ------------------------------
 STRT.F            0.0000:   START DEPTH
 STOP.F         3139.0000:   STOP DEPTH
 STEP.F            0.5000:   STEP LENGTH
 NULL.          -999.2500:   NO VALUE
 COMP. BROWN JOHN E&C INC:   COMPANY
 WELL.       TX-10 #63-10:   WELL
 FLD .             TEAPOT:   FIELD
 LOC .      S10 T38N R78W:   LOCATION
 CNTY.            NATRONA:   COUNTY
 STAT.            WYOMING:   STATE
 CTRY. UNITED STATES OF AMERICA:   COUNTRY
 SRVC.       Schlumberger:   SERVICE COMPANY
 DATE.        05-OCT-1982:   LOGDATE
 API .       490251090100:   API NUMBER
~CURVE INFORMATION
#MNEM.UNIT       API CODE    CURVE DESCRIPTION
#----------   ------------   ------------------------------
 DEPT.F                  :   
 DPHI.DEC    45 890 12 00:   DENSITY POROSITY  SANDSTONE
 GRD .GAPI   45 310 01 00:   GAMMA RAY FROM DENSITY LOG
 NPHI.DEC    42 890 03 00:   NEUTRON POROSITY SANDSTONE
 CALD.IN     45 280 60 00:   CALIPER FROM DENSITY LOG
 CORR.G/C3   45 356 01 00:   DENSITY CORRECTION
 RHOB.G/C3   45 350 01 00:   BULK DENSITY
 ILD .OHMM   07 120 46 00:   INDUCTION LOG DEEP
 ILM .OHMM   07 120 44 00:   INDUCTION LOG MEDIUM
 SFLU.OHMM   07 220 01 00:   SPHERICALLY FOCUSED LOG UNAVERAGED RESISTIVITY
 SPR .MV     07 010 01 00:   SPONTANEOUS POTENTIAL
~PARAMETER INFORMATION
#MNEM.UNIT          VALUE    DESCRIPTION
#----------   ------------   ------------------------------
 PD  .                 GL:   PERMANENT DATUM
 EPD .F              5189:   ELEVATION PERMANENT DATUM
 LMF .                 KB:   LOG MEASURED FROM
 DAPD.F                10:   FEET ABOVE PERMANENT DATUM
 DMF .                 KB:   DRILLING MEASURED FROM
 EKB .F              5199:   KELLING BUSHING
 EGL .F              5189:   GROUND LEVEL
 DATE.        05-OCT-1982:   RUN DATE
 RUN .                  1:   RUN NUMBER
 DD  .F              3200:   DEPTH DRILLER
 DL  .F              3142:   DEPTH LOGGER
 BLI .F              3139:   BOTTOM LOG INTERVAL
 TLI .F               484:   TOP LOG INTERVAL
 CS  .IN            9.625:   CASING SIZE
 CBD .F               482:   CASING BOTTOM DRILLER
 CBL .F               484:   CASING BOTTOM LOGGER
 BS  .IN            7.875:   BIT SIZE
 BSD .F              3200:   BIT SIZE AT DEPTH
 DFT .        KCL/POLYMER:   DRILLING FLUID TYPE
 DFD .                8.6:   DRILLING FLUID DENSITY
 DFV .                 38:   DRILLING FLUID VISCOSITY
 DFPH.                8.5:   DRILLING FLUID PH
 DFL .                6.8:   DRILLING FLUID LOSS
 MSS .           MUD TANK:   MUD SAMPLE SOURCE
 RMS .OHMM            .40:   RESISTIVITY MUD SAMPLE
 MST .F                64:   MUD SAMPLE TEMPERATURE
 RMF .OHMM            .34:   RESISTIVITY MUD FILTRATE SAMPLE
 MFST.F                64:   MUD FILTRATE SAMPLE TEMPERATURE
 RMC .OHMM            .36:   RESISTIVITY MUD CAKE
 MCST.F                64:   MUD CAKE SAMPLE TEMPERATURE
 MFSS.               MEAS:   MUD FILTRATE SAMPLE SOURCE
 MCSS.               CALC:   MUD CAKE SAMPLE SOURCE
 RMB .OHMM             .2:   RESISTIVITY MUD AT BHT
 BHT .F               125:   BOTTOM HOLE TEMPERATURE
 TCS .HRS            2300:   TIME CURCULATED STOPPED
 TLAB.HRS            0500:   TIME LOGGER AT BOTTOM
 MRT .F               125:   MAXIMUM RECORDED TEMPERATURE
 LUN .               8043:   LOGGING UNIT NUMBER
 LUL .                GLT:   LOGGING UNIT LOCATION
 ENGI.            NEUFFER:   RECORDING ENGINEER
 WITN.             STRONG:   WITNESSED BY
 CLNT.            A2DTECH:   CLIENT CODE
 ORIG.           5" PRINT:   ORIGIN OF DATA
 UWI .       490251090100:   UNIQUE WELL ID
 DICO. A2D Technologies, Inc.:   DIGITIZING COMPANY
~OTHER INFORMATION
~A    DEPT    DPHI          GRD     NPHI       CALD       CORR       RHOB        ILD        ILM       SFLU        SPR   
# ...
  636.5000     0.0875   101.3385     0.3010    10.2156     0.0647     2.5059     8.6302     7.4930     7.6424   -82.7452
  637.0000     0.0945   101.6294     0.3007    10.2152     0.0550     2.4788     8.5702     7.4915     7.5893   -82.7481
  637.5000     0.1084   102.2124     0.3007    10.1995     0.0466     2.4728     8.5696     7.4900     7.5888   -82.9030
  638.0000     0.1105   100.4355     0.3010    10.1990     0.0450     2.4765     8.5690     7.4886     7.5883   -82.9059
  638.5000     0.1019    98.6601     0.3010    10.1834     0.0541     2.4915     8.5684     7.4871     7.6982   -82.9088
  639.0000     0.0984    98.0646     0.3069    10.1830     0.0571     2.4997     8.5089     7.5374     7.8539   -82.9119
  639.5000     0.0952    98.6530     0.3152    10.1825     0.0570     2.5035     8.4498     7.4837     8.0180   -82.9154
  640.0000     0.0958   100.4120     0.3211    10.1821     0.0555     2.4997     8.2759     7.3288     8.1290   -82.9183
  640.5000     0.0984   102.1763     0.3164    10.1816     0.0493     2.4937     8.1619     7.1772     8.1848   -82.9212
  641.0000     0.0999   104.2357     0.3114    10.1811     0.0501     2.4907     8.0494     7.0286     8.0718   -82.7715
  641.5000     0.1005   106.3028     0.3070    10.1959     0.0500     2.4867     7.8296     6.8832     7.9544   -82.5512
  642.0000     0.1023   107.4694     0.3058    10.1954     0.0469     2.4771     7.6159     6.6943     7.5840   -82.3221
  642.5000     0.1058   108.0538     0.3208    10.1950     0.0469     2.4718     7.4079     6.5555     7.1757   -82.3258
  643.0000     0.1114   107.7519     0.3353    10.1793     0.0446     2.4681     7.2555     6.4198     6.7894   -82.1760
  643.5000     0.1132   107.7463     0.3400    10.1941     0.0400     2.4726     7.1555     6.3305     6.5584   -82.1796
  644.0000     0.1135   107.4445     0.3361    10.1784     0.0337     2.4695     7.0083     6.2857     6.4680   -82.3345
  644.5000     0.1150   107.4389     0.3329    10.1780     0.0278     2.4650     6.9118     6.1556     6.5124   -82.3375
  645.0000     0.1164   107.1384     0.3320    10.1775     0.0277     2.4627     6.7696     6.0700     6.6026   -82.6444
  645.5000     0.1173   108.0178     0.3356    10.1771     0.0300     2.4657     6.6502     5.9853     6.6020   -82.9519
  646.0000     0.1153   108.6022     0.3479    10.1615     0.0352     2.4687     6.4940     5.8614     6.4661   -82.9549
  646.5000     0.1138   108.5953     0.3633    10.1457     0.0389     2.4724     6.3604     5.7006     6.2461   -83.2617
  647.0000     0.1117   108.2947     0.3586    10.1453     0.0488     2.4716     6.1867     5.5061     6.0336   -83.4166
  647.5000     0.1077   107.9941     0.3548    10.1449     0.0639     2.4829     6.0178     5.2816     5.7822   -83.5715
  648.0000     0.0964   109.1672     0.3509    10.1908     0.0865     2.5038     5.8941     5.0653     5.5912   -83.5745
  648.5000     0.0976   110.9316     0.3657    10.2502     0.0918     2.5001     5.8531     4.9956     5.5141   -83.7301
  649.0000     0.1065   112.1060     0.3772    10.2650     0.0713     2.4822     5.8526     5.0643     5.4381   -83.7330
  649.5000     0.1136   110.5546     0.3672    10.2645     0.0566     2.4730     5.8929     5.2048     5.4003   -83.8879
  650.0000     0.1106   107.4370     0.3554    10.1122     0.0479     2.4738     5.9333     5.3497     5.5513   -83.5869
  650.5000     0.1088   104.1138     0.3463    10.0511     0.0424     2.4745     6.0990     5.4982     5.8643   -83.5898
  651.0000     0.1124   101.7402     0.3433    10.0203     0.0347     2.4699     6.3537     5.6121     6.3681   -83.4067
  651.5000     0.1154    99.9532     0.3413     9.9895     0.0248     2.4624     6.5299     5.6484     6.4542   -83.1506
  652.0000     0.1201   101.1194     0.3439     9.9738     0.0240     2.4526     6.5734     5.8033     6.5421   -82.8945
  652.5000     0.1227   104.0556     0.3522     9.9734     0.0247     2.4541     6.5713     5.8826     6.5389   -82.7197
  653.0000     0.1171   107.5783     0.3531     9.9881     0.0276     2.4653     6.5696     5.8802     6.5357   -82.4243
  653.5000     0.1139   107.8630     0.3492     9.9877     0.0298     2.4668     6.4778     5.8782     6.5332   -82.1289
  654.0000     0.1180   106.3709     0.3410     9.9872     0.0229     2.4607     6.3873     5.8759     6.5306   -82.2918
  654.5000     0.1245   104.5594     0.3380     9.9868     0.0176     2.4532     6.3853     5.8740     6.5281   -82.4542
  655.0000     0.1224   103.9802     0.3353     9.9712     0.0296     2.4569     6.3399     5.8721     6.4800   -82.4628
  655.5000     0.1141   104.8515     0.3360     9.9706     0.0402     2.4748     6.3819     5.8697     6.4774   -82.4713
  656.0000     0.1033   107.5007     0.3404     9.9702     0.0424     2.4905     6.3803     5.9089     6.4749   -82.7860
  656.5000     0.1017   110.7204     0.3472     9.9698     0.0408     2.4808     6.3782     5.9475     6.4278   -82.7945
  657.0000     0.1127   111.8900     0.3457     9.9684     0.0369     2.4695     6.4656     5.9455     6.3804   -83.1070
  657.5000     0.1151   111.2830     0.3419     9.9536     0.0422     2.4732     6.5534     5.9431     6.3780   -83.1156
  658.0000     0.1092   108.3160     0.3380     9.9532     0.0451     2.4822     6.5517     5.9828     6.4203   -83.2783
  658.5000     0.1072   106.2374     0.3345     9.9528     0.0359     2.4791     6.5954     6.0223     6.4617   -83.4388
  659.0000     0.1107   103.5688     0.3366     9.9371     0.0329     2.4746     6.6394     6.1036     6.5490   -83.5993
  659.5000     0.1125   102.0768     0.3436     9.9367     0.0335     2.4798     6.7296     6.2288     6.6375   -83.6079
  660.0000     0.1104   103.5380     0.3460     9.9211     0.0414     2.4843     6.8213     6.2704     6.8202   -83.4645
  660.5000     0.1054   105.0026     0.3386     9.9358     0.0928     2.4986     6.9144     6.2679     7.1061   -83.3232
  661.0000     0.0951   103.1918     0.3275     9.9353     0.1707     2.5367     6.9605     6.2659     7.0538   -83.1776
  661.5000     0.0777   102.3135     0.3148     9.9500     0.2333     2.5479     6.9582     6.2633     6.9895   -83.0278
  662.0000     0.0719   103.7748     0.3063    10.0407     0.1764     2.4954     6.9559     6.2613     6.9037   -82.8929
  662.5000     0.1147   107.5959     0.3101    10.1180     0.1028     2.4106     6.9541     6.1734     6.8063   -82.7495
  663.0000     0.1435   112.0035     0.3146    10.1308     0.0581     2.3978     6.9523     6.0868     6.7096   -82.7602
  663.5000     0.1558   113.7597     0.3207    10.1303     0.0404     2.4353     6.9505     6.0009     6.5241   -82.9210
  664.0000     0.1423   111.0912     0.3281    10.1147     0.0344     2.4640     6.8530     5.9167     6.4321   -82.9314
  664.5000     0.1272   106.6493     0.3340    10.0990     0.0329     2.4854     6.7572     5.9148     6.3853   -82.9392
  665.0000     0.1111   103.0958     0.3424    10.0682     0.0328     2.4891     6.7090     5.9128     6.3828   -82.9939
  665.5000     0.1049   101.9021     0.3543    10.0375     0.0365     2.4913     6.7073     5.9931     6.5140   -83.2632
  666.0000     0.1023   103.6549     0.3584     9.9915     0.0425     2.4905     6.7983     6.0745     6.6472   -83.2705
  666.5000     0.1017   104.8246     0.3537     9.9758     0.0511     2.4905     6.8915     6.1991     6.7837   -83.2796
  667.0000     0.1017   105.1058     0.3478     9.9450     0.0598     2.4912     7.0205     6.3320     6.8754   -83.1369
  667.5000     0.1011    96.7304     0.3310     9.9294     0.0673     2.5041     7.2285     6.7763     7.1137   -83.1476
  668.0000     0.0921    87.3725     0.3087     9.8834     0.0794     2.5504     7.3774     7.2583     7.4633   -83.1561
  668.5000     0.0585    83.5240     0.2880     9.8678     0.1141     2.5968     7.5299     7.4597     8.7453   -83.1641
  669.0000     0.0375    86.1652     0.2715     9.8826     0.1247     2.6038     7.5806     7.3414     9.6289   -83.1732
  669.5000     0.0345    93.8176     0.2794     9.9124     0.1049     2.5263     7.5781     6.6741     9.6928   -83.3359
