~VERSION INFORMATION
 VERS.                2.0:   CWLS LOG ASCII STANDARD - VERSION 2.0
 WRAP.                 NO:   ONE LINE PER DEPTH STEP
~WELL INFORMATION
#MNEM.UNIT      DATA TYPE    INFORMATION
#----------   ------------   ------------------------------
 STRT.F           36.0000:   START DEPTH
 STOP.F          521.0000:   STOP DEPTH
 STEP.F            0.5000:   STEP LENGTH
 NULL.          -999.2500:   NO VALUE
 COMP. FENIX & SCISSON INC:   COMPANY
 WELL.        NPR-3 #36-3:   WELL
 FLD .             TEAPOT:   FIELD
 LOC .       S3 T38N R78W:   LOCATION
 CNTY.            NATRONA:   COUNTY
 STAT.            WYOMING:   STATE
 CTRY. UNITED STATES OF AMERICA:   COUNTRY
 SRVC.            Unknown:   SERVICE COMPANY
 DATE.        09-JUL-1978:   LOGDATE
 API .       490251066200:   API NUMBER
~CURVE INFORMATION
#MNEM.UNIT       API CODE    CURVE DESCRIPTION
#----------   ------------   ------------------------------
 DEPT.F                  :   
 CALD.IN     45 280 60 00:   CALIPER FROM DENSITY LOG
 GRD .GAPI   45 310 01 00:   GAMMA RAY FROM DENSITY LOG
 CORR.G/C3   45 356 01 00:   DENSITY CORRECTION
 DPHI.DEC    45 890 12 00:   DENSITY POROSITY SANDSTONE
 RHOB.G/C3   45 350 01 00:   BULK DENSITY
 SPR .MV     07 010 01 00:   SPONTANEOUS POTENTIAL
 ILD .OHMM   07 120 46 00:   INDUCTION LOG DEEP
 SN  .OHMM   07 040 16 00:   SHORT NORMAL 16"
~PARAMETER INFORMATION
#MNEM.UNIT          VALUE    DESCRIPTION
#----------   ------------   ------------------------------
 PD  .                 GL:   PERMANENT DATUM
 EPD .F              5216:   ELEVATION PERMANENT DATUM
 LMF .                 KB:   LOG MEASURED FROM
 DAPD.F                 4:   FEET ABOVE PERMANENT DATUM
 DMF .                 KB:   DRILLING MEASURED FROM
 EKB .F              5220:   KELLING BUSHING
 EGL .F              5216:   GROUND LEVEL
 DATE.        09-JUL-1978:   RUN DATE
 RUN .                  1:   RUN NUMBER
 DD  .F               520:   DEPTH DRILLER
 DL  .F               524:   DEPTH LOGGER
 BLI .F               519:   BOTTOM LOG INTERVAL
 TLI .F                50:   TOP LOG INTERVAL
 CS  .IN            8.625:   CASING SIZE
 CBD .F                40:   CASING BOTTOM DRILLER
 BS  .IN            7.875:   BIT SIZE
 BSD .F               520:   BIT SIZE AT DEPTH
 DFT .                KCL:   DRILLING FLUID TYPE
 DFD .                8.6:   DRILLING FLUID DENSITY
 DFV .                 32:   DRILLING FLUID VISCOSITY
 DFPH.                9.5:   DRILLING FLUID PH
 DFL .               14.4:   DRILLING FLUID LOSS
 MSS .           FLOWLINE:   MUD SAMPLE SOURCE
 RMS .OHMM           0.24:   RESISTIVITY MUD SAMPLE
 MST .F                70:   MUD SAMPLE TEMPERATURE
 RMF .OHMM           0.24:   RESISTIVITY MUD FILTRATE SAMPLE
 MFST.F                70:   MUD FILTRATE SAMPLE TEMPERATURE
 RMC .OHMM           0.42:   RESISTIVITY MUD CAKE
 MCST.F                72:   MUD CAKE SAMPLE TEMPERATURE
 MFSS.               MEAS:   MUD FILTRATE SAMPLE SOURCE
 BHT .F                80:   BOTTOM HOLE TEMPERATURE
 TCS .HRS               3:   TIME CURCULATED STOPPED
 MRT .F                80:   MAXIMUM RECORDED TEMPERATURE
 LUN .               2958:   LOGGING UNIT NUMBER
 LUL .               CASP:   LOGGING UNIT LOCATION
 ENGI.             MILLER:   RECORDING ENGINEER
 WITN.           MCGINLEY:   WITNESSED BY
 CLNT.            A2DTECH:   CLIENT CODE
 ORIG.           5" PRINT:   ORIGIN OF DATA
 UWI .       490251066200:   UNIQUE WELL ID
 DICO. A2D Technologies, Inc.:   DIGITIZING COMPANY
~OTHER INFORMATION
~A   DEPT     CALD        GRD       CORR       DPHI       RHOB        SPR        ILD         SN   
# ...
  441.0000     8.3615    62.8912     0.0241     0.2048     2.3579   -12.3817    15.7661    12.3236
  441.5000     8.3629    63.0402     0.0242     0.2018     2.3597   -12.3859    15.7599    12.3187
  442.0000     8.3641    60.5067     0.0243     0.1982     2.3671   -12.5414    15.8630    12.2278
  442.5000     8.3653    59.4635     0.0243     0.1946     2.3760   -12.3944    15.8552    12.2230
  443.0000     8.3664    59.9106     0.0229     0.1942     2.3768   -12.7666    15.8490    12.2182
  443.5000     8.3676    62.2951     0.0200     0.1981     2.3716   -13.0053    15.8428    12.2134
  444.0000     8.3688    64.0835     0.0156     0.2067     2.3545   -13.0095    15.8366    12.2074
  444.5000     8.3401    64.6796     0.0127     0.2103     2.3485   -13.0138    15.8301    12.2026
  445.0000     8.3115    64.2325     0.0097     0.2085     2.3501   -13.0181    15.8226    12.1978
  445.5000     8.3127    63.0402     0.0098     0.2082     2.3531   -13.1735    15.5993    12.1930
  446.0000     8.3139    61.6990     0.0159     0.2150     2.3412   -13.3279    14.9600    12.1870
  446.5000     8.3151    62.3397     0.0264     0.2098     2.3465   -13.3322    15.0578    12.1822
  447.0000     8.3314    65.0432     0.0280     0.1959     2.3712   -13.4866    15.1563    12.1774
  447.5000     8.3325    64.3815     0.0236     0.1952     2.3720   -13.9415    15.4661    12.1726
  448.0000     8.3337    63.0402     0.0206     0.1940     2.3791   -14.2469    15.7839    12.1679
  448.5000     8.3349    61.9970     0.0133     0.1868     2.3915   -14.5515    15.9972    12.2476
  449.0000     8.3361    59.0164     0.0088     0.1791     2.3908   -14.7059    15.9894    12.2416
  449.5000     8.3220    57.2280     0.0029     0.1713     2.4133   -14.8749    15.9831    12.2368
  450.0000     8.3234    59.2117    -0.0015     0.1578     2.4327   -15.0774    15.9642    12.3170
  450.5000     8.3240    65.1362     0.0001     0.1587     2.4380   -15.8737    15.8611    12.3715
  451.0000     8.3246    65.7412     0.0017     0.1673     2.4246   -16.2391    15.9670    12.3942
  451.5000     8.3253    65.4519     0.0107     0.1733     2.4179   -16.3994    15.9603    12.3890
  452.0000     8.3108    64.4175     0.0078     0.1792     2.4105   -16.5597    15.9549    12.2994
  452.5000     8.3116    63.6811     0.0019     0.1864     2.3956   -16.7200    15.8397    12.1261
  453.0000     8.3121    63.9901    -0.0010     0.1914     2.3806   -16.8803    15.7253    11.8728
  453.5000     8.3127    63.9592    -0.0010     0.1923     2.3792   -17.0406    14.9778    11.5446
  454.0000     8.3133    62.4799    -0.0009     0.1861     2.3882   -17.0510    13.8615    11.3819
  454.5000     8.3139    62.6736    -0.0023     0.1824     2.3935   -17.2136    13.6817    11.3780
  455.0000     8.3145    61.9391    -0.0052     0.1844     2.3942   -17.5240    13.7721    11.2949
  455.5000     8.3151    59.2654    -0.0037     0.1901     2.3851   -17.6844    13.8617    11.2911
  456.0000     8.3156    59.8703     0.0024     0.1871     2.3943   -17.8447    13.8570    11.2873
  456.5000     8.3144    60.3262     0.0040     0.1805     2.3974   -18.0050    13.4747    11.2835
  457.0000     8.2870    60.1838     0.0041     0.1769     2.4071   -18.3154    13.1939    11.2797
  457.5000     8.2727    60.1948     0.0056     0.1757     2.4071   -18.6412    13.0986    11.2759
  458.0000     8.2734    62.1410     0.0057     0.1741     2.4199   -19.2392    13.0942    11.2721
  458.5000     8.2589    62.8928     0.0058     0.1693     2.4214   -19.2493    13.0897    11.1905
  459.0000     8.2746    62.7526     0.0043     0.1651     2.4274   -19.4096    12.9952    11.1866
  459.5000     8.2752    64.4030     0.0059     0.1612     2.4394   -19.5699    12.9907    11.1821
  460.0000     8.2757    65.7530     0.0045     0.1605     2.4387   -19.5801    12.9854    11.1783
  460.5000     8.2763    65.6128    -0.0014     0.1633     2.4373   -19.7404    12.9810    11.1746
  461.0000     8.2769    65.1746    -0.0043     0.1624     2.4373   -19.7507    12.8872    11.1708
  461.5000     8.2775    65.0343    -0.0058     0.1620     2.4358   -19.7632    12.8829    11.1671
  462.0000     8.2769    64.5961    -0.0042     0.1644     2.4276   -19.7734    12.8785    11.1633
  462.5000     8.1992    64.6051    -0.0026     0.1643     2.4301   -19.7836    12.8742    11.1595
  463.0000     8.0707    65.2310    -0.0040     0.1620     2.4337   -19.9439    12.7812    11.0787
  463.5000     8.0414    64.9228    -0.0055     0.1595     2.4270   -19.9540    12.7769    11.0742
  464.0000     8.0421    64.0352    -0.0054     0.1607     2.4226   -20.2645    12.7726    11.0704
  464.5000     8.0427    63.8950    -0.0038     0.1631     2.4256   -20.7253    12.7683    11.0667
  465.0000     8.0582    63.7570    -0.0007     0.1669     2.4264   -21.0381    12.7639    11.0630
  465.5000     8.0588    63.6146    -0.0007     0.1705     2.4369   -21.3485    12.7586    11.0593
  466.0000     8.0593    64.2217    -0.0006     0.1657     2.4504   -21.5088    12.7543    11.0556
  466.5000     8.0599    70.9369    -0.0005     0.1675     2.4489   -21.5190    12.8395    11.0518
  467.0000     8.0605    75.5657    -0.0004     0.1683     2.4488   -21.6793    12.7457    11.1249
  467.5000     8.0611    75.8704     0.0011     0.1665     2.4535   -21.9897    12.8308    11.1984
  468.0000     8.0617    71.2615     0.0012     0.1626     2.4602   -22.1501    12.8254    11.1937
  468.5000     8.0773    69.9290     0.0013     0.1587     2.4587   -22.1627    12.8211    11.1900
  469.0000     8.0779    69.6393     0.0013     0.1614     2.4551   -22.1729    12.9057    11.1862
  469.5000     8.0785    70.6918     0.0014     0.1631     2.4529   -22.1831    12.9907    11.0286
  470.0000     8.0791    72.3399     0.0015     0.1603     2.4611   -22.1932    13.0822    10.7983
  470.5000     8.0946    73.2429     0.0016     0.1577     2.4619   -22.2034    13.1626    10.7946
  471.0000     8.0951    73.8549     0.0017     0.1613     2.4582   -22.2135    13.1570    10.7910
  471.5000     8.0957    73.1993     0.0017     0.1568     2.4627   -22.2237    12.9721    10.7873
  472.0000     8.1112    69.3294     0.0018     0.1523     2.4755   -22.2342    12.7017    10.7828
  472.5000     8.1118    68.2112     0.0019     0.1540     2.4681   -22.3967    12.5231    10.7792
  473.0000     8.0975    70.7557     0.0020     0.1576     2.4614   -22.4068    12.4327    10.7756
  473.5000     8.0821    74.4903     0.0005     0.1603     2.4584   -22.4170    12.3429    10.7720
  474.0000     8.0539    76.5856     0.0021     0.1596     2.4577   -22.4271    12.3387    10.7683
  474.5000     8.0396    73.7628     0.0007     0.1602     2.4585   -22.4373    12.3346    10.7647
  475.0000     8.0253    70.6419     0.0008     0.1650     2.4533   -22.4474    12.2455    10.8359
  475.5000     8.0110    69.0114     0.0008     0.1673     2.4451   -22.4579    12.1570    10.8321
  476.0000     8.0117    71.7028     0.0024     0.1551     2.4716   -22.4703    12.1520    10.8277
  476.5000     8.0123    73.7980     0.0040     0.1529     2.4684   -22.7808    12.0642    10.8241
  477.0000     8.0129    73.8069     0.0040     0.1536     2.4691   -22.9411    12.0601    10.8204
  477.5000     8.0134    73.6666     0.0026     0.1535     2.4654   -23.1014    12.0561    10.8168
  478.0000     7.9991    73.2280     0.0012     0.1621     2.4528   -23.1115    11.9690    10.8131
  478.5000     7.9997    73.0879    -0.0002     0.1600     2.4618   -23.1217    11.9650    10.8095
  479.0000     8.0003    71.4576     0.0014     0.1576     2.4633   -23.1321    11.9609    10.8059
  479.5000     8.0009    69.8256     0.0089     0.1546     2.4701   -23.2947    11.9569    10.8773
  480.0000     8.0016    68.9417     0.0135     0.1516     2.4716   -23.3048    11.9529    10.7977
  480.5000     8.0022    69.1366     0.0136     0.1522     2.4739   -23.3883    11.9466    10.7941
  481.0000     7.9877    70.5305     0.0091     0.1489     2.4791   -23.3883    11.7711    10.7905
