~VERSION INFORMATION
 VERS.                2.0:   CWLS LOG ASCII STANDARD - VERSION 2.0
 WRAP.                 NO:   ONE LINE PER DEPTH STEP
~WELL INFORMATION
#MNEM.UNIT      DATA TYPE    INFORMATION
#----------   ------------   ------------------------------
 STRT.F           34.5000:   START DEPTH
 STOP.F          756.0000:   STOP DEPTH
 STEP.F            0.5000:   STEP LENGTH
 NULL.          -999.2500:   NO VALUE
 COMP. FENIX & SCISSON INC:   COMPANY
 WELL.    36 SX 11 #36-11:   WELL
 FLD .        TEAPOT DOME:   FIELD
 LOC .      S11 T38N R78W:   LOCATION
 CNTY.            NATRONA:   COUNTY
 STAT.            WYOMING:   STATE
 CTRY. UNITED STATES OF AMERICA:   COUNTRY
 SRVC.           BIRDWELL:   SERVICE COMPANY
 DATE.        21-FEB-1978:   LOGDATE
 API .       490251059700:   API NUMBER
~CURVE INFORMATION
#MNEM.UNIT       API CODE    CURVE DESCRIPTION
#----------   ------------   ------------------------------
 DEPT.F                  :   
 SPR .MV     05 010 01 00:   SPONTANEOUS POTENTIAL FROM RES.
 SN  .OHMM   05 040 16 00:   SHORT NORMAL 16"
 ILD .OHMM   05 120 46 00:   INDUCTION LOG DEEP
 RHOB.G/C3   45 350 01 00:   BULK DENSITY
 DPHI.DEC    45 890 12 00:   DENSITY POROSITY SANDSTONE
 GRD .GAPI   45 310 01 00:   GAMMA RAY FROM DENSITY LOG
 CALD.IN     45 280 60 00:   CALIPER
 CORR.G/C3   45 356 01 00:   DENSITY CORRECTION
~PARAMETER INFORMATION
#MNEM.UNIT          VALUE    DESCRIPTION
#----------   ------------   ------------------------------
 PD  .                 GL:   PERMANENT DATUM
 EPD .F              5175:   ELEVATION PERMANENT DATUM
 LMF .                 KB:   LOG MEASURED FROM
 DAPD.F                 4:   FEET ABOVE PERMANENT DATUM
 DMF .                 KB:   DRILLING MEASURED FROM
 EKB .F              5179:   KELLING BUSHING
 EGL .F              5175:   GROUND LEVEL
 DATE.          2-21-1978:   RUN DATE
 RUN .                  1:   RUN NUMBER
 DD  .F               765:   DEPTH DRILLER
 DL  .F               760:   DEPTH LOGGER
 BLI .F               754:   BOTTOM LOG INTERVAL
 TLI .F                40:   TOP LOG INTERVAL
 CS  .IN            8.625:   CASING SIZE
 CBD .F                39:   CASING BOTTOM DRILLER
 CBL .F                40:   CASING BOTTOM LOGGER
 BS  .IN            7.875:   BIT SIZE
 BSD .F               765:   BIT SIZE AT DEPTH
 DFT .         LIGNO/SULF:   DRILLING FLUID TYPE
 DFD .                8.6:   DRILLING FLUID DENSITY
 DFV .                 33:   DRILLING FLUID VISCOSITY
 DFPH.               10.5:   DRILLING FLUID PH
 DFL .                 84:   DRILLING FLUID LOSS
 MSS .          FLOW LINE:   MUD SAMPLE SOURCE
 RMS .OHMM            1.8:   RESISTIVITY MUD SAMPLE
 MST .F                56:   MUD SAMPLE TEMPERATURE
 RMF .OHMM            1.8:   RESISTIVITY MUD FILTRATE SAMPLE
 MFST.F                58:   MUD FILTRATE SAMPLE TEMPERATURE
 RMC .OHMM              4:   RESISTIVITY MUD CAKE
 MCST.F                62:   MUD CAKE SAMPLE TEMPERATURE
 MFSS.               MEAS:   MUD FILTRATE SAMPLE SOURCE
 RMB .OHMM           1.48:   RESISTIVITY MUD AT BHT
 BHT .F                68:   BOTTOM HOLE TEMPERATURE
 TCS .HRS               5:   TIME CURCULATED STOPPED
 MRT .F                68:   MAXIMUM RECORDED TEMPERATURE
 LUN .               2958:   LOGGING UNIT NUMBER
 LUL .               CASP:   LOGGING UNIT LOCATION
 ENGI.            POINTER:   RECORDING ENGINEER
 WITN.           MCGINLEY:   WITNESSED BY
 CLNT.            A2DTECH:   CLIENT CODE
 ORIG.       2", 5" PRINT:   ORIGIN OF DATA
 UWI .       490251059700:   UNIQUE WELL ID
 DICO. A2D Technologies, Inc.:   DIGITIZING COMPANY
~OTHER INFORMATION
~A   DEPT      SPR         SN        ILD       RHOB       DPHI         GRD      CALD       CORR   
# ...
  156.0000   -22.5954     7.4408     6.9219     2.4514     0.1275    98.6783     7.9913     0.0130
  156.5000   -22.5622     7.4974     6.9562     2.4553     0.1276    95.9525     7.9909     0.0130
  157.0000   -22.5296     7.5424     6.9905     2.4550     0.1320    92.9170     7.9906     0.0130
  157.5000   -22.4997     7.5538     7.0019     2.4513     0.1327    89.8866     7.9903     0.0130
  158.0000   -22.6447     7.5652     7.0018     2.4476     0.1307    88.2716     7.9899     0.0130
  158.5000   -22.9860     7.5766     7.0017     2.4504     0.1282    89.4084     7.9896     0.0130
  159.0000   -23.3250     7.5881     7.0018     2.4541     0.1258    91.4291     7.9892     0.0130
  159.5000   -23.6660     7.5995     7.0016     2.4564     0.1264    88.9750     7.9889     0.0130
  160.0000   -24.0188     7.6094     6.9853     2.4554     0.1247    87.3667     7.9886     0.0130
  160.5000   -24.0200     7.4945     6.9548     2.4601     0.1206    89.8422     7.9882     0.0130
  161.0000   -23.9245     7.3950     6.9243     2.4609     0.1251    91.8777     7.9879     0.0130
  161.5000   -23.8259     7.2968     6.8941     2.4570     0.1263    93.8913     7.9875     0.0130
  162.0000   -23.7418     7.1999     6.8638     2.4556     0.1246    93.8665     7.9872     0.0130
  162.5000   -23.3844     7.0668     6.8339     2.4585     0.1284    93.6461     7.9869     0.0130
  163.0000   -22.8763     7.0762     6.8099     2.4530     0.1314    93.4609     7.9865     0.0119
  163.5000   -22.3714     7.0917     6.8102     2.4477     0.1282    92.8077     7.9862     0.0100
  164.0000   -22.0720     7.1073     6.8102     2.4551     0.1250    91.3822     7.9858     0.0082
  164.5000   -22.3242     7.1229     6.8102     2.4551     0.1309    89.9655     7.9855     0.0063
  165.0000   -22.5651     7.1385     6.8102     2.4441     0.1321    88.4960     7.9852     0.0044
  165.5000   -22.8082     7.1542     6.8102     2.4482     0.1310    86.9137     7.9848     0.0029
  166.0000   -22.8817     7.1699     6.8102     2.4409     0.1451    86.0485     7.9845     0.0054
  166.5000   -22.8841     7.1857     6.8102     2.4261     0.1503    84.1737     7.9841     0.0091
  167.0000   -22.8887     7.2014     6.8102     2.4166     0.1428    82.0028     7.9838     0.0129
  167.5000   -23.1527     7.2172     6.8102     2.4255     0.1378    81.6126     7.9835     0.0146
  168.0000   -23.5893     7.2331     6.8102     2.4394     0.1330    82.4664     7.9831     0.0126
  168.5000   -23.8947     7.2490     6.8102     2.4539     0.1301    83.4371     7.9828     0.0108
  169.0000   -23.8425     7.2652     6.8102     2.4487     0.1265    85.5081     7.9825     0.0088
  169.5000   -23.7921     7.2715     6.8102     2.4596     0.1234    87.7339     7.9821     0.0069
  170.0000   -23.7405     7.2777     6.8102     2.4530     0.1313    88.5207     7.9818     0.0050
  170.5000   -23.6913     7.2839     6.8102     2.4429     0.1362    88.5534     7.9814     0.0031
  171.0000   -23.7052     7.2901     6.8102     2.4399     0.1290    86.9653     7.9811     0.0012
  171.5000   -23.7466     7.2963     6.8102     2.4522     0.1339    84.7786     7.9808     0.0031
  172.0000   -23.7871     7.3025     6.8102     2.4502     0.1378    84.8324     7.9804     0.0055
  172.5000   -23.8272     7.3087     6.8102     2.4349     0.1334    86.6749     7.9801     0.0080
  173.0000   -23.8761     7.3149     6.8102     2.4425     0.1286    89.4052     7.9797     0.0104
  173.5000   -24.0357     7.3211     6.8102     2.4538     0.1229    91.5667     7.9794     0.0128
  174.0000   -23.9311     7.3275     6.8102     2.4710     0.1201    92.2271     7.9791     0.0149
  174.5000   -23.7701     7.3347     6.8104     2.4817     0.1178    92.0994     7.9787     0.0139
  175.0000   -23.6894     7.2993     6.8109     2.4762     0.1172    89.7723     7.9784     0.0128
  175.5000   -23.6898     7.2343     6.7626     2.4687     0.1222    87.4421     7.9780     0.0117
  176.0000   -23.6893     7.1686     6.7100     2.4609     0.1221    87.1062     7.9777     0.0110
  176.5000   -23.6908     7.1036     6.6578     2.4643     0.1218    87.4288     7.9774     0.0110
  177.0000   -23.4813     7.0393     6.6061     2.4570     0.1259    85.5091     7.9770     0.0108
  177.5000   -23.0990     6.9755     6.5548     2.4578     0.1310    86.2853     7.9767     0.0105
  178.0000   -22.7178     6.9124     6.5039     2.4648     0.1366    86.3824     7.9763     0.0103
  178.5000   -22.4866     6.8724     6.4422     2.4372     0.1372    86.0440     7.9760     0.0100
  179.0000   -22.8685     6.8668     6.4427     2.4475     0.1369    87.6476     7.9757     0.0098
  179.5000   -23.2664     6.8611     6.4426     2.4645     0.1370    92.8726     7.9753     0.0095
  180.0000   -23.6632     6.8555     6.4426     2.4460     0.1402    97.9548     7.9750     0.0093
  180.5000   -23.9649     6.8499     6.4426     2.4255     0.1389    98.5174     7.9746     0.0090
  181.0000   -24.1338     6.8443     6.4426     2.4327     0.1356    95.0425     7.9743     0.0104
  181.5000   -24.3051     6.8387     6.4426     2.4416     0.1334    92.7150     7.9740     0.0124
  182.0000   -24.4783     6.8330     6.4426     2.4460     0.1294    92.4476     7.9690     0.0143
  182.5000   -24.3602     6.8274     6.4426     2.4475     0.1382    91.6709     7.9594     0.0162
  183.0000   -24.2036     6.8219     6.4426     2.4405     0.1379    88.1647     7.9498     0.0181
  183.5000   -24.0735     6.8162     6.4426     2.4334     0.1375    86.6945     7.9402     0.0201
  184.0000   -24.0149     6.8091     6.4662     2.4304     0.1356    85.4813     7.9322     0.0220
  184.5000   -23.9560     6.8770     6.5422     2.4383     0.1324    84.3322     7.9281     0.0239
  185.0000   -23.8886     7.0069     6.6192     2.4483     0.1296    84.5298     7.9240     0.0258
  185.5000   -23.5729     7.1393     6.6972     2.4583     0.1270    87.0844     7.9199     0.0269
  186.0000   -23.2296     7.2738     6.7759     2.4659     0.1244    89.4459     7.9158     0.0261
  186.5000   -23.1320     7.3343     6.8734     2.4606     0.1218    89.9917     7.9117     0.0253
  187.0000   -23.2075     7.3071     6.8576     2.4565     0.1217    90.5139     7.9075     0.0246
  187.5000   -23.2860     7.2881     6.8373     2.4606     0.1215    90.9398     7.9034     0.0238
  188.0000   -23.3648     7.2691     6.8172     2.4648     0.1214    89.2896     7.8993     0.0231
  188.5000   -23.4429     7.2502     6.7970     2.4688     0.1167    87.9425     7.8952     0.0223
  189.0000   -23.4881     7.2314     6.7769     2.4671     0.1152    89.0825     7.9027     0.0215
  189.5000   -23.4869     7.2126     6.7568     2.4601     0.1167    92.6641     7.9220     0.0208
  190.0000   -23.4935     7.1987     6.7368     2.4695     0.1244    93.4742     7.9412     0.0200
  190.5000   -23.6219     7.1581     6.7169     2.4709     0.1343    93.5313     7.9603     0.0192
  191.0000   -23.7505     7.1199     6.6971     2.4481     0.1353    93.8176     7.9735     0.0185
  191.5000   -23.8784     7.0819     6.6772     2.4400     0.1333    93.1538     7.9675     0.0177
  192.0000   -24.0048     7.0441     6.6575     2.4509     0.1313    92.4130     7.9617     0.0171
  192.5000   -24.0931     7.0065     6.6378     2.4565     0.1293    91.6779     7.9559     0.0184
  193.0000   -23.9675     6.9693     6.6182     2.4507     0.1274    91.3976     7.9502     0.0197
  193.5000   -23.8303     6.9375     6.5986     2.4511     0.1288    93.2922     7.9444     0.0211
  194.0000   -23.6964     6.9838     6.5789     2.4550     0.1294    96.6778     7.9386     0.0245
  194.5000   -23.7939     7.0247     6.5627     2.4459     0.1242   100.0481     7.9335     0.0279
  195.0000   -24.0951     7.0659     6.6266     2.4561     0.1222   101.6049     7.9331     0.0312
  195.5000   -24.3931     7.1067     6.6937     2.4641     0.1236    99.4789     7.9304     0.0345
  196.0000   -24.6896     7.1997     6.7787     2.4611     0.1208    98.0567     7.9276     0.0379
