~VERSION INFORMATION
 VERS.                2.0:   CWLS LOG ASCII STANDARD - VERSION 2.0
 WRAP.                 NO:   ONE LINE PER DEPTH STEP
~WELL INFORMATION
#MNEM.UNIT      DATA TYPE    INFORMATION
#----------   ------------   ------------------------------
 STRT.F            0.0000:   START DEPTH
 STOP.F         2694.5000:   STOP DEPTH
 STEP.F            0.5000:   STEP LENGTH
 NULL.          -999.2500:   NO VALUE
 COMP. FENIX & SCISSON INC:   COMPANY
 WELL.       102 A #20-20:   WELL
 FLD .        TEAPOT DOME:   FIELD
 LOC .      S20 T39N R78W:   LOCATION
 CNTY.            NATRONA:   COUNTY
 STAT.            WYOMING:   STATE
 CTRY. UNITED STATES OF AMERICA:   COUNTRY
 SRVC.            Unknown:   SERVICE COMPANY
 DATE.        17-AUG-1965:   LOGDATE
 API .       490251022200:   API NUMBER
~CURVE INFORMATION
#MNEM.UNIT       API CODE    CURVE DESCRIPTION
#----------   ------------   ------------------------------
 DEPT.F                  :   
 CALI.IN     30 280 01 00:   CALIPER FROM GAMMA RAY LOG
 GR  .GAPI   30 310 01 00:   GAMMA RAY
~PARAMETER INFORMATION
#MNEM.UNIT          VALUE    DESCRIPTION
#----------   ------------   ------------------------------
 PD  .                 GL:   PERMANENT DATUM
 LMF .                 GL:   LOG MEASURED FROM
 DMF .                 GL:   DRILLING MEASURED FROM
 DATE.            8-17-65:   RUN DATE
 RUN .                  1:   RUN NUMBER
 DD  .F            2696.5:   DEPTH DRILLER
 DL  .F              2697:   DEPTH LOGGER
 BLI .F              2695:   BOTTOM LOG INTERVAL
 TLI .F              2000:   TOP LOG INTERVAL
 CS  .IN                7:   CASING SIZE
 CBD .F              2678:   CASING BOTTOM DRILLER
 DFT .                OIL:   DRILLING FLUID TYPE
 TCS .HRS               1:   TIME CURCULATED STOPPED
 ENGI.            JACKSON:   RECORDING ENGINEER
 WITN.          JORGENSEN:   WITNESSED BY
 CLNT.            A2DTECH:   CLIENT CODE
 ORIG.           5" PRINT:   ORIGIN OF DATA
 UWI .       490251022200:   UNIQUE WELL ID
 DICO. A2D Technologies, Inc.:   DIGITIZING COMPANY
~OTHER INFORMATION
~A    DEPT      CALI       GR   
# ...
  121.5000     6.4716  -999.2500
  122.0000     6.4573  -999.2500
  122.5000     6.4538  -999.2500
  123.0000     6.4536  -999.2500
  123.5000     6.4539  -999.2500
  124.0000     6.4592  -999.2500
  124.5000     6.4795  -999.2500
  125.0000     6.4937  -999.2500
  125.5000     6.4904  -999.2500
  126.0000     6.4485  -999.2500
  126.5000     6.4468  -999.2500
  127.0000     6.4293  -999.2500
  127.5000     6.4244  -999.2500
  128.0000     6.4242  -999.2500
  128.5000     6.4242  -999.2500
  129.0000     6.4245  -999.2500
  129.5000     6.4094  -999.2500
  130.0000     6.3880  -999.2500
  130.5000     6.4184  -999.2500
  131.0000     6.4167  -999.2500
  131.5000     6.4093  -999.2500
  132.0000     6.4134  -999.2500
  132.5000     6.3978  -999.2500
  133.0000     6.4139  -999.2500
  133.5000     6.4094  -999.2500
  134.0000     6.4055  -999.2500
  134.5000     6.4352  -999.2500
  135.0000     6.4801  -999.2500
  135.5000     6.4883  -999.2500
  136.0000     6.4790  -999.2500
  136.5000     6.4871  -999.2500
  137.0000     6.4821  -999.2500
  137.5000     6.4450  -999.2500
  138.0000     6.4435  -999.2500
  138.5000     6.4504  -999.2500
  139.0000     6.4536  -999.2500
  139.5000     6.4537  -999.2500
  140.0000     6.4492  -999.2500
  140.5000     6.4417  -999.2500
  141.0000     6.4345  -999.2500
  141.5000     6.4410  -999.2500
  142.0000     6.4599  -999.2500
  142.5000     6.4841  -999.2500
  143.0000     6.4854  -999.2500
  143.5000     6.4882  -999.2500
  144.0000     6.4915  -999.2500
  144.5000     6.5043  -999.2500
  145.0000     6.5408  -999.2500
  145.5000     6.5241  -999.2500
  146.0000     6.5038  -999.2500
  146.5000     6.5069  -999.2500
  147.0000     6.5115  -999.2500
  147.5000     6.5217  -999.2500
  148.0000     6.5289  -999.2500
  148.5000     6.5298  -999.2500
  149.0000     6.5556  -999.2500
  149.5000     6.5591  -999.2500
  150.0000     6.5350  -999.2500
  150.5000     6.5134  -999.2500
  151.0000     6.5169  -999.2500
  151.5000     6.4954  -999.2500
  152.0000     6.4962  -999.2500
  152.5000     6.4998  -999.2500
  153.0000     6.5027  -999.2500
  153.5000     6.4981  -999.2500
  154.0000     6.4936  -999.2500
  154.5000     6.4904  -999.2500
  155.0000     6.4873  -999.2500
  155.5000     6.4841  -999.2500
  156.0000     6.4848  -999.2500
  156.5000     6.4870  -999.2500
  157.0000     6.4892  -999.2500
  157.5000     6.4915  -999.2500
  158.0000     6.4937  -999.2500
  158.5000     6.4959  -999.2500
  159.0000     6.4981  -999.2500
  159.5000     6.5006  -999.2500
  160.0000     6.5028  -999.2500
  160.5000     6.5321  -999.2500
  161.0000     6.5300  -999.2500
  161.5000     6.5127  -999.2500
  162.0000     6.5127  -999.2500
  162.5000     6.5273  -999.2500
  163.0000     6.5492  -999.2500
  163.5000     6.5549  -999.2500
  164.0000     6.5505  -999.2500
  164.5000     6.5831  -999.2500
  165.0000     6.5496  -999.2500
  165.5000     6.5466  -999.2500
  166.0000     6.6059  -999.2500
  166.5000     6.5064  -999.2500
  167.0000     6.5127  -999.2500
  167.5000     6.4875  -999.2500
  168.0000     6.4929  -999.2500
  168.5000     6.5038  -999.2500
  169.0000     6.5105  -999.2500
  169.5000     6.4978  -999.2500
  170.0000     6.4991  -999.2500
  170.5000     6.5125  -999.2500
  171.0000     6.5099  -999.2500
  171.5000     6.5032  -999.2500
  172.0000     6.5011  -999.2500
  172.5000     6.4989  -999.2500
  173.0000     6.4967  -999.2500
  173.5000     6.4945  -999.2500
  174.0000     6.4935  -999.2500
  174.5000     6.4943  -999.2500
  175.0000     6.4951  -999.2500
  175.5000     6.4959  -999.2500
  176.0000     6.4968  -999.2500
  176.5000     6.4976  -999.2500
  177.0000     6.4984  -999.2500
  177.5000     6.4993  -999.2500
  178.0000     6.5001  -999.2500
  178.5000     6.5010  -999.2500
  179.0000     6.5017  -999.2500
  179.5000     6.5025  -999.2500
  180.0000     6.4926  -999.2500
  180.5000     6.4754  -999.2500
  181.0000     6.4584  -999.2500
  181.5000     6.4435  -999.2500
  182.0000     6.4524  -999.2500
  182.5000     6.4671  -999.2500
  183.0000     6.4670  -999.2500
  183.5000     6.4557  -999.2500
  184.0000     6.4664  -999.2500
  184.5000     6.4826  -999.2500
  185.0000     6.4995  -999.2500
  185.5000     6.4963  -999.2500
  186.0000     6.4560  -999.2500
  186.5000     6.4264  -999.2500
  187.0000     6.4345  -999.2500
  187.5000     6.4415  -999.2500
  188.0000     6.4716  -999.2500
  188.5000     6.4980  -999.2500
  189.0000     6.4648  -999.2500
  189.5000     6.4531  -999.2500
  190.0000     6.4446  -999.2500
  190.5000     6.4495  -999.2500
  191.0000     6.4519  -999.2500
  191.5000     6.4384  -999.2500
  192.0000     6.4249  -999.2500
  192.5000     6.4333  -999.2500
  193.0000     6.4435  -999.2500
  193.5000     6.4440  -999.2500
  194.0000     6.4441  -999.2500
  194.5000     6.4551  -999.2500
  195.0000     6.4602  -999.2500
  195.5000     6.4467  -999.2500
  196.0000     6.4461  -999.2500
  196.5000     6.4252  -999.2500
  197.0000     6.4285  -999.2500
  197.5000     6.4336  -999.2500
  198.0000     6.4385  -999.2500
  198.5000     6.4434  -999.2500
  199.0000     6.4483  -999.2500
  199.5000     6.4533  -999.2500
  200.0000     6.4583  -999.2500
  200.5000     6.4633  -999.2500
  201.0000     6.4502  -999.2500
  201.5000     6.4348  -999.2500
  202.0000     6.4365  -999.2500
  202.5000     6.4395  -999.2500
  203.0000     6.4425  -999.2500
  203.5000     6.4494  -999.2500
  204.0000     6.4604  -999.2500
  204.5000     6.4780  -999.2500
  205.0000     6.4985  -999.2500
  205.5000     6.5120  -999.2500
  206.0000     6.4567  -999.2500
  206.5000     6.4677  -999.2500
  207.0000     6.4847  -999.2500
  207.5000     6.4923  -999.2500
  208.0000     6.4908  -999.2500
  208.5000     6.4893  -999.2500
  209.0000     6.4877  -999.2500
  209.5000     6.4862  -999.2500
  210.0000     6.4846  -999.2500
  210.5000     6.4838  -999.2500
  211.0000     6.4950  -999.2500
  211.5000     6.4979  -999.2500
  212.0000     6.4837  -999.2500
  212.5000     6.4870  -999.2500
  213.0000     6.4900  -999.2500
  213.5000     6.4929  -999.2500
  214.0000     6.4896  -999.2500
  214.5000     6.4834  -999.2500
  215.0000     6.4866  -999.2500
  215.5000     6.4898  -999.2500
  216.0000     6.4931  -999.2500
  216.5000     6.4897  -999.2500
  217.0000     6.4848  -999.2500
  217.5000     6.4798  -999.2500
  218.0000     6.4745  -999.2500
  218.5000     6.4833  -999.2500
  219.0000     6.4926  -999.2500
  219.5000     6.4897  -999.2500
  220.0000     6.4871  -999.2500
  220.5000     6.4845  -999.2500
  221.0000     6.4759  -999.2500
  221.5000     6.4612  -999.2500
  222.0000     6.4612  -999.2500
  222.5000     6.4759  -999.2500
  223.0000     6.4854  -999.2500
  223.5000     6.4899  -999.2500
  224.0000     6.4923  -999.2500
  224.5000     6.4888  -999.2500
  225.0000     6.4857  -999.2500
  225.5000     6.4855  -999.2500
  226.0000     6.4929  -999.2500
  226.5000     6.4731  -999.2500
  227.0000     6.4500  -999.2500
  227.5000     6.4441  -999.2500
  228.0000     6.4437  -999.2500
  228.5000     6.4288  -999.2500
  229.0000     6.4178  -999.2500
  229.5000     6.4085  -999.2500
  230.0000     6.3993  -999.2500
  230.5000     6.3947  -999.2500
  231.0000     6.3947  -999.2500
  231.5000     6.3922  -999.2500
  232.0000     6.3873  -999.2500
  232.5000     6.3856  -999.2500
  233.0000     6.3870  -999.2500
  233.5000     6.3885  -999.2500
  234.0000     6.3899  -999.2500
  234.5000     6.3914  -999.2500
  235.0000     6.3928  -999.2500
  235.5000     6.3941  -999.2500
  236.0000     6.4034  -999.2500
  236.5000     6.4154  -999.2500
  237.0000     6.4191  -999.2500
  237.5000     6.4018  -999.2500
  238.0000     6.4013  -999.2500
  238.5000     6.4235  -999.2500
  239.0000     6.4096  -999.2500
  239.5000     6.3953  -999.2500
  240.0000     6.4001  -999.2500
  240.5000     6.4063  -999.2500
  241.0000     6.4127  -999.2500
  241.5000     6.4120  -999.2500
  242.0000     6.4077  -999.2500
  242.5000     6.4068  -999.2500
