~VERSION INFORMATION
 VERS.                2.0:   CWLS LOG ASCII STANDARD - VERSION 2.0
 WRAP.                 NO:   ONE LINE PER DEPTH STEP
~WELL INFORMATION
#MNEM.UNIT      DATA TYPE    INFORMATION
#----------   ------------   ------------------------------
 STRT.F           30.0000:   START DEPTH
 STOP.F          507.0000:   STOP DEPTH
 STEP.F            0.5000:   STEP LENGTH
 NULL.          -999.2500:   NO VALUE
 COMP. FENIX & SCISSON INC:   COMPANY
 WELL.      NPR-3 #42S-10:   WELL
 FLD .             TEAPOT:   FIELD
 LOC .      S10 T38N R78W:   LOCATION
 CNTY.            NATRONA:   COUNTY
 STAT.            WYOMING:   STATE
 CTRY. UNITED STATES OF AMERICA:   COUNTRY
 SRVC.            Unknown:   SERVICE COMPANY
 DATE.        15-JUL-1978:   LOGDATE
 API .       490251065700:   API NUMBER
~CURVE INFORMATION
#MNEM.UNIT       API CODE    CURVE DESCRIPTION
#----------   ------------   ------------------------------
 DEPT.F                  :   
 SPR .MV     07 010 01 00:   SPONTANEOUS POTENTIAL
 ILD .OHMM   07 120 46 00:   INDUCTION LOG DEEP
 SN  .OHMM   07 040 16 00:   SHORT NORMAL
 CALD.IN     45 280 60 00:   CALIPER FROM DENSITY LOG
 GRD .GAPI   45 310 01 00:   GAMMA RAY FROM DENSITY LOG
 CORR.G/C3   45 356 01 00:   DENSITY CORRECTION
 RHOB.G/C3   45 350 01 00:   BULK DENSITY
 DPHI.DEC    45 890 12 00:   DENSITY POROSITY SANDSTONE
~PARAMETER INFORMATION
#MNEM.UNIT          VALUE    DESCRIPTION
#----------   ------------   ------------------------------
 PD  .                 GL:   PERMANENT DATUM
 EPD .F              5204:   ELEVATION PERMANENT DATUM
 LMF .                 KB:   LOG MEASURED FROM
 DAPD.F                 4:   FEET ABOVE PERMANENT DATUM
 DMF .                 KB:   DRILLING MEASURED FROM
 EKB .F              5208:   KELLING BUSHING
 EGL .F              5204:   GROUND LEVEL
 DATE.        15-JUL-1978:   RUN DATE
 RUN .                  1:   RUN NUMBER
 DD  .F               500:   DEPTH DRILLER
 DL  .F               511:   DEPTH LOGGER
 BLI .F               504:   BOTTOM LOG INTERVAL
 TLI .F                30:   TOP LOG INTERVAL
 CS  .IN            8.625:   CASING SIZE
 CBD .F                40:   CASING BOTTOM DRILLER
 CBL .F                40:   CASING BOTTOM LOGGER
 BS  .IN            7.875:   BIT SIZE
 BSD .F               500:   BIT SIZE AT DEPTH
 DFT .                KCL:   DRILLING FLUID TYPE
 DFD .                8.7:   DRILLING FLUID DENSITY
 DFV .                 32:   DRILLING FLUID VISCOSITY
 DFPH.                9.0:   DRILLING FLUID PH
 RMS .OHMM           0.18:   RESISTIVITY MUD SAMPLE
 MST .F                78:   MUD SAMPLE TEMPERATURE
 RMF .OHMM           0.16:   RESISTIVITY MUD FILTRATE SAMPLE
 MFST.F                88:   MUD FILTRATE SAMPLE TEMPERATURE
 RMC .OHMM           0.28:   RESISTIVITY MUD CAKE
 MCST.F                88:   MUD CAKE SAMPLE TEMPERATURE
 MFSS.               MEAS:   MUD FILTRATE SAMPLE SOURCE
 MCSS.               MEAS:   MUD CAKE SAMPLE SOURCE
 TCS .HRS               1:   TIME CURCULATED STOPPED
 LUN .               2958:   LOGGING UNIT NUMBER
 LUL .               CASP:   LOGGING UNIT LOCATION
 ENGI.              HONEA:   RECORDING ENGINEER
 WITN.           MCGINLEY:   WITNESSED BY
 CLNT.            A2DTECH:   CLIENT CODE
 ORIG.           5" PRINT:   ORIGIN OF DATA
 UWI .       490251065700:   UNIQUE WELL ID
 DICO. A2D Technologies, Inc.:   DIGITIZING COMPANY
~OTHER INFORMATION
~A   DEPT      SPR        ILD         SN       CALD        GRD       CORR       RHOB       DPHI   
# ...
  111.0000   -31.4810    14.4333     9.6347     8.2802    78.6251     0.0129     2.4493     0.1489
  111.5000   -31.4693    14.5397     9.5024     8.5641    78.4939     0.0131     2.4433     0.1501
  112.0000   -31.4575    14.4470     9.3064     8.6255    78.9688     0.0133     2.4405     0.1477
  112.5000   -31.4456    14.3548     9.1929     8.5955    79.4378     0.0179     2.4451     0.1423
  113.0000   -31.5832    14.1496     9.0710     8.5262    79.7582     0.0256     2.4549     0.1312
  113.5000   -31.5685    13.6950     9.0124     8.4540    79.9301     0.0363     2.4677     0.1240
  114.0000   -31.5568    13.2385     8.9543     8.3522    79.2104     0.0502     2.4790     0.1269
  114.5000   -31.5451    12.7973     8.8965     8.2652    77.4506     0.0529     2.4716     0.1367
  115.0000   -31.5334    12.2019     8.9010     8.1931    75.5324     0.0353     2.4560     0.1427
  115.5000   -31.5216    11.7145     8.9046     8.1353    74.8225     0.0324     2.4501     0.1426
  116.0000   -31.6609    11.3241     8.9082     8.1225    75.1487     0.0341     2.4502     0.1364
  116.5000   -31.6472    11.0222     8.9118     8.1547    76.0635     0.0328     2.4585     0.1342
  117.0000   -31.7846    10.8021     8.8542     8.1715    76.8297     0.0255     2.4653     0.1378
  117.5000   -31.7728    10.7333     8.9191     8.1884    75.9614     0.0182     2.4594     0.1386
  118.0000   -31.7611    10.7384     8.9235     8.2053    74.4988     0.0154     2.4595     0.1416
  118.5000   -31.7494    10.7436     8.9271     8.1925    74.0762     0.0171     2.4543     0.1508
  119.0000   -31.7377    10.7488     8.9307     8.1357    73.7965     0.0188     2.4426     0.1687
  119.5000   -31.7258    10.8291     8.9343     8.0487    73.6761     0.0204     2.4217     0.1761
  120.0000   -31.5648    10.8342     8.9379     7.9765    73.8488     0.0206     2.4091     0.1719
  120.5000   -31.5506    10.8393     8.9415     7.9934    75.8246     0.0208     2.4055     0.1638
  121.0000   -31.5389    10.8444     8.8229     8.0399    79.3125     0.0210     2.4190     0.1527
  121.5000   -31.3781    10.9243     8.6462     8.0865    81.5024     0.0197     2.4348     0.1470
  122.0000   -31.3664    10.9295     8.4730     8.1479    81.6742     0.0198     2.4461     0.1488
  122.5000   -31.3547    11.0100     8.3606     8.1647    81.8461     0.0200     2.4476     0.1514
  123.0000   -31.4949    11.0912     8.3066     8.1964    82.3151     0.0217     2.4418     0.1510
  123.5000   -31.6322    11.1730     8.2435     8.2134    82.3383     0.0234     2.4426     0.1468
  124.0000   -31.7695    11.2553     8.1444     8.2451    81.1729     0.0280     2.4494     0.1459
  124.5000   -32.0559    11.3449     8.0918     8.3069    78.9673     0.0297     2.4487     0.1477
  125.0000   -32.3393    11.4221     8.0951     8.4276    77.2075     0.0299     2.4457     0.1464
  125.5000   -32.4769    11.4286     8.0420     8.5039    75.8935     0.0315     2.4452     0.1386
  126.0000   -32.6140    11.4340     8.0461     8.5207    75.9168     0.0421     2.4543     0.1326
  126.5000   -32.7512    11.4394     7.9934     8.4782    76.0892     0.0438     2.4678     0.1317
  127.0000   -32.7392    11.3664     7.9428     8.3913    76.1176     0.0440     2.4597     0.1454
  127.5000   -32.5782    11.2939     7.9458     8.2894    76.1409     0.0472     2.4493     0.1442
  128.0000   -32.5641    11.0686     7.8945     8.2173    76.0097     0.0548     2.4464     0.1400
  128.5000   -32.4034    10.8478     7.8979     8.1748    75.5930     0.0610     2.4555     0.1381
  129.0000   -32.3917    10.4863     7.9017     8.1316    75.1705     0.0612     2.4600     0.1405
  129.5000   -32.3800    10.2067     7.9043     8.0586    74.8908     0.0524     2.4586     0.1476
  130.0000   -32.5202     9.7989     7.8530     8.0029    76.2571     0.0317     2.4438     0.1655
  130.5000   -32.3565     9.4724     7.8031     8.0351    77.7663     0.0199     2.4192     0.1679
  131.0000   -32.4968     9.2198     7.8063     8.0965    78.5325     0.0186     2.4169     0.1717
  131.5000   -32.4821     9.0982     7.8097     8.1430    78.5557     0.0188     2.4111     0.1794
  132.0000   -32.4709     9.0402     7.7585     8.0560    77.3492     0.0204     2.4023     0.1764
  132.5000   -32.4590     9.1079     7.7621     7.9542    75.4877     0.0236     2.4001     0.1725
  133.0000   -32.4471     9.1122     7.7653     7.9562    74.4708     0.0267     2.4122     0.1704
  133.5000   -32.4352     9.1794     7.7685     7.9731    74.3396     0.0191     2.4183     0.1629
  134.0000   -32.4225     9.1837     7.7718     7.9751    74.5173     0.0107     2.4176     0.1616
  134.5000   -32.4108     9.1240     7.7698     7.9623    76.4722     0.0109     2.4222     0.1643
  135.0000   -32.5484     9.1294     7.7558     7.8724    79.3186     0.0111     2.4245     0.1622
  135.5000   -32.8345     9.1337     7.7418     7.8032    78.7475     0.0142     2.4194     0.1532
  136.0000   -33.2757     9.0754     7.7305     7.8799    77.8734     0.0159     2.4292     0.1575
  136.5000   -33.5723     9.0175     7.5764     8.0155    79.3884     0.0161     2.4339     0.1591
  137.0000   -33.8426     9.0219     7.4247     8.3142    80.1546     0.0177     2.4301     0.1531
  137.5000   -33.9799     9.0271     7.3262     8.5240    80.9336     0.0224     2.4378     0.1470
  138.0000   -33.9652     9.0313     7.2704     8.6002    81.3908     0.0241     2.4446     0.1491
  138.5000   -33.9535     9.0356     7.2320     8.6319    81.2703     0.0227     2.4378     0.1556
  139.0000   -34.0908     9.0398     7.1853     8.6340    80.5506     0.0214     2.4282     0.1631
  139.5000   -34.6752     9.0441     7.1889     8.5618    78.3450     0.0232     2.4238     0.1589
  140.0000   -34.9645     9.0484     7.1418     8.4896    76.5852     0.0339     2.4247     0.1499
  140.5000   -34.9499     8.9895     7.1947     8.4472    75.7169     0.0533     2.4374     0.1307
  141.0000   -34.7891     8.9332     7.1976     8.4180    76.0373     0.0565     2.4577     0.1390
  141.5000   -34.4793     8.8761     7.2639     8.3331    78.7352     0.0492     2.4637     0.1515
  142.0000   -34.1695     8.7592     7.3351     8.2901    82.0274     0.0419     2.4422     0.1572
  142.5000   -34.0088     8.5209     7.4074     8.2624    82.9421     0.0451     2.4326     0.1589
  143.0000   -33.6990     8.2983     7.4616     8.2056    82.0634     0.0483     2.4297     0.1553
  143.5000   -33.5380     8.1338     7.4731     8.1186    81.1580     0.0469     2.4320     0.1554
  144.0000   -33.5022     8.0809     7.5717     8.0613    78.2629     0.0426     2.4313     0.1573
  144.5000   -33.3629     8.0857     7.6271     8.0480    77.3888     0.0368     2.4299     0.1576
  145.0000   -33.3512     8.0895     7.6302     8.0505    77.8636     0.0325     2.4338     0.1543
  145.5000   -33.3394     8.1491     7.6332     8.0526    77.5897     0.0297     2.4383     0.1513
  146.0000   -33.3277     8.2658     7.6363     8.0546    75.6813     0.0268     2.4407     0.1503
  146.5000   -33.4680     8.4420     7.5863     8.0566    75.2530     0.0241     2.4415     0.1500
  147.0000   -33.4533     8.6220     7.5901     7.9972    75.8764     0.0213     2.4416     0.1464
  147.5000   -33.4416     8.8665     7.5932     7.8827    76.7912     0.0200     2.4424     0.1401
  148.0000   -33.5818     9.1179     7.5962     7.9446    78.7461     0.0202     2.4507     0.1454
  148.5000   -33.7162     9.3820     7.5472     8.0950    81.7697     0.0204     2.4523     0.1478
  149.0000   -33.7045     9.6426     7.4985     8.2899    83.1253     0.0235     2.4442     0.1453
  149.5000   -33.6928     9.8491     7.5023     8.6925    82.6849     0.0312     2.4502     0.1378
  150.0000   -33.8301     9.8627     7.4508     8.7854    81.4695     0.0380     2.4630     0.1315
  150.5000   -33.8147     9.9862     7.4230     8.8006    80.9270     0.0425     2.4666     0.1368
  151.0000   -33.8014    10.0686     7.3952     8.7434    80.5223     0.0439     2.4566     0.1431
