~VERSION INFORMATION
 VERS.                2.0:   CWLS LOG ASCII STANDARD - VERSION 2.0
 WRAP.                 NO:   ONE LINE PER DEPTH STEP
~WELL INFORMATION
#MNEM.UNIT      DATA TYPE    INFORMATION
#----------   ------------   ------------------------------
 STRT.F          588.0000:   START DEPTH
 STOP.F         1583.5000:   STOP DEPTH
 STEP.F            0.5000:   STEP LENGTH
 NULL.          -999.2500:   NO VALUE
 COMP.   FENIX & SCISSONS:   COMPANY
 WELL.   NPR 3 #23STX1-11:   WELL
 FLD .             TEAPOT:   FIELD
 LOC .      S11 T38N R78W:   LOCATION
 CNTY.            NATRONA:   COUNTY
 STAT.            WYOMING:   STATE
 CTRY. UNITED STATES OF AMERICA:   COUNTRY
 SRVC.            Unknown:   SERVICE COMPANY
 DATE.        15-JUN-1979:   LOGDATE
 API .       490251078300:   API NUMBER
~CURVE INFORMATION
#MNEM.UNIT       API CODE    CURVE DESCRIPTION
#----------   ------------   ------------------------------
 DEPT.F                  :   
 RHOB.G/C3   45 350 01 00:   BULK DENSITY
 DPHI.DEC    45 890 10 00:   DENSITY POROSITY LIMESTONE
 CORR.G/C3   45 356 01 00:   DENSITY CORRECTION
 GRD .GAPI   45 310 01 00:   GAMMA RAY FROM DENSITY LOG
 CALD.IN     45 280 60 00:   CALIPER FROM DENSITY LOG
~PARAMETER INFORMATION
#MNEM.UNIT          VALUE    DESCRIPTION
#----------   ------------   ------------------------------
 PD  .                 GL:   PERMANENT DATUM
 EPD .F              5168:   ELEVATION PERMANENT DATUM
 LMF .                 KB:   LOG MEASURED FROM
 DAPD.F                10:   FEET ABOVE PERMANENT DATUM
 DMF .                 KB:   DRILLING MEASURED FROM
 EKB .F              5178:   KELLING BUSHING
 EGL .F              5168:   GROUND LEVEL
 DATE.            6-15-79:   RUN DATE
 RUN .                  1:   RUN NUMBER
 DD  .F              1580:   DEPTH DRILLER
 DL  .F              1580:   DEPTH LOGGER
 BLI .F              1578:   BOTTOM LOG INTERVAL
 TLI .F               680:   TOP LOG INTERVAL
 CS  .IN            9.625:   CASING SIZE
 CBD .F               660:   CASING BOTTOM DRILLER
 CBL .F               670:   CASING BOTTOM LOGGER
 BS  .IN             8.75:   BIT SIZE
 BSD .F              1580:   BIT SIZE AT DEPTH
 DFT .                OIL:   DRILLING FLUID TYPE
 TCS .HRS               4:   TIME CURCULATED STOPPED
 MRT .F                80:   MAXIMUM RECORDED TEMPERATURE
 LUN .               3029:   LOGGING UNIT NUMBER
 LUL .             CASPER:   LOGGING UNIT LOCATION
 ENGI.            MULLINS:   RECORDING ENGINEER
 CLNT.            A2DTECH:   CLIENT CODE
 ORIG.     1", 2.5" PRINT:   ORIGIN OF DATA
 UWI .       490251078300:   UNIQUE WELL ID
 DICO. A2D Technologies, Inc.:   DIGITIZING COMPANY
~OTHER INFORMATION
~A   DEPT     RHOB       DPHI       CORR         GRD      CALD   
# ...
 1320.0000     2.4028     0.0494     0.2457    86.5198     9.8972
 1320.5000     2.5664    -0.0032     0.4088    85.4172     9.9399
 1321.0000     2.5273     0.0235     0.3392    86.7635     9.9597
 1321.5000     2.4701     0.0526     0.2310    87.4655     9.8474
 1322.0000     2.5903    -0.0186     0.2508    89.2347     9.7801
 1322.5000     2.5750    -0.0029     0.1881    91.0894     9.7432
 1323.0000     2.5029     0.0316     0.0124    92.5242     9.7014
 1323.5000     2.5207     0.0146    -0.0027    90.6227     9.6765
 1324.0000     2.5296     0.0162    -0.0168    87.5327     9.6793
 1324.5000     2.5192     0.0209    -0.0122    89.0513     9.6787
 1325.0000     2.5193     0.0225    -0.0053    91.3092     9.6784
 1325.5000     2.5193     0.0241     0.0035    90.6288     9.6789
 1326.0000     2.5148     0.0257    -0.0009    89.8765     9.6788
 1326.5000     2.5094     0.0275    -0.0076    88.8551     9.6787
 1327.0000     2.5106     0.0252    -0.0056    87.9690     9.6789
 1327.5000     2.5206     0.0219    -0.0027    87.7437     9.6792
 1328.0000     2.5198     0.0216     0.0000    91.1361     9.6848
 1328.5000     2.5179     0.0235     0.0000    93.8205     9.6900
 1329.0000     2.5210     0.0206     0.0002    92.8165     9.6956
 1329.5000     2.5248     0.0186     0.0024    91.8070     9.7010
 1330.0000     2.5213     0.0201     0.0038    91.6010     9.7065
 1330.5000     2.5173     0.0215     0.0015    92.6195     9.7119
 1331.0000     2.5187     0.0227    -0.0004    90.5528     9.7170
 1331.5000     2.5216     0.0209    -0.0026    90.3918     9.7245
 1332.0000     2.5211     0.0207    -0.0041    90.6526     9.7339
 1332.5000     2.5134     0.0254    -0.0034    98.3156     9.7429
 1333.0000     2.5058     0.0283    -0.0019    97.0035     9.7518
 1333.5000     2.5079     0.0283    -0.0004    93.7375     9.7608
 1334.0000     2.5170     0.0236     0.0011    90.4903     9.7698
 1334.5000     2.5255     0.0202     0.0024    91.8608     9.7787
 1335.0000     2.5267     0.0184     0.0035    94.2683     9.7877
 1335.5000     2.5261     0.0183     0.0024    96.7831     9.7964
 1336.0000     2.5222     0.0198     0.0017    96.9096     9.8010
 1336.5000     2.5092     0.0296    -0.0003    94.6518     9.8007
 1337.0000     2.4664     0.0598     0.0045    92.7950     9.7997
 1337.5000     2.4087     0.1346     0.0198    87.4187     9.8165
 1338.0000     2.3176     0.1183     0.0608    83.4544     9.8535
 1338.5000     2.3470     0.0848     0.2244    82.6754     9.8935
 1339.0000     2.4738     0.0098     0.4151    82.8412    10.0126
 1339.5000     2.5353     0.0152     0.5116    83.7776    10.3468
 1340.0000     2.4982     0.0452     0.3621    85.4281    10.2279
 1340.5000     2.4823     0.0397     0.1033    87.4538     9.8571
 1341.0000     2.4984     0.0299     0.0047    90.0169     9.6139
 1341.5000     2.5271     0.0199     0.0030    92.0621     9.6296
 1342.0000     2.5298     0.0149     0.0075    92.2077     9.6155
 1342.5000     2.5331     0.0144     0.0077    90.4022     9.6010
 1343.0000     2.5382     0.0108     0.0089    91.4118     9.5975
 1343.5000     2.5445     0.0081     0.0126    90.8483     9.5895
 1344.0000     2.5501     0.0046     0.0158    89.1817     9.5826
 1344.5000     2.5347     0.0079     0.0120    89.6988     9.5755
 1345.0000     2.5236     0.0162     0.0031    91.4827     9.5682
 1345.5000     2.5126     0.0259     0.0000    92.2394     9.5609
 1346.0000     2.5030     0.0319     0.0009    92.5758     9.5535
 1346.5000     2.4940     0.0381     0.0121    96.6639     9.5461
 1347.0000     2.4998     0.0389     0.0373    96.7062     9.5388
 1347.5000     2.5102     0.0309     0.0674    96.2141     9.5312
 1348.0000     2.5202     0.0235     0.0806    95.4177     9.5240
 1348.5000     2.5303     0.0183     0.0523    97.0729     9.5169
 1349.0000     2.5256     0.0191     0.0268    99.6294     9.5144
 1349.5000     2.5253     0.0215     0.0075   101.9749     9.5101
 1350.0000     2.5255     0.0239    -0.0031   102.2903     9.5064
 1350.5000     2.5032     0.0264    -0.0023    99.0164     9.5026
 1351.0000     2.5057     0.0291     0.0012    95.4312     9.4987
 1351.5000     2.5123     0.0251     0.0054    94.2361     9.4949
 1352.0000     2.5203     0.0203     0.0078    93.0912     9.4911
 1352.5000     2.5287     0.0154     0.0023    91.9217     9.4873
 1353.0000     2.5340     0.0126    -0.0039    92.8148     9.4834
 1353.5000     2.5333     0.0142    -0.0105    94.7533     9.4796
 1354.0000     2.5378     0.0121    -0.0070    95.3517     9.4758
 1354.5000     2.5445     0.0075    -0.0038    95.5296     9.4756
 1355.0000     2.5434     0.0094    -0.0040    94.5911     9.4755
 1355.5000     2.5284     0.0130    -0.0046    92.9778     9.4756
 1356.0000     2.5289     0.0167    -0.0074    94.7604     9.4756
 1356.5000     2.5254     0.0194    -0.0069    96.6967     9.4756
 1357.0000     2.5190     0.0180    -0.0043    97.7570     9.4756
 1357.5000     2.5285     0.0162    -0.0021    98.9802     9.4756
 1358.0000     2.5284     0.0162    -0.0003    98.5544     9.4756
 1358.5000     2.5208     0.0216    -0.0023    96.8785     9.4756
 1359.0000     2.5140     0.0264    -0.0046    94.3439     9.4757
 1359.5000     2.5074     0.0328    -0.0063    90.8325     9.4756
 1360.0000     2.4903     0.0397    -0.0075    88.9683     9.4757
 1360.5000     2.4820     0.0429     0.0043    87.2213     9.4758
 1361.0000     2.4986     0.0336     0.0287    87.8516     9.4726
 1361.5000     2.5212     0.0245     0.0574    88.4457     9.4602
 1362.0000     2.5225     0.0198     0.0627    88.9231     9.4479
 1362.5000     2.5141     0.0235     0.0491    89.2735     9.4354
 1363.0000     2.5374     0.0121     0.0442    91.8766     9.4229
 1363.5000     2.5299     0.0179     0.0259    96.0355     9.4105
 1364.0000     2.5245     0.0194     0.0054    94.9283     9.3979
 1364.5000     2.5300     0.0146     0.0063    91.5280     9.3856
 1365.0000     2.5256     0.0170     0.0076    90.0394     9.3732
 1365.5000     2.5194     0.0216     0.0053    89.1899     9.3598
 1366.0000     2.5237     0.0206     0.0042    88.3569     9.3553
 1366.5000     2.5257     0.0214     0.0016    88.6992     9.3619
 1367.0000     2.5192     0.0230    -0.0029    90.1883     9.3676
 1367.5000     2.5156     0.0245    -0.0029    91.2773     9.3732
 1368.0000     2.5134     0.0259     0.0017    91.9130     9.3791
 1368.5000     2.5178     0.0244     0.0063    91.1919     9.3849
 1369.0000     2.5179     0.0230     0.0078    91.7683     9.3903
 1369.5000     2.5141     0.0248     0.0066    95.3765     9.4038
 1370.0000     2.5155     0.0259     0.0057    96.1021     9.4301
 1370.5000     2.5222     0.0194     0.0046    94.7807     9.4557
 1371.0000     2.5167     0.0228     0.0039    93.8293     9.4813
 1371.5000     2.5064     0.0282    -0.0003    92.1340     9.5081
 1372.0000     2.5028     0.0301    -0.0059    89.7834     9.5138
 1372.5000     2.5042     0.0306    -0.0071    87.1427     9.5036
 1373.0000     2.5052     0.0312    -0.0035    83.1881     9.4931
 1373.5000     2.5029     0.0325     0.0076    85.3533     9.4802
 1374.0000     2.4987     0.0338     0.0324    90.4293     9.5092
 1374.5000     2.4999     0.0348     0.0832    93.0314     9.6180
 1375.0000     2.5325    -0.0041     0.1302    93.7740     9.7249
 1375.5000     2.5612     0.0011     0.1206    94.8313     9.7332
 1376.0000     2.5206     0.0248     0.0477    94.1163     9.4401
 1376.5000     2.4985     0.0323    -0.0021    91.0592     9.2348
 1377.0000     2.5075     0.0287     0.0009    87.5159     9.2362
 1377.5000     2.5101     0.0275     0.0033    89.9566     9.2366
 1378.0000     2.5051     0.0294     0.0072    94.7777     9.2429
 1378.5000     2.5030     0.0316     0.0076    99.4430     9.2472
 1379.0000     2.5031     0.0274     0.0067    98.9594     9.2512
 1379.5000     2.5103     0.0230     0.0060    98.3088     9.2561
 1380.0000     2.5203     0.0190     0.0054    97.3845     9.2607
 1380.5000     2.5299     0.0146     0.0047    91.4431     9.2654
