~VERSION INFORMATION
 VERS.                2.0:   CWLS LOG ASCII STANDARD - VERSION 2.0
 WRAP.                 NO:   ONE LINE PER DEPTH STEP
~WELL INFORMATION
#MNEM.UNIT      DATA TYPE    INFORMATION
#----------   ------------   ------------------------------
 STRT.F           20.0000:   START DEPTH
 STOP.F         1363.5000:   STOP DEPTH
 STEP.F            0.5000:   STEP LENGTH
 NULL.          -999.2500:   NO VALUE
 COMP.   FLUOR DANIEL INC:   COMPANY
 WELL.   NPR 3 "S" #83-14:   WELL
 FLD .             TEAPOT:   FIELD
 LOC .      S14 T38N R78W:   LOCATION
 CNTY.            NATRONA:   COUNTY
 STAT.            WYOMING:   STATE
 CTRY. UNITED STATES OF AMERICA:   COUNTRY
 SRVC. Schlumberger Well Surveying Corp:   SERVICE COMPANY
 DATE.        22-AUG-1966:   LOGDATE
 API .       490250971000:   API NUMBER
~CURVE INFORMATION
#MNEM.UNIT       API CODE    CURVE DESCRIPTION
#----------   ------------   ------------------------------
 DEPT.F                  :   
 SPR .MV     05 010 01 00:   SPONTANEOUS POTENTIAL FROM RES.
 ASN .OHMM   05 041 16 00:   AMPLIFIED SHORT NORMAL 16"
 CILD.MMHO   05 110 00 00:   CONDUCTIVITY INDUCTION LOG
 ILD .OHMM   05 120 46 00:   INDUCTION LOG DEEP
 CALD.IN     45 280 60 00:   CALIPER
 GRD .GAPI   45 310 01 00:   GAMMA RAY FROM DENSITY LOG
 CORR.G/C3   45 356 01 00:   DENSITY CORRECTION
 RHOB.G/C3   45 350 01 00:   BULK DENSITY
 DPOR.DEC    45 890 12 00:   DENSITY POROSITY SANDSTONE
~PARAMETER INFORMATION
#MNEM.UNIT          VALUE    DESCRIPTION
#----------   ------------   ------------------------------
 PD  .                 GL:   PERMANENT DATUM
 EPD .F              5300:   ELEVATION PERMANENT DATUM
 LMF .                 KB:   LOG MEASURED FROM
 DAPD.F                 5:   FEET ABOVE PERMANENT DATUM
 DMF .                 KB:   DRILLING MEASURED FROM
 EKB .F              5305:   KELLING BUSHING
 EGL .F              5300:   GROUND LEVEL
 DATE.          8-22-1966:   RUN DATE
 RUN .                  1:   RUN NUMBER
 DD  .F              1365:   DEPTH DRILLER
 DL  .F              1363:   DEPTH LOGGER
 BLI .F              1362:   BOTTOM LOG INTERVAL
 TLI .F                20:   TOP LOG INTERVAL
 CS  .IN            8.625:   CASING SIZE
 CBD .F                15:   CASING BOTTOM DRILLER
 CBL .F                20:   CASING BOTTOM LOGGER
 BS  .IN            7.875:   BIT SIZE
 BSD .F              1365:   BIT SIZE AT DEPTH
 DFT .           GEL-CHEM:   DRILLING FLUID TYPE
 DFD .                 10:   DRILLING FLUID DENSITY
 DFV .                 55:   DRILLING FLUID VISCOSITY
 DFL .                  8:   DRILLING FLUID LOSS
 MSS .          FLOW LINE:   MUD SAMPLE SOURCE
 RMS .OHMM           1.86:   RESISTIVITY MUD SAMPLE
 MST .F                73:   MUD SAMPLE TEMPERATURE
 RMF .OHMM           1.13:   RESISTIVITY MUD FILTRATE SAMPLE
 MFST.F                70:   MUD FILTRATE SAMPLE TEMPERATURE
 MFSS.                  M:   MUD FILTRATE SAMPLE SOURCE
 RMB .OHMM           1.32:   RESISTIVITY MUD AT BHT
 BHT .F               102:   BOTTOM HOLE TEMPERATURE
 TCS .HRS               1:   TIME CURCULATED STOPPED
 MRT .F               102:   MAXIMUM RECORDED TEMPERATURE
 LUN .               3527:   LOGGING UNIT NUMBER
 LUL .               CSPR:   LOGGING UNIT LOCATION
 ENGI.          TOLLEFSON:   RECORDING ENGINEER
 WITN.         MAY/TUTTLE:   WITNESSED BY
 CLNT.            A2DTECH:   CLIENT CODE
 ORIG.       2", 5" PRINT:   ORIGIN OF DATA
 UWI .       490250971000:   UNIQUE WELL ID
 DICO. A2D Technologies, Inc.:   DIGITIZING COMPANY
~OTHER INFORMATION
~A   DEPT       SPR       ASN         CILD      ILD         CALD       GRD       CORR        RHOB     DPOR   
# ...
  458.0000   -57.2236     6.6889   189.1331     5.9073     7.8660    94.9006     0.0615     2.4727     0.1196
  458.5000   -57.4720     6.6957   190.8818     5.9148     7.8302    95.3328     0.0504     2.4778     0.1159
  459.0000   -57.7628     6.7406   190.5981     5.9223     7.8242    95.5166     0.0547     2.4850     0.1124
  459.5000   -57.7272     6.7852   188.9980     5.9298     7.8452    97.0931     0.0622     2.4826     0.1174
  460.0000   -57.2563     6.8296   187.3979     5.9372     7.8610    99.8227     0.0634     2.4745     0.1221
  460.5000   -57.0775     6.8743   185.1667     5.9451     7.8799   102.2483     0.0540     2.4681     0.1268
  461.0000   -57.3497     6.9195   181.6085     5.9844     7.8964   104.5445     0.0467     2.4622     0.1304
  461.5000   -57.6108     6.9875   178.0503     6.0957     7.9162   102.4050     0.0381     2.4669     0.1259
  462.0000   -57.8068     7.0916   174.4921     6.2057     7.9184    94.6431     0.0549     2.4794     0.1204
  462.5000   -57.4209     7.1914   170.9340     6.3159     7.9136    93.4064     0.0795     2.4896     0.1116
  463.0000   -57.6754     7.4304   167.3758     6.4261     7.8347    95.1415     0.1027     2.5062     0.1129
  463.5000   -58.0618     7.7256   163.8176     6.5369     7.7372    99.6924     0.0978     2.5033     0.1159
  464.0000   -58.4559     8.0250   159.8196     6.6465     7.6402   102.0053     0.0890     2.4910     0.1191
  464.5000   -58.6275     8.1680   158.6132     6.6345     7.5718   101.4052     0.0832     2.4766     0.1191
  465.0000   -58.1356     8.1252   157.7928     6.6126     7.5542    97.3453     0.0916     2.4848     0.1153
  465.5000   -57.5386     8.0796   158.7345     6.5913     7.5602    93.1059     0.1011     2.5114     0.1118
  466.0000   -57.0641     8.0301   159.8136     6.5701     7.6012    88.8567     0.1047     2.5159     0.1082
  466.5000   -57.6512     7.8591   160.8989     6.5489     7.6414    87.2714     0.0989     2.5118     0.1046
  467.0000   -58.0084     7.6920   161.9823     6.5277     7.6819    87.4622     0.0885     2.5150     0.1010
  467.5000   -57.6036     7.7014   162.8257     6.5065     7.7220    89.8180     0.0643     2.5268     0.0953
  468.0000   -57.2175     7.7643   161.7101     6.4854     7.7625    93.3384     0.0344     2.5365     0.0980
  468.5000   -57.3687     7.8272   159.9766     6.4642     7.8027    96.4469     0.0625     2.5523     0.1064
  469.0000   -57.6541     7.8249   158.2431     6.4323     7.8429   100.0761     0.0560     2.5418     0.1147
  469.5000   -57.6158     7.7815   157.8156     6.3773     7.8833   101.6618     0.0448     2.5094     0.1236
  470.0000   -57.2717     7.7389   160.5511     6.3226     7.9231   101.6263     0.0517     2.4671     0.1227
  470.5000   -57.2624     7.7002   167.3116     6.2677     7.9642    99.7251     0.0576     2.4824     0.1211
  471.0000   -57.4927     7.5354   171.9348     6.2266     7.9966    96.2665     0.0446     2.5161     0.1194
  471.5000   -57.7168     7.3552   173.3295     6.1922     7.9981    93.1881     0.0334     2.4971     0.1180
  472.0000   -57.7307     7.1662   174.9641     6.1576     7.9970    92.1181     0.0442     2.4813     0.1219
  472.5000   -57.2305     7.0754   176.5608     6.1230     7.9956    94.0220     0.0581     2.4599     0.1252
  473.0000   -57.3070     7.0619   178.1609     6.0881     7.9945    96.9359     0.0537     2.4542     0.1286
  473.5000   -57.5333     7.1463   179.7611     6.0520     7.9932    98.5272     0.0305     2.4568     0.1324
  474.0000   -57.7645     7.2556   180.8617     6.1087     7.9920    97.5007     0.0356     2.4632     0.1280
  474.5000   -57.7882     7.3306   178.2912     6.1755     7.9908    95.9085     0.0629     2.4490     0.1228
  475.0000   -57.7382     7.3197   175.5177     6.2423     7.9896    94.3118     0.0585     2.4461     0.1358
  475.5000   -57.6868     7.3108   172.8457     6.3088     7.9885    92.5402     0.0518     2.4475     0.1428
  476.0000   -57.6359     7.3369   171.8990     6.3752     7.9873    91.8306     0.0459     2.4532     0.1375
  476.5000   -57.5852     7.3962   169.9041     6.4415     7.9861    91.1060     0.0408     2.4590     0.1324
  477.0000   -57.5344     7.4981   167.8915     6.5093     7.9850    93.4186     0.0419     2.4652     0.1273
  477.5000   -57.4828     7.6637   165.8254     6.6535     7.9838    99.6832     0.0540     2.4707     0.1222
  478.0000   -57.4325     7.8315   159.4834     6.9353     7.9827    98.4432     0.0611     2.4775     0.1172
  478.5000   -57.4855     8.0972   153.0666     7.2132     7.9815    97.6329     0.0592     2.4802     0.1112
  479.0000   -57.8063     8.5629   146.6215     7.3072     7.9803    96.3903     0.0582     2.4759     0.1124
  479.5000   -58.0113     9.0182   143.5827     7.3717     7.9792    96.6450     0.0581     2.4720     0.1160
  480.0000   -57.5236     9.4830   141.2714     7.4363     7.9776    97.3868     0.0717     2.4706     0.1197
  480.5000   -57.0213     9.5620   138.9601     7.5011     7.9704    95.8296     0.0527     2.4853     0.1233
  481.0000   -57.2240     9.5122   136.6488     7.5662     7.9623    91.7469     0.0324     2.4984     0.1268
  481.5000   -57.4871     9.8941   134.3376     7.6350     7.9543    87.9919     0.0352     2.5052     0.1143
  482.0000   -57.6130     9.6769   132.7655     7.6470     7.9463    84.2227     0.0829     2.5155     0.1022
  482.5000   -57.6158     9.2634   137.0519     7.4089     7.9383    78.4741     0.0686     2.5253     0.0902
  483.0000   -57.6233     8.8443   142.8301     7.1488     7.9303    81.3106     0.0470     2.5350     0.0781
  483.5000   -57.2281     8.6172   148.6083     6.9162     7.9223    95.4384     0.0665     2.5454     0.0661
  484.0000   -57.3119     8.4801   153.8076     6.7742     7.9143    98.3065     0.0894     2.5348     0.0572
  484.5000   -57.4118     8.3538   154.8478     6.7606     7.9063    98.6562     0.0825     2.5171     0.0777
  485.0000   -57.3298     8.2408   155.1729     6.7784     7.8984    96.4410     0.0637     2.5009     0.1169
  485.5000   -57.2128     8.1973   155.4979     6.7941     7.8988    94.6903     0.0437     2.4836     0.1224
  486.0000   -57.4108     8.1516   155.8229     6.8094     7.9005    92.8054     0.0331     2.4677     0.1279
  486.5000   -57.6552     8.1058   156.1479     6.8246     7.9021    90.8151     0.0298     2.4448     0.1332
  487.0000   -57.9015     8.0606   156.4729     6.8399     7.9036    89.8017     0.0333     2.4468     0.1226
  487.5000   -57.8289     8.0297   156.8136     6.8552     7.9052    91.4226     0.0404     2.4574     0.1199
  488.0000   -57.4796     8.0427   156.5939     6.8704     7.9068    94.1916     0.0477     2.4659     0.1221
  488.5000   -57.4837     8.0778   155.3804     6.8857     7.9083    96.6557     0.0484     2.4687     0.1243
  489.0000   -57.6645     8.0898   154.1670     6.9009     7.9099    98.5369     0.0455     2.4585     0.1265
  489.5000   -57.9662     8.0900   152.9536     6.9162     7.9114   100.1605     0.0426     2.4543     0.1292
  490.0000   -57.9203     8.1091   151.7401     6.9315     7.9130   101.7436     0.0411     2.4657     0.1253
  490.5000   -57.5911     8.1456   150.5267     6.9474     7.9146   103.2452     0.0523     2.4824     0.1206
  491.0000   -57.2649     8.1828   149.7996     6.9385     7.9162   104.9675     0.0646     2.4898     0.1156
  491.5000   -57.2704     8.2256   150.6772     6.9238     7.9174   105.1098     0.0518     2.4734     0.1184
  492.0000   -57.3399     8.2169   151.7440     6.9091     7.9151   102.7544     0.0356     2.4607     0.1214
  492.5000   -57.4101     8.1875   152.8107     6.8944     7.9123   103.3945     0.0222     2.4658     0.1244
  493.0000   -57.4798     8.1587   153.8775     6.8797     7.9096   104.9423     0.0306     2.4752     0.1256
  493.5000   -57.5505     8.1326   154.9444     6.8650     7.9069   103.7896     0.0602     2.4835     0.1216
  494.0000   -57.6079     8.0595   156.0108     6.8503     7.9043   100.9165     0.0553     2.4936     0.1180
