~VERSION INFORMATION
 VERS.                2.0:   CWLS LOG ASCII STANDARD - VERSION 2.0
 WRAP.                 NO:   ONE LINE PER DEPTH STEP
~WELL INFORMATION
#MNEM.UNIT      DATA TYPE    INFORMATION
#----------   ------------   ------------------------------
 STRT.F            0.0000:   START DEPTH
 STOP.F          978.0000:   STOP DEPTH
 STEP.F            0.5000:   STEP LENGTH
 NULL.          -999.2500:   NO VALUE
 COMP. FENIX & SCISSON INC:   COMPANY
 WELL. N.P.R #3 SX-14 #53:   WELL
 FLD .             TEAPOT:   FIELD
 LOC .      S14 T38N R78W:   LOCATION
 CNTY.            NATRONA:   COUNTY
 STAT.            WYOMING:   STATE
 CTRY. UNITED STATES OF AMERICA:   COUNTRY
 SRVC.              Welex:   SERVICE COMPANY
 DATE.        06-MAR-1977:   LOGDATE
 API .       490251029800:   API NUMBER
~CURVE INFORMATION
#MNEM.UNIT       API CODE    CURVE DESCRIPTION
#----------   ------------   ------------------------------
 DEPT.F                  :   
 SPR .MV     07 010 01 00:   SPONTANEOUS POTENTIAL
 SGRD.OHMM   07 220 05 00:   SHALLOW RESISTIVITY
 ILD .OHMM   07 120 46 00:   INDUCTION LOG DEEP
 ILM .OHMM   07 120 44 00:   INDUCTION LOG MEDIUM
 GRD .GAPI   45 310 01 00:   GAMMA RAY FROM DENSITY LOG
 CALD.IN     45 280 60 00:   CALIPER
 RHOB.G/C3   45 350 01 00:   BULK DENSITY
 DPHI.DEC    45 890 12 00:   DENSITY POROSITY SANDSTONE
 CORR.G/C3   45 356 01 00:   DENSITY CORRECTION
~PARAMETER INFORMATION
#MNEM.UNIT          VALUE    DESCRIPTION
#----------   ------------   ------------------------------
 PD  .                 GL:   PERMANENT DATUM
 EPD .F              5230:   ELEVATION PERMANENT DATUM
 LMF .                 GL:   LOG MEASURED FROM
 DMF .                 GL:   DRILLING MEASURED FROM
 EGL .F              5230:   GROUND LEVEL
 DATE.             3-6-77:   RUN DATE
 RUN .                  1:   RUN NUMBER
 DD  .F               989:   DEPTH DRILLER
 DL  .F               980:   DEPTH LOGGER
 BLI .F               978:   BOTTOM LOG INTERVAL
 TLI .F                50:   TOP LOG INTERVAL
 CS  .IN            8.625:   CASING SIZE
 CBD .F                42:   CASING BOTTOM DRILLER
 CBL .F                42:   CASING BOTTOM LOGGER
 BS  .IN            7.875:   BIT SIZE
 BSD .F               989:   BIT SIZE AT DEPTH
 DFT .            KCL MUD:   DRILLING FLUID TYPE
 DFD .                8.4:   DRILLING FLUID DENSITY
 DFV .                 30:   DRILLING FLUID VISCOSITY
 DFPH.                7.2:   DRILLING FLUID PH
 DFL .               14.4:   DRILLING FLUID LOSS
 MSS .            MUD PIT:   MUD SAMPLE SOURCE
 RMS .OHMM            .41:   RESISTIVITY MUD SAMPLE
 MST .F                48:   MUD SAMPLE TEMPERATURE
 RMF .OHMM            .39:   RESISTIVITY MUD FILTRATE SAMPLE
 MFST.F                48:   MUD FILTRATE SAMPLE TEMPERATURE
 RMC .OHMM            .55:   RESISTIVITY MUD CAKE
 MCST.F                48:   MUD CAKE SAMPLE TEMPERATURE
 MFSS.           FANN KIT:   MUD FILTRATE SAMPLE SOURCE
 MCSS.           FANN KIT:   MUD CAKE SAMPLE SOURCE
 RMB .OHMM            .34:   RESISTIVITY MUD AT BHT
 BHT .F                58:   BOTTOM HOLE TEMPERATURE
 TCS .HRS               2:   TIME CURCULATED STOPPED
 MRT .F                58:   MAXIMUM RECORDED TEMPERATURE
 LUN .               8611:   LOGGING UNIT NUMBER
 LUL .           GILLETTE:   LOGGING UNIT LOCATION
 ENGI.            C. DOAK:   RECORDING ENGINEER
 WITN.           S. BURKE:   WITNESSED BY
 CLNT.            A2DTECH:   CLIENT CODE
 ORIG.        2" 5" PRINT:   ORIGIN OF DATA
 UWI .       490251029800:   UNIQUE WELL ID
 DICO. A2D Technologies, Inc.:   DIGITIZING COMPANY
~OTHER INFORMATION
~A    DEPT     SPR       SGRD        ILD        ILM        GRD       CALD       RHOB       DPHI       CORR   
# ...
  657.0000   -44.1850     9.5218     6.4960     8.4248   109.8553     7.7878     2.4702     0.1079     0.0455
  657.5000   -44.1996     9.5835     6.5583     8.5683   109.7415     7.7931     2.4708     0.1052     0.0453
  658.0000   -44.2143     9.6450     6.6213     8.7142   110.1442     7.7982     2.4657     0.1077     0.0451
  658.5000   -44.2290     9.7069     6.6848     8.8626   109.9148     7.8034     2.4645     0.1095     0.0448
  659.0000   -44.2437     9.7715     6.7489     9.0135   107.5033     7.8085     2.4661     0.1083     0.0446
  659.5000   -44.2584     9.8953     6.8137     9.1671   106.1921     7.8136     2.4676     0.1070     0.0446
  660.0000   -44.2730    10.1128     6.8790     9.3232   108.1425     7.8188     2.4741     0.1029     0.0461
  660.5000   -44.2877    10.3250     6.9451     9.5060   110.6200     7.8239     2.4822     0.0988     0.0477
  661.0000   -44.3024    10.1419     7.0118     9.3979   113.0774     7.8291     2.4898     0.0947     0.0493
  661.5000   -44.3171     9.9527     7.0790     9.2723   116.5266     7.8342     2.4903     0.0932     0.0508
  662.0000   -44.3317    10.1389     7.1093     9.1483   113.0716     7.8394     2.4906     0.0950     0.0524
  662.5000   -44.3464    10.4221     7.1428     8.9964   108.7031     7.8445     2.4909     0.0933     0.0540
  663.0000   -44.3611    10.2202     7.1766     9.0476   106.7565     7.8496     2.4965     0.0886     0.0555
  663.5000   -44.3758     9.8628     7.2105     9.1391   107.2392     7.8548     2.5076     0.0838     0.0571
  664.0000   -44.3905     9.9276     7.2445     9.2321   112.0574     7.8599     2.5088     0.0836     0.0586
  664.5000   -44.4052    10.0415     7.2836     9.3262   114.4514     7.8650     2.5011     0.0871     0.0602
  665.0000   -44.4198    10.1549     7.2467     9.4204   116.1081     7.8702     2.4949     0.0906     0.0617
  665.5000   -44.4345    10.2694     7.1913     9.5060   117.0476     7.8753     2.4973     0.0877     0.0633
  666.0000   -44.4492    10.3250     7.1364     9.2437   115.8420     7.8805     2.4991     0.0893     0.0649
  666.5000   -44.4639    10.0606     7.0819     9.0121   114.4359     7.8787     2.4969     0.0922     0.0662
  667.0000   -44.4786     9.8647     7.0278     8.8293   115.1523     7.8726     2.4902     0.0952     0.0650
  667.5000   -44.4932     9.6723     6.9741     8.6819   116.2575     7.8665     2.4837     0.1019     0.0639
  668.0000   -44.5079     9.4191     6.9210     8.5371   116.7475     7.8604     2.4716     0.1101     0.0627
  668.5000   -44.5226     9.4766     6.8679     8.3947   114.1161     7.8543     2.4575     0.1166     0.0615
  669.0000   -44.5373     9.5937     6.7807     8.2546   111.3160     7.8482     2.4446     0.1208     0.0604
  669.5000   -44.5520     9.3148     6.6072     8.1169   109.6305     7.8421     2.4374     0.1248     0.0614
  670.0000   -44.5666     8.8327     6.4382     7.9815   112.0928     7.8360     2.4300     0.1300     0.0624
  670.5000   -44.5813     8.8951     6.2736     7.8483   115.3659     7.8299     2.4182     0.1385     0.0635
  671.0000   -44.5960     8.9964     6.0127     7.5846   118.8884     7.8237     2.4010     0.1470     0.0646
  671.5000   -44.6107     8.5159     5.6108     7.1269   119.0208     7.8221     2.3838     0.1588     0.0656
  672.0000   -44.6254     7.9493     5.2368     6.6968   116.1083     7.8215     2.3641     0.1721     0.0643
  672.5000   -44.6400     7.4204     4.9038     6.2926   115.7511     7.8208     2.3394     0.1854     0.0583
  673.0000   -44.6547     6.9281     4.4376     5.9120   115.6271     7.8201     2.3148     0.1987     0.0523
  673.5000   -44.6694     6.4636     4.0082     5.5325   114.0098     7.8194     2.2909     0.2117     0.0463
  674.0000   -44.6841     5.9152     3.5939     5.0612   112.5082     7.8187     2.2870     0.2141     0.0403
  674.5000   -44.6988     5.3666     3.2225     4.6003   112.1880     7.8181     2.3070     0.2078     0.0342
  675.0000   -44.7135     4.8705     2.8894     4.1807   109.6636     7.8174     2.3387     0.1875     0.0349
  675.5000   -44.7282     4.3440     2.6839     3.7994   106.6129     7.8167     2.3711     0.1663     0.0384
  676.0000   -44.7418     3.7803     2.5145     3.4528   103.5476     7.8160     2.3982     0.1440     0.0421
  676.5000   -44.7421     3.2899     2.3716     3.1379   100.5217     7.8154     2.4203     0.1354     0.0457
  677.0000   -44.7421     2.8630     2.2692     2.9889    98.8796     7.8147     2.4367     0.1266     0.0493
  677.5000   -44.7421     2.6770     2.2692     3.0156    97.4760     7.8140     2.4534     0.1177     0.0530
  678.0000   -44.7421     3.0742     2.3490     3.1931    96.3998     7.8133     2.4635     0.1092     0.0543
  678.5000   -44.7421     3.6874     2.4618     3.3947   102.7524     7.8127     2.4642     0.1088     0.0534
  679.0000   -44.7421     4.9075     2.6320     3.6075   107.8402     7.8120     2.4652     0.1088     0.0512
  679.5000   -44.7421     4.5024     2.8959     3.8327   112.8057     7.8113     2.4613     0.1098     0.0491
  680.0000   -44.7421     4.1598     3.1871     4.5386   116.3343     7.8106     2.4571     0.1122     0.0470
  680.5000   -44.7421     7.2170     3.5074     5.2839   118.6428     7.8099     2.4530     0.1146     0.0448
  681.0000   -44.7421     8.0578     3.8597     5.5053   120.2365     7.8092     2.4488     0.1170     0.0471
  681.5000   -44.7421     7.8165     4.2499     5.7192   122.1748     7.8086     2.4486     0.1170     0.0518
  682.0000   -44.7421     7.5608     4.6045     5.9415   125.3224     7.8079     2.4511     0.1163     0.0566
  682.5000   -44.7421     7.2170     4.8626     6.1734   128.3818     7.8072     2.4377     0.1208     0.0575
  683.0000   -44.7421     7.2511     4.9082     6.2473   129.6554     7.8065     2.4212     0.1287     0.0557
  683.5000   -44.7421     7.3083     4.9528     6.3211   127.9192     7.8059     2.4207     0.1311     0.0539
  684.0000   -44.7421     7.4169     4.9528     6.4049   124.6624     7.8052     2.4264     0.1255     0.0522
  684.5000   -44.7421     7.6754     4.8788     6.3087   125.8225     7.8045     2.4295     0.1253     0.0516
  685.0000   -44.7421     7.9111     4.7715     6.1691   126.9922     7.8038     2.4331     0.1251     0.0509
  685.5000   -44.7421     7.6748     4.6665     6.0326   125.9172     7.8032     2.4447     0.1189     0.0501
  686.0000   -44.7421     6.6152     4.5638     5.8991   125.3838     7.8039     2.4582     0.1125     0.0494
  686.5000   -44.7421     5.3795     4.4634     5.7686   129.4247     7.8062     2.4709     0.1064     0.0487
  687.0000   -44.7421     5.7514     4.3650     5.6409   132.2332     7.8085     2.4710     0.1090     0.0470
  687.5000   -44.7421     6.4196     4.2371     5.5161   128.4775     7.8108     2.4669     0.1108     0.0441
  688.0000   -44.7421     6.5236     4.2625     5.3795   125.1734     7.8131     2.4608     0.1111     0.0412
  688.5000   -44.7421     4.9528     4.3037     5.5279   124.1443     7.8155     2.4558     0.1145     0.0383
  689.0000   -44.7421     6.0527     4.3444     5.7523   125.1814     7.8178     2.4510     0.1191     0.0353
  689.5000   -44.7421     7.5561     4.4642     5.9857   127.1742     7.8201     2.4461     0.1238     0.0325
  690.0000   -44.7421     7.2925     4.6733     6.2286   129.1312     7.8224     2.4431     0.1249     0.0319
  690.5000   -44.7421     6.7677     4.8921     6.4814   129.2817     7.8247     2.4427     0.1252     0.0314
  691.0000   -44.7421     7.5482     5.1212     6.7443   124.4465     7.8270     2.4423     0.1254     0.0309
  691.5000   -44.7421     8.3927     5.3610     7.0181   120.8641     7.8293     2.4419     0.1257     0.0305
  692.0000   -44.7421     8.8679     5.6120     7.3047   119.5528     7.8316     2.4415     0.1259     0.0317
  692.5000   -44.7421     8.9959     5.8748     7.6237   124.4986     7.8340     2.4405     0.1262     0.0329
  693.0000   -44.7421     9.1258     6.0742     7.7996   128.6758     7.8363     2.4352     0.1276     0.0342
