~VERSION INFORMATION
 VERS.                2.0:   CWLS LOG ASCII STANDARD - VERSION 2.0
 WRAP.                 NO:   ONE LINE PER DEPTH STEP
~WELL INFORMATION
#MNEM.UNIT      DATA TYPE    INFORMATION
#----------   ------------   ------------------------------
 STRT.F           36.0000:   START DEPTH
 STOP.F          686.0000:   STOP DEPTH
 STEP.F            0.5000:   STEP LENGTH
 NULL.          -999.2500:   NO VALUE
 COMP.    FENIX & SCISSON:   COMPANY
 WELL.        NPR #15-S-2:   WELL
 FLD .             TEAPOT:   FIELD
 LOC .       S2 T38N R78W:   LOCATION
 CNTY.            NATRONA:   COUNTY
 STAT.            WYOMING:   STATE
 CTRY. UNITED STATES OF AMERICA:   COUNTRY
 SRVC.       Schlumberger:   SERVICE COMPANY
 DATE.        16-MAR-1977:   LOGDATE
 API .       490251029900:   API NUMBER
~CURVE INFORMATION
#MNEM.UNIT       API CODE    CURVE DESCRIPTION
#----------   ------------   ------------------------------
 DEPT.F                  :   
 SPR .MV     07 010 01 00:   SPONTANEOUS POTENTIAL FROM RES.
 ILD .OHMM   07 120 46 00:   INDUCTION LOG DEEP
 ILM .OHMM   07 120 44 00:   INDUCTION LOG MEDIUM
 LL8 .OHMM   07 220 08 00:   LATEROLOG-8 RES.
 GRD .GAPI   45 310 01 00:   GAMMA RAY FROM DENSITY LOG
 CALD.IN     45 280 60 00:   CALIPER FROM DENSITY LOG
 CORR.G/C3   45 356 01 00:   DENSITY CORRECTION
 RHOB.G/C3   45 350 01 00:   BULK DENSITY
 DPHI.DEC    45 890 12 00:   DENSITY POROSITY SANDSTONE
~PARAMETER INFORMATION
#MNEM.UNIT          VALUE    DESCRIPTION
#----------   ------------   ------------------------------
 PD  .                 GL:   PERMANENT DATUM
 EPD .F              5129:   ELEVATION PERMANENT DATUM
 LMF .                 KB:   LOG MEASURED FROM
 DAPD.F                 4:   FEET ABOVE PERMANENT DATUM
 DMF .                 KB:   DRILLING MEASURED FROM
 EKB .F              5133:   KELLING BUSHING
 EGL .F              5129:   GROUND LEVEL
 DATE.        15-MAR-1977:   RUN DATE
 RUN .                  1:   RUN NUMBER
 DD  .F               680:   DEPTH DRILLER
 DL  .F               680:   DEPTH LOGGER
 BLI .F               683:   BOTTOM LOG INTERVAL
 TLI .F                48:   TOP LOG INTERVAL
 CS  .IN            8.625:   CASING SIZE
 CBD .F                40:   CASING BOTTOM DRILLER
 CBL .F                49:   CASING BOTTOM LOGGER
 BS  .IN            7.875:   BIT SIZE
 BSD .F               680:   BIT SIZE AT DEPTH
 DFT .            KCL MUD:   DRILLING FLUID TYPE
 DFD .                8.8:   DRILLING FLUID DENSITY
 DFV .                 33:   DRILLING FLUID VISCOSITY
 DFPH.                9.6:   DRILLING FLUID PH
 DFL .                9.0:   DRILLING FLUID LOSS
 MSS .                PIT:   MUD SAMPLE SOURCE
 RMS .OHMM           0.22:   RESISTIVITY MUD SAMPLE
 MST .F                50:   MUD SAMPLE TEMPERATURE
 RMF .OHMM           0.21:   RESISTIVITY MUD FILTRATE SAMPLE
 MFST.F                50:   MUD FILTRATE SAMPLE TEMPERATURE
 MFSS.               MEAS:   MUD FILTRATE SAMPLE SOURCE
 TCS .HRS            1800:   TIME CURCULATED STOPPED
 TLAB.HRS            2130:   TIME LOGGER AT BOTTOM
 LUN .               7711:   LOGGING UNIT NUMBER
 LUL .               CSPR:   LOGGING UNIT LOCATION
 ENGI.             TAYLER:   RECORDING ENGINEER
 CLNT.            A2DTECH:   CLIENT CODE
 ORIG.           5" PRINT:   ORIGIN OF DATA
 UWI .       490251029900:   UNIQUE WELL ID
 DICO. A2D Technologies, Inc.:   DIGITIZING COMPANY
~OTHER INFORMATION
~A   DEPT      SPR        ILD        ILM        LL8         GRD      CALD       CORR       RHOB       DPHI   
# ...
  474.0000   -53.1721    23.6509    22.8618    23.0111    86.8166     8.2003     0.0036     2.3574     0.1748
  474.5000   -53.4484    23.6820    22.4149    22.7069    88.6092     8.2019    -0.0031     2.3567     0.1781
  475.0000   -52.9829    23.3824    21.6682    21.6159    89.6753     8.2184    -0.0008     2.3643     0.1720
  475.5000   -52.6666    23.0803    20.3715    20.9404    90.1388     8.2348     0.0031     2.3734     0.1666
  476.0000   -53.5443    22.6314    19.1525    21.5517    90.3052     8.2365     0.0062     2.3802     0.1623
  476.5000   -53.9743    22.1973    18.3861    21.7187    90.4715     8.2084     0.0100     2.3893     0.1587
  477.0000   -54.1102    21.9165    18.0186    21.4349    90.9351     8.1655     0.0215     2.3969     0.1542
  477.5000   -53.9387    21.6393    17.9098    21.0042    91.5472     8.1519     0.0162     2.3849     0.1593
  478.0000   -53.7717    21.3655    17.9300    20.5860    90.9706     8.1539     0.0140     2.3835     0.1612
  478.5000   -53.4554    20.9500    18.3247    20.1800    91.5827     8.1852     0.0148     2.4001     0.1502
  479.0000   -53.1391    20.8227    18.8587    20.0516    92.9377     8.1868     0.0118     2.4054     0.1481
  479.5000   -52.9721    20.8492    19.1402    19.7934    93.0996     8.0994     0.0067     2.4055     0.1477
  480.0000   -52.6558    21.0166    19.1575    19.3993    90.4473     8.1456     0.0052     2.4041     0.1486
  480.5000   -52.4888    20.8946    18.2634    19.0131    87.4932     8.1769     0.0054     2.3966     0.1483
  481.0000   -52.4710    20.9173    16.8159    18.6346    86.4664     8.1933     0.0130     2.4087     0.1452
  481.5000   -52.3040    20.9401    15.4831    18.5160    86.9344     8.2098     0.0122     2.4020     0.1506
  482.0000   -52.2862    21.1082    14.7605    18.7933    87.5465     8.2114     0.0116     2.3998     0.1482
  482.5000   -52.2684    21.2777    14.6681    19.4733    90.0903     8.2130     0.0117     2.4074     0.1464
  483.0000   -52.2507    21.4486    15.3105    20.1778    91.5939     8.2146     0.0117     2.4000     0.1477
  483.5000   -52.2329    22.0736    15.8668    21.0539    91.9044     8.2307     0.0126     2.3895     0.1572
  484.0000   -52.3644    22.5605    16.7899    20.7788    88.9548     8.2178     0.0151     2.3828     0.1611
  484.5000   -52.6553    21.3705    17.5214    20.3651    87.6353     8.2046     0.0284     2.3791     0.1629
  485.0000   -53.2388    20.5250    17.6556    19.8213    87.3551     8.1469     0.0525     2.3814     0.1595
  485.5000   -53.6731    19.7100    16.4877    19.2921    87.8194     8.0447     0.0597     2.3890     0.1564
  486.0000   -54.0843    19.0586    14.6620    18.7769    90.2146     8.0018     0.0547     2.3823     0.1612
  486.5000   -54.2158    18.8148    14.3689    18.5316    92.3126     7.9886     0.0319     2.3794     0.1630
  487.0000   -54.4921    18.5741    14.3851    18.4171    94.7077     8.0051     0.0205     2.3787     0.1636
  487.5000   -54.9220    18.3499    14.7017    18.1765    96.0628     8.0809     0.0176     2.3900     0.1548
  488.0000   -55.5013    18.1017    15.1302    18.0642    95.6348     8.1422     0.0155     2.3976     0.1521
  488.5000   -55.7820    17.7471    15.5712    17.7046    93.4237     8.1739     0.0141     2.4037     0.1475
  489.0000   -56.2164    17.1606    16.1369    17.3521    90.9155     8.2044     0.0134     2.4121     0.1430
  489.5000   -56.7912    16.6199    16.6072    17.1254    90.6359     8.2076     0.0165     2.4189     0.1394
  490.0000   -56.9272    16.5190    16.5069    16.7845    91.5453     8.2225     0.0091     2.4099     0.1417
  490.5000   -56.9049    16.4231    16.5218    16.6804    91.5632     8.2093     0.0076     2.4100     0.1447
  491.0000   -56.8871    16.5595    16.5367    16.3487    90.6794     8.2110     0.0084     2.4131     0.1429
  491.5000   -56.8694    16.4589    16.5516    16.2476    89.3626     8.2129     0.0123     2.4139     0.1423
  492.0000   -57.1545    16.3633    16.6822    15.9243    89.3977     8.2146     0.0116     2.4110     0.1428
  492.5000   -57.4308    16.2683    16.8138    15.8258    90.1486     8.2162     0.0057     2.4043     0.1476
  493.0000   -57.8608    16.4034    17.0648    15.4027    89.5571     8.2178     0.0027     2.4013     0.1488
  493.5000   -58.1460    16.5351    16.9618    15.0967    89.4408     8.2194     0.0081     2.4157     0.1382
  494.0000   -58.4267    16.5531    16.6265    15.1084    90.3705     8.2210     0.0059     2.4285     0.1322
  494.5000   -58.4045    16.4571    16.1848    15.2336    91.5794     8.2074     0.0022     2.4301     0.1352
  495.0000   -58.0882    16.3571    16.0867    15.2371    92.3180     8.1942     0.0045     2.4294     0.1343
  495.5000   -57.9212    16.1545    16.1114    15.1427    92.9302     8.1666     0.0084     2.4235     0.1351
  496.0000   -58.0571    15.8404    16.0041    15.0343    92.6544     8.0940     0.0115     2.4152     0.1387
  496.5000   -58.1886    15.5323    15.4713    14.7327    92.3705     8.0066     0.0055     2.4116     0.1426
  497.0000   -58.3164    15.3316    14.9557    14.8771    92.5413     7.9633     0.0018     2.4109     0.1426
  497.5000   -58.4478    15.0375    14.5584    14.7796    93.0048     8.0692     0.0079     2.4132     0.1407
  498.0000   -58.7283    14.7411    14.2707    14.2787    94.2113     8.2488     0.0087     2.4208     0.1365
  498.5000   -58.7100    14.6555    14.0862    14.0977    94.8189     8.2356     0.0073     2.4239     0.1347
  499.0000   -58.6923    14.5704    14.2966    14.3062    94.3954     8.2220     0.0119     2.4292     0.1322
  499.5000   -58.6745    14.5903    15.0235    14.9252    90.4013     8.2240     0.0165     2.4315     0.1328
  500.0000   -58.6567    14.5016    16.2349    15.0386    88.6315     8.2257     0.0162     2.4308     0.1346
  500.5000   -59.0431    14.4214    16.7057    15.0479    89.1592     8.2177     0.0117     2.4279     0.1349
  501.0000   -59.4295    14.2351    16.8319    14.6440    90.6023     8.2091     0.0084     2.4287     0.1303
  501.5000   -59.6442    14.1524    16.6119    14.3503    93.5034     8.1999     0.0115     2.4401     0.1252
  502.0000   -59.7802    14.3689    15.8374    14.1586    94.9331     8.2013     0.0130     2.4454     0.1221
  502.5000   -59.6089    14.8902    15.2015    14.0691    94.0168     8.1876     0.0139     2.4507     0.1200
  503.0000   -59.4420    15.4303    14.1907    14.1783    92.8350     8.1742     0.0124     2.4621     0.1161
  503.5000   -59.1259    16.2126    13.3396    14.9989    91.9782     8.1756     0.0125     2.4584     0.1154
  504.0000   -59.1083    16.5702    12.7153    15.2184    93.2124     8.1769     0.0110     2.4532     0.1175
  504.5000   -59.3891    16.7033    11.8698    14.6053    96.7933     8.1782     0.0103     2.4487     0.1196
  505.0000   -59.8237    16.3784    10.7765    14.2133    98.4425     8.1795     0.0096     2.4390     0.1241
  505.5000   -60.3987    15.5145    10.4867    14.0226    99.2002     8.1808     0.0044     2.4481     0.1216
  506.0000   -60.9780    14.6962    10.7929    13.9369    98.7692     8.1822     0.0144     2.4790     0.1099
  506.5000   -61.2589    14.1426    11.4192    13.9611    98.0410     8.1835     0.0151     2.4761     0.0993
  507.0000   -61.5403    13.4979    12.4228    14.2505    96.8671     8.1849     0.0120     2.4724     0.1053
  507.5000   -61.6716    12.8671    13.2354    14.1583    95.3960     8.1713     0.0096     2.4687     0.1083
  508.0000   -61.6537    13.5126    12.9719    14.0688    93.9249     8.1730     0.0070     2.4627     0.1106
  508.5000   -61.4866    13.9955    12.8916    14.3766    92.4537     8.1743     0.0138     2.4530     0.1169
  509.0000   -61.2985    14.2967    12.9016    14.5870    91.5733     8.1756     0.0049     2.4366     0.1256
  509.5000   -61.1487    14.4037    13.0923    14.6979    92.1861     8.1621    -0.0004     2.4337     0.1288
  510.0000   -61.2848    14.3123    13.4719    14.8096    93.3895     8.1634     0.0042     2.4412     0.1247
