~VERSION INFORMATION
 VERS.                2.0:   CWLS LOG ASCII STANDARD - VERSION 2.0
 WRAP.                 NO:   ONE LINE PER DEPTH STEP
~WELL INFORMATION
#MNEM.UNIT      DATA TYPE    INFORMATION
#----------   ------------   ------------------------------
 STRT.F           85.0000:   START DEPTH
 STOP.F          780.0000:   STOP DEPTH
 STEP.F            0.5000:   STEP LENGTH
 NULL.          -999.2500:   NO VALUE
 COMP. U S NAVY-INTEX OIL:   COMPANY
 WELL.        NPR #47-S-2:   WELL
 FLD .             TEAPOT:   FIELD
 LOC .       S2 T38N R78W:   LOCATION
 CNTY.            NATRONA:   COUNTY
 STAT.            WYOMING:   STATE
 CTRY. UNITED STATES OF AMERICA:   COUNTRY
 SRVC.       Schlumberger:   SERVICE COMPANY
 DATE.        30-JUN-1962:   LOGDATE
 API .       490250640200:   API NUMBER
~CURVE INFORMATION
#MNEM.UNIT       API CODE    CURVE DESCRIPTION
#----------   ------------   ------------------------------
 DEPT.F                  :   
 SPR .MV     05 010 01 00:   SPONTANEOUS POTENTIAL FROM RES.
 ASN .OHMM   05 041 18 00:   AMPLIFIED SHORT NORMAL 18"
 ILD .OHMM   05 120 46 00:   INDUCTION LOG DEEP
 CILD.MMHO   05 110 46 00:   CONDUCTIVITY INDUCTION LOG DEEP
 CALM.IN     15 280 01 00:   CALIPER FROM MICRO LOG
 GR  .GAPI   30 310 01 00:   GAMMA RAY
~PARAMETER INFORMATION
#MNEM.UNIT          VALUE    DESCRIPTION
#----------   ------------   ------------------------------
 PD  .                 KB:   PERMANENT DATUM
 LMF .                 KB:   LOG MEASURED FROM
 DMF .                 KB:   DRILLING MEASURED FROM
 EKB .F              5175:   KELLING BUSHING
 EGL .F              5170:   GROUND LEVEL
 DATE.          6-30-1962:   RUN DATE
 RUN .                  1:   RUN NUMBER
 DD  .F               775:   DEPTH DRILLER
 DL  .F               781:   DEPTH LOGGER
 BLI .F               780:   BOTTOM LOG INTERVAL
 TLI .F                86:   TOP LOG INTERVAL
 BS  .IN             6.75:   BIT SIZE
 BSD .F               775:   BIT SIZE AT DEPTH
 DFT .            GEL-OIL:   DRILLING FLUID TYPE
 DFD .                 10:   DRILLING FLUID DENSITY
 DFV .                 50:   DRILLING FLUID VISCOSITY
 DFL .                3.6:   DRILLING FLUID LOSS
 MSS .           FLOWLINE:   MUD SAMPLE SOURCE
 RMS .OHMM           5.75:   RESISTIVITY MUD SAMPLE
 MST .F                69:   MUD SAMPLE TEMPERATURE
 RMF .OHMM           4.96:   RESISTIVITY MUD FILTRATE SAMPLE
 MFST.F                69:   MUD FILTRATE SAMPLE TEMPERATURE
 RMC .OHMM           4.80:   RESISTIVITY MUD CAKE
 MCST.F                69:   MUD CAKE SAMPLE TEMPERATURE
 RMB .OHMM           5.13:   RESISTIVITY MUD AT BHT
 BHT .F                78:   BOTTOM HOLE TEMPERATURE
 TCS .HRS               1:   TIME CURCULATED STOPPED
 MRT .F                78:   MAXIMUM RECORDED TEMPERATURE
 LUN .               2503:   LOGGING UNIT NUMBER
 LUL .              CSPR.:   LOGGING UNIT LOCATION
 ENGI.             KNOBEL:   RECORDING ENGINEER
 WITN.          JORGENSEN:   WITNESSED BY
 CLNT.            A2DTECH:   CLIENT CODE
 ORIG.      2" & 5" PRINT:   ORIGIN OF DATA
 UWI .       490250640200:   UNIQUE WELL ID
 DICO. A2D Technologies, Inc.:   DIGITIZING COMPANY
~OTHER INFORMATION
~A   DEPT      SPR        ASN        ILD         CILD     CALM         GR   
# ...
  449.0000   -26.6426     8.3982     8.0717   130.8271  -999.2500  -999.2500
  449.5000   -26.7892     8.3383     7.9970   132.3308  -999.2500  -999.2500
  450.0000   -26.9350     8.2734     7.9165   133.0827  -999.2500  -999.2500
  450.5000   -26.4895     8.2184     7.8815   134.5865  -999.2500  -999.2500
  451.0000   -26.4913     8.2033     7.8465   134.6030  -999.2500  -999.2500
  451.5000   -26.4928     8.2480     7.8114   136.2580  -999.2500  -999.2500
  452.0000   -26.4941     8.2779     7.7764   138.3760  -999.2500  -999.2500
  452.5000   -26.3467     8.2283     7.6905   139.8872  -999.2500  -999.2500
  453.0000   -26.3482     8.1561     7.6890   140.6466  -999.2500  -999.2500
  453.5000   -26.3497     8.0966     7.6128   141.4060  -999.2500  -999.2500
  454.0000   -26.5000     8.0527     7.6864   141.4136  -999.2500  -999.2500
  454.5000   -26.7991     8.0376     7.6845   140.6691  -999.2500  -999.2500
  455.0000   -27.0982     8.0524     7.8325   140.6769  -999.2500  -999.2500
  455.5000   -27.2485     8.1121     7.9061   140.6846  -999.2500  -999.2500
  456.0000   -27.3988     8.1719     7.9793   140.6922  -999.2500  -999.2500
  456.5000   -27.5491     8.2466     8.0525   138.4441  -999.2500  -999.2500
  457.0000   -27.5506     8.3213     8.1258   135.4442  -999.2500  -999.2500
  457.5000   -27.4032     8.3960     8.1990   133.1962  -999.2500  -999.2500
  458.0000   -27.4048     8.4706     8.2722   130.1963  -999.2500  -999.2500
  458.5000   -27.5551     8.5453     8.3455   128.6982  -999.2500  -999.2500
  459.0000   -27.5566     8.6200     8.4187   127.2021  -999.2500  -999.2500
  459.5000   -27.5581     8.6947     8.4168   127.2116  -999.2500  -999.2500
  460.0000   -27.5596     8.7694     8.4153   126.4654  -999.2500  -999.2500
  460.5000   -27.5611     8.7843     8.4138   127.2268  -999.2500  -999.2500
  461.0000   -27.4135     8.7691     8.4123   126.4825  -999.2500  -999.2500
  461.5000   -27.2662     8.7690     8.3360   126.4901  -999.2500  -999.2500
  462.0000   -27.1188     8.7389     8.3199   127.2496  -999.2500  -999.2500
  462.5000   -26.9715     8.6639     8.2586   127.2556  -999.2500  -999.2500
  463.0000   -26.8242     8.6188     8.2571   127.3535  -999.2500  -999.2500
  463.5000   -26.9749     8.5738     8.1809   128.0779  -999.2500  -999.2500
  464.0000   -27.4228     8.5437     8.1047   128.8021  -999.2500  -999.2500
  464.5000   -27.7220     8.4837     8.0284   130.2933  -999.2500  -999.2500
  465.0000   -28.0211     8.4236     7.9522   131.0528  -999.2500  -999.2500
  465.5000   -28.0226     8.3577     7.8759   132.5641  -999.2500  -999.2500
  466.0000   -28.0241     8.2737     7.7997   134.8274  -999.2500  -999.2500
  466.5000   -27.7280     8.2735     7.7234   136.3387  -999.2500  -999.2500
  467.0000   -27.4315     8.2558     7.7219   138.6020  -999.2500  -999.2500
  467.5000   -27.1107     8.1063     7.6457   140.8652  -999.2500  -999.2500
  468.0000   -26.8392     7.9583     7.5694   143.8804  -999.2500  -999.2500
  468.5000   -26.8556     7.8687     7.5679   146.1436  -999.2500  -999.2500
  469.0000   -26.9910     7.7937     7.5664   148.4068  -999.2500  -999.2500
  469.5000   -26.9925     7.7037     7.5649   149.9182  -999.2500  -999.2500
  470.0000   -26.9940     7.6437     7.5634   149.9258  -999.2500  -999.2500
  470.5000   -26.8467     7.6286     7.5619   149.1815  -999.2500  -999.2500
  471.0000   -26.5506     7.6584     7.6355   147.6854  -999.2500  -999.2500
  471.5000   -26.4033     7.7331     7.6336   146.1892  -999.2500  -999.2500
  472.0000   -26.5536     7.8078     7.7068   143.9412  -999.2500  -999.2500
  472.5000   -26.7039     7.8974     7.7053   142.4432  -999.2500  -999.2500
  473.0000   -26.8542     7.9871     7.7790   140.8071  -999.2500  -999.2500
  473.5000   -26.8557     8.0918     7.9265   138.6990  -999.2500  -999.2500
  474.0000   -26.8572     8.1365     8.0002   137.1328  -999.2500  -999.2500
  474.5000   -26.8587     8.1364     8.0734   134.9548  -999.2500  -999.2500
  475.0000   -26.8602     8.1512     8.1466   133.4586  -999.2500  -999.2500
  475.5000   -26.8617     8.2259     8.2198   131.9625  -999.2500  -999.2500
  476.0000   -26.8632     8.3305     8.2180   131.2180  -999.2500  -999.2500
  476.5000   -26.8647     8.4352     8.2165   130.4737  -999.2500  -999.2500
  477.0000   -27.0151     8.5248     8.2901   128.9778  -999.2500  -999.2500
  477.5000   -26.8674     8.5547     8.2885   128.9854  -999.2500  -999.2500
  478.0000   -26.7201     8.5695     8.2870   128.2392  -999.2500  -999.2500
  478.5000   -26.5728     8.5543     8.2855   128.2487  -999.2500  -999.2500
  479.0000   -26.4254     8.5692     8.2840   127.5045  -999.2500  -999.2500
  479.5000   -26.4273     8.6190     8.2825   128.2640  -999.2500  -999.2500
  480.0000   -26.4288     8.7076     8.2810   129.7753  -999.2500  -999.2500
  480.5000   -26.5791     8.7633     8.2048   132.0386  -999.2500  -999.2500
  481.0000   -26.5806     8.5192     8.0538   133.5499  -999.2500  -999.2500
  481.5000   -26.5821     8.2241     8.0523   135.0613  -999.2500  -999.2500
  482.0000   -26.5834     8.5084     7.9760   135.8189  -999.2500  -999.2500
  482.5000   -26.4359     8.5696     7.9745   134.3227  -999.2500  -999.2500
  483.0000   -26.4375     8.4632     8.0478   135.8360  -999.2500  -999.2500
  483.5000   -26.4389     8.3882     8.0462   137.3459  -999.2500  -999.2500
  484.0000   -26.4405     8.3431     8.1199   137.3534  -999.2500  -999.2500
  484.5000   -26.4420     8.3430     8.2675   135.0202  -999.2500  -999.2500
  485.0000   -26.5923     8.4027     8.3411   131.3035  -999.2500  -999.2500
  485.5000   -26.7426     8.5073     8.4143   129.0903  -999.2500  -999.2500
  486.0000   -26.8929     8.6120     8.5619   126.1053  -999.2500  -999.2500
  486.5000   -27.1920     8.7915     8.6355   123.8573  -999.2500  -999.2500
  487.0000   -27.3423     8.9560     8.7087   121.6093  -999.2500  -999.2500
  487.5000   -27.6414     9.1055     8.8563   120.1128  -999.2500  -999.2500
  488.0000   -27.7917     9.2700     9.0047   117.8651  -999.2500  -999.2500
  488.5000   -27.6441     9.4346     9.1526   115.6170  -999.2500  -999.2500
  489.0000   -27.4967     9.5542     9.3750   114.1190  -999.2500  -999.2500
  489.5000   -27.3494     9.6888     9.4486   112.6228  -999.2500  -999.2500
  490.0000   -27.3513     9.8084     9.5962   111.1267  -999.2500  -999.2500
  490.5000   -27.3528     9.9579     9.7441   108.8805  -999.2500  -999.2500
  491.0000   -27.0567    10.1315     9.8921   106.6325  -999.2500  -999.2500
  491.5000   -26.9090    10.3819     9.9657   103.6326  -999.2500  -999.2500
  492.0000   -27.3573    10.6162    10.1137   100.6327  -999.2500  -999.2500
  492.5000   -27.5073    10.8405    10.2616    97.6328  -999.2500  -999.2500
  493.0000   -27.0627    10.9901    10.4195    95.3848  -999.2500  -999.2500
  493.5000   -26.9150    11.1504    10.5576    93.1367  -999.2500  -999.2500
  494.0000   -27.0657    11.3721    10.7056    90.8887  -999.2500  -999.2500
  494.5000   -27.2160    11.5885    10.7040    90.0073  -999.2500  -999.2500
  495.0000   -27.3663    11.7380    10.7773    88.6464  -999.2500  -999.2500
  495.5000   -27.3678    11.8876    10.7758    88.6542  -999.2500  -999.2500
  496.0000   -27.3693    11.9623    10.8490    89.4136  -999.2500  -999.2500
  496.5000   -27.3708    11.9679    10.8475    90.1730  -999.2500  -999.2500
  497.0000   -27.2231    11.8123    10.6965    91.6843  -999.2500  -999.2500
  497.5000   -27.2247    11.6624    10.5455    93.1957  -999.2500  -999.2500
  498.0000   -27.2262    11.5874    10.4693    94.7070  -999.2500  -999.2500
  498.5000   -27.2276    11.3627    10.3183    96.2184  -999.2500  -999.2500
  499.0000   -27.2291    11.2129    10.2421    97.7298  -999.2500    74.6269
  499.5000   -27.2306    11.0630    10.2405    98.4893  -999.2500    74.7761
  500.0000   -27.3810    10.9003    10.1643    99.2487  -999.2500    74.7761
  500.5000   -27.2502    10.8234    10.1628    99.2331  -999.2500    78.0597
