~VERSION INFORMATION
 VERS.                2.0:   CWLS LOG ASCII STANDARD - VERSION 2.0
 WRAP.                 NO:   ONE LINE PER DEPTH STEP
~WELL INFORMATION
#MNEM.UNIT      DATA TYPE    INFORMATION
#----------   ------------   ------------------------------
 STRT.F           16.0000:   START DEPTH
 STOP.F          900.0000:   STOP DEPTH
 STEP.F            0.5000:   STEP LENGTH
 NULL.          -999.2500:   NO VALUE
 COMP. FENIX & SCISSON INC:   COMPANY
 WELL.    NPR-3 #65S15-15:   WELL
 FLD .             TEAPOT:   FIELD
 LOC .      S15 T38N R78W:   LOCATION
 CNTY.            NATRONA:   COUNTY
 STAT.            WYOMING:   STATE
 CTRY. UNITED STATES OF AMERICA:   COUNTRY
 SRVC.            Unknown:   SERVICE COMPANY
 DATE.        11-MAY-1978:   LOGDATE
 API .       490251062400:   API NUMBER
~CURVE INFORMATION
#MNEM.UNIT       API CODE    CURVE DESCRIPTION
#----------   ------------   ------------------------------
 DEPT.F                  :   
 RHOB.G/C3   45 350 01 00:   BULK DENSITY
 DPHI.DEC    45 890 12 00:   DENSITY POROSITY SANDSTONE
 CORR.G/C3   45 356 01 00:   DENSITY CORRECTION
 GRD .GAPI   45 310 01 00:   GAMMA RAY FROM DENSITY LOG
 CALD.IN     45 280 60 00:   CALIPER FROM DENSITY LOG
 SPR .MV     05 010 01 00:   SPONTANEOUS POTENTIAL FROM RES.
 SN  .OHMM   05 040 16 00:   SHORT NORMAL 16"
 IL  .OHMM   05 120 00 00:   INDUCTION LOG
~PARAMETER INFORMATION
#MNEM.UNIT          VALUE    DESCRIPTION
#----------   ------------   ------------------------------
 PD  .                 GL:   PERMANENT DATUM
 EPD .F              5289:   ELEVATION PERMANENT DATUM
 LMF .                 KB:   LOG MEASURED FROM
 DAPD.F                 4:   FEET ABOVE PERMANENT DATUM
 DMF .                 KB:   DRILLING MEASURED FROM
 EKB .F              5293:   KELLING BUSHING
 EDF .F                  :   DRILLING FLOOR
 EGL .F              5289:   GROUND LEVEL
 DATE.          5-11-1978:   RUN DATE
 RUN .                  1:   RUN NUMBER
 DD  .F               887:   DEPTH DRILLER
 DL  .F               889:   DEPTH LOGGER
 BLI .F               883:   BOTTOM LOG INTERVAL
 TLI .F                40:   TOP LOG INTERVAL
 CS  .IN            8.625:   CASING SIZE
 CBD .F                40:   CASING BOTTOM DRILLER
 CBL .F                40:   CASING BOTTOM LOGGER
 BS  .IN            7.875:   BIT SIZE
 BSD .F               887:   BIT SIZE AT DEPTH
 DFT .                KCL:   DRILLING FLUID TYPE
 DFD .                8.6:   DRILLING FLUID DENSITY
 DFV .                 30:   DRILLING FLUID VISCOSITY
 DFPH.                9.5:   DRILLING FLUID PH
 DFL .                  8:   DRILLING FLUID LOSS
 MSS .                   :   MUD SAMPLE SOURCE
 RMS .OHMM            .42:   RESISTIVITY MUD SAMPLE
 MST .F                68:   MUD SAMPLE TEMPERATURE
 RMF .OHMM            .38:   RESISTIVITY MUD FILTRATE SAMPLE
 MFST.F                68:   MUD FILTRATE SAMPLE TEMPERATURE
 RMC .OHMM            .68:   RESISTIVITY MUD CAKE
 MCST.F                66:   MUD CAKE SAMPLE TEMPERATURE
 MFSS.           MEASURED:   MUD FILTRATE SAMPLE SOURCE
 MCSS.                   :   MUD CAKE SAMPLE SOURCE
 RMB .OHMM               :   RESISTIVITY MUD AT BHT
 BHT .F                72:   BOTTOM HOLE TEMPERATURE
 TCS .HRS               2:   TIME CURCULATED STOPPED
 TLAB.HRS                :   TIME LOGGER AT BOTTOM
 MRT .F                72:   MAXIMUM RECORDED TEMPERATURE
 LUN .              CASP.:   LOGGING UNIT NUMBER
 LUL .               2958:   LOGGING UNIT LOCATION
 ENGI.             MILLER:   RECORDING ENGINEER
 WITN.           MCGINLEY:   WITNESSED BY
 CLNT.            A2DTECH:   CLIENT CODE
 ORIG.      2" & 5" PRINT:   ORIGIN OF DATA
 UWI .       490251062400:   UNIQUE WELL ID
 DICO. A2D Technologies, Inc.:   DIGITIZING COMPANY
 OS  .                   :   OTHER SERVICES
 PWI .                   :   PRIMARY WELL IDENTIFIER
 R1  .                   :   REMARKS 1
 R2  .                   :   REMARKS 2
~OTHER INFORMATION
~A   DEPT     RHOB       DPHI       CORR         GRD      CALD        SPR         SN         IL   
# ...
  259.0000     2.3902     0.1735     0.0064    59.8886     6.9532   -37.2988     8.5868     8.2565
  259.5000     2.3879     0.1741     0.0067    60.3499     6.9008   -36.8510     9.4346     9.0891
  260.0000     2.3860     0.1700     0.0085    60.4835     6.8485   -36.4017     9.8892     9.5316
  260.5000     2.3927     0.1661     0.0104    59.5658     6.7964   -35.9516    10.0462     9.6828
  261.0000     2.3951     0.1672     0.0122    60.5175     6.7446   -35.4973    10.2057     9.8366
  261.5000     2.3931     0.1675     0.0140    61.4686     6.6756   -35.3236    10.5010    10.0534
  262.0000     2.3940     0.1629     0.0159    61.4595     6.6080   -35.2697    10.8699    10.3043
  262.5000     2.3993     0.1625     0.0128    61.7131     6.5402   -35.2179    11.2518    10.5615
  263.0000     2.4032     0.1763     0.0071    62.7802     6.5090   -35.1657    11.6471    10.8251
  263.5000     2.3896     0.1773     0.0097    63.8091     6.5131   -35.1133    12.0563    11.0439
  264.0000     2.3793     0.1769     0.0136    63.7723     6.5178   -35.0609    12.3372    11.1773
  264.5000     2.3782     0.1792     0.0130    63.1209     6.5226   -35.0085    12.5330    11.3157
  265.0000     2.3769     0.1801     0.0109    62.4440     6.5273   -34.9561    12.7325    11.4551
  265.5000     2.3759     0.1725     0.0148    61.0976     6.5320   -34.9037    12.9327    11.5963
  266.0000     2.3803     0.1649     0.0202    59.6911     6.5367   -34.8513    13.1373    11.7393
  266.5000     2.3920     0.1560     0.0235    59.4772     6.5414   -34.7989    13.3377    11.8839
  267.0000     2.4035     0.1590     0.0177    60.5986     6.5455   -34.7464    13.5426    12.0304
  267.5000     2.4130     0.1636     0.0127    63.2538     6.5726   -34.6940    13.7506    12.1787
  268.0000     2.4120     0.1683     0.0147    65.2935     6.6031   -34.6416    13.9617    12.3288
  268.5000     2.3941     0.1729     0.0161    63.8765     6.6338   -34.5893    14.1762    12.4807
  269.0000     2.3899     0.1776     0.0123    62.2797     6.6651   -34.5616    14.3003    12.5612
  269.5000     2.3819     0.1822     0.0115    61.0844     6.6405   -34.5617    14.3221    12.5614
  270.0000     2.3735     0.1858     0.0131    60.3981     6.5892   -34.5617    14.3440    12.5611
  270.5000     2.3700     0.1845     0.0159    63.2224     6.5856   -34.5617    14.3658    12.5612
  271.0000     2.3688     0.1831     0.0237    66.0930     6.7611   -34.5616    14.3877    12.6074
  271.5000     2.3713     0.1809     0.0314    66.7882     6.9443   -34.5605    14.4096    12.6549
  272.0000     2.3736     0.1757     0.0390    67.4652     7.1046   -34.5618    14.4268    12.7028
  272.5000     2.3762     0.1723     0.0437    67.4654     7.2648   -34.6509    14.4376    12.7509
  273.0000     2.3836     0.1729     0.0393    63.2027     7.4245   -35.0582    14.4485    12.7947
  273.5000     2.3901     0.1733     0.0352    59.0663     7.5477   -35.4663    14.4593    12.7500
  274.0000     2.3899     0.1717     0.0327    58.3250     7.5426   -35.5576    14.4702    12.7092
  274.5000     2.3899     0.1697     0.0333    61.2295     7.5304   -35.5590    14.4810    12.6685
  275.0000     2.3914     0.1660     0.0338    63.0016     7.5188   -35.5579    14.4919    12.6280
  275.5000     2.3956     0.1586     0.0344    62.6880     7.5073   -35.5578    14.5028    12.5876
  276.0000     2.4022     0.1513     0.0288    63.3100     7.4958   -35.5578    14.5136    12.5474
  276.5000     2.4122     0.1472     0.0200    64.0338     7.4843   -35.5578    14.5246    12.5072
  277.0000     2.4218     0.1613     0.0110    64.0121     7.4728   -35.5578    14.5353    12.4672
  277.5000     2.4271     0.1710     0.0055    61.6763     7.4613   -35.5578    14.5463    12.4273
  278.0000     2.4030     0.1807     0.0063    60.8844     7.4492   -35.5577    14.5542    12.3874
  278.5000     2.3853     0.1890     0.0097    61.2437     7.4171   -35.5569    14.4427    12.3319
  279.0000     2.3723     0.1896     0.0131    59.2238     7.3464   -35.5503    14.3458    12.3693
  279.5000     2.3652     0.1901     0.0165    56.9609     7.2771   -35.7662    14.2492    12.4326
  280.0000     2.3628     0.1892     0.0199    57.0829     7.2386   -36.1501    14.1533    12.4963
  280.5000     2.3628     0.1830     0.0215    62.3802     7.2269   -36.9478    14.0581    12.5603
  281.0000     2.3679     0.1769     0.0162    62.5173     7.2158   -37.0113    13.9635    12.6246
  281.5000     2.3756     0.1761     0.0111    62.7138     7.2049   -37.0593    13.8696    12.6893
  282.0000     2.3770     0.1821     0.0060    62.6120     7.1515   -37.1098    13.7763    12.7542
  282.5000     2.3742     0.1829     0.0024    61.8036     7.0919   -37.1609    13.6836    12.7947
  283.0000     2.3718     0.1817     0.0025    60.9981     7.0318   -37.2116    13.5916    12.5878
  283.5000     2.3733     0.1825     0.0030    60.6095     7.0112   -37.2601    13.4788    12.4400
  284.0000     2.3747     0.1837     0.0061    63.0332     7.0191   -37.3154    13.3037    12.2939
  284.5000     2.3727     0.1816     0.0103    65.9489     7.0276   -37.5781    12.7369    12.1495
  285.0000     2.3732     0.1754     0.0194    66.4625     7.0358   -38.5251    12.1825    11.6635
  285.5000     2.3794     0.1750     0.0234    68.0757     7.0423   -39.1821    11.6626    11.1437
  286.0000     2.3844     0.1762     0.0249    69.5014     7.1311   -39.2655    11.1380    10.3078
  286.5000     2.3855     0.1773     0.0266    69.7640     7.2329   -39.4490    10.5105     9.4934
  287.0000     2.3840     0.1700     0.0444    69.2216     7.2459   -40.0533     9.9184     8.7434
  287.5000     2.3831     0.1573     0.0644    66.4618     7.2186   -40.6444     9.3596     8.0526
  288.0000     2.3986     0.1452     0.0840    65.9122     7.0348   -41.0902     8.8323     7.4163
  288.5000     2.4378     0.1358     0.0784    73.9777     6.9615   -41.5131     8.3944     6.7769
  289.0000     2.4587     0.1264     0.0703    75.1155     6.9272   -41.5307     7.9860     6.6860
  289.5000     2.4687     0.1224     0.0544    74.2508     6.9405   -41.5200     7.5974     6.5870
  290.0000     2.4753     0.1256     0.0372    74.4442     6.9565   -41.5117     7.3626     6.4895
  290.5000     2.4674     0.1299     0.0197    76.6791     6.9721   -41.5041     7.3626     6.4125
  291.0000     2.4584     0.1342     0.0108    78.3906     6.9878   -41.4965     7.3626     6.4200
  291.5000     2.4491     0.1385     0.0053    77.7887     7.0034   -41.4888     7.3626     6.4262
  292.0000     2.4456     0.1428     0.0000    76.5926     7.0110   -41.4812     7.3626     6.4324
  292.5000     2.4413     0.1472    -0.0042    76.5566     7.0169   -41.4736     7.3626     6.4386
  293.0000     2.4369     0.1469    -0.0055    76.7109     7.0227   -41.4660     7.3629     6.4448
  293.5000     2.4340     0.1391    -0.0034    76.8010     7.0189   -41.4584     7.3175     6.4510
  294.0000     2.4408     0.1352    -0.0013    76.6829     7.0044   -41.4507     7.2572     6.4572
  294.5000     2.4508     0.1352     0.0008    77.0796     6.9894   -41.4431     7.1975     6.4634
  295.0000     2.4516     0.1339     0.0029    77.8374     6.9956   -41.4355     7.1382     6.4697
  295.5000     2.4532     0.1317     0.0050    77.7530     7.0132   -41.4278     7.0794     6.4719
  296.0000     2.4586     0.1311     0.0080    77.6745     7.0312   -41.4202     7.0211     6.4719
  296.5000     2.4611     0.1304     0.0128    77.6302     7.0596   -41.4126     6.9630     6.4719
  297.0000     2.4618     0.1286     0.0175    78.6712     7.1391   -41.4050     6.9023     6.4719
  297.5000     2.4646     0.1261     0.0201    83.4361     7.2026   -41.3974     6.9324     6.4719
  298.0000     2.4680     0.1249     0.0188    84.1308     7.2430   -41.3897     6.9719     6.4717
  298.5000     2.4687     0.1239     0.0176    82.7270     7.2763   -41.3821     7.0117     6.4718
  299.0000     2.4662     0.1229     0.0164    81.3423     7.3005   -41.3745     7.0517     6.4714
