~VERSION INFORMATION
 VERS.                2.0:   CWLS LOG ASCII STANDARD - VERSION 2.0
 WRAP.                 NO:   ONE LINE PER DEPTH STEP
~WELL INFORMATION
#MNEM.UNIT      DATA TYPE    INFORMATION
#----------   ------------   ------------------------------
 STRT.F           38.0000:   START DEPTH
 STOP.F          890.0000:   STOP DEPTH
 STEP.F            0.5000:   STEP LENGTH
 NULL.          -999.2500:   NO VALUE
 COMP. FENIX & SCISSON INC:   COMPANY
 WELL.       43 SX #14-14:   WELL
 FLD .             TEAPOT:   FIELD
 LOC .      S14 T38N R78W:   LOCATION
 CNTY.            NATRONA:   COUNTY
 STAT.            WYOMING:   STATE
 CTRY. UNITED STATES OF AMERICA:   COUNTRY
 SRVC.            Unknown:   SERVICE COMPANY
 DATE.        28-APR-1978:   LOGDATE
 API .       490251063600:   API NUMBER
~CURVE INFORMATION
#MNEM.UNIT       API CODE    CURVE DESCRIPTION
#----------   ------------   ------------------------------
 DEPT.F                  :   
 SPR .MV     05 010 01 00:   SPONTANEOUS POTENTIAL FROM RES.
 SN  .OHMM   05 040 16 00:   SHORT NORMAL 16"
 ILD .OHMM   05 120 46 00:   INDUCTION LOG DEEP
 CILD.MMHO   05 110 46 00:   CONDUCTIVITY INDUCTION LOG DEEP
 CALD.IN     45 280 60 00:   CALIPER FROM DENSITY LOG
 GRD .GAPI   45 310 01 00:   GAMMA RAY FROM DENSITY LOG
 CORR.G/C3   45 356 01 00:   DENSITY CORRECTION
 DPHI.DEC    45 890 12 00:   DENSITY POROSITY SANDSTONE
 DEN .G/C3   45 350 01 00:   COMPENSATED BULK DENSTIY
~PARAMETER INFORMATION
#MNEM.UNIT          VALUE    DESCRIPTION
#----------   ------------   ------------------------------
 PD  .                 GL:   PERMANENT DATUM
 EPD .F              5217:   ELEVATION PERMANENT DATUM
 LMF .                 KB:   LOG MEASURED FROM
 DMF .                 KB:   DRILLING MEASURED FROM
 EKB .F              5221:   KELLING BUSHING
 EGL .F              5217:   GROUND LEVEL
 DATE.        28-APR-1978:   RUN DATE
 RUN .                  1:   RUN NUMBER
 DD  .F               890:   DEPTH DRILLER
 DL  .F               890:   DEPTH LOGGER
 BLI .F               884:   BOTTOM LOG INTERVAL
 TLI .F                40:   TOP LOG INTERVAL
 CS  .IN            8.625:   CASING SIZE
 CBD .F                40:   CASING BOTTOM DRILLER
 CBL .F                40:   CASING BOTTOM LOGGER
 BS  .IN            7.875:   BIT SIZE
 BSD .F               890:   BIT SIZE AT DEPTH
 DFT .                KCL:   DRILLING FLUID TYPE
 DFD .                8.7:   DRILLING FLUID DENSITY
 DFV .                 34:   DRILLING FLUID VISCOSITY
 DFL .                4.8:   DRILLING FLUID LOSS
 MSS .            MUD PIT:   MUD SAMPLE SOURCE
 RMS .OHMM             .4:   RESISTIVITY MUD SAMPLE
 MST .F                56:   MUD SAMPLE TEMPERATURE
 RMF .OHMM            .38:   RESISTIVITY MUD FILTRATE SAMPLE
 MFST.F                64:   MUD FILTRATE SAMPLE TEMPERATURE
 RMC .OHMM              1:   RESISTIVITY MUD CAKE
 MCST.F                66:   MUD CAKE SAMPLE TEMPERATURE
 MFSS.               MEAS:   MUD FILTRATE SAMPLE SOURCE
 RMB .OHMM             .3:   RESISTIVITY MUD AT BHT
 BHT .F                74:   BOTTOM HOLE TEMPERATURE
 TCS .HRS            0100:   TIME CURCULATED STOPPED
 MRT .F                74:   MAXIMUM RECORDED TEMPERATURE
 LUN .               2958:   LOGGING UNIT NUMBER
 LUL .               CASP:   LOGGING UNIT LOCATION
 ENGI.             MILLER:   RECORDING ENGINEER
 WITN.           MCGINLEY:   WITNESSED BY
 CLNT.            A2DTECH:   CLIENT CODE
 ORIG.           5" PRINT:   ORIGIN OF DATA
 UWI .       490251063600:   UNIQUE WELL ID
 DICO. A2D Technologies, Inc.:   DIGITIZING COMPANY
~OTHER INFORMATION
~A   DEPT      SPR         SN        ILD       CILD       CALD        GRD       CORR       DPHI        DEN   
   38.0000  -999.2500  -999.2500  -999.2500  -999.2500  -999.2500  -999.2500  -999.2500  -999.2500  -999.2500
   38.5000  -999.2500  -999.2500  -999.2500  -999.2500  -999.2500    71.8471  -999.2500  -999.2500  -999.2500
   39.0000  -999.2500  -999.2500  -999.2500  -999.2500  -999.2500    71.8617  -999.2500  -999.2500  -999.2500
   39.5000  -999.2500  -999.2500  -999.2500  -999.2500  -999.2500    70.8269  -999.2500  -999.2500  -999.2500
   40.0000  -999.2500  -999.2500  -999.2500  -999.2500  -999.2500    70.0919  -999.2500  -999.2500  -999.2500
   40.5000  -999.2500  -999.2500  -999.2500  -999.2500  -999.2500    67.7078  -999.2500  -999.2500  -999.2500
   41.0000  -999.2500  -999.2500  -999.2500  -999.2500  -999.2500    65.7734  -999.2500  -999.2500  -999.2500
   41.5000  -999.2500  -999.2500  -999.2500  -999.2500  -999.2500    65.3346  -999.2500  -999.2500  -999.2500
   42.0000  -999.2500  -999.2500  -999.2500  -999.2500  -999.2500    65.9526  -999.2500  -999.2500  -999.2500
   42.5000  -999.2500  -999.2500  -999.2500  -999.2500  -999.2500    66.7169  -999.2500  -999.2500  -999.2500
   43.0000  -999.2500  -999.2500  -999.2500  -999.2500  -999.2500    69.8921  -999.2500  -999.2500  -999.2500
   43.5000  -999.2500  -999.2500  -999.2500  -999.2500  -999.2500    72.6836  -999.2500  -999.2500  -999.2500
   44.0000  -999.2500  -999.2500  -999.2500  -999.2500  -999.2500    74.5606  -999.2500  -999.2500  -999.2500
   44.5000  -999.2500  -999.2500  -999.2500  -999.2500  -999.2500    74.8751  -999.2500  -999.2500  -999.2500
   45.0000  -999.2500  -999.2500  -999.2500  -999.2500  -999.2500    75.0397  -999.2500  -999.2500  -999.2500
   45.5000  -999.2500  -999.2500  -999.2500  -999.2500  -999.2500    75.2043  -999.2500  -999.2500  -999.2500
   46.0000  -999.2500  -999.2500  -999.2500  -999.2500  -999.2500   111.2009     0.1581  -999.2500  -999.2500
   46.5000  -999.2500  -999.2500  -999.2500  -999.2500     7.5315   109.7163     0.0579     0.1839     2.1260
   47.0000  -999.2500  -999.2500  -999.2500  -999.2500     8.0419    78.2467     0.0564     0.1301     2.2539
   47.5000  -999.2500  -999.2500  -999.2500  -999.2500     8.1796    82.0095     0.0565     0.1283     2.4081
   48.0000  -999.2500  -999.2500  -999.2500  -999.2500     8.2398    77.5264     0.0506     0.1313     2.4179
   48.5000  -999.2500  -999.2500  -999.2500  -999.2500     8.2413    75.4343     0.0507     0.1376     2.4202
   49.0000  -999.2500  -999.2500  -999.2500  -999.2500     8.2124    75.3068     0.0522     0.1409     2.4044
   49.5000  -999.2500  -999.2500  -999.2500  -999.2500     8.2142    75.3251     0.0523     0.1415     2.3977
   50.0000  -999.2500  -999.2500  -999.2500  -999.2500     8.2157    74.7401     0.0509     0.1204     2.4173
   50.5000   -25.6469  -999.2500     5.6030  -999.2500     8.2471    73.7052     0.0478     0.1204     2.4422
   51.0000   -26.8366  -999.2500     5.1971  -999.2500     8.2635    72.3706     0.0466     0.1207     2.4324
   51.5000   -27.5695  -999.2500     4.9549  -999.2500     8.2950    71.7819     0.0466     0.1210     2.4280
   52.0000   -28.1539  -999.2500     4.9229  -999.2500     8.3431    72.5498     0.0512     0.1116     2.4272
   52.5000   -28.7384     6.5374     4.9947  -999.2500     8.3880    73.6139     0.0513     0.1101     2.4386
   53.0000   -29.3229     6.2588     5.0321  -999.2500     8.3745    73.6286     0.0528     0.1089     2.4567
   53.5000   -29.9074     6.0086     5.0697  -999.2500     8.3310    73.1935     0.0544     0.1065     2.4575
   54.0000   -30.4919     5.8889     5.1077  -999.2500     8.2876    70.0360     0.0530     0.1191     2.4605
   54.5000   -31.5214     5.8508     5.1105  -999.2500     8.2591    69.4746     0.0456     0.1236     2.4530
   55.0000   -33.5896     5.8147     5.1134  -999.2500     8.2452    68.8932     0.0425     0.1247     2.4418
   55.5000   -35.5094     5.8179     5.0810  -999.2500     8.2320    68.6044     0.0412     0.1268     2.4342
   56.0000   -36.6874     5.8212     5.0839  -999.2500     8.2639    69.2224     0.0413     0.1289     2.4229
   56.5000   -37.5686     5.8244     5.0867   186.0549     8.3099    68.9372     0.0444     0.1310     2.4179
   57.0000   -37.8586     5.8277     5.0191   190.4369     8.2963    66.8529     0.0505     0.1364     2.4164
   57.5000   -38.2924     5.8309     4.8522   196.2672     8.2981    64.4687     0.0535     0.1400     2.3954
   58.0000   -38.4340     5.8342     4.6903   199.9301     8.2996    63.4339     0.0536     0.1406     2.3894
   58.5000   -38.5734     5.8374     4.5652   202.8538     8.2711    62.8486     0.0537     0.1408     2.3917
   59.0000   -38.7128     5.8401     4.5357   205.0480     8.2572    62.5637     0.0536     0.1417     2.3971
   59.5000   -38.8499     5.8439     4.5383   207.2422     8.2291    62.4284     0.0523     0.1441     2.3971
   60.0000   -38.8427     5.8465     4.5408   210.1855     8.2306    62.4467     0.0517     0.1417     2.3814
   60.5000   -39.0059     5.8498     4.5748   211.6329     8.2484    62.9111     0.0519     0.1390     2.3822
   61.0000   -39.4187     5.8935     4.5773   211.5777     8.4880    63.3756     0.0520     0.1386     2.3868
   61.5000   -39.5580     5.8967     4.6115   210.7757     8.5197    64.1398     0.0537     0.1363     2.3906
   62.0000   -39.5490     5.9408     4.6460   208.4755     8.5212    64.7542     0.0538     0.1270     2.3966
   62.5000   -39.5401     5.9441     4.6808   208.4225     8.4777    65.3685     0.0525     0.1248     2.4169
   63.0000   -39.3827     5.9474     4.6834   208.3696     8.4339    66.1328     0.0436     0.1296     2.4192
   63.5000   -39.3737     5.9507     4.7184   208.3166     8.3758    67.7966     0.0393     0.1307     2.4253
   64.0000   -39.5131     5.9540     4.7210   206.7655     8.3324    69.6104     0.0379     0.1394     2.4058
   64.5000   -39.5041     5.9163     4.7564   203.7163     8.3788    70.8244     0.0381     0.1403     2.4028
   65.0000   -39.4944     5.7985     4.8251   201.4162     8.4102    70.5392     0.0442     0.1445     2.3893
   65.5000   -39.4861     5.5667     4.9288   199.1160     8.3966    71.6070     0.0564     0.1451     2.3864
   66.0000   -39.6277     5.3441     5.0000   198.3140     8.3831    72.8211     0.0595     0.1355     2.3969
   66.5000   -39.7671     5.3096     5.0375   198.2610     8.4157    73.5854     0.0582     0.1345     2.4068
   67.0000   -39.9042     5.2760     5.0403   198.9704     8.4610    74.1997     0.0583     0.1366     2.4010
   67.5000   -39.8952     5.1716     5.0431   198.9042     8.5213    74.5105     0.0585     0.1427     2.3918
   68.0000   -39.8862     5.1390     5.0105   199.6135     8.5816    72.2800     0.0571     0.1438     2.3919
   68.5000   -39.8773     5.1058     5.0140   200.4469     8.6579    69.1462     0.0558     0.1441     2.3919
   69.0000   -39.8683     5.0394     4.9480   201.7547     8.7346    67.8115     0.0484     0.1447     2.3919
   69.5000   -39.8593     5.0422     4.9160   201.7004     8.7625    67.8262     0.0441     0.1452     2.3890
   70.0000   -39.8503     5.0450     4.9194   201.6479     8.3124    68.7506     0.0397     0.1365     2.3868
   70.5000   -39.8413     5.0827     4.8877   200.8465     8.1925    69.2054     0.0339     0.1332     2.4222
   71.0000   -39.6839     5.1208     4.8910   200.0448     8.1627    69.2231     0.0310     0.1347     2.4162
   71.5000   -39.6749     5.1591     4.8938   198.4937     8.1179    69.2378     0.0282     0.1446     2.3921
   72.0000   -39.5176     5.1619     4.8965   195.4445     8.0581    69.0988     0.0283     0.1503     2.3868
   72.5000   -39.5104     5.2000     4.9331   192.3952     7.9382    69.1171     0.0270     0.1569     2.3780
   73.0000   -39.5015     5.2028     5.0044   188.5970     7.7733    69.4317     0.0272     0.1571     2.3743
   73.5000   -39.4926     5.2100     5.0419   185.5477     7.6834    69.5962     0.0273     0.1529     2.3713
   74.0000   -39.4837     5.2446     5.0447   183.2476     7.6537    69.7608     0.0275     0.1505     2.3683
