~VERSION INFORMATION
 VERS.                2.0:   CWLS LOG ASCII STANDARD - VERSION 2.0
 WRAP.                 NO:   ONE LINE PER DEPTH STEP
~WELL INFORMATION
#MNEM.UNIT      DATA TYPE    INFORMATION
#----------   ------------   ------------------------------
 STRT.F           14.0000:   START DEPTH
 STOP.F          692.5000:   STOP DEPTH
 STEP.F            0.5000:   STEP LENGTH
 NULL.          -999.2500:   NO VALUE
 COMP. FENIX & SCISSON INC:   COMPANY
 WELL. NPR #3 #27-51 SX 11 WP:   WELL
 FLD .        TEAPOT DOME:   FIELD
 LOC .      S11 T38N R78W:   LOCATION
 CNTY.            NATRONA:   COUNTY
 STAT.            WYOMING:   STATE
 CTRY. UNITED STATES OF AMERICA:   COUNTRY
 SRVC.      Dresser Atlas:   SERVICE COMPANY
 DATE.        16-AUG-1980:   LOGDATE
 API .       490251083900:   API NUMBER
~CURVE INFORMATION
#MNEM.UNIT       API CODE    CURVE DESCRIPTION
#----------   ------------   ------------------------------
 DEPT.F                  :   
 RHOB.G/C3   45 350 01 00:   BULK DENSITY
 CORR.G/C3   45 356 01 00:   DENSITY CORRECTION
 GRD .GAPI   45 310 01 00:   GAMMA RAY FROM DENSITY LOG
 CALD.IN     45 280 60 00:   CALIPER
 NPOR.DEC    42 890 03 00:   NEUTRON POROSITY SANDSTONE
 DPOR.DEC    45 890 12 00:   DENSITY POROSITY SANDSTONE
 SPR .MV     07 010 01 00:   SPONTANEOUS POTENTIAL
 SFL .OHMM   07 220 01 00:   SHALLOW FOCUSED LOG RESISTIVITY
 ILM .OHMM   07 120 44 00:   INDUCTION LOG MEDIUM
 ILD .OHMM   07 120 46 00:   INDUCTION LOG DEEP
~PARAMETER INFORMATION
#MNEM.UNIT          VALUE    DESCRIPTION
#----------   ------------   ------------------------------
 PD  .                 GL:   PERMANENT DATUM
 EPD .F              5194:   ELEVATION PERMANENT DATUM
 LMF .                 KB:   LOG MEASURED FROM
 DAPD.F                 5:   FEET ABOVE PERMANENT DATUM
 DMF .                 KB:   DRILLING MEASURED FROM
 EKB .F              5199:   KELLING BUSHING
 EGL .F              5194:   GROUND LEVEL
 DATE.            8-16-80:   RUN DATE
 RUN .                  1:   RUN NUMBER
 DD  .F               685:   DEPTH DRILLER
 DL  .F               693:   DEPTH LOGGER
 BLI .F               692:   BOTTOM LOG INTERVAL
 TLI .F                25:   TOP LOG INTERVAL
 BS  .IN            7.875:   BIT SIZE
 BSD .F               685:   BIT SIZE AT DEPTH
 DFT .                KCL:   DRILLING FLUID TYPE
 DFD .                9.4:   DRILLING FLUID DENSITY
 DFV .                 45:   DRILLING FLUID VISCOSITY
 DFPH.                 11:   DRILLING FLUID PH
 DFL .                7.2:   DRILLING FLUID LOSS
 MSS .           FLOWLINE:   MUD SAMPLE SOURCE
 RMS .OHMM            .74:   RESISTIVITY MUD SAMPLE
 MST .F                60:   MUD SAMPLE TEMPERATURE
 RMF .OHMM            .44:   RESISTIVITY MUD FILTRATE SAMPLE
 MFST.F                60:   MUD FILTRATE SAMPLE TEMPERATURE
 RMC .OHMM           1.35:   RESISTIVITY MUD CAKE
 MCST.F                60:   MUD CAKE SAMPLE TEMPERATURE
 MFSS.               MEAS:   MUD FILTRATE SAMPLE SOURCE
 MCSS.               MEAS:   MUD CAKE SAMPLE SOURCE
 TCS .HRS               1:   TIME CURCULATED STOPPED
 LUN .               6180:   LOGGING UNIT NUMBER
 LUL .               CODY:   LOGGING UNIT LOCATION
 ENGI.              HOYER:   RECORDING ENGINEER
 WITN.           MCINTYRE:   WITNESSED BY
 CLNT.            A2DTECH:   CLIENT CODE
 ORIG.      2" 2.5" PRINT:   ORIGIN OF DATA
 UWI .       490251083900:   UNIQUE WELL ID
 DICO. A2D Technologies, Inc.:   DIGITIZING COMPANY
~OTHER INFORMATION
~A   DEPT     RHOB       CORR        GRD       CALD       NPOR       DPOR        SPR        SFL         ILM       ILD   
# ...
  550.0000     2.4450     0.0201   103.7434     7.8590     0.2355     0.1384   -69.3285    11.0105    10.7327    10.9134
  550.5000     2.4491     0.0263   102.9711     7.8457     0.2387     0.1361   -69.2178    11.0059    11.3057    11.3889
  551.0000     2.4431     0.0329   105.7954     7.8326     0.2435     0.1379   -69.1606    11.0119    11.8498    12.2942
  551.5000     2.4326     0.0367   104.8521     7.8189     0.2429     0.1461   -69.1685    11.4741    13.0815    13.7379
  552.0000     2.4125     0.0341   101.5964     7.8062     0.2399     0.1582   -68.7868    12.7780    14.3161    15.3511
  552.5000     2.3671     0.0302    98.5941     7.7959     0.2371     0.1816   -68.2576    14.3172    15.6684    17.1538
  553.0000     2.3360     0.0280    95.6150     7.8142     0.2355     0.1948   -67.7706    16.0705    17.1474    19.1682
  553.5000     2.3136     0.0289    93.1394     7.8302     0.2388     0.2034   -67.7619    17.6395    18.7661    21.2538
  554.0000     2.3177     0.0296    93.2217     7.8481     0.2443     0.2058   -67.7639    18.9368    20.5378    23.1165
  554.5000     2.3271     0.0304    92.0679     7.8660     0.2405     0.2015   -67.7647    19.4542    22.0162    25.1423
  555.0000     2.3371     0.0312    91.0045     7.8752     0.2336     0.1968   -67.7626    20.7512    23.3757    25.6275
  555.5000     2.3471     0.0320    91.8196     7.8640     0.2266     0.1921   -67.8855    22.5036    24.7033    25.2317
  556.0000     2.3529     0.0297    90.4122     7.8540     0.2237     0.1874   -68.0643    24.2537    24.7033    24.6602
  556.5000     2.3459     0.0269    89.4047     7.8437     0.2194     0.1902   -68.1635    21.8409    23.5304    24.0229
  557.0000     2.3502     0.0246    89.4950     7.8349     0.2186     0.1930   -68.0978    20.5586    22.7681    23.2008
  557.5000     2.3716     0.0332    91.2124     7.8348     0.2238     0.1664   -67.7940    20.5586    22.0304    22.4067
  558.0000     2.4154     0.0327    93.5342     7.8346     0.2319     0.1521   -67.6756    19.0830    21.3167    21.6398
  558.5000     2.3774     0.0273    95.8824     7.8347     0.2380     0.1714   -68.2556    17.4265    20.6261    20.8992
  559.0000     2.3645     0.0325    95.2838     7.8347     0.2427     0.1810   -68.8186    18.1932    20.0000    20.3138
  559.5000     2.3619     0.0415    94.6641     7.8347     0.2435     0.1822   -69.3481    19.2787    19.7152    20.1001
  560.0000     2.3551     0.0483    94.7182     7.8347     0.2432     0.1859   -69.3645    18.4512    19.4513    19.8887
  560.5000     2.3487     0.0447    94.2011     7.8347     0.2412     0.1898   -69.3624    17.5872    19.1909    19.6795
  561.0000     2.3492     0.0362    93.3885     7.8347     0.2392     0.1898   -69.3652    17.5872    18.9340    19.4725
  561.5000     2.3521     0.0284    95.4154     7.8347     0.2371     0.1879   -69.2101    17.2501    18.6805    19.2787
  562.0000     2.3544     0.0283    97.6869     7.8347     0.2363     0.1865   -69.0245    16.9529    18.4305    19.2160
  562.5000     2.3516     0.0282    96.2860     7.8347     0.2388     0.1884   -68.8367    16.9529    18.2452    19.1427
  563.0000     2.3490     0.0310    95.1416     7.8348     0.2396     0.1908   -68.7637    17.2608    18.2452    19.0698
  563.5000     2.3475     0.0334    95.9487     7.8333     0.2373     0.1922   -68.7190    18.0785    18.2895    18.9971
  564.0000     2.3607     0.0360    96.5378     7.8276     0.2374     0.1859   -68.4666    17.7929    18.4699    18.9279
  564.5000     2.3699     0.0389    94.3266     7.8221     0.2410     0.1778   -68.2174    17.3582    18.6522    18.8366
  565.0000     2.3646     0.0390    95.8287     7.8164     0.2371     0.1799   -67.9688    16.9500    18.7549    18.7549
  565.5000     2.3556     0.0354    97.4406     7.8107     0.2291     0.1832   -67.7229    16.9474    18.3099    18.4226
  566.0000     2.3417     0.0325    98.0288     7.8050     0.2193     0.1890   -67.5871    17.6949    18.0074    18.1088
  566.5000     2.3354     0.0349    98.3274     7.7994     0.2138     0.1978   -67.6567    18.4101    17.7098    17.8003
  567.0000     2.3468     0.0357    97.1080     7.7937     0.2159     0.1957   -67.7196    17.9263    17.4172    17.4970
  567.5000     2.3458     0.0294    95.9509     7.7881     0.2188     0.1922   -67.6369    17.4585    17.1294    17.1984
  568.0000     2.3476     0.0242    96.5169     7.7824     0.2288     0.1922   -67.2717    17.0818    16.8463    16.9061
  568.5000     2.3556     0.0257    98.9526     7.7768     0.2347     0.1922   -66.9576    16.9618    16.5679    16.7806
  569.0000     2.3628     0.0305   100.5575     7.7711     0.2308     0.1825   -66.9656    16.8427    16.2941    16.7083
  569.5000     2.3804     0.0353    99.5949     7.7654     0.2251     0.1744   -66.8285    16.7980    16.0743    16.6356
  570.0000     2.3887     0.0402    97.9809     7.7598     0.2251     0.1697   -66.5809    16.7980    15.8870    16.5631
  570.5000     2.3775     0.0450    96.6519     7.7541     0.2337     0.1745   -66.3868    16.7980    15.7018    16.4920
  571.0000     2.3825     0.0498    96.8823     7.7485     0.2420     0.1719   -66.5911    16.6326    15.5189    16.3649
  571.5000     2.3929     0.0547    98.5111     7.7428     0.2504     0.1661   -66.8608    16.4717    15.3380    16.2402
  572.0000     2.4035     0.0557   100.0416     7.7372     0.2587     0.1609   -67.5314    16.3124    15.1593    16.1165
  572.5000     2.3894     0.0533   102.2030     7.7315     0.2595     0.1665   -67.5678    16.1546    14.9826    15.9939
  573.0000     2.3723     0.0511   103.0235     7.7258     0.2544     0.1743   -67.4269    15.9984    14.8080    15.8440
  573.5000     2.3637     0.0486    98.6171     7.7202     0.2493     0.1826   -66.9687    15.8440    14.6365    15.5898
  574.0000     2.3734     0.0508    97.8873     7.7145     0.2450     0.1790   -66.5554    15.6538    14.2873    15.3397
  574.5000     2.3863     0.0592   100.3949     7.7089     0.2442     0.1725   -66.5645    15.3233    13.9485    15.0936
  575.0000     2.3884     0.0667   101.8854     7.7031     0.2450     0.1673   -66.5217    15.3231    13.6177    14.7174
  575.5000     2.3790     0.0757   101.1677     7.6975     0.2450     0.1737   -66.3627    15.9008    13.2947    14.3182
  576.0000     2.3852     0.0786   100.4315     7.6917     0.2385     0.1719   -66.2057    15.5539    13.2303    13.9299
  576.5000     2.4027     0.0818   102.5290     7.6860     0.2322     0.1637   -66.0488    14.7193    13.2303    13.5522
  577.0000     2.4106     0.0844   106.2128     7.6808     0.2259     0.1577   -65.9678    14.2388    13.2303    13.1847
  577.5000     2.3993     0.0821   105.0755     7.6741     0.2203     0.1620   -65.9681    14.4702    13.1346    13.1093
  578.0000     2.3912     0.0745   103.0021     7.6737     0.2169     0.1673   -65.9679    14.7679    13.0148    13.1093
  578.5000     2.3955     0.0666   104.2619     7.6767     0.2189     0.1673   -65.9667    15.0717    12.9895    13.1093
  579.0000     2.3989     0.0596   103.5563     7.7224     0.2227     0.1617   -65.9576    15.3242    13.0277    13.1093
  579.5000     2.4073     0.0482   100.7961     7.7620     0.2264     0.1566   -66.3358    15.3242    13.2370    13.5093
  580.0000     2.4123     0.0384    99.3758     7.8049     0.2264     0.1553   -66.5669    15.3770    13.4497    13.9284
  580.5000     2.4102     0.0277    99.1269     7.8345     0.2242     0.1569   -66.5664    15.6734    13.6658    14.3605
  581.0000     2.4119     0.0238    99.2097     7.8358     0.2242     0.1545   -66.5675    16.0462    13.8853    14.7715
  581.5000     2.4174     0.0241    98.6696     7.8403     0.2266     0.1555   -66.5640    15.8213    14.1161    14.7715
  582.0000     2.4004     0.0241    97.9490     7.8436     0.2266     0.1643   -66.7532    15.4379    14.1141    14.4645
  582.5000     2.3835     0.0240    99.6731     7.8471     0.2239     0.1745   -67.0336    15.0673    13.6750    14.1559
  583.0000     2.3806     0.0241    97.6737     7.8507     0.2212     0.1727   -67.3114    14.9078    13.4059    13.8540
