~VERSION INFORMATION
 VERS.                2.0:   CWLS LOG ASCII STANDARD - VERSION 2.0
 WRAP.                 NO:   ONE LINE PER DEPTH STEP
~WELL INFORMATION
#MNEM.UNIT      DATA TYPE    INFORMATION
#----------   ------------   ------------------------------
 STRT.F            8.0000:   START DEPTH
 STOP.F         2320.0000:   STOP DEPTH
 STEP.F            0.5000:   STEP LENGTH
 NULL.          -999.2500:   NO VALUE
 COMP.    FENIX & SCISSON:   COMPANY
 WELL. N.P.R #3 #77-SHX-10:   WELL
 FLD .             TEAPOT:   FIELD
 LOC .      S10 T38N R78W:   LOCATION
 CNTY.            NATRONA:   COUNTY
 STAT.            WYOMING:   STATE
 CTRY. UNITED STATES OF AMERICA:   COUNTRY
 SRVC.              Welex:   SERVICE COMPANY
 DATE.        05-JUN-1980:   LOGDATE
 API .       490251064900:   API NUMBER
~CURVE INFORMATION
#MNEM.UNIT       API CODE    CURVE DESCRIPTION
#----------   ------------   ------------------------------
 DEPT.F                  :   
 GRD .GAPI   45 310 01 00:   GAMMA RAY FROM DENSITY LOG
 CALD.IN     45 280 60 00:   CALIPER FROM DENSITY LOG
 RHOB.G/C3   45 350 01 00:   BULK DENSITY
 DPHI.DEC    45 890 12 00:   DENSITY POROSITY SANDSTONE
 ILD .OHMM   05 120 46 00:   INDUCTION LOG DEEP
 CORR.G/C3   45 356 01 00:   DENSITY CORRECTION
~PARAMETER INFORMATION
#MNEM.UNIT          VALUE    DESCRIPTION
#----------   ------------   ------------------------------
 PD  .                 GL:   PERMANENT DATUM
 EPD .F              5210:   ELEVATION PERMANENT DATUM
 LMF .                 KB:   LOG MEASURED FROM
 DAPD.F                10:   FEET ABOVE PERMANENT DATUM
 DMF .                 KB:   DRILLING MEASURED FROM
 EKB .F              5220:   KELLING BUSHING
 EGL .F              5210:   GROUND LEVEL
 DATE.        05-JUN-1980:   RUN DATE
 RUN .                  1:   RUN NUMBER
 DD  .F              2358:   DEPTH DRILLER
 DL  .F              2322:   DEPTH LOGGER
 BLI .F              2320:   BOTTOM LOG INTERVAL
 TLI .F               900:   TOP LOG INTERVAL
 CS  .IN                7:   CASING SIZE
 BS  .IN             6.25:   BIT SIZE
 BSD .F              2358:   BIT SIZE AT DEPTH
 DFT .        AIR DRILLED:   DRILLING FLUID TYPE
 MRT .F               107:   MAXIMUM RECORDED TEMPERATURE
 ENGI.               REIN:   RECORDING ENGINEER
 WITN.              AMEND:   WITNESSED BY
 CLNT.            A2DTECH:   CLIENT CODE
 ORIG.           5" PRINT:   ORIGIN OF DATA
 UWI .       490251064900:   UNIQUE WELL ID
 DICO. A2D Technologies, Inc.:   DIGITIZING COMPANY
~OTHER INFORMATION
~A    DEPT      GRD      CALD       RHOB       DPHI        ILD       CORR   
# ...
  528.0000    70.8620  -999.2500  -999.2500  -999.2500  -999.2500  -999.2500
  528.5000    71.1811  -999.2500  -999.2500  -999.2500  -999.2500  -999.2500
  529.0000    71.0500  -999.2500  -999.2500  -999.2500  -999.2500  -999.2500
  529.5000    69.5817  -999.2500  -999.2500  -999.2500  -999.2500  -999.2500
  530.0000    66.7761  -999.2500  -999.2500  -999.2500  -999.2500  -999.2500
  530.5000    71.8456  -999.2500  -999.2500  -999.2500  -999.2500  -999.2500
  531.0000    68.1261  -999.2500  -999.2500  -999.2500  -999.2500  -999.2500
  531.5000    66.9773  -999.2500  -999.2500  -999.2500  -999.2500  -999.2500
  532.0000    70.8405  -999.2500  -999.2500  -999.2500  -999.2500  -999.2500
  532.5000    72.8073  -999.2500  -999.2500  -999.2500  -999.2500  -999.2500
  533.0000    65.9942     9.5222  -999.2500  -999.2500  -999.2500  -999.2500
  533.5000    64.8230     9.5091  -999.2500  -999.2500  -999.2500  -999.2500
  534.0000    65.4349     9.6003  -999.2500  -999.2500  -999.2500  -999.2500
  534.5000    67.6813     9.6461  -999.2500  -999.2500  -999.2500  -999.2500
  535.0000    67.2531     9.5002  -999.2500  -999.2500  -999.2500  -999.2500
  535.5000    68.3108     9.2502  -999.2500  -999.2500  -999.2500  -999.2500
  536.0000    72.6420     9.0891  -999.2500  -999.2500  -999.2500  -999.2500
  536.5000    73.3978     8.9867  -999.2500  -999.2500  -999.2500  -999.2500
  537.0000    72.9696     9.1372  -999.2500  -999.2500  -999.2500  -999.2500
  537.5000    72.8380     9.3464  -999.2500  -999.2500  -999.2500  -999.2500
  538.0000    72.8561     9.7630     2.1136  -999.2500  -999.2500  -999.2500
  538.5000    72.8737    10.2389     2.1179  -999.2500  -999.2500  -999.2500
  539.0000    72.7325     9.7222     2.1951  -999.2500  -999.2500  -999.2500
  539.5000    71.9777    10.1685     2.2318  -999.2500  -999.2500  -999.2500
  540.0000    68.4731     9.9777     2.0171    -0.0446  -999.2500     0.2235
  540.5000    65.6674    10.3504     2.4872    -0.0444  -999.2500     0.2464
  541.0000    67.3194    10.5151     2.4962    -0.0445  -999.2500     0.2905
  541.5000    75.0636    10.9170     2.3982    -0.0442  -999.2500     0.2920
  542.0000    89.6428    11.1410     2.3878    -0.0442  -999.2500     0.2921
  542.5000    97.6841    11.4836     2.3861    -0.0440  -999.2500     0.2923
  543.0000    97.1073    12.0484     2.3045    -0.0440  -999.2500     0.2909
  543.5000    93.2615    12.7020     2.2593    -0.0440  -999.2500     0.2880
  544.0000    96.2509    13.0886     2.3080    -0.0437  -999.2500     0.2867
  544.5000    97.0070    12.6316     2.2332    -0.0441  -999.2500     0.2839
  545.0000    95.9213    12.5001     2.2737    -0.0447  -999.2500     0.2810
  545.5000    96.0063    12.4870     2.2416    -0.0474  -999.2500     0.2781
  546.0000    93.4979    12.9482     2.1795    -0.0516  -999.2500     0.2918
  546.5000    96.6625    12.7042     2.1122    -0.0598  -999.2500     0.3159
  547.0000    97.5448    11.7871     2.0793    -0.0676     7.0467     0.3429
  547.5000    96.7681    11.4425     2.0719    -0.0769     7.0996     0.3783
  548.0000    95.5041    13.0152     2.1042    -0.0862     7.0559     0.4415
  548.5000    93.8872    13.1355     2.2210    -0.1004     7.0625     0.5096
  549.0000    91.8245    12.4114     2.3668    -0.1163     7.0677     0.5202
  549.5000    89.3160    12.7540     2.5367    -0.1053     7.0730     0.5099
  550.0000    87.5505    12.4447     2.7728    -0.0488     7.0783     0.2405
  550.5000    91.1342    11.7502     2.5371     0.0039     7.0334     0.0431
  551.0000    96.0551    11.6039     2.4863     0.0038     7.0400     0.0387
  551.5000    97.8557    11.2501     2.4811     0.0020     7.0452     0.0404
  552.0000    99.2106    10.8668     2.4789     0.0008     7.0018     0.0510
  552.5000   101.0112    11.0316     2.4767     0.0023     6.9587     0.0556
  553.0000   101.4745    11.1384     2.4686     0.0016     6.9090     0.0543
  553.5000   101.3434    11.0500     2.4394     0.0001     6.7800     0.0529
  554.0000   103.1530    11.0370     2.3953    -0.0020     6.6443     0.0546
  554.5000   104.4993    11.0850     2.3730    -0.0105     6.5578     0.0599
  555.0000   104.5164    11.1647     2.3693    -0.0222     6.4282     0.1417
  555.5000   103.4982    11.2652     2.3993    -0.0828     6.4342     0.2960
  556.0000   103.6644    11.3707     2.4738    -0.0569     6.3504     0.3486
  556.5000   104.5734    11.4466     2.6696     0.0002     6.3113     0.2499
  557.0000   104.1452    11.5373     2.5536     0.0008     6.3160     0.0509
  557.5000   106.6888    11.6873     2.4684    -0.0016     6.3647     0.0496
  558.0000   102.8430    11.0076     2.4370    -0.0074     6.5031     0.0692
  558.5000    99.8888    10.9793     2.4438    -0.0077     6.5987     0.1008
  559.0000    99.6048    11.2483     2.4768    -0.0074     6.8838     0.1039
  559.5000   100.3697    11.3390     2.5038    -0.0077     7.2311     0.1041
  560.0000   103.9533    11.3112     2.4171    -0.0156     7.4915     0.1057
  560.5000   103.0793    11.2833     2.3468    -0.0594     7.6545     0.1299
  561.0000   101.0167    11.3001     2.3708    -0.1122     7.7186     0.2121
  561.5000   101.0342    11.3780     2.5235    -0.0957     7.7731     0.4018
  562.0000   106.2087    11.5025     2.6207     0.0317     7.7801     0.2246
  562.5000   104.2273    11.6318     2.5446     0.0428     7.8400     0.0466
  563.0000   109.5608    11.4114     2.5055     0.0436     7.9004     0.0227
  563.5000   100.3658    11.2202     2.4871     0.0364     7.9063     0.0199
  564.0000   101.7207    11.2966     2.4994     0.0352     7.9122     0.0215
  564.5000   103.0755    11.2688     2.5030     0.0418     7.9181     0.0217
  565.0000   103.3858    11.1372     2.4926     0.0426     7.9240     0.0248
  565.5000    99.9902    11.0205     2.4866     0.0278     7.9300     0.0324
  566.0000    94.6586    10.8890     2.5092     0.0315     7.9359     0.0328
  566.5000    93.7846    10.9501     2.5070     0.0335     7.8870     0.0282
  567.0000    93.3564    11.0260     2.5033     0.0335     7.8930     0.0284
  567.5000    93.0724    11.0278     2.5011     0.0335     7.8990     0.0300
  568.0000    94.2830    11.0000     2.4997     0.0359     7.8501     0.0302
  568.5000    99.3526    10.9125     2.4982     0.0361     7.8575     0.0303
  569.0000   101.1532    10.9000     2.4975     0.0364     7.8076     0.0305
  569.5000   100.8685    10.9019     2.4999     0.0349     7.7595     0.0351
  570.0000   100.0890    10.9189     2.5068     0.0177     7.6599     0.0397
  570.5000    96.8968    10.9355     2.5263     0.0123     7.6113     0.0413
  571.0000   101.9707    10.9225     2.5271     0.0153     7.6714     0.0385
  571.5000   105.2572    10.9091     2.5301     0.0236     7.7842     0.0357
  572.0000   104.9776    10.8669     2.5197     0.0341     7.7900     0.0358
  572.5000   102.9149    10.8534     2.4973     0.0395     7.7958     0.0449
  573.0000    97.2860    10.8108     2.4928     0.0437     7.6937     0.0586
  573.5000    94.3318    10.7538     2.4892     0.0472     7.5942     0.0692
  574.0000    97.1725    10.7557     2.4840     0.0481     7.6001     0.0799
  574.5000   103.5794    10.8316     2.4803     0.0478     7.6598     0.0968
  575.0000   105.0828    10.8037     2.4811     0.0322     7.7188     0.1105
  575.5000   104.3574    10.7611     2.4872     0.0159     7.7246     0.1177
  576.0000    97.9857    10.7177     2.5265     0.0357     7.7841     0.0834
  576.5000    96.3604    10.6741     2.4985     0.0333     7.8440     0.0640
  577.0000    97.7281    10.6041     2.4933     0.0263     7.9044     0.0672
  577.5000    98.6327    10.5466     2.5014     0.0275     7.9653     0.0689
  578.0000    96.8671    10.5332     2.5107     0.0293     8.0824     0.0720
  578.5000    98.6721    10.5503     2.5085     0.0311     8.1447     0.0721
  579.0000   100.3242    10.5669     2.5056     0.0278     8.2074     0.0723
  579.5000   100.4859    10.5687     2.5019     0.0142     8.1539     0.0769
