~VERSION INFORMATION
 VERS.                2.0:   CWLS LOG ASCII STANDARD - VERSION 2.0
 WRAP.                 NO:   ONE LINE PER DEPTH STEP
~WELL INFORMATION
#MNEM.UNIT      DATA TYPE    INFORMATION
#----------   ------------   ------------------------------
 STRT.F           50.0000:   START DEPTH
 STOP.F         1020.0000:   STOP DEPTH
 STEP.F            0.5000:   STEP LENGTH
 NULL.          -999.2500:   NO VALUE
 COMP. LAWRENCE/ALLISON INC:   COMPANY
 WELL.      28 STX #14-14:   WELL
 FLD .             TEAPOT:   FIELD
 LOC .      S14 T38N R78W:   LOCATION
 CNTY.            NATRONA:   COUNTY
 STAT.            WYOMING:   STATE
 CTRY. UNITED STATES OF AMERICA:   COUNTRY
 SRVC.            Unknown:   SERVICE COMPANY
 DATE.        22-OCT-1984:   LOGDATE
 API .       490251099000:   API NUMBER
~CURVE INFORMATION
#MNEM.UNIT       API CODE    CURVE DESCRIPTION
#----------   ------------   ------------------------------
 DEPT.F                  :   
 SPR .MV     07 010 01 00:   SPONTANEOUS POTENTIAL
 RILD.OHMM   07 120 46 00:   INDUCTION LOG DEEP RESISTIVITY
 RILM.OHMM   07 120 44 00:   INDUCTION LOG MEDIUM RESISTIVITY
 RFOC.OHMM   07 220 04 00:   RESISTIVITY FOCUSED LOG
 GRD .GAPI   45 310 01 00:   GAMMA RAY FROM DENSITY LOG
 CALD.IN     45 280 60 00:   CALIPER
 DEN .G/C3   45 350 01 00:   COMPENSATED BULK DENSTIY
 CORR.G/C3   45 356 01 00:   DENSITY CORRECTION
 PORD.DEC    45 890 12 00:   POROSITY DENSITY SANDSTONE
 CNC .DEC    42 890 03 00:   NEUTRON POROSITY SANDSTONE
 AC  .US/F   60 520 00 00:   ACOUSTIC SONIC
~PARAMETER INFORMATION
#MNEM.UNIT          VALUE    DESCRIPTION
#----------   ------------   ------------------------------
 PD  .                 GL:   PERMANENT DATUM
 EPD .F              5257:   ELEVATION PERMANENT DATUM
 LMF .                 KB:   LOG MEASURED FROM
 DAPD.F                12:   FEET ABOVE PERMANENT DATUM
 DMF .                 KB:   DRILLING MEASURED FROM
 EKB .F              5269:   KELLING BUSHING
 EGL .F              5257:   GROUND LEVEL
 DATE.           10-22-84:   RUN DATE
 RUN .                  1:   RUN NUMBER
 DD  .F              1020:   DEPTH DRILLER
 DL  .F              1019:   DEPTH LOGGER
 BLI .F              1017:   BOTTOM LOG INTERVAL
 TLI .F                52:   TOP LOG INTERVAL
 CS  .IN               16:   CASING SIZE
 CBD .F                40:   CASING BOTTOM DRILLER
 CBL .F                52:   CASING BOTTOM LOGGER
 BS  .IN            12.25:   BIT SIZE
 BSD .F              1020:   BIT SIZE AT DEPTH
 DFT .          GEL/WATER:   DRILLING FLUID TYPE
 DFD .                9.1:   DRILLING FLUID DENSITY
 DFV .                 35:   DRILLING FLUID VISCOSITY
 MSS .           FLOWLINE:   MUD SAMPLE SOURCE
 RMS .OHMM           2.04:   RESISTIVITY MUD SAMPLE
 MST .F                76:   MUD SAMPLE TEMPERATURE
 RMF .OHMM           1.53:   RESISTIVITY MUD FILTRATE SAMPLE
 MFST.F                76:   MUD FILTRATE SAMPLE TEMPERATURE
 RMC .OHMM           2.55:   RESISTIVITY MUD CAKE
 MCST.F                76:   MUD CAKE SAMPLE TEMPERATURE
 MFSS.               CALC:   MUD FILTRATE SAMPLE SOURCE
 MCSS.               CALC:   MUD CAKE SAMPLE SOURCE
 TCS .HRS               3:   TIME CURCULATED STOPPED
 MRT .F               100:   MAXIMUM RECORDED TEMPERATURE
 LUN .            HL 6307:   LOGGING UNIT NUMBER
 LUL .           GILLETTE:   LOGGING UNIT LOCATION
 ENGI.          CROSSBERG:   RECORDING ENGINEER
 WITN.            JOHNSON:   WITNESSED BY
 CLNT.            A2DTECH:   CLIENT CODE
 ORIG.       2", 5" PRINT:   ORIGIN OF DATA
 UWI .       490251099000:   UNIQUE WELL ID
 DICO. A2D Technologies, Inc.:   DIGITIZING COMPANY
~OTHER INFORMATION
~A   DEPT      SPR       RILD       RILM       RFOC        GRD        CALD       DEN       CORR       PORD          CNC       AC   
# ...
  934.5000   -52.7486    12.5863     9.9045     9.2863   101.5867     9.7433     2.4907     0.0075     0.1144     0.2586    88.6901
  935.0000   -50.8203    12.7713     9.7525     9.1193   103.5899    10.0335     2.4877     0.0061     0.1161     0.2606    87.0684
  935.5000   -48.8752    12.9590     9.5518     8.8996   104.9102    10.5240     2.4841     0.0036     0.1181     0.2529    85.4466
  936.0000   -46.8940    13.1642     9.3578     8.6878   102.4587    11.2089     2.4804     0.0010     0.1195     0.2429    84.9913
  936.5000   -46.7258    13.0538     9.1141     8.5461    95.1019    11.8961     2.4799    -0.0016     0.1205     0.2389    85.4279
  937.0000   -46.6574    12.9353     9.2535     8.9280    87.8461    12.0824     2.4785    -0.0041     0.1212     0.2416    86.0704
  937.5000   -46.5797    12.8179     9.4525     9.1982    82.0172    12.0807     2.4743    -0.0068     0.1260     0.2441    86.2575
  938.0000   -46.5016    12.8061     9.6558     8.9923    82.9477    12.0785     2.4688    -0.0063     0.1284     0.2512    86.3698
  938.5000   -46.3993    12.8327     9.7198     8.7873    84.9048    12.0770     2.4656    -0.0047     0.1292     0.2590    86.7440
  939.0000   -45.8250    12.8571     9.6724     9.0449    86.2475    12.0757     2.4646    -0.0030     0.1292     0.2592    87.1183
  939.5000   -45.2625    12.8816     9.6357     9.3689    85.9507    12.0743     2.4632    -0.0011     0.1274     0.2582    87.4676
  940.0000   -44.7089    12.9061     9.5992     9.3125    86.9064    12.0730     2.4676     0.0029     0.1252     0.2604    87.3553
  940.5000   -44.9256    12.9244     9.5628     9.1920    87.9361    12.0717     2.4726     0.0064     0.1232     0.2634    84.3533
  941.0000   -45.2677    12.7193     9.5072     9.0730    88.1604    12.0704     2.4704     0.0010     0.1273     0.2580    81.1199
  941.5000   -45.6122    12.5275     9.4282     8.9556    86.8954    12.0690     2.4622    -0.0051     0.1300     0.2518    78.7590
  942.0000   -45.9557    12.3385     9.3499     8.8604    85.6221    12.0677     2.4624    -0.0077     0.1271     0.2498    81.2598
  942.5000   -46.2987    12.1189     9.2723     8.8352    84.9052    12.0664     2.4707    -0.0008     0.1237     0.2585    84.0235
  943.0000   -46.6418    12.1756     9.1952     8.8100    85.6326    12.0651     2.4761     0.0039     0.1215     0.2649    86.0579
  943.5000   -46.9850    12.2452     9.1189     8.7850    86.3416    12.0638     2.4752     0.0068     0.1236     0.2711    77.1507
  944.0000   -47.3276    12.3438     9.0431     8.7599    87.0233    12.0626     2.4714     0.0098     0.1292     0.2760    64.4261
  944.5000   -47.6723    12.2400     8.9680     8.7344    85.8292    12.0536     2.4631     0.0044     0.1344     0.2824    51.7016
  945.0000   -47.8026    12.0668     8.8935     8.7086    84.4090    12.0246     2.4532    -0.0037     0.1396     0.2888    40.2188
  945.5000   -47.7489    11.8961     8.8197     8.5699    83.1354    11.6261     2.4450    -0.0008     0.1408     0.2952    40.2154
  946.0000   -47.6932    11.7279     8.7464     8.3448    85.4500     9.9115     2.4467     0.0058     0.1353     0.3010    40.2180
  946.5000   -47.6374    11.5619     8.6738     8.1537    90.8168     6.6807     2.4516     0.0125     0.1336     0.3030    40.2994
  947.0000   -47.4218    11.3984     8.6018     8.1133    98.0901     6.3302     2.4562     0.0185     0.1336     0.2972    49.7680
  947.5000   -47.0813    11.2257     8.5303     8.0735   102.7490     6.3146     2.4574     0.0132     0.1322     0.2946    64.5317
  948.0000   -46.7392    10.9874     8.4595     8.0327   103.3083     6.4642     2.4605     0.0058     0.1280     0.2969    58.7279
  948.5000   -46.3908    10.7542     8.3892     7.9921   101.9886     7.4966     2.4689    -0.0003     0.1234     0.2943    49.0550
  949.0000   -46.0322    10.5259     8.3137     7.9517    98.5135     9.6119     2.4773    -0.0027     0.1188     0.2798    40.3482
  949.5000   -46.0549    10.3777     8.2358     7.9115    95.3971    11.7341     2.4856    -0.0052     0.1144     0.2462    40.3376
  950.0000   -46.2179    10.2615     8.1278     7.8676    97.7505    12.1849     2.4860    -0.0077     0.1167     0.2579    40.3270
  950.5000   -46.8210    10.1466     8.0213     7.8165    99.4978    12.2178     2.4788    -0.0103     0.1200     0.2698    40.3164
  951.0000   -47.4864    10.0330     7.9161     7.6918    98.1935    12.1932     2.4761    -0.0112     0.1222     0.2767    40.3058
  951.5000   -48.1521     9.9206     7.8124     7.5480    95.9875    12.1709     2.4758     0.0054     0.1216     0.2775    40.2952
  952.0000   -48.8177     9.8095     7.7100     7.4068    93.7554    12.1626     2.4817     0.0261     0.1181     0.2607    40.2845
  952.5000   -49.4826     9.6997     7.6089     7.2682    91.5119    12.1677     2.4907     0.0437     0.1133     0.2554    40.2718
  953.0000   -50.1528     9.5910     7.5092     7.1325    90.7241    12.1729     2.4944     0.0333     0.1120     0.2658    40.2633
  953.5000   -50.8321     9.5166     7.4513     7.0459    92.0138    12.1782     2.4890     0.0231     0.1161     0.2682    40.2527
  954.0000   -51.2050     9.4695     7.5236     7.1193    93.5304    12.1835     2.4793     0.0142     0.1201     0.2654    41.5085
  954.5000   -51.0553     9.4226     7.5819     7.2525    95.1142    12.1888     2.4754     0.0144     0.1216     0.2588    54.0987
  955.0000   -50.7328     9.3760     7.6407     7.3881    96.7105    12.1940     2.4764     0.0144     0.1214     0.2523    66.6889
  955.5000   -50.5251     9.3295     7.6999     7.5252    96.4040    12.1994     2.4769     0.0145     0.1206     0.2519    74.7068
  956.0000   -50.1627     9.2834     7.7596     7.5860    94.7602    12.2029     2.4800     0.0156     0.1189     0.2561    78.1523
  956.5000   -49.3745     9.2374     7.7956     7.4292    93.3153    12.2061     2.4839     0.0225     0.1172     0.2643    81.5978
  957.0000   -48.6162     9.1917     7.6361     7.3269    92.7515    12.2093     2.4806     0.0204     0.1210     0.2725    85.0433
  957.5000   -47.8589     9.1462     7.5060     7.2248    92.1733    12.2124     2.4712     0.0144     0.1263     0.2807    87.9559
  958.0000   -47.1031     9.1009     7.3781     7.1240    91.5929    12.2156     2.4662     0.0142     0.1265     0.2889    89.6088
  958.5000   -46.5732     9.0557     7.2524     7.0247    91.0134    12.2188     2.4720     0.0257     0.1243     0.2971    91.2645
  959.0000   -46.4690     8.9087     7.1288     6.9268    90.4381    12.2219     2.4762     0.0305     0.1231     0.3014    92.9152
  959.5000   -46.3576     8.6377     7.0074     6.8542    89.8357    12.2251     2.4724     0.0232     0.1247     0.3050    93.9421
  960.0000   -46.2463     8.3750     6.8880     6.8409    88.5335    12.2283     2.4678     0.0139     0.1283     0.3123    93.6926
  960.5000   -46.1340     8.1203     6.7706     6.8282    87.1961    12.2315     2.4630     0.0047     0.1305     0.3004    93.1921
  961.0000   -46.0308     8.0604     6.6553     6.8156    89.6302    12.2347     2.4603     0.0102     0.1315     0.2840    93.2414
  961.5000   -46.1933     8.0294     6.5420     6.8030    92.5601    12.2378     2.4604     0.0176     0.1285     0.2851    93.8964
  962.0000   -46.3683     7.9984     6.4310     6.7904    92.8379    12.2396     2.4684     0.0251     0.1250     0.2923    94.6226
  962.5000   -46.5420     7.9676     6.3109     6.7778    90.3069    12.2375     2.4759     0.0320     0.1224     0.2983    94.7239
  963.0000   -46.7152     7.9101     6.2020     6.7653    87.8523    12.2356     2.4760     0.0246     0.1229     0.3024    94.9318
  963.5000   -46.9838     7.6348     6.0842     6.7527    85.3106    12.2336     2.4735     0.0166     0.1235     0.3063    95.5140
  964.0000   -47.3996     7.3691     5.9687     6.7402    84.7192    12.2316     2.4765     0.0073     0.1213     0.3103    96.0651
  964.5000   -47.8129     7.1126     5.8554     6.7090    86.0601    12.2296     2.4774     0.0081     0.1204     0.3142    96.3373
