~VERSION INFORMATION
 VERS.                2.0:   CWLS LOG ASCII STANDARD - VERSION 2.0
 WRAP.                 NO:   ONE LINE PER DEPTH STEP
~WELL INFORMATION
#MNEM.UNIT      DATA TYPE    INFORMATION
#----------   ------------   ------------------------------
 STRT.F           80.0000:   START DEPTH
 STOP.F          480.0000:   STOP DEPTH
 STEP.F            0.5000:   STEP LENGTH
 NULL.          -999.2500:   NO VALUE
 COMP. BROWN JOHN E&C INC:   COMPANY
 WELL.         SX 57 #2-3:   WELL
 FLD .        TEAPOT DOME:   FIELD
 LOC .       S3 T38N R78W:   LOCATION
 CNTY.            NATRONA:   COUNTY
 STAT.            WYOMING:   STATE
 CTRY. UNITED STATES OF AMERICA:   COUNTRY
 SRVC.       Schlumberger:   SERVICE COMPANY
 DATE.        05-OCT-1990:   LOGDATE
 API .       490251132700:   API NUMBER
~CURVE INFORMATION
#MNEM.UNIT       API CODE    CURVE DESCRIPTION
#----------   ------------   ------------------------------
 DEPT.F                  :   
 GRR .GAPI   07 310 01 00:   GAMMA RAY FROM RES. LOG.
 SFLU.OHMM   07 220 01 00:   SPHERICALLY FOCUSED LOG UNAVERAGED RESISTIVITY
 ILD .OHMM   07 120 46 00:   INDUCTION LOG DEEP
 ILM .OHMM   07 120 44 00:   INDUCTION LOG MEDIUM
 CNC .DEC    42 890 01 00:   NEUTRON POROSITY LIMESTONE
~PARAMETER INFORMATION
#MNEM.UNIT          VALUE    DESCRIPTION
#----------   ------------   ------------------------------
 PD  .                 GL:   PERMANENT DATUM
 EPD .F              5148:   ELEVATION PERMANENT DATUM
 LMF .                 KB:   LOG MEASURED FROM
 DAPD.F                10:   FEET ABOVE PERMANENT DATUM
 DMF .                 KB:   DRILLING MEASURED FROM
 EKB .F              5158:   KELLING BUSHING
 EDF .F              5157:   DRILLING FLOOR
 EGL .F              5148:   GROUND LEVEL
 DATE.            10-5-90:   RUN DATE
 RUN .                  1:   RUN NUMBER
 DD  .F               485:   DEPTH DRILLER
 DL  .F               484:   DEPTH LOGGER
 BLI .F               481:   BOTTOM LOG INTERVAL
 TLI .F                48:   TOP LOG INTERVAL
 CS  .IN            8.625:   CASING SIZE
 CBD .F                53:   CASING BOTTOM DRILLER
 CBL .F                53:   CASING BOTTOM LOGGER
 BS  .IN            7.875:   BIT SIZE
 BSD .F               485:   BIT SIZE AT DEPTH
 DFT .           WTD DISP:   DRILLING FLUID TYPE
 DFD .               14.3:   DRILLING FLUID DENSITY
 DFV .                 67:   DRILLING FLUID VISCOSITY
 DFPH.                9.5:   DRILLING FLUID PH
 DFL .               12.8:   DRILLING FLUID LOSS
 MSS .           FLOWLINE:   MUD SAMPLE SOURCE
 RMS .OHMM            9.3:   RESISTIVITY MUD SAMPLE
 MST .F                74:   MUD SAMPLE TEMPERATURE
 RMF .OHMM            6.9:   RESISTIVITY MUD FILTRATE SAMPLE
 MFST.F                74:   MUD FILTRATE SAMPLE TEMPERATURE
 RMC .OHMM           13.9:   RESISTIVITY MUD CAKE
 MCST.F                74:   MUD CAKE SAMPLE TEMPERATURE
 MFSS.               CALC:   MUD FILTRATE SAMPLE SOURCE
 MCSS.               CALC:   MUD CAKE SAMPLE SOURCE
 RMB .OHMM          6.438:   RESISTIVITY MUD AT BHT
 BHT .F               110:   BOTTOM HOLE TEMPERATURE
 TCS .HRS            1600:   TIME CURCULATED STOPPED
 MRT .F               110:   MAXIMUM RECORDED TEMPERATURE
 LUN .               5887:   LOGGING UNIT NUMBER
 LUL .               CODY:   LOGGING UNIT LOCATION
 ENGI.        MIKE FISHER:   RECORDING ENGINEER
 WITN.        GARY STRONG:   WITNESSED BY
 CLNT.            A2DTECH:   CLIENT CODE
 ORIG.        2" 5" PRINT:   ORIGIN OF DATA
 UWI .       490251132700:   UNIQUE WELL ID
 DICO. A2D Technologies, Inc.:   DIGITIZING COMPANY
~OTHER INFORMATION
~A   DEPT       GRR        SFLU      ILD        ILM        CNC   
# ...
  202.0000    90.8641     0.8706     0.8348     0.7495     0.3208
  202.5000    89.1828     0.9324     0.8073     0.7345     0.3157
  203.0000    86.2122     0.9720     0.7995     0.7345     0.3105
  203.5000    84.1618     1.0026     0.8095     0.7740     0.3053
  204.0000    83.9046     1.0616     0.8192     0.8139     0.3006
  204.5000    85.5418     1.1643     0.8975     0.8558     0.2950
  205.0000    87.3018     1.1833     0.9759     0.9026     0.2917
  205.5000    89.1907     1.2203     1.0612     0.9649     0.2871
  206.0000    91.4444     1.3227     1.1473     1.0359     0.2786
  206.5000    92.9467     1.5028     1.2089     1.1120     0.2743
  207.0000    92.0867     1.5991     1.2737     1.1937     0.2759
  207.5000    89.9641     1.7015     1.3421     1.2815     0.2775
  208.0000    87.7546     1.7891     1.3981     1.3454     0.2774
  208.5000    85.5459     1.8454     1.4381     1.3779     0.2756
  209.0000    85.2029     1.8454     1.4658     1.4138     0.2806
  209.5000    86.0750     1.8454     1.4553     1.3902     0.2866
  210.0000    87.3349     1.8309     1.4475     1.3589     0.2932
  210.5000    88.9903     1.7923     1.4397     1.3283     0.2977
  211.0000    89.1081     1.7544     1.4320     1.2986     0.2989
  211.5000    87.8384     1.7173     1.4029     1.2694     0.3006
  212.0000    85.9678     1.6810     1.3703     1.2410     0.3014
  212.5000    85.6622     1.6458     1.3384     1.2132     0.3014
  213.0000    86.8207     1.6147     1.3073     1.1860     0.2985
  213.5000    88.0296     1.6148     1.2769     1.1594     0.2962
  214.0000    87.6509     1.6155     1.2407     1.1334     0.2966
  214.5000    86.0478     1.6158     1.1743     1.0998     0.2976
  215.0000    86.3460     1.5313     1.0956     1.0432     0.3006
  215.5000    88.7433     1.4339     1.0028     0.9883     0.3079
  216.0000    90.8458     1.3453     0.9177     0.9025     0.3145
  216.5000    91.7216     1.1434     0.8864     0.8060     0.3211
  217.0000    91.7118     0.9809     0.8704     0.6830     0.3244
  217.5000    91.7031     0.8414     0.8730     0.7113     0.3139
  218.0000    91.2137     0.8093     0.8779     0.7682     0.3028
  218.5000    88.6190     0.9242     0.8967     0.8299     0.2804
  219.0000    86.0363     1.1179     0.9394     0.8965     0.2775
  219.5000    84.9797     1.3523     0.9825     0.9683     0.2779
  220.0000    85.9909     1.5764     1.0781     1.0460     0.2782
  220.5000    89.2154     1.5576     1.1502     1.1227     0.2797
  221.0000    92.6637     1.5402     1.2258     1.1610     0.2822
  221.5000    92.6758     1.5229     1.3000     1.1976     0.2847
  222.0000    91.8861     1.5058     1.3787     1.2353     0.2865
  222.5000    90.4005     1.5017     1.4331     1.2639     0.2797
  223.0000    90.1546     1.6204     1.4396     1.2852     0.2734
  223.5000    89.0006     1.7142     1.4462     1.3067     0.2699
  224.0000    87.6620     1.7604     1.4527     1.3287     0.2701
  224.5000    87.6571     1.8079     1.4593     1.3510     0.2729
  225.0000    88.6592     1.8232     1.4660     1.3737     0.2744
  225.5000    88.5191     1.8232     1.4727     1.3967     0.2739
  226.0000    86.0580     1.8232     1.4795     1.4307     0.2736
  226.5000    84.8000     1.8232     1.4836     1.4148     0.2792
  227.0000    86.0132     1.8091     1.4515     1.3869     0.2828
  227.5000    87.3260     1.7852     1.4283     1.3595     0.2829
  228.0000    87.6076     1.7616     1.4055     1.3326     0.2807
  228.5000    87.5398     1.7435     1.3831     1.3062     0.2783
  229.0000    87.3661     1.7265     1.3630     1.2828     0.2776
  229.5000    87.4403     1.7097     1.3656     1.2863     0.2804
  230.0000    88.7434     1.6953     1.3680     1.2895     0.2831
  230.5000    91.5574     1.7194     1.3705     1.2926     0.2869
  231.0000    94.3426     1.7408     1.3729     1.2959     0.2935
  231.5000    94.9610     1.7581     1.3753     1.3039     0.2984
  232.0000    92.1734     1.7623     1.3777     1.3313     0.2984
  232.5000    87.3091     1.7665     1.3794     1.3630     0.2965
  233.0000    85.6804     1.7708     1.3427     1.3151     0.2930
  233.5000    85.9428     1.7750     1.3141     1.2618     0.2918
  234.0000    87.8255     1.7795     1.2860     1.2094     0.2910
  234.5000    92.1368     1.6622     1.2585     1.1580     0.2858
  235.0000    94.3402     1.5451     1.2522     1.1087     0.2819
  235.5000    96.3542     1.4353     1.2521     1.0616     0.2772
  236.0000    97.5484     1.3774     1.2523     1.0439     0.2666
  236.5000    96.3401     1.5057     1.2370     1.0815     0.2690
  237.0000    94.4185     1.7276     1.2135     1.1133     0.2667
  237.5000    92.5823     2.0088     1.1928     1.1364     0.2690
  238.0000    93.0802     2.0581     1.1197     1.0777     0.3193
  238.5000    93.9313     1.9815     1.0570     0.9942     0.3176
  239.0000    94.9050     1.7800     1.0189     0.8613     0.3377
  239.5000    95.8716     1.3359     1.0550     0.7461     0.3388
  240.0000    96.5751     1.0025     1.0823     0.6666     0.3268
  240.5000    94.8322     0.7617     1.1091     0.7062     0.3010
  241.0000    91.4821     0.7617     1.0796     0.7473     0.2845
  241.5000    88.5228     0.9557     1.0521     0.7908     0.2816
  242.0000    87.6498     1.1824     1.0251     0.8369     0.2803
  242.5000    88.8207     1.3842     0.9986     0.8856     0.2810
  243.0000    88.8714     1.4307     0.9826     0.9375     0.2818
  243.5000    88.6857     1.3967     1.0630     0.9758     0.2824
  244.0000    87.7751     1.3634     1.1268     0.9902     0.2811
  244.5000    86.8922     1.3972     1.1784     1.0067     0.2792
  245.0000    86.0074     1.4811     1.1784     1.0018     0.2773
  245.5000    84.7346     1.5691     1.1187     0.9942     0.2760
  246.0000    83.3418     1.6177     1.0020     0.9862     0.2801
  246.5000    84.5740     1.6347     0.8976     0.8984     0.2900
  247.0000    87.3923     1.4632     0.8040     0.7561     0.3042
  247.5000    90.1777     1.1557     0.7201     0.6360     0.3108
  248.0000    91.0106     0.8172     0.6451     0.5352     0.3117
  248.5000    89.4996     0.5834     0.6050     0.5362     0.2950
  249.0000    88.8357     0.5764     0.6087     0.5479     0.2896
  249.5000    88.9074     0.7024     0.6199     0.5627     0.2848
  250.0000    89.8767     0.8852     0.6050     0.5778     0.2804
  250.5000    90.8463     0.9697     0.6351     0.5934     0.2728
  251.0000    90.6336     1.0068     0.6907     0.6436     0.2659
  251.5000    89.5966     1.0736     0.7566     0.7128     0.2608
  252.0000    86.6365     1.1502     0.8287     0.7893     0.2597
  252.5000    84.0364     1.1364     0.8948     0.8741     0.2586
  253.0000    82.7999     1.1629     0.9136     0.8917     0.2575
  253.5000    82.4704     1.2080     0.9102     0.8917     0.2592
  254.0000    82.6998     1.2521     0.9060     0.8917     0.2630
  254.5000    84.0013     1.2673     0.9019     0.8917     0.2639
  255.0000    85.3965     1.2610     0.8977     0.8917     0.2604
  255.5000    86.7901     1.2566     0.8936     0.8918     0.2569
  256.0000    86.4174     1.2523     0.8829     0.8837     0.2564
  256.5000    84.0539     1.2189     0.8571     0.8602     0.2560
  257.0000    81.5534     1.1757     0.8320     0.8372     0.2526
  257.5000    79.1325     1.1377     0.8076     0.8142     0.2470
  258.0000    78.0038     1.1060     0.7840     0.7894     0.2545
  258.5000    79.1801     1.0765     0.7610     0.7654     0.2470
  259.0000    79.8876     1.0512     0.7387     0.7421     0.2578
  259.5000    80.2712     1.0265     0.7171     0.7195     0.2511
  260.0000    80.6115     0.9815     0.6961     0.6976     0.2569
  260.5000    81.4198     0.9093     0.6758     0.6765     0.2607
  261.0000    82.6019     0.8425     0.6578     0.6578     0.2461
  261.5000    83.7846     0.7898     0.6540     0.6540     0.2397
  262.0000    84.9629     0.8076     0.6507     0.6507     0.2305
  262.5000    85.5448     0.8307     0.6748     0.6747     0.2247
