~VERSION INFORMATION
 VERS.                2.0:   CWLS LOG ASCII STANDARD - VERSION 2.0
 WRAP.                 NO:   ONE LINE PER DEPTH STEP
~WELL INFORMATION
#MNEM.UNIT      DATA TYPE    INFORMATION
#----------   ------------   ------------------------------
 STRT.F           88.0000:   START DEPTH
 STOP.F          919.0000:   STOP DEPTH
 STEP.F            0.5000:   STEP LENGTH
 NULL.          -999.2500:   NO VALUE
 COMP. U S NAVY-INTEX OIL:   COMPANY
 WELL. RES 3 TEAPOT DOM #51S-11:   WELL
 FLD .             TEAPOT:   FIELD
 LOC .      S11 T38N R78W:   LOCATION
 CNTY.            NATRONA:   COUNTY
 STAT.            WYOMING:   STATE
 CTRY. UNITED STATES OF AMERICA:   COUNTRY
 SRVC.      NL McCullough:   SERVICE COMPANY
 DATE.        08-AUG-1961:   LOGDATE
 API .       490250638400:   API NUMBER
~CURVE INFORMATION
#MNEM.UNIT       API CODE    CURVE DESCRIPTION
#----------   ------------   ------------------------------
 DEPT.F                  :   
 NEUT.CPS    35 330 30 00:   NEUTRON
 GRN .MG/TON 35 310 01 00:   GAMMA RAY
~PARAMETER INFORMATION
#MNEM.UNIT          VALUE    DESCRIPTION
#----------   ------------   ------------------------------
 PD  .                 GL:   PERMANENT DATUM
 EPD .F              5176:   ELEVATION PERMANENT DATUM
 LMF .                 KB:   LOG MEASURED FROM
 DAPD.F                 6:   FEET ABOVE PERMANENT DATUM
 DMF .                 KB:   DRILLING MEASURED FROM
 EKB .F              5182:   KELLING BUSHING
 EGL .F              5176:   GROUND LEVEL
 DATE.           8-8-1961:   RUN DATE
 RUN .                  1:   RUN NUMBER
 DD  .F               920:   DEPTH DRILLER
 DL  .F             920.5:   DEPTH LOGGER
 BLI .F               919:   BOTTOM LOG INTERVAL
 TLI .F                90:   TOP LOG INTERVAL
 BSD .F               920:   BIT SIZE AT DEPTH
 DFT .       OIL EMULSION:   DRILLING FLUID TYPE
 DFD .                  9:   DRILLING FLUID DENSITY
 TCS .HRS               2:   TIME CURCULATED STOPPED
 ENGI.            JACKSON:   RECORDING ENGINEER
 WITN.          JORGENSEN:   WITNESSED BY
 CLNT.            A2DTECH:   CLIENT CODE
 ORIG.      2" & 5" PRINT:   ORIGIN OF DATA
 UWI .       490250638400:   UNIQUE WELL ID
 DICO. A2D Technologies, Inc.:   DIGITIZING COMPANY
~OTHER INFORMATION
~A   DEPT     NEUT          GRN 
# ...
  695.5000   392.0809     7.5620
  696.0000   363.2981     7.9197
  696.5000   369.4279     7.6678
  697.0000   380.5475     7.7131
  697.5000   386.5342     7.7355
  698.0000   412.9290     7.6969
  698.5000   410.6013     7.7879
  699.0000   384.0861     7.8256
  699.5000   388.5611     7.5432
  700.0000   394.5628     7.5351
  700.5000   393.7614     7.8707
  701.0000   338.5463     8.0986
  701.5000   319.6124     7.8690
  702.0000   315.7957     7.8463
  702.5000   315.7582     7.5086
  703.0000   301.3595     7.1433
  703.5000   270.3319     7.2062
  704.0000   286.9233     7.2049
  704.5000   335.2607     7.2884
  705.0000   362.5622     7.2805
  705.5000   367.6877     7.2573
  706.0000   383.6027     7.4911
  706.5000   400.8706     7.6772
  707.0000   423.6431     7.7228
  707.5000   442.3679     7.7439
  708.0000   393.9462     7.4942
  708.5000   426.4106     7.1852
  709.0000   421.8474     7.2092
  709.5000   450.5231     7.2244
  710.0000   427.8100     7.0640
  710.5000   440.6221     7.4860
  711.0000   456.4577     7.4750
  711.5000   464.7440     7.7972
  712.0000   453.3687     7.8174
  712.5000   455.5988     8.1575
  713.0000   438.1673     7.8617
  713.5000   413.9424     7.4971
  714.0000   395.7643     7.2060
  714.5000   402.5296     7.0615
  715.0000   417.6093     6.8857
  715.5000   425.1304     7.2131
  716.0000   405.4407     7.2051
  716.5000   357.7842     7.0448
  717.0000   341.8737     7.4942
  717.5000   326.7191     7.6311
  718.0000   304.7618     7.2268
  718.5000   264.6639     7.3865
  719.0000   301.1774     7.1881
  719.5000   330.3253     7.2030
  720.0000   351.0200     7.2561
  720.5000   360.0082     7.1719
  721.0000   383.8928     7.0421
  721.5000   372.5175     7.0723
  722.0000   351.3160     7.1328
  722.5000   355.0578     7.1859
  723.0000   356.5415     6.9722
  723.5000   368.5884     7.1243
  724.0000   377.6212     7.2003
  724.5000   386.6541     7.1085
  725.0000   404.7572     7.4512
  725.5000   392.6261     7.5577
  726.0000   406.9499     7.3744
  726.5000   389.5277     7.6865
  727.0000   381.1758     7.7397
  727.5000   378.1243     7.6250
  728.0000   394.7064     7.8914
  728.5000   371.2373     7.5405
  729.0000   380.2702     7.4106
  729.5000   402.9084     7.4561
  730.0000   395.1124     7.9359
  730.5000   391.8857     7.9814
  731.0000   416.4016     7.9963
  731.5000   401.2469     7.9427
  732.0000   398.9419     8.3920
  732.5000   410.2423     8.5289
  733.0000   398.1111     8.3991
  733.5000   421.5053     7.9491
  734.0000   403.5991     7.8802
  734.5000   392.6985     8.2304
  735.0000   387.3700     8.0549
  735.5000   341.9811     8.2604
  736.0000   297.3480     8.1838
  736.5000   305.6250     7.9853
  737.0000   298.0290     7.9470
  737.5000   337.2961     8.1296
  738.0000   362.2020     7.8396
  738.5000   372.7559     7.2753
  739.0000   376.4884     7.2497
  739.5000   362.0897     7.3890
  740.0000   344.6674     7.4802
  740.5000   295.5086     7.7390
  741.0000   318.1375     7.6015
  741.5000   309.7950     7.6393
  742.0000   386.8457     7.7514
  742.5000   421.5777     7.8598
  743.0000   391.3060     7.7298
  743.5000   400.3388     7.7524
  744.0000   426.7563     7.7292
  744.5000   441.0802     7.1192
  745.0000   424.4139     6.9969
  745.5000   434.9793     7.1796
  746.0000   448.5265     7.1487
  746.5000   411.7432     7.1561
  747.0000   369.0865     7.3311
  747.5000   377.3635     7.2076
  748.0000   330.1431     7.8182
  748.5000   309.2520     8.0467
  749.0000   316.7731     7.6805
  749.5000   381.7394     7.4973
  750.0000   424.0301     7.3867
  750.5000   452.7152     7.2289
  751.0000   464.7808     7.2736
  751.5000   432.2415     7.4883
  752.0000   460.1708     7.3891
  752.5000   458.6216     7.4193
  753.0000   463.8752     7.2740
  753.5000   454.0022     7.2052
  754.0000   474.3823     7.4030
  754.5000   472.0773     7.4484
  755.0000   487.1570     7.2957
  755.5000   468.2137     7.4631
  756.0000   425.8482     7.6762
  756.5000   435.6369     7.4930
  757.0000   458.2752     7.0430
  757.5000   452.9468     7.0198
  758.0000   461.2237     7.3863
  758.5000   467.2332     7.1986
  759.0000   473.2426     6.9274
  759.5000   511.1794     6.9423
  760.0000   510.2615     6.8277
  760.5000   514.3367     7.0408
  761.0000   526.0028     7.1321
  761.5000   516.8951     6.9258
  762.0000   535.7541     7.0627
  762.5000   562.1654     6.7881
  763.0000   578.0103     6.9555
  763.5000   517.5042     6.7723
  764.0000   505.3637     7.0539
  764.5000   450.9045     7.3509
  765.0000   445.5760     7.6936
  765.5000   374.4880     7.4951
  766.0000   335.9017     7.2433
  766.5000   327.5499     7.0017
  767.0000   428.7911     6.1832
  767.5000   465.8361     6.0821
  768.0000   570.8300     6.5103
  768.5000   573.8066     6.6171
  769.0000   575.2902     6.7161
  769.5000   520.8217     6.8226
  770.0000   547.2392     6.9131
  770.5000   544.1783     6.6918
  771.0000   512.3948     6.6457
  771.5000   496.4844     6.2186
  772.0000   487.3766     6.1497
  772.5000   509.2591     5.6539
  773.0000   515.2685     5.4250
  773.5000   500.1139     5.4627
  774.0000   534.9852     5.4243
  774.5000   551.2701     5.0048
  775.0000   590.4550     4.2958
  775.5000   619.9271     3.5180
  776.0000   664.6943     2.8546
  776.5000   689.6002     2.8467
  777.0000   675.2014     3.3719
  777.5000   639.6387     3.3487
  778.0000   630.5309     3.2420
  778.5000   615.3763     3.1274
  779.0000   622.1416     3.4091
  779.5000   631.1838     3.4165
  780.0000   594.8558     3.6219
  780.5000   584.9922     3.5302
  781.0000   584.9547     3.5909
  781.5000   572.0677     3.6210
  782.0000   572.7861     4.0475
  782.5000   530.4207     3.9787
  783.0000   550.0355     3.9326
  783.5000   587.0351     3.6656
  784.0000   624.9843     3.6177
  784.5000   616.4686     3.9624
  785.0000   639.0769     3.8628
  785.5000   617.8754     4.0809
  786.0000   608.7677     4.1594
  786.5000   605.7067     4.0219
  787.0000   602.6460     3.8844
  787.5000   672.1412     3.7393
  788.0000   694.7795     3.8382
  788.5000   705.3334     3.8302
  789.0000   665.2261     3.7461
  789.5000   626.6399     4.0430
  790.0000   635.6727     3.9207
  790.5000   623.5416     3.9815
  791.0000   601.5843     3.9887
  791.5000   615.1616     4.1180
  792.0000   602.2746     4.2015
  792.5000   588.6223     4.1323
  793.0000   610.5047     3.9908
  793.5000   624.0728     3.9262
  794.0000   651.3276     4.2536
  794.5000   628.5330     4.2152
  795.0000   602.7963     4.1615
  795.5000   603.5590     3.9707
  796.0000   620.8621     3.9780
  796.5000   607.9750     3.8252
  797.0000   594.3322     3.7183
  797.5000   638.8903     4.0609
  798.0000   632.0502     4.3732
  798.5000   659.2142     4.4414
  799.0000   650.1384     4.7232
  799.5000   639.5040     4.9134
  800.0000   659.8596     4.8212
  800.5000   670.4022     4.2182
  801.0000   634.8112     4.1421
  801.5000   636.2704     4.0037
  802.0000   647.5558     4.0195
  802.5000   649.0174     3.8971
  803.0000   663.3238     4.0186
  803.5000   676.2157     3.7083
  804.0000   676.8242     3.7580
  804.5000   656.3635     3.9257
  805.0000   688.0570     3.8643
  805.5000   704.6360     4.0509
  806.0000   700.6405     4.3513
  806.5000   639.9378     4.3992
  807.0000   650.1526     4.1750
  807.5000   669.9578     4.2739
  808.0000   691.5212     4.1617
  808.5000   649.7603     4.0288
  809.0000   669.4832     3.9717
  809.5000   673.2099     4.0024
  810.0000   694.3215     4.0884
  810.5000   703.3523     3.9584
  811.0000   687.4137     4.0930
  811.5000   705.5017     4.0565
  812.0000   715.2885     4.1093
  812.5000   666.0922     4.0556
  813.0000   672.8554     3.9789
  813.5000   636.5087     3.9937
  814.0000   647.7939     3.9323
  814.5000   653.0456     4.0613
  815.0000   645.4345     4.0992
  815.5000   630.2648     3.9996
  816.0000   636.2592     4.2962
  816.5000   620.3336     4.3569
