~VERSION INFORMATION
 VERS.                2.0:   CWLS LOG ASCII STANDARD - VERSION 2.0
 WRAP.                 NO:   ONE LINE PER DEPTH STEP
~WELL INFORMATION
#MNEM.UNIT      DATA TYPE    INFORMATION
#----------   ------------   ------------------------------
 STRT.F           70.0000:   START DEPTH
 STOP.F         1043.0000:   STOP DEPTH
 STEP.F            0.5000:   STEP LENGTH
 NULL.          -999.2500:   NO VALUE
 COMP. U S NAVY/INTEX OIL CO:   COMPANY
 WELL.       NPR 3 #54S-2:   WELL
 FLD .             TEAPOT:   FIELD
 LOC .       S2 T38N R78W:   LOCATION
 CNTY.            NATRONA:   COUNTY
 STAT.            WYOMING:   STATE
 CTRY. UNITED STATES OF AMERICA:   COUNTRY
 SRVC.         Lane Wells:   SERVICE COMPANY
 DATE.        14-JUN-1960:   LOGDATE
 API .       490250643300:   API NUMBER
~CURVE INFORMATION
#MNEM.UNIT       API CODE    CURVE DESCRIPTION
#----------   ------------   ------------------------------
 DEPT.F                  :   
 CILD.MMHO   05 110 46 00:   CONDUCTIVITY INDUCTION LOG DEEP
 ILD .OHMM   05 120 46 00:   INDUCTION LOG DEEP
 ASN .OHMM   05 041 16 00:   AMPLIFIED SHORT NORMAL 16"
 SPR .MV     05 010 01 00:   SPONTANEOUS POTENTIAL FROM RES.
~PARAMETER INFORMATION
#MNEM.UNIT          VALUE    DESCRIPTION
#----------   ------------   ------------------------------
 PD  .                 GL:   PERMANENT DATUM
 EPD .F              6164:   ELEVATION PERMANENT DATUM
 LMF .                 KB:   LOG MEASURED FROM
 DAPD.F                 5:   FEET ABOVE PERMANENT DATUM
 DMF .                 KB:   DRILLING MEASURED FROM
 EKB .F              6169:   KELLING BUSHING
 EGL .F              6164:   GROUND LEVEL
 DATE.            6-14-60:   RUN DATE
 RUN .                  1:   RUN NUMBER
 DD  .F              1045:   DEPTH DRILLER
 DL  .F              1045:   DEPTH LOGGER
 BLI .F              1043:   BOTTOM LOG INTERVAL
 TLI .F                70:   TOP LOG INTERVAL
 CS  .IN            8.625:   CASING SIZE
 CBD .F                12:   CASING BOTTOM DRILLER
 BS  .IN            7.875:   BIT SIZE
 BSD .F              1045:   BIT SIZE AT DEPTH
 DFT .   GEL/OIL EMULSION:   DRILLING FLUID TYPE
 DFD .                9.7:   DRILLING FLUID DENSITY
 DFV .                 45:   DRILLING FLUID VISCOSITY
 DFPH.                  8:   DRILLING FLUID PH
 DFL .               11.6:   DRILLING FLUID LOSS
 MSS .          FLOW LINE:   MUD SAMPLE SOURCE
 RMS .OHMM            1.6:   RESISTIVITY MUD SAMPLE
 MST .F                62:   MUD SAMPLE TEMPERATURE
 RMF .OHMM            1.4:   RESISTIVITY MUD FILTRATE SAMPLE
 MFST.F                60:   MUD FILTRATE SAMPLE TEMPERATURE
 RMC .OHMM           1.75:   RESISTIVITY MUD CAKE
 MCST.F                60:   MUD CAKE SAMPLE TEMPERATURE
 MFSS.                MUD:   MUD FILTRATE SAMPLE SOURCE
 MCSS.              PRESS:   MUD CAKE SAMPLE SOURCE
 RMB .OHMM            1.4:   RESISTIVITY MUD AT BHT
 BHT .F                72:   BOTTOM HOLE TEMPERATURE
 MRT .F                72:   MAXIMUM RECORDED TEMPERATURE
 LUN .             C-4474:   LOGGING UNIT NUMBER
 LUL .             CASPER:   LOGGING UNIT LOCATION
 ENGI.      NELSON/GRIGGS:   RECORDING ENGINEER
 WITN.   JORGENSEN/HUDSON:   WITNESSED BY
 CLNT.            A2DTECH:   CLIENT CODE
 ORIG.       2", 5" PRINT:   ORIGIN OF DATA
 UWI .       490250643300:   UNIQUE WELL ID
 DICO. A2D Technologies, Inc.:   DIGITIZING COMPANY
~OTHER INFORMATION
~A   DEPT     CILD          ILD        ASN      SPR   
   70.0000  -999.2500     5.2678     5.2858   -24.9107
   70.5000  -999.2500     5.2678     5.7540   -24.9107
   71.0000  -999.2500     5.2528     5.6760   -24.0997
   71.5000  -999.2500     5.2408     5.6136   -24.4539
   72.0000  -999.2500     5.2288     5.5511   -24.8080
   72.5000  -999.2500     5.2168     5.4887   -25.0893
   73.0000   219.5364     5.2047     5.4263   -24.7321
   73.5000   219.8979     5.2085     5.4051   -24.7906
   74.0000   219.5364     5.1835     5.3255   -24.8531
   74.5000   219.5364     5.1843     5.2744   -24.9760
   75.0000   217.2895     5.2455     5.2683   -25.5687
   75.5000   215.4920     5.2986     5.3708   -26.1662
   76.0000   214.1438     5.3532     5.5230   -26.0744
   76.5000   209.6499     5.4072     5.6477   -25.4064
   77.0000   206.0549     5.4612     5.7878   -25.5336
   77.5000   202.4598     5.5161     5.9131   -26.1132
   78.0000   198.8647     5.5687     6.0635   -26.4534
   78.5000   196.1684     5.6257     6.1677   -26.2117
   79.0000   195.0449     5.6762     6.2186   -25.9109
   79.5000   194.1462     5.7705     6.2906   -25.6395
   80.0000   193.2474     5.7744     6.2656   -25.3361
   80.5000   192.5733     5.6986     6.1979   -25.1486
   81.0000   197.0672     5.6460     6.1721   -25.5600
   81.5000   199.7635     5.5802     6.2139   -26.0064
   82.0000   198.5379     5.5256     6.2536   -26.4550
   82.5000   197.5574     5.4513     6.2539   -26.8556
   83.0000   196.5769     5.4923     6.1997   -27.0408
   83.5000   195.5965     5.5768     6.1595   -27.1759
   84.0000   194.6160     5.6443     6.1046   -27.3573
   84.5000   193.6355     5.7186     6.0984   -27.3034
   85.0000   192.6550     5.7977     6.1757   -27.0799
   85.5000   191.6655     5.8092     6.2383   -27.2303
   86.0000   190.6931     5.7948     6.2995   -27.4092
   86.5000   189.7264     5.7864     6.3604   -27.5842
   87.0000   189.0056     5.7755     6.4213   -27.7675
   87.5000   191.2651     5.7658     6.4826   -27.9276
   88.0000   193.0630     5.7557     6.5434   -27.9601
   88.5000   194.4003     5.7454     6.6075   -27.8491
   89.0000   195.0591     5.7360     6.5612   -27.6014
   89.5000   195.9467     5.7243     6.4441   -27.3729
   90.0000   196.8408     5.7178     6.3623   -27.1276
   90.5000   197.7403     5.7165     6.2149   -26.9027
   91.0000   198.6406     5.7016     6.0835   -26.6402
   91.5000   199.5435     5.6890     5.9325   -26.5169
   92.0000   200.4483     5.6756     5.8255   -26.7482
   92.5000   201.5898     5.6631     5.7754   -27.0079
   93.0000   200.8869     5.6494     5.7034   -27.2713
   93.5000   199.9882     5.6373     5.7291   -27.5311
   94.0000   199.0894     5.6227     5.8688   -27.7947
   94.5000   197.9659     5.6458     5.9862   -28.0523
   95.0000   194.2585     5.7760     6.2068   -28.3209
   95.5000   189.3153     5.9048     6.3761   -28.5687
   96.0000   184.3720     6.0287     6.5970   -28.8627
   96.5000   178.1930     6.3131     6.8552   -29.0389
   97.0000   177.2942     6.3475     7.0185   -29.1506
   97.5000   176.0959     6.3185     7.0753   -29.3457
   98.0000   174.5979     6.3106     7.1164   -29.5149
   98.5000   175.2208     6.2909     7.1266   -29.6977
   99.0000   176.0513     6.2803     7.0862   -29.8733
   99.5000   176.8818     6.2522     7.0155   -30.0523
  100.0000   177.7123     6.1755     6.9608   -30.2298
  100.5000   178.5428     6.1205     6.8930   -30.4079
  101.0000   179.3734     6.0552     6.8417   -30.5862
  101.5000   180.6314     5.9910     6.8002   -30.7638
  102.0000   183.1266     5.9264     6.7195   -30.9424
  102.5000   185.6217     5.8616     6.6062   -31.1430
  103.0000   188.1168     5.7974     6.5023   -31.3889
  103.5000   190.6119     5.7266     6.3835   -31.6923
  104.0000   193.1071     5.7155     6.2767   -32.0203
  104.5000   196.1684     5.7072     6.1949   -32.2891
  105.0000   196.1684     5.6903     6.0826   -32.5874
  105.5000   196.1684     5.6760     6.0032   -32.8877
  106.0000   196.1684     5.6608     5.9690   -33.1845
  106.5000   196.1684     5.6453     6.0230   -33.4853
  107.0000   196.1684     5.6304     6.1090   -33.8457
  107.5000   196.1684     5.6295     6.1965   -34.9284
  108.0000   194.9521     5.7284     6.3078   -35.5131
  108.5000   190.7473     5.8556     6.4163   -35.9506
  109.0000   186.5426     5.9993     6.5222   -36.4500
  109.5000   183.5188     6.0862     6.6406   -36.9173
  110.0000   183.2935     6.0662     6.7398   -37.4029
  110.5000   183.0683     6.0603     6.8105   -37.8993
  111.0000   182.8430     6.0460     6.8984   -38.1077
  111.5000   182.6178     6.0366     6.9097   -38.2770
  112.0000   182.3925     6.0240     6.9090   -38.4587
  112.5000   182.1422     6.0138     6.9689   -38.6631
  113.0000   181.9176     6.0007     6.9063   -39.0807
  113.5000   182.4905     5.9921     6.7808   -39.5764
  114.0000   184.7854     5.9662     6.5822   -40.0597
  114.5000   187.0756     5.8989     6.3752   -40.5492
  115.0000   189.3619     5.8307     6.1502   -41.0347
  115.5000   191.6481     5.7631     6.0760   -41.5241
  116.0000   194.3296     5.6465     6.0512   -42.0194
  116.5000   194.8329     5.6236     6.0073   -42.3020
  117.0000   195.4448     5.6297     5.9733   -42.5665
  117.5000   196.0585     5.6267     5.9673   -42.8343
  118.0000   196.6681     5.6284     5.9800   -43.1360
  118.5000   197.2748     5.6277     6.0049   -43.6912
  119.0000   197.9753     5.6269     6.0541   -44.3159
  119.5000   199.7274     5.6051     6.1263   -44.9269
  120.0000   201.7987     5.5764     6.2172   -45.5478
  120.5000   203.8259     5.5494     6.2358   -46.1571
  121.0000   205.1561     5.5206     6.1488   -46.7854
  121.5000   205.1561     5.4943     6.0669   -47.3542
  122.0000   205.1561     5.4632     5.9850   -47.4318
  122.5000   205.1561     5.4466     5.8951   -47.3180
  123.0000   205.1561     5.4453     5.8112   -47.1103
  123.5000   206.1957     5.4350     5.7113   -46.8965
  124.0000   207.3970     5.4267     5.6705   -46.7496
  124.5000   208.5984     5.4173     5.7045   -47.1759
  125.0000   209.7997     5.4085     5.7353   -47.6794
  125.5000   211.3242     5.3993     5.6984   -48.1728
  126.0000   213.3837     5.3904     5.5839   -48.6415
  126.5000   215.4432     5.3812     5.4807   -48.8863
  127.0000   217.7389     5.3725     5.3664   -49.1049
  127.5000   217.2480     5.3625     5.2664   -49.3262
  128.0000   216.6935     5.3580     5.1345   -49.5490
  128.5000   216.1391     5.3700     5.1288   -49.7655
  129.0000   215.5846     5.3841     5.2548   -49.9944
  129.5000   215.0301     5.3979     5.3761   -50.1242
  130.0000   214.4757     5.4121     5.4994   -50.1669
  130.5000   212.4074     5.4254     5.6331   -50.2210
  131.0000   208.0825     5.4409     5.7194   -50.2859
  131.5000   203.3586     5.4475     5.7511   -50.5462
  132.0000   203.9903     5.4276     5.7694   -50.7871
  132.5000   205.5349     5.4049     5.7474   -51.0763
  133.0000   207.0795     5.3823     5.7360   -51.0099
  133.5000   208.7512     5.3594     5.7182   -50.6448
  134.0000   208.1498     5.3372     5.7540   -50.3480
  134.5000   207.4945     5.3137     5.7784   -50.0106
  135.0000   206.8392     5.2924     5.9339   -49.7457
  135.5000   206.1840     5.2673     6.2751   -49.6803
  136.0000   205.5287     5.2893     6.5724   -49.6348
  136.5000   204.6378     5.3480     6.9346   -49.5943
  137.0000   203.4365     5.4019     7.0329   -49.5437
  137.5000   202.2351     5.4586     6.8272   -49.6571
  138.0000   201.0337     5.5136     6.6702   -49.8718
  138.5000   199.8324     5.5701     6.4826   -50.0566
  139.0000   198.6310     5.6231     6.3201   -50.2565
  139.5000   197.4297     5.6292     6.1252   -50.4454
  140.0000   196.1684     5.6283     6.0882   -50.6461
  140.5000   196.5964     5.6283     6.2720   -50.7983
  141.0000   197.0470     5.6291     6.2771   -50.8060
  141.5000   197.4975     5.6244     6.1374   -50.8095
  142.0000   197.9659     5.5871     6.0692   -50.7799
  142.5000   200.9319     5.5368     6.0082   -50.4544
