~VERSION INFORMATION
 VERS.                2.0:   CWLS LOG ASCII STANDARD - VERSION 2.0
 WRAP.                 NO:   ONE LINE PER DEPTH STEP
~WELL INFORMATION
#MNEM.UNIT      DATA TYPE    INFORMATION
#----------   ------------   ------------------------------
 STRT.F            8.0000:   START DEPTH
 STOP.F         1010.0000:   STOP DEPTH
 STEP.F            0.5000:   STEP LENGTH
 NULL.          -999.2500:   NO VALUE
 COMP.          U.S. NAVY:   COMPANY
 WELL. RES 3 TEAPOT DOM #47S-35:   WELL
 FLD .             TEAPOT:   FIELD
 LOC .      S35 T39N R78W:   LOCATION
 CNTY.            NATRONA:   COUNTY
 STAT.            WYOMING:   STATE
 CTRY. UNITED STATES OF AMERICA:   COUNTRY
 SRVC.      NL McCullough:   SERVICE COMPANY
 DATE.        12-NOV-1958:   LOGDATE
 API .       490250650800:   API NUMBER
~CURVE INFORMATION
#MNEM.UNIT       API CODE    CURVE DESCRIPTION
#----------   ------------   ------------------------------
 DEPT.F                  :   
 GRN .GAPI   35 310 01 00:   GAMMA RAY
 NEUT.NAPI   35 330 01 00:   NEUTRON
~PARAMETER INFORMATION
#MNEM.UNIT          VALUE    DESCRIPTION
#----------   ------------   ------------------------------
 PD  .                 GL:   PERMANENT DATUM
 EPD .F             51891:   ELEVATION PERMANENT DATUM
 DATE.        11-NOV-1959:   RUN DATE
 RUN .                  1:   RUN NUMBER
 BLI .F              1004:   BOTTOM LOG INTERVAL
 CS  .IN            8.625:   CASING SIZE
 WITN.             MARTNE:   WITNESSED BY
 CLNT.            A2DTECH:   CLIENT CODE
 ORIG.         2.5" PRINT:   ORIGIN OF DATA
 UWI .       490250650800:   UNIQUE WELL ID
 DICO. A2D Technologies, Inc.:   DIGITIZING COMPANY
~OTHER INFORMATION
~A    DEPT     GRN       NEUT   
# ...
  372.5000     5.8369    58.0595
  373.0000     5.9642    71.5599
  373.5000     5.9037    80.5626
  374.0000     5.9040    89.5853
  374.5000     5.8435    65.5844
  375.0000     5.7223    65.4672
  375.5000     5.6416    64.0995
  376.0000     5.5736    63.0985
  376.5000     5.5004    61.5392
  377.0000     5.5083    58.8356
  377.5000     5.7819    54.3867
  378.0000     5.8772    50.6457
  378.5000     5.9067    44.6559
  379.0000     5.9070    37.9165
  379.5000     5.8870    34.9251
  380.0000     5.8469    48.2262
  380.5000     5.8269    56.6786
  381.0000     5.7567    49.7653
  381.5000     5.4328    44.6989
  382.0000     5.2281    66.3369
  382.5000     5.1720    67.5662
  383.0000     5.2401    60.4662
  383.5000     5.4238    52.9771
  384.0000     5.5658    46.9873
  384.5000     5.7079    43.9959
  385.0000     5.7284    35.7572
  385.5000     5.5869    26.0193
  386.0000     5.4252    42.9583
  386.5000     5.4023    47.0231
  387.0000     5.3602    27.5860
  387.5000     5.3182    22.2999
  388.0000     5.2558    42.1888
  388.5000     5.2137    41.0584
  389.0000     5.2246    37.3175
  389.5000     5.1844    37.1564
  390.0000     5.0835    56.0724
  390.5000     5.0027    55.3300
  391.0000     4.9220    57.1857
  391.5000     4.8818    69.0429
  392.0000     4.8856    71.0945
  392.5000     4.9810    65.4175
  393.0000     5.3922    57.5913
  393.5000     5.5292    54.6202
  394.0000     5.5719    56.8830
  394.5000     5.4710    59.1391
  395.0000     5.3295    60.6455
  395.5000     5.3298    62.1519
  396.0000     5.5731    65.1576
  396.5000     5.6139    69.0228
  397.0000     5.5918    74.4528
  397.5000     5.5092    79.1605
  398.0000     5.4612    82.1389
  398.5000     5.4328    84.8276
  399.0000     5.4129    89.1506
  399.5000     5.3929    94.6752
  400.0000     5.3843   101.6430
  400.5000     5.3531   110.0915
  401.0000     5.4141   110.5698
  401.5000     5.1714   103.4603
  402.0000     5.1110    83.2240
  402.5000     5.1113    50.2441
  403.0000     5.1223    28.5085
  403.5000     5.3708    26.1020
  404.0000     5.4362    36.0517
  404.5000     5.4365    44.2616
  405.0000     5.4061    27.4868
  405.5000     5.3359    17.2821
  406.0000     5.1944    31.1796
  406.5000     5.0530    42.2639
  407.0000     5.0504    47.7062
  407.5000     5.1751    52.5307
  408.0000     5.2564    54.7832
  408.5000     5.2319    57.0356
  409.0000     5.1962    59.2881
  409.5000     5.3086    62.2902
  410.0000     5.5559    64.5927
  410.5000     5.6224    67.5450
  411.0000     5.5387    65.2874
  411.5000     5.3395    51.9115
  412.0000     5.2791    48.2558
  412.5000     5.2591    42.9473
  413.0000     5.2594    33.8480
  413.5000     5.2597    17.3432
  414.0000     5.2600    26.3423
  414.5000     5.2347    27.0956
  415.0000     5.1303    24.1007
  415.5000     5.0523    36.8479
  416.0000     5.0384    40.5996
  416.5000     5.1473    35.1487
  417.0000     5.2011    33.8602
  417.5000     5.1204    46.3260
  418.0000     4.9587    60.5348
  418.5000     4.9590    61.6404
  419.0000     4.9796    61.7066
  419.5000     5.2836    80.3567
  420.0000     5.3649    90.8551
  420.5000     5.3621    97.6053
  421.0000     5.3154   100.6074
  421.5000     5.2515    91.6155
  422.0000     5.2041    78.7105
  422.5000     5.2044    74.0255
  423.0000     5.2164    71.2044
  423.5000     5.4683    70.6403
  424.0000     5.4484    70.9545
  424.5000     5.3677    76.2570
  425.0000     5.5907    85.6454
  425.5000     5.6315    87.1483
  426.0000     5.5420    88.6511
  426.5000     5.4024    86.4058
  427.0000     5.3489    84.1606
  427.5000     5.3289    79.6478
  428.0000     5.3293    74.9626
  428.5000     5.3498    71.1607
  429.0000     5.4514    68.2359
  429.5000     5.6340    67.6868
  430.0000     5.5128    68.3408
  430.5000     5.3308    71.0820
  431.0000     5.3513    78.1941
  431.5000     5.5946    94.6895
  432.0000     5.5256   102.9389
  432.5000     5.3453   111.1884
  433.0000     5.0613   114.1905
  433.5000     4.8927   106.5703
  434.0000     4.8560   100.6197
  434.5000     4.9200    99.9584
  435.0000     4.9691    99.0005
  435.5000     4.9896    97.9147
  436.0000     5.2127    92.4140
  436.5000     5.3547    79.6188
  437.0000     5.4765    65.4954
  437.5000     5.5983    53.5050
  438.0000     5.5986    35.5176
  438.5000     5.5370    34.0220
  439.0000     5.3787    43.7707
  439.5000     5.2726    56.6992
  440.0000     5.1948    61.7689
  440.5000     5.2915    61.0228
  441.0000     5.4587    63.4357
  441.5000     5.4388    68.0685
  442.0000     5.3783    68.8856
  442.5000     5.3178    71.6204
  443.0000     5.2169    88.7788
  443.5000     4.9894    91.0312
  444.0000     4.8905    88.0363
  444.5000     4.8688    82.7925
  445.0000     4.8931    78.2984
  445.5000     5.0079    72.1517
  446.0000     5.0972    67.6961
  446.5000     4.9499    68.3509
  447.0000     4.8346    80.9569
  447.5000     4.8296    92.1164
  448.0000     4.8757    89.2154
  448.5000     4.8962    76.7079
  449.0000     4.8965    62.5868
  449.5000     4.9592    51.3460
  450.0000     5.0254    49.8504
  450.5000     5.0899    49.8540
  451.0000     5.1205    55.1223
  451.5000     5.1005    65.9345
  452.0000     5.1008    78.3808
  452.5000     5.2835    86.2381
  453.0000     5.3040    87.3532
  453.5000     5.2233    84.4665
  454.0000     5.0413    80.9795
  454.5000     4.9606    77.6207
  455.0000     5.1033    74.6258
  455.5000     5.1435    73.8793
  456.0000     5.0755    74.6329
  456.5000     5.0116    75.3862
  457.0000     4.9347    76.9065
  457.5000     4.9643    77.7236
  458.0000     5.0960    77.0665
  458.5000     5.1453    70.6094
  459.0000     5.1456    50.9421
  459.5000     5.1459    39.5815
  460.0000     5.1259    34.4827
  460.5000     5.1465    27.4407
  461.0000     5.3313    27.2213
  461.5000     5.5644    35.6938
  462.0000     5.6942    60.4350
  462.5000     5.6067    77.6800
  463.0000     5.3758   105.2231
  463.5000     5.1623   130.3740
  464.0000     4.9124   162.9571
  464.5000     4.7034   201.4368
  465.0000     4.3969   209.6320
  465.5000     4.2761   174.0345
  466.0000     4.2588   161.9191
  466.5000     4.3799   158.6694
  467.0000     4.7207   173.6662
  467.5000     4.8065   180.4164
  468.0000     4.7007   182.6689
  468.5000     4.5844   177.4251
  469.0000     4.5442   166.6021
  469.5000     4.7470   150.6115
  470.0000     4.8688   134.8579
  470.5000     4.9501   119.5819
  471.0000     4.9923    99.4450
  471.5000     5.0551    80.0661
  472.0000     5.0725    77.5413
  472.5000     5.0065    93.4976
  473.0000     4.8052   113.7411
  473.5000     4.4258   121.2409
  474.0000     4.3095   122.7438
  474.5000     4.2033   113.7519
  475.0000     4.3048   104.7600
  475.5000     4.4266   108.1485
  476.0000     4.4877   117.3314
  476.5000     4.5287   121.2744
  477.0000     4.6134   124.2654
  477.5000     4.7017   117.8536
  478.0000     4.8032   108.5315
  478.5000     4.9012   107.0352
  479.0000     4.9465   111.5372
  479.5000     4.9046   128.9419
  480.0000     4.8344   120.5399
  480.5000     4.7942   117.5449
  481.0000     4.7540   133.1609
  481.5000     4.7340   140.7909
  482.0000     4.7343   139.4302
  482.5000     4.7128   137.0496
  483.0000     4.5685   144.2952
  483.5000     4.5085   155.9260
  484.0000     4.4464   164.0487
  484.5000     4.4044   155.0568
  485.0000     4.3716   148.3137
  485.5000     4.3936   145.3188
  486.0000     4.5141   142.3239
  486.5000     4.6358   150.8615
  487.0000     4.6969   162.5710
  487.5000     4.7579   159.8576
  488.0000     4.7380   156.3618
  488.5000     4.6757   156.5855
  489.0000     4.5916   157.3388
  489.5000     4.5161   154.1266
  490.0000     4.5164   142.3545
  490.5000     4.5167   134.8618
  491.0000     4.5170   131.8666
  491.5000     4.5173   149.8615
  492.0000     4.5177   163.3584
  492.5000     4.5382   166.4917
  493.0000     4.5993   170.8645
  493.5000     4.8021   183.3732
