~VERSION INFORMATION
 VERS.                2.0:   CWLS LOG ASCII STANDARD - VERSION 2.0
 WRAP.                 NO:   ONE LINE PER DEPTH STEP
~WELL INFORMATION
#MNEM.UNIT      DATA TYPE    INFORMATION
#----------   ------------   ------------------------------
 STRT.F          520.5000:   START DEPTH
 STOP.F         2062.0000:   STOP DEPTH
 STEP.F            0.5000:   STEP LENGTH
 NULL.          -999.2500:   NO VALUE
 COMP. LAWRENCE-ALLISON &AS:   COMPANY
 WELL.     NPR 3 #18-X-28:   WELL
 FLD .             TEAPOT:   FIELD
 LOC .      S28 T39N R78W:   LOCATION
 CNTY.            NATRONA:   COUNTY
 STAT.            WYOMING:   STATE
 CTRY. UNITED STATES OF AMERICA:   COUNTRY
 SRVC.            Unknown:   SERVICE COMPANY
 DATE.        08-DEC-1987:   LOGDATE
 API .       490251119700:   API NUMBER
~CURVE INFORMATION
#MNEM.UNIT       API CODE    CURVE DESCRIPTION
#----------   ------------   ------------------------------
 DEPT.F                  :   
 ROP .MIN/FT 91 810 01 00:   RAT OF DRILLING PENETRATION
 TGAS.UNITS  91 830 01 00:   TOTAL GAS FROM HOTWIRE
~PARAMETER INFORMATION
#MNEM.UNIT          VALUE    DESCRIPTION
#----------   ------------   ------------------------------
 EKB .F              5090:   KELLING BUSHING
 EGL .F              5080:   GROUND LEVEL
 DATE.            12-8-87:   RUN DATE
 DD  .F              2062:   DEPTH DRILLER
 CS  .IN                7:   CASING SIZE
 CBD .F               513:   CASING BOTTOM DRILLER
 TCS .HRS            1000:   TIME CURCULATED STOPPED
 TLAB.HRS            0432:   TIME LOGGER AT BOTTOM
 ENGI.              TOWER:   RECORDING ENGINEER
 WITN.               HUSK:   WITNESSED BY
 CLNT.            A2DTECH:   CLIENT CODE
 ORIG.           5" PRINT:   ORIGIN OF DATA
 UWI .       490251119700:   UNIQUE WELL ID
 DICO. A2D Technologies, Inc.:   DIGITIZING COMPANY
~OTHER INFORMATION
~A   DEPT      ROP         TGAS 
# ...
 1371.0000     0.3859     0.0004
 1371.5000     0.3964     0.0004
 1372.0000     0.4068     0.0004
 1372.5000     0.4070     0.0004
 1373.0000     0.4071     0.0004
 1373.5000     0.4176     0.0004
 1374.0000     0.4281     0.0004
 1374.5000     0.4385     0.0004
 1375.0000     0.4387     0.0013
 1375.5000     0.4284     0.0422
 1376.0000     0.3961     0.5023
 1376.5000     0.3563     0.5442
 1377.0000     0.3253     0.5936
 1377.5000     0.2840     0.6345
 1378.0000     0.2738     0.6754
 1378.5000     0.2739     0.7163
 1379.0000     0.2741     0.7571
 1379.5000     0.2638     0.7980
 1380.0000     0.2640     0.4186
 1380.5000     0.2641     0.4612
 1381.0000     0.2643     0.5023
 1381.5000     0.2644     0.5442
 1382.0000     0.2541     0.5941
 1382.5000     0.2646     0.6349
 1383.0000     0.2648     0.6758
 1383.5000     0.2649     0.7167
 1384.0000     0.2650     0.7610
 1384.5000     0.2652     0.3696
 1385.0000     0.2653     0.4207
 1385.5000     0.2654     0.4616
 1386.0000     0.2759     0.0837
 1386.5000     0.2864     0.1256
 1387.0000     0.2865     0.0004
 1387.5000     0.2970     0.0004
 1388.0000     0.2971     0.0004
 1388.5000     0.3076     0.0004
 1389.0000     0.2973     0.0004
 1389.5000     0.2975     0.0004
 1390.0000     0.2976     0.0026
 1390.5000     0.2978     0.0434
 1391.0000     0.2875     0.0843
 1391.5000     0.2877     0.0004
 1392.0000     0.2878     0.0004
 1392.5000     0.2776     0.0004
 1393.0000     0.2777     0.0004
 1393.5000     0.2674     0.0004
 1394.0000     0.2572     0.0004
 1394.5000     0.2574     0.0004
 1395.0000     0.2575     0.0030
 1395.5000     0.2473     0.0439
 1396.0000     0.2474     0.0847
 1396.5000     0.2476     0.1256
 1397.0000     0.2477     0.1674
 1397.5000     0.2478     0.2176
 1398.0000     0.2479     0.2585
 1398.5000     0.2481     0.2994
 1399.0000     0.2482     0.3402
 1399.5000     0.2587     0.3811
 1400.0000     0.2692     0.0004
 1400.5000     0.2692     0.0314
 1401.0000     0.2795     0.0688
 1401.5000     0.2795     0.0994
 1402.0000     0.2795     0.1300
 1402.5000     0.2795     0.1606
 1403.0000     0.2795     0.1912
 1403.5000     0.2795     0.2218
 1404.0000     0.2795     0.0004
 1404.5000     0.2795     0.0004
 1405.0000     0.2899     0.0004
 1405.5000     0.3002     0.0004
 1406.0000     0.3002     0.0004
 1406.5000     0.3106     0.0004
 1407.0000     0.3002     0.0251
 1407.5000     0.3002     0.0557
 1408.0000     0.3002     0.0004
 1408.5000     0.3002     0.0004
 1409.0000     0.3106     0.0004
 1409.5000     0.3106     0.0004
 1410.0000     0.3106     0.0004
 1410.5000     0.3209     0.0004
 1411.0000     0.3209     0.0004
 1411.5000     0.3209     0.0004
 1412.0000     0.3106     0.0004
 1412.5000     0.3106     0.0004
 1413.0000     0.3002     0.0004
 1413.5000     0.2899     0.0004
 1414.0000     0.2895     0.0004
 1414.5000     0.2795     0.0004
 1415.0000     0.2795     0.0004
 1415.5000     0.2692     0.0004
 1416.0000     0.2692     0.0004
 1416.5000     0.2588     0.0004
 1417.0000     0.2588     0.0004
 1417.5000     0.2588     0.0004
 1418.0000     0.2795     0.0004
 1418.5000     0.3106     0.0004
 1419.0000     0.3428     0.0004
 1419.5000     0.3727     0.0004
 1420.0000     0.3830     0.0004
 1420.5000     0.3830     0.0004
 1421.0000     0.3727     0.0004
 1421.5000     0.3727     0.0004
 1422.0000     0.3623     0.0004
 1422.5000     0.3623     0.0004
 1423.0000     0.3623     0.0004
 1423.5000     0.3520     0.0004
 1424.0000     0.3520     0.0004
 1424.5000     0.3520     0.0004
 1425.0000     0.3520     0.0004
 1425.5000     0.3520     0.0004
 1426.0000     0.3520     0.0004
 1426.5000     0.3520     0.0004
 1427.0000     0.3520     0.0004
 1427.5000     0.3520     0.0004
 1428.0000     0.3520     0.0004
 1428.5000     0.3520     0.0004
 1429.0000     0.3520     0.0004
 1429.5000     0.3520     0.0004
 1430.0000     0.3520     0.0004
 1430.5000     0.3623     0.0004
 1431.0000     0.3623     0.0004
 1431.5000     0.3623     0.0004
 1432.0000     0.3623     0.0004
 1432.5000     0.3623     0.0004
 1433.0000     0.3623     0.0004
 1433.5000     0.3623     0.0004
 1434.0000     0.3623     0.0004
 1434.5000     0.3520     0.0004
 1435.0000     0.3520     0.0004
 1435.5000     0.3520     0.0004
 1436.0000     0.3520     0.0004
 1436.5000     0.3520     0.0004
 1437.0000     0.3520     0.0004
 1437.5000     0.3416     0.0004
 1438.0000     0.3416     0.0004
 1438.5000     0.3416     0.0004
 1439.0000     0.3416     0.0004
 1439.5000     0.3416     0.0004
 1440.0000     0.3416     0.0004
 1440.5000     0.3731     0.4395
 1441.0000     0.3528     0.4645
 1441.5000     0.3428     0.4848
 1442.0000     0.3328     0.5052
 1442.5000     0.3436     0.5256
 1443.0000     0.3440     0.5460
 1443.5000     0.3547     0.5663
 1444.0000     0.3551     0.1674
 1444.5000     0.3555     0.1885
 1445.0000     0.3662     0.2093
 1445.5000     0.3666     0.2344
 1446.0000     0.3670     0.6733
 1446.5000     0.3674     0.2751
 1447.0000     0.3782     0.2955
 1447.5000     0.3786     0.3159
 1448.0000     0.3789     0.3362
 1448.5000     0.3793     0.3566
 1449.0000     0.3797     0.3770
 1449.5000     0.3801     0.3977
 1450.0000     0.3805     0.4186
 1450.5000     0.3808     0.4432
 1451.0000     0.3812     0.4636
 1451.5000     0.3816     0.4840
 1452.0000     0.3821     0.5044
 1452.5000     0.3824     0.5247
 1453.0000     0.3828     0.5451
 1453.5000     0.3832     0.5655
 1454.0000     0.3836     0.5860
 1454.5000     0.3839     0.6080
 1455.0000     0.3843     0.6317
 1455.5000     0.3847     0.6521
 1456.0000     0.3851     0.6725
 1456.5000     0.3856     0.6929
 1457.0000     0.3755     0.7132
 1457.5000     0.3760     0.7336
 1458.0000     0.3763     0.7540
 1458.5000     0.3767     0.7744
 1459.0000     0.3874     0.7954
 1459.5000     0.3878     0.8202
 1460.0000     0.3882     0.4220
 1460.5000     0.3989     0.4424
 1461.0000     0.3994     0.4628
 1461.5000     0.3998     0.4831
 1462.0000     0.4002     0.5035
 1462.5000     0.4005     0.5239
 1463.0000     0.4113     0.5443
 1463.5000     0.3909     0.1460
 1464.0000     0.3706     0.1715
 1464.5000     0.3503     0.1919
 1465.0000     0.3300     0.0004
 1465.5000     0.3304     0.0004
 1466.0000     0.3308     0.0004
 1466.5000     0.3207     0.0004
 1467.0000     0.3212     0.0004
 1467.5000     0.3216     0.0004
 1468.0000     0.3220     0.0004
 1468.5000     0.3223     0.0004
 1469.0000     0.3227     0.0004
 1469.5000     0.3335     0.0004
 1470.0000     0.3459     0.0004
 1470.5000     0.3861     0.0004
 1471.0000     0.4279     0.0004
 1471.5000     0.4489     0.0004
 1472.0000     0.4596     0.0004
 1472.5000     0.4393     0.0004
 1473.0000     0.4397     0.0004
 1473.5000     0.4297     0.0004
 1474.0000     0.4301     0.0004
 1474.5000     0.4305     0.0004
 1475.0000     0.4310     0.0004
 1475.5000     0.4313     0.0004
 1476.0000     0.4317     0.0004
 1476.5000     0.4321     0.0004
 1477.0000     0.4325     0.0004
 1477.5000     0.4329     0.0004
 1478.0000     0.4332     0.0004
 1478.5000     0.4336     0.0004
 1479.0000     0.4444     0.0004
 1479.5000     0.4552     0.0004
 1480.0000     0.4763     0.0017
 1480.5000     0.4342     0.0004
 1481.0000     0.4337     0.0004
 1481.5000     0.4228     0.0004
 1482.0000     0.4223     0.0004
 1482.5000     0.4218     0.0004
 1483.0000     0.4213     0.0004
 1483.5000     0.4312     0.0004
 1484.0000     0.4306     0.0004
 1484.5000     0.4405     0.0004
 1485.0000     0.4400     0.0004
 1485.5000     0.4394     0.0004
 1486.0000     0.4388     0.0004
 1486.5000     0.4383     0.0004
 1487.0000     0.4378     0.0004
 1487.5000     0.4373     0.0004
 1488.0000     0.4368     0.0004
 1488.5000     0.4363     0.0004
 1489.0000     0.4358     0.0004
 1489.5000     0.4353     0.0004
 1490.0000     0.4348     0.0004
 1490.5000     0.4343     0.0004
 1491.0000     0.4441     0.0004
 1491.5000     0.4436     0.0004
 1492.0000     0.4431     0.0004
