~VERSION INFORMATION
 VERS.                2.0:   CWLS LOG ASCII STANDARD - VERSION 2.0
 WRAP.                 NO:   ONE LINE PER DEPTH STEP
~WELL INFORMATION
#MNEM.UNIT      DATA TYPE    INFORMATION
#----------   ------------   ------------------------------
 STRT.F            0.0000:   START DEPTH
 STOP.F          675.0000:   STOP DEPTH
 STEP.F            0.5000:   STEP LENGTH
 NULL.          -999.2500:   NO VALUE
 COMP.       F D SERV INC:   COMPANY
 WELL. NAVEL PETROLEUM RESERVE 3 SX-2 #18-1-2:   WELL
 FLD .             TEAPOT:   FIELD
 LOC .       S2 T38N R78W:   LOCATION
 CNTY.            NATRONA:   COUNTY
 STAT.            WYOMING:   STATE
 CTRY. UNITED STATES OF AMERICA:   COUNTRY
 SRVC.     Atlas Wireline:   SERVICE COMPANY
 DATE.        23-DEC-1991:   LOGDATE
 API .       490252247200:   API NUMBER
~CURVE INFORMATION
#MNEM.UNIT       API CODE    CURVE DESCRIPTION
#----------   ------------   ------------------------------
 DEPT.F                  :   
 GRR .GAPI   07 310 01 00:   GAMMA RAY FROM RES. LOG.
 SPR .MV     07 010 01 00:   SPONTANEOUS POTENTIAL
 SFL .OHMM   07 220 01 00:   SHALLOW FOCUSED LOG RESISTIVITY
 ILD .OHMM   07 120 46 00:   INDUCTION LOG DEEP
 ILM .OHMM   07 120 44 00:   INDUCTION LOG MEDIUM
~PARAMETER INFORMATION
#MNEM.UNIT          VALUE    DESCRIPTION
#----------   ------------   ------------------------------
 PD  .                 GL:   PERMANENT DATUM
 EPD .F              5148:   ELEVATION PERMANENT DATUM
 LMF .                 KB:   LOG MEASURED FROM
 DAPD.F                10:   FEET ABOVE PERMANENT DATUM
 DMF .                 KB:   DRILLING MEASURED FROM
 EKB .F              5158:   KELLING BUSHING
 EGL .F              5148:   GROUND LEVEL
 DATE.        23-DEC-1991:   RUN DATE
 RUN .                  1:   RUN NUMBER
 DD  .F               630:   DEPTH DRILLER
 DL  .F               678:   DEPTH LOGGER
 BLI .F               675:   BOTTOM LOG INTERVAL
 CS  .IN            9.625:   CASING SIZE
 CBD .F                44:   CASING BOTTOM DRILLER
 CBL .F                48:   CASING BOTTOM LOGGER
 BS  .IN             8.75:   BIT SIZE
 BSD .F               680:   BIT SIZE AT DEPTH
 DFT .           CHEM GEL:   DRILLING FLUID TYPE
 DFD .                9.7:   DRILLING FLUID DENSITY
 DFV .                 79:   DRILLING FLUID VISCOSITY
 DFPH.                  9:   DRILLING FLUID PH
 DFL .                 10:   DRILLING FLUID LOSS
 MSS .           MUD TANK:   MUD SAMPLE SOURCE
 RMS .OHMM            .82:   RESISTIVITY MUD SAMPLE
 MST .F                54:   MUD SAMPLE TEMPERATURE
 RMF .OHMM           1.02:   RESISTIVITY MUD FILTRATE SAMPLE
 MFST.F                54:   MUD FILTRATE SAMPLE TEMPERATURE
 RMC .OHMM            .51:   RESISTIVITY MUD CAKE
 MCST.F                54:   MUD CAKE SAMPLE TEMPERATURE
 MFSS.               CALC:   MUD FILTRATE SAMPLE SOURCE
 MCSS.               CALC:   MUD CAKE SAMPLE SOURCE
 RMB .OHMM            .43:   RESISTIVITY MUD AT BHT
 BHT .F               102:   BOTTOM HOLE TEMPERATURE
 TCS .HRS               2:   TIME CURCULATED STOPPED
 MRT .F               102:   MAXIMUM RECORDED TEMPERATURE
 LUN .            HL-6307:   LOGGING UNIT NUMBER
 LUL .             CASPER:   LOGGING UNIT LOCATION
 ENGI.            WADDELL:   RECORDING ENGINEER
 WITN.              FJVAS:   WITNESSED BY
 CLNT.            A2DTECH:   CLIENT CODE
 ORIG.      2" & 5" PRINT:   ORIGIN OF DATA
 UWI .       490252247200:   UNIQUE WELL ID
 DICO. A2D Technologies, Inc.:   DIGITIZING COMPANY
~OTHER INFORMATION
~A    DEPT      GRR       SPR        SFL        ILD        ILM   
# ...
  427.0000   117.4917   -36.6824     5.9210     4.7963     4.9111
  427.5000   122.4983   -36.4646     5.2365     4.7777     4.8772
  428.0000   122.9895   -36.2472     5.4355     4.7591     4.8680
  428.5000   118.8482   -36.0297     6.2546     4.7406     5.2111
  429.0000   114.5711   -35.8121     6.9948     4.7345     5.4607
  429.5000   112.9641   -35.5952     7.1839     5.1310     5.7223
  430.0000   112.3841   -35.3780     7.5755     5.4338     5.9964
  430.5000   111.8525   -35.2034     8.0403     5.7494     6.3370
  431.0000   110.7350   -34.9613     8.2185     6.0836     6.9225
  431.5000   109.0807   -34.7386     8.2958     6.4375     7.1307
  432.0000   107.4071   -34.5205     8.4039     6.6756     7.3638
  432.5000   108.4503   -34.7269     8.6211     6.8020     7.6045
  433.0000   110.5547   -34.9138     8.8083     6.9284     7.7105
  433.5000   110.9713   -35.0583     8.8083     6.9834     7.7708
  434.0000   109.8089   -35.1036     8.8083     7.0579     7.8317
  434.5000   107.9149   -35.1526     8.8083     7.0746     7.8887
  435.0000   108.1918   -35.2002     8.8083     7.0873     7.9277
  435.5000   109.3108   -35.2560     8.8469     7.1001     7.9668
  436.0000   108.7407   -35.5477     8.8859     7.1129     8.0061
  436.5000   107.7689   -35.8599     8.9250     7.1257     8.0288
  437.0000   109.8646   -36.1714     8.9642     7.1385     7.9824
  437.5000   111.2717   -36.4796     9.0037     7.1514     7.9500
  438.0000   112.9501   -36.6236     9.0432     7.1642     7.9177
  438.5000   115.7763   -36.5026     9.1425     7.1771     7.8855
  439.0000   116.1163   -36.6656     8.9436     7.2057     7.8321
  439.5000   113.7897   -36.9764     8.7243     7.2519     7.7759
  440.0000   111.8648   -37.2915     8.4095     7.2983     7.7367
  440.5000   112.1786   -37.6059     8.5490     7.3449     8.0725
  441.0000   112.1614   -37.9178     8.7514     7.3882     8.3446
  441.5000   111.3993   -37.9384     8.9585     7.5246     8.4518
  442.0000   110.2962   -37.6445     9.1702     7.4010     8.5668
  442.5000   108.6442   -37.3423     9.4020     7.0215     8.0848
  443.0000   106.9327   -37.2732     9.5419     6.5318     7.4552
  443.5000   107.0384   -37.2721     9.7650     5.9811     6.6729
  444.0000   107.3415   -37.2931     9.4841     5.4768     5.9455
  444.5000   115.5813   -37.3535     7.0367     5.0876     5.2913
  445.0000   121.7911   -37.4115     5.7773     5.0521     5.1942
  445.5000   127.3617   -37.4863     4.9894     5.0992     5.3406
  446.0000   127.0687   -37.9589     4.9873     5.3318     5.8380
  446.5000   114.3620   -38.4517     9.2260     5.5720     6.6484
  447.0000   104.5687   -38.9436    10.0204     5.8219     7.3623
  447.5000   102.2042   -39.4359    10.3111     6.2866     8.1069
  448.0000   100.8266   -39.8909    10.2160     7.2115     8.9264
  448.5000    99.4589   -39.9016    10.4707     8.2725     9.6090
  449.0000    98.0811   -39.8995    10.7745     8.9399    10.0674
  449.5000    99.3547   -39.8990    11.0870     9.0455    10.2174
  450.0000   101.1621   -39.8990    11.3122     9.2135    10.0939
  450.5000   102.8924   -39.8990    11.1131     9.1415    10.0125
  451.0000   104.9145   -39.8990    10.9351     9.0533     9.9310
  451.5000   107.6406   -39.8989    10.7599     8.9731     9.8427
  452.0000   109.5789   -39.8987    10.5876     9.1514    10.0185
  452.5000   110.4601   -39.8960    10.5039     9.4109    10.2733
  453.0000   108.9232   -39.9872    11.1622     9.9166    10.5628
  453.5000   103.2411   -40.1984    11.6310    10.5608    11.1043
  454.0000    95.9303   -41.0147    13.0708    11.2483    11.6735
  454.5000    85.1145   -41.8467    14.8506    11.9863    12.8785
  455.0000    74.0782   -42.6854    16.8728    13.2501    14.8628
  455.5000    67.4920   -42.5873    19.1703    14.6389    17.1528
  456.0000    64.3290   -42.4214    21.9797    15.7481    19.7957
  456.5000    61.4946   -42.2592    26.5788    17.8925    23.0889
  457.0000    61.9017   -42.1184    32.3068    19.5300    23.3964
  457.5000    62.2822   -42.3025    31.3776    20.5638    23.7330
  458.0000    61.4889   -42.5313    25.1219    21.4382    24.1360
  458.5000    59.4712   -43.7514    25.8149    22.2682    24.6726
  459.0000    56.5120   -45.1046    25.7827    22.6650    25.2211
  459.5000    55.0856   -46.9927    30.7514    22.6650    25.7819
  460.0000    55.7555   -49.1930    30.2459    22.6650    26.1099
  460.5000    57.1034   -51.4176    29.1141    22.2450    26.2871
  461.0000    57.3498   -52.6875    30.0426    21.8068    25.7624
  461.5000    56.9276   -53.2097    31.1022    21.3773    24.8232
  462.0000    57.8391   -53.1370    31.6392    20.9560    23.9182
  462.5000    62.0085   -53.0240    28.2629    20.5398    22.6650
  463.0000    67.6884   -52.9170    26.0109    20.2819    22.8981
  463.5000    70.7949   -52.9319    24.1832    20.3780    23.3266
  464.0000    70.6717   -53.6710    24.3998    20.4509    23.7654
  464.5000    69.2197   -54.4064    26.6849    20.4975    24.2081
  465.0000    67.7718   -55.1401    28.5732    20.5356    24.4131
  465.5000    66.3251   -55.8723    29.6104    20.5737    24.3421
  466.0000    65.6554   -56.5988    30.7718    20.6120    24.2930
  466.5000    67.4434   -57.1553    30.4976    20.6503    24.2440
  467.0000    69.2210   -57.6580    30.2157    20.6887    24.1951
  467.5000    70.5627   -58.1669    29.9282    20.7271    23.9297
  468.0000    68.6770   -58.6727    28.9568    20.7656    23.3039
  468.5000    68.1553   -59.1883    27.9818    20.8042    23.5303
  469.0000    70.2512   -59.7238    27.0159    20.8429    23.9309
  469.5000    72.6619   -60.2639    27.0312    21.4237    24.7895
  470.0000    75.0612   -60.8518    28.0292    22.1868    26.4680
  470.5000    76.1275   -61.6617    28.8927    22.6620    28.2721
  471.0000    73.7145   -62.4743    33.0200    22.5577    30.2001
  471.5000    69.1077   -63.2823    41.3928    22.4731    29.3007
  472.0000    66.5551   -63.9288    41.1119    22.2267    28.3097
  472.5000    64.4731   -63.7621    34.5117    22.1694    26.1690
  473.0000    63.8509   -63.0576    28.7565    22.1123    25.2843
  473.5000    64.8907   -62.2096    25.2504    22.0553    25.2062
  474.0000    69.8250   -61.4768    24.3711    21.8424    25.1283
  474.5000    74.9553   -61.5943    24.7147    21.3423    25.0975
  475.0000    77.2525   -62.0476    26.3219    20.8519    25.0971
  475.5000    73.8021   -62.5085    28.0336    20.3732    25.0876
  476.0000    68.9956   -62.9695    29.2110    19.9057    25.1077
  476.5000    67.6313   -63.3357    29.4058    19.4490    23.4034
  477.0000    68.3148   -63.1013    26.1863    18.9171    22.1959
  477.5000    69.2809   -62.8622    23.8028    18.2790    21.1189
  478.0000    71.0071   -62.4795    21.6364    17.6624    20.0942
  478.5000    73.1830   -61.8725    20.1518    17.0667    19.4277
  479.0000    75.3849   -61.4929    19.0599    16.4910    18.8528
  479.5000    76.2160   -61.4505    18.6573    15.8703    18.2949
  480.0000    76.7841   -61.4042    19.2109    15.2590    17.8912
  480.5000    76.6352   -61.3601    19.3618    14.7994    17.6834
  481.0000    76.0951   -61.3020    19.1021    14.8875    17.4846
  481.5000    75.5604   -60.9698    18.8922    14.9741    17.5776
  482.0000    76.0909   -60.6294    18.6845    15.0612    17.6907
  482.5000    78.8879   -60.6141    18.4852    15.1489    17.8046
  483.0000    81.7859   -60.8669    18.8422    15.2371    17.9192
  483.5000    81.1505   -61.1194    19.1956    15.3581    18.0341
  484.0000    78.2483   -61.3714    19.5587    15.3483    18.1458
  484.5000    75.5272   -61.5186    19.9049    15.3313    18.1102
  485.0000    75.6579   -61.5763    19.3977    15.3146    18.0760
  485.5000    75.2718   -61.6367    18.9188    15.2981    18.0417
  486.0000    74.2259   -61.6952    18.6573    15.2816    18.0076
  486.5000    75.2194   -61.8114    18.6990    15.2651    17.9735
  487.0000    76.4657   -61.9553    18.7280    15.2487    17.9395
  487.5000    79.3526   -62.0997    18.7570    15.2327    17.9055
