~VERSION INFORMATION
 VERS.                2.0:   CWLS LOG ASCII STANDARD - VERSION 2.0
 WRAP.                 NO:   ONE LINE PER DEPTH STEP
~WELL INFORMATION
#MNEM.UNIT      DATA TYPE    INFORMATION
#----------   ------------   ------------------------------
 STRT.F           30.0000:   START DEPTH
 STOP.F          620.0000:   STOP DEPTH
 STEP.F            0.5000:   STEP LENGTH
 NULL.          -999.2500:   NO VALUE
 COMP. FENIX & SCISSON INC:   COMPANY
 WELL.       NPR-3 #62-15:   WELL
 FLD .             TEAPOT:   FIELD
 LOC .      S15 T38N R78W:   LOCATION
 CNTY.            NATRONA:   COUNTY
 STAT.            WYOMING:   STATE
 CTRY. UNITED STATES OF AMERICA:   COUNTRY
 SRVC.           BIRDWELL:   SERVICE COMPANY
 DATE.        08-JUN-1978:   LOGDATE
 API .       490251063700:   API NUMBER
~CURVE INFORMATION
#MNEM.UNIT       API CODE    CURVE DESCRIPTION
#----------   ------------   ------------------------------
 DEPT.F                  :   
 SPR .MV     05 010 01 00:   SPONTANEOUS POTENTIAL FROM RES.
 SN  .OHMM   05 040 16 00:   SHORT NORMAL 16"
 ILD .OHMM   05 120 46 00:   INDUCTION LOG DEEP
 CALD.IN     45 280 60 00:   CALIPER FROM DENSITY LOG
 GRD .GAPI   45 310 01 00:   GAMMA RAY FROM DENSITY LOG
 CORR.G/C3   45 356 01 00:   DENSITY CORRECTION
 DPHI.DEC    45 890 12 00:   DENSITY POROSITY SANDSTONE
 DEN .G/C3   45 350 01 00:   DENSITY
~PARAMETER INFORMATION
#MNEM.UNIT          VALUE    DESCRIPTION
#----------   ------------   ------------------------------
 PD  .                 GL:   PERMANENT DATUM
 EPD .F              5246:   ELEVATION PERMANENT DATUM
 LMF .                 KB:   LOG MEASURED FROM
 DAPD.F                 4:   FEET ABOVE PERMANENT DATUM
 DMF .                 KB:   DRILLING MEASURED FROM
 EKB .F              5250:   KELLING BUSHING
 EGL .F              5246:   GROUND LEVEL
 DATE.        08-JUN-1978:   RUN DATE
 RUN .                  1:   RUN NUMBER
 DD  .F               620:   DEPTH DRILLER
 DL  .F               627:   DEPTH LOGGER
 BLI .F               620:   BOTTOM LOG INTERVAL
 TLI .F                42:   TOP LOG INTERVAL
 CS  .IN            8.625:   CASING SIZE
 CBD .F                40:   CASING BOTTOM DRILLER
 CBL .F                42:   CASING BOTTOM LOGGER
 BS  .IN            7.875:   BIT SIZE
 BSD .F               620:   BIT SIZE AT DEPTH
 DFT .                KCL:   DRILLING FLUID TYPE
 DFD .                8.7:   DRILLING FLUID DENSITY
 DFV .                 31:   DRILLING FLUID VISCOSITY
 DFPH.               10.5:   DRILLING FLUID PH
 DFL .                 10:   DRILLING FLUID LOSS
 MSS .           FLOWLINE:   MUD SAMPLE SOURCE
 RMS .OHMM            .26:   RESISTIVITY MUD SAMPLE
 MST .F                76:   MUD SAMPLE TEMPERATURE
 RMF .OHMM            .28:   RESISTIVITY MUD FILTRATE SAMPLE
 MFST.F                76:   MUD FILTRATE SAMPLE TEMPERATURE
 RMC .OHMM            .40:   RESISTIVITY MUD CAKE
 MCST.F                77:   MUD CAKE SAMPLE TEMPERATURE
 MFSS.               MEAS:   MUD FILTRATE SAMPLE SOURCE
 MCSS.               MEAS:   MUD CAKE SAMPLE SOURCE
 RMB .OHMM            .28:   RESISTIVITY MUD AT BHT
 BHT .F                70:   BOTTOM HOLE TEMPERATURE
 TCS .HRS            0400:   TIME CURCULATED STOPPED
 MRT .F                70:   MAXIMUM RECORDED TEMPERATURE
 LUN .               2958:   LOGGING UNIT NUMBER
 LUL .               CASP:   LOGGING UNIT LOCATION
 ENGI.             MILLER:   RECORDING ENGINEER
 WITN.           MCGINLEY:   WITNESSED BY
 CLNT.            A2DTECH:   CLIENT CODE
 ORIG.           5" PRINT:   ORIGIN OF DATA
 UWI .       490251063700:   UNIQUE WELL ID
 DICO. A2D Technologies, Inc.:   DIGITIZING COMPANY
~OTHER INFORMATION
~A   DEPT      SPR         SN        ILD       CALD        GRD       CORR       DPHI        DEN   
# ...
  273.0000   -36.8857     8.5922     5.9641     7.3505    81.5389     0.0480     0.1387     2.4397
  273.5000   -36.7213     8.5963     5.9653     7.3352    80.4802     0.0465     0.1408     2.4367
  274.0000   -36.5569     8.5412     5.9254     7.3349    78.8191     0.0450     0.1432     2.4359
  274.5000   -36.6919     8.5453     5.9267     7.3045    75.9531     0.0419     0.1420     2.4359
  275.0000   -37.3254     8.5494     5.9279     7.3042    75.5974     0.0419     0.1363     2.4374
  275.5000   -37.7105     8.4944     5.9291     7.2888    77.4501     0.0404     0.1336     2.4419
  276.0000   -37.5424     8.4995     5.9303     7.2734    79.7047     0.0404     0.1469     2.4455
  276.5000   -37.5277     8.4449     5.9318     7.2731    78.1942     0.0350     0.1467     2.4373
  277.0000   -37.5130     8.3908     5.9330     7.2578    77.1354     0.0238     0.1421     2.4305
  277.5000   -37.3486     8.2795     5.8930     7.2123    77.2816     0.0238     0.1433     2.4297
  278.0000   -37.3340     8.2254     5.8945     7.1969    75.1686     0.0253     0.1451     2.4297
  278.5000   -37.3193     8.1164     5.8957     7.2569    74.5015     0.0237     0.1457     2.4296
  279.0000   -37.3046     8.0651     5.8969     7.5427    76.9668     0.0252     0.1451     2.4304
  279.5000   -37.2899     8.0691     5.8981     7.7081    77.4141     0.0282     0.1421     2.4326
  280.0000   -37.4251     8.0729     5.8993     7.7982    79.6687     0.0341     0.1359     2.4371
  280.5000   -37.8623     8.0768     5.8599     7.8882    82.0738     0.0446     0.1353     2.4438
  281.0000   -38.6058     7.9697     5.8207     7.9030    81.6124     0.0475     0.1374     2.4483
  281.5000   -39.0275     7.8640     5.6617     7.8876    81.6280     0.0475     0.1395     2.4452
  282.0000   -39.3123     7.8136     5.5054     7.9626    82.9739     0.0490     0.1383     2.4407
  282.5000   -39.2939     7.6569     5.3242     8.0677    83.8755     0.0609     0.1257     2.4469
  283.0000   -39.2792     7.5034     5.2158     8.0674    84.3104     0.0654     0.1308     2.4557
  283.5000   -39.1148     7.4039     5.1809     8.0521    81.5946     0.0587     0.1369     2.4531
  284.0000   -39.1001     7.4083     5.1822     8.0367    78.4275     0.0564     0.1384     2.4449
  284.5000   -39.0854     7.4632     5.2192     8.0063    77.0676     0.0526     0.1354     2.4450
  285.0000   -39.2241     7.5706     5.2203     7.6596    76.7619     0.0473     0.1372     2.4443
  285.5000   -39.2058     7.7329     5.2575     7.5087    78.2634     0.0458     0.1390     2.4412
  286.0000   -39.1911     7.8442     5.3318     7.4632    83.5300     0.0450     0.1444     2.4382
  286.5000   -39.1764     7.8480     5.3329     7.4027    84.5798     0.0577     0.1421     2.4367
  287.0000   -39.7605     7.8518     5.3709     7.3572    84.2740     0.0637     0.1292     2.4396
  287.5000   -39.8955     7.9108     5.4093     7.3268    84.7213     0.0591     0.1262     2.4591
  288.0000   -39.8802     8.0246     5.4857     7.2813    85.3192     0.0501     0.1262     2.4606
  288.5000   -40.0158     8.1402     5.5248     7.2358    86.5195     0.0396     0.1337     2.4568
  289.0000   -39.9975     8.1440     5.5262     7.2355    88.3223     0.0306     0.1445     2.4538
  289.5000   -39.9828     8.2044     5.5273     7.2503    90.1250     0.0246     0.1547     2.4212
  290.0000   -39.9681     8.2082     5.5668     7.3554    91.6265     0.0275     0.1536     2.4131
  290.5000   -39.9534     8.3264     5.6065     7.5208    91.4639     0.0500     0.1336     2.4232
  291.0000   -39.9387     8.3881     5.6465     7.5356    88.7209     0.0724     0.1180     2.4750
  291.5000   -39.9240     8.5679     5.6869     7.5352    85.1144     0.0769     0.1122     2.4866
  292.0000   -39.9093     8.6314     5.6880     7.5349    84.3695     0.0753     0.1165     2.4843
  292.5000   -40.0468     8.6355     5.7683     7.6400    83.8981     0.0528     0.1148     2.4813
  293.0000   -40.0297     8.5800     5.8095     7.7602    81.6747     0.0438     0.1116     2.4828
  293.5000   -40.0138     8.5250     5.8107     7.7750    76.8008     0.0423     0.1141     2.4865
  294.0000   -39.9991     8.4703     5.8522     7.7446    76.5303     0.0423     0.1171     2.4842
  294.5000   -39.9844     8.5341     5.8534     7.6840    81.1341     0.0333     0.1273     2.4722
  295.0000   -39.9672     8.5381     5.8548     7.6385    82.2691     0.0198     0.1255     2.4624
  295.5000   -39.9526     8.4250     5.8154     7.5780    82.7189     0.0167     0.1234     2.4616
  296.0000   -39.9379     8.1992     5.8169     7.5325    83.8907     0.0182     0.1267     2.4624
  296.5000   -39.9232     8.0338     5.8181     7.6376    86.4464     0.0212     0.1313     2.4578
  297.0000   -39.9085     7.9831     5.8192     7.7729    88.7009     0.0211     0.1340     2.4518
  297.5000   -40.0472     7.9870     5.8204     7.8178    89.9013     0.0241     0.1316     2.4503
  298.0000   -40.0288     7.9908     5.8216     7.9078    86.5835     0.0346     0.1286     2.4570
  298.5000   -40.1675     8.0501     5.8228     7.8623    82.6634     0.0450     0.1265     2.4637
  299.0000   -40.1491     8.0540     5.8240     7.8018    82.3577     0.0465     0.1274     2.4644
  299.5000   -40.2844     8.1145     5.8252     7.9370    82.8050     0.0464     0.1271     2.4644
  300.0000   -40.5689     8.1736     5.8263     8.0572    84.2129     0.0539     0.1245     2.4672
  300.5000   -40.5501     8.1217     5.7506     8.0859    86.7004     0.0583     0.1194     2.4756
  301.0000   -40.5341     8.0702     5.6755     8.0688    89.2512     0.0597     0.1116     2.4845
  301.5000   -40.5180     8.0756     5.6014     8.0220    86.8295     0.0461     0.1149     2.4821
  302.0000   -40.5019     8.0800     5.5635     7.9601    82.6007     0.0430     0.1170     2.4754
  302.5000   -40.4859     8.0844     5.4194     7.9133    80.7815     0.0459     0.1153     2.4776
  303.0000   -40.4698     8.0887     5.3486     7.8514    80.7695     0.0428     0.1216     2.4791
  303.5000   -40.4536     8.0931     5.3144     7.7895    80.0045     0.0292     0.1249     2.4729
  304.0000   -40.4371     8.0417     5.3189     7.7277    79.6913     0.0216     0.1318     2.4600
  304.5000   -40.4176     8.0462     5.3225     7.6658    80.8842     0.0245     0.1288     2.4534
  305.0000   -40.5604     8.0515     5.2885     7.6039    82.5288     0.0304     0.1226     2.4602
  305.5000   -40.5638     8.0559     5.2930     7.5571    85.0771     0.0378     0.1217     2.4653
  306.0000   -40.5672     8.0602     5.2600     7.5136    85.3693     0.0377     0.1283     2.4627
  306.5000   -40.5706     8.0646     5.2270     7.4626    82.6435     0.0316     0.1315     2.4539
  307.0000   -40.5740     8.0123     5.1591     7.4117    83.3845     0.0270     0.1323     2.4509
  307.5000   -40.5774     7.9625     5.1270     7.3607    86.3846     0.0224     0.1338     2.4492
  308.0000   -40.5808     7.8034     5.0952     7.3078    88.0322     0.0223     0.1392     2.4461
  308.5000   -40.5842     7.6994     5.0295     7.2911    86.5824     0.0222     0.1453     2.4378
  309.0000   -40.5876     7.5988     5.0329     7.2744    84.5404     0.0251     0.1443     2.4318
  309.5000   -40.5910     7.4470     5.0363     7.2568    80.0104     0.0294     0.1477     2.4296
  310.0000   -40.5944     7.3964     5.0396     7.2108    81.8056     0.0338     0.1456     2.4328
  310.5000   -40.5978     7.2519     5.0430     7.2089    83.7515     0.0382     0.1357     2.4394
  311.0000   -40.6012     7.1572     5.0464     7.2524    85.6973     0.0396     0.1288     2.4419
  311.5000   -40.6046     7.0618     5.0499     7.3261    88.3962     0.0395     0.1276     2.4629
  312.0000   -40.6080     7.0170     5.0534     7.3998    89.4414     0.0394     0.1229     2.4684
  312.5000   -40.6114     6.9725     5.0575     7.4584    83.5530     0.0408     0.1202     2.4691
  313.0000   -40.6148     7.0743     5.0609     7.4722    79.0229     0.0407     0.1205     2.4706
