~VERSION INFORMATION
 VERS.                2.0:   CWLS LOG ASCII STANDARD - VERSION 2.0
 WRAP.                 NO:   ONE LINE PER DEPTH STEP
~WELL INFORMATION
#MNEM.UNIT      DATA TYPE    INFORMATION
#----------   ------------   ------------------------------
 STRT.F          131.0000:   START DEPTH
 STOP.F         1085.0000:   STOP DEPTH
 STEP.F            0.5000:   STEP LENGTH
 NULL.          -999.2500:   NO VALUE
 COMP. U S NAVY-INTEX OIL:   COMPANY
 WELL.     UPR #3 #66-S-2:   WELL
 FLD .             TEAPOT:   FIELD
 LOC .       S2 T38N R78W:   LOCATION
 CNTY.            NATRONA:   COUNTY
 STAT.            WYOMING:   STATE
 CTRY. UNITED STATES OF AMERICA:   COUNTRY
 SRVC.       Schlumberger:   SERVICE COMPANY
 DATE.        18-JUL-1964:   LOGDATE
 API .       490250641300:   API NUMBER
~CURVE INFORMATION
#MNEM.UNIT       API CODE    CURVE DESCRIPTION
#----------   ------------   ------------------------------
 DEPT.F                  :   
 ASN .OHMM   05 041 16 00:   AMPLIFIED SHORT NORMAL 16"
 CILD.MMHO   05 110 46 00:   CONDUCTIVITY INDUCTION LOG DEEP
 ILD .OHMM   05 120 46 00:   INDUCTION LOG DEEP
 SPR .MV     05 010 01 00:   SPONTANEOUS POTENTIAL FROM RES.
 GR  .GAPI   30 310 01 00:   GAMMA RAY
 CALS.IN     60 280 50 00:   CALIPER FROM SONIC LOG
 DT  .US/F   60 520 33 00:   INTERVAL TRANSIT TIME
~PARAMETER INFORMATION
#MNEM.UNIT          VALUE    DESCRIPTION
#----------   ------------   ------------------------------
 PD  .                 GL:   PERMANENT DATUM
 EPD .F              5204:   ELEVATION PERMANENT DATUM
 LMF .                 KB:   LOG MEASURED FROM
 DAPD.F                 5:   FEET ABOVE PERMANENT DATUM
 DMF .                 KB:   DRILLING MEASURED FROM
 EKB .F              5209:   KELLING BUSHING
 EGL .F              5204:   GROUND LEVEL
 DATE.          7-18-1964:   RUN DATE
 RUN .                  1:   RUN NUMBER
 DD  .F              1085:   DEPTH DRILLER
 DL  .F              1086:   DEPTH LOGGER
 BLI .F              1085:   BOTTOM LOG INTERVAL
 TLI .F               131:   TOP LOG INTERVAL
 CS  .IN            8.625:   CASING SIZE
 CBD .F                10:   CASING BOTTOM DRILLER
 BS  .IN             6.75:   BIT SIZE
 BSD .F              5204:   BIT SIZE AT DEPTH
 DFT .                GEL:   DRILLING FLUID TYPE
 DFD .                9.5:   DRILLING FLUID DENSITY
 DFV .                 47:   DRILLING FLUID VISCOSITY
 DFL .                 10:   DRILLING FLUID LOSS
 MSS .           FLOWLINE:   MUD SAMPLE SOURCE
 RMS .OHMM           2.58:   RESISTIVITY MUD SAMPLE
 MST .F                93:   MUD SAMPLE TEMPERATURE
 RMF .OHMM           2.27:   RESISTIVITY MUD FILTRATE SAMPLE
 MFST.F                93:   MUD FILTRATE SAMPLE TEMPERATURE
 MFSS.                 FP:   MUD FILTRATE SAMPLE SOURCE
 TCS .HRS             1.5:   TIME CURCULATED STOPPED
 LUN .               3527:   LOGGING UNIT NUMBER
 LUL .              CSPR.:   LOGGING UNIT LOCATION
 ENGI.            WINKLER:   RECORDING ENGINEER
 WITN.          JORGENSEN:   WITNESSED BY
 CLNT.            A2DTECH:   CLIENT CODE
 ORIG.    1" , 2.5" PRINT:   ORIGIN OF DATA
 UWI .       490250641300:   UNIQUE WELL ID
 DICO. A2D Technologies, Inc.:   DIGITIZING COMPANY
~OTHER INFORMATION
~A   DEPT      ASN       CILD        ILD        SPR         GR       CALS         DT   
# ...
  677.0000     9.5048   118.5970     9.2723   -33.9286    80.5756     6.6793    97.9745
  677.5000     9.4755   118.5794     9.2746   -33.6310    83.4850     6.7114    98.3434
  678.0000     9.5353   118.5649     9.2772   -33.6310    90.0751     6.6976    98.7122
  678.5000     9.5659   118.5505     9.2794   -33.9286    88.5719     6.7150    98.7820
  679.0000     9.5955   118.5360     9.2815   -33.9286    84.6444     6.7016    98.6975
  679.5000     9.5960   118.5215     9.2837   -33.9698    81.3230     6.6122    98.5397
  680.0000     9.5608   118.5070     9.2859   -34.2262    79.8198     6.3556    98.2314
  680.5000     9.4781   117.0000     9.4368   -34.2262    84.9832     5.9560    98.0735
  681.0000     9.4394   116.9851     9.4390   -34.2262    86.6618     5.6045    98.3672
  681.5000     9.4197   117.1394     9.4412   -33.9286    87.1283     5.8599    98.8247
  682.0000     9.4202   118.7063     9.4435   -33.7956    86.5342     6.1960    99.3288
  682.5000     9.4206   122.1145     9.4457   -33.3333    84.4249     6.4106    99.4738
  683.0000     9.4211   126.3186     9.2989   -33.0357    79.8914     6.6403    99.4646
  683.5000     9.3622   131.3981     9.3013   -32.9261    77.1760     6.7029    99.4573
  684.0000     9.2440   137.5325     9.1544   -33.3333    74.9152     6.7047    99.5270
  684.5000     9.0070   141.4677     8.9454   -33.6310    75.0787     6.6909    99.8941
  685.0000     8.7701   146.0199     8.7897   -33.9286    74.1365     6.6931   100.3382
  685.5000     8.5034   151.1761     8.4851   -33.9286    72.2518     6.6645   100.7823
  686.0000     8.2368   154.1467     8.1224   -33.9286    66.9356     6.6055   101.4521
  686.5000     7.9997   157.1173     7.8270   -34.2262    63.6142     6.5148   102.2057
  687.0000     7.8166   158.5954     7.5315   -34.2262    59.3837     6.4571   102.9767
  687.5000     7.6372   157.0883     7.2361   -34.1890    55.4563     6.4593   104.5133
  688.0000     7.5505   155.5813     7.3871   -33.9286    53.3470     6.4763   105.4841
  688.5000     7.4898   152.5817     7.5380   -33.6310    55.3286     6.4781   104.5738
  689.0000     7.5641   148.0498     7.5402   -33.3333    61.5527     6.4951   103.5131
  689.5000     7.9610   143.4874     7.8400   -33.3333    63.8373     6.4968   102.6028
  690.0000     8.3343   139.1045     7.8571   -33.6310    66.2735     6.4834   101.6925
  690.5000     8.5226   137.3084     7.9933   -33.9286    70.5279     6.4696   100.7822
  691.0000     8.5380   136.0896     8.1443   -33.9286    73.4186     6.4718   100.3234
  691.5000     8.5088   136.0746     8.1466   -33.3333    74.9457     6.4736   100.0903
  692.0000     8.5093   137.5549     8.1488   -33.0357    74.6546     6.5362   100.0737
  692.5000     8.5987   138.1841     8.2999   -33.0357    73.5985     6.5836    99.6976
  693.0000     8.6585   139.0149     8.3021   -33.0357    73.4663     6.6006    99.0883
  693.5000     8.5996   139.0000     8.3043   -33.3333    76.0814     6.6332    98.6295
  694.0000     8.5407   140.4748     8.3070   -33.3333    73.7962     6.6198    99.4498
  694.5000     8.5114   138.9678     8.3092   -33.3368    72.4445     6.5911    99.8187
  695.0000     8.4822   138.9533     8.3113   -33.3333    76.6989     6.5321    99.8113
  695.5000     8.4826   138.9388     8.3135   -33.6310    79.7411     6.4579    99.7306
  696.0000     8.4534   137.4318     8.4645   -33.9286    81.1167     6.4137   100.0976
  696.5000     8.4835   135.9247     8.4666   -33.9286    84.9165     6.4003   100.0903
  697.0000     8.5225   134.4177     8.4688   -34.2262    86.8951     6.3720    99.9193
  697.5000     8.7050   132.9104     8.4710   -34.2262    82.3646     6.3435    99.5470
  698.0000     8.9501   131.2637     8.4732   -34.3512    80.2553     6.3301    99.4644
  698.5000     9.0051   129.8955     8.4754   -34.5238    78.4491     6.3167    99.6094
  699.0000     8.8851   129.5620     8.6265   -34.5238    76.7943     6.3185    98.9230
  699.5000     8.8306   128.3731     8.6692   -34.2262    76.9578     6.3511    98.2385
  700.0000     9.1099   127.8606     8.9286   -34.2262    80.1515     6.3833    97.9302
  700.5000     9.2073   126.8536     8.9315   -34.2425    81.9818     6.4153    97.9981
  701.0000     9.1404   128.3284     8.9345   -34.5565    81.9273     6.4931    98.2917
  701.5000     9.0518   129.8060     8.8604   -35.1147    78.5235     6.5557    99.1120
  702.0000     8.9335   132.1395     8.7917   -35.0416    77.7749     6.4055    99.8651
  702.5000     8.8153   135.7436     8.6458   -34.5164    78.6989     6.3161   100.3236
  703.0000     8.6959   135.7291     8.6492   -34.1101    80.9835     6.2716   100.5949
  703.5000     8.6352   137.2072     8.3545   -33.1979    83.4196     6.2285   100.8229
  704.0000     8.5792   137.1927     8.2086   -32.2857    80.0982     6.2330   100.8924
  704.5000     8.6093   138.6707     8.0627   -32.2902    80.4131     6.3237   100.7358
  705.0000     8.6182   138.6562     8.0655   -32.7229    79.8190     6.4471   100.5041
  705.5000     8.6399   138.6417     8.0684   -32.7215    79.6764     6.5705   100.3399
  706.0000     8.6404   138.6269     7.9225   -32.4224    80.3151     6.6179   100.0276
  706.5000     8.6111   138.6119     7.9256   -32.1234    71.6729     6.6349    99.5820
  707.0000     8.5208   138.5970     7.9286   -32.4195    67.4221     6.6367    99.1999
  707.5000     8.4341   138.5821     7.9315   -32.4181    64.5755     6.6228    98.8177
  708.0000     8.3751   138.5672     7.9345   -32.7143    70.4769     6.6251    98.5109
  708.5000     8.3756   138.5522     7.9375   -32.7128    72.9356     6.6269    98.2792
  709.0000     8.3760   138.5373     7.7917   -32.7113    75.0687     6.6130    98.3500
  709.5000     8.3764   140.0149     7.7946   -32.4122    76.4442     6.6153    98.7188
  710.0000     8.3769   140.0000     7.7976   -32.4107    78.5773     6.6171    99.0891
  710.5000     8.3180   138.4896     7.8011   -32.4092    79.3468     6.6188    99.4595
  711.0000     8.3184   138.4751     7.8040   -32.4077    80.1163     6.6207    99.7545
  711.5000     8.3188   138.4606     7.8069   -32.4062    80.8858     6.6225    99.8239
  712.0000     8.2896   138.4461     7.8098   -32.7024    80.2916     6.6243    99.6664
  712.5000     8.2603   139.9242     7.8127   -32.8497    79.3944     6.6265    99.3541
  713.0000     8.2688   139.9097     7.8156   -33.1637    79.1033     6.6435    99.0534
  713.5000     8.3206   141.3881     7.8185   -33.2932    78.5091     6.6301    98.9710
  714.0000     8.3211   142.8658     7.8214   -33.8869    76.9899     6.5863    99.2661
  714.5000     8.3215   144.3438     7.8244   -34.4805    76.2602     6.5273    99.5611
  715.0000     8.2913   144.3284     7.8274   -34.7768    76.2751     6.4683   100.0067
  715.5000     8.2459   144.3134     7.8304   -34.4776    74.6203     6.4544   100.3770
  716.0000     8.2042   145.7929     7.8333   -33.8809    71.7535     6.4719   100.5983
  716.5000     8.1453   147.2709     7.8363   -33.2842    69.3411     6.5193   100.7429
  717.0000     8.0567   147.2537     7.6905   -32.6756    67.9864     6.5818   100.8860
  717.5000     7.9978   147.8856     7.6935   -32.3884    71.7892     6.6292   100.8800
  718.0000     7.9685   148.7164     7.5476   -32.3869    74.6799     6.6614   100.8741
  718.5000     7.9097   148.7015     7.5512   -32.3854    81.5099     6.6784   100.7177
  719.0000     7.9101   147.1912     7.4052   -32.3006    82.2765     6.6650   100.7118
  719.5000     7.9423   147.1767     7.4081   -32.0848    81.8368     6.6516   100.5506
  720.0000     8.0376   145.6697     7.4110   -32.0833    81.3941     6.6539   100.3888
  720.5000     8.1604   144.1627     7.5627   -32.5164    80.9505     6.6557   100.3164
  721.0000     8.2908   141.1631     7.5656   -32.8303    81.4667     6.6726   100.3104
  721.5000     8.4262   139.6561     7.5685   -33.2693    84.0526     6.6136   100.1540
  722.0000     8.5062   138.1491     7.7272   -33.2676    84.9296     6.4939    99.8471
