~VERSION INFORMATION
 VERS.                2.0:   CWLS LOG ASCII STANDARD - VERSION 2.0
 WRAP.                 NO:   ONE LINE PER DEPTH STEP
~WELL INFORMATION
#MNEM.UNIT      DATA TYPE    INFORMATION
#----------   ------------   ------------------------------
 STRT.F           20.0000:   START DEPTH
 STOP.F          964.0000:   STOP DEPTH
 STEP.F            0.5000:   STEP LENGTH
 NULL.          -999.2500:   NO VALUE
 COMP. FENIX & SCISSON INC:   COMPANY
 WELL.    NPR-3 SX #58-11:   WELL
 FLD .             TEAPOT:   FIELD
 LOC .      S11 T38N R78W:   LOCATION
 CNTY.            NATRONA:   COUNTY
 STAT.            WYOMING:   STATE
 CTRY. UNITED STATES OF AMERICA:   COUNTRY
 SRVC.            Unknown:   SERVICE COMPANY
 DATE.        09-MAR-1978:   LOGDATE
 API .       490251060100:   API NUMBER
~CURVE INFORMATION
#MNEM.UNIT       API CODE    CURVE DESCRIPTION
#----------   ------------   ------------------------------
 DEPT.F                  :   
 SPR .MV     05 010 01 00:   SPONTANEOUS POTENTIAL FROM RES.
 SN  .OHMM   05 040 16 00:   SHORT NORMAL 16"
 ILD .OHMM   05 120 46 00:   INDUCTION LOG DEEP
 CALD.IN     45 280 60 00:   CALIPER
 GRD .GAPI   45 310 01 00:   GAMMA RAY FROM DENSITY LOG
 CORR.G/C3   45 356 01 00:   DENSITY CORRECTION
 RHOB.G/C3   45 350 01 00:   BULK DENSITY
 DPHI.DEC    45 890 12 00:   DENSITY POROSITY SANDSTONE
~PARAMETER INFORMATION
#MNEM.UNIT          VALUE    DESCRIPTION
#----------   ------------   ------------------------------
 PD  .                 GL:   PERMANENT DATUM
 EPD .F              5219:   ELEVATION PERMANENT DATUM
 LMF .                 KB:   LOG MEASURED FROM
 DAPD.F                 4:   FEET ABOVE PERMANENT DATUM
 DMF .                 KB:   DRILLING MEASURED FROM
 EKB .F              5223:   KELLING BUSHING
 EGL .F              5219:   GROUND LEVEL
 DATE.           3-9-1978:   RUN DATE
 RUN .                  1:   RUN NUMBER
 DD  .F               963:   DEPTH DRILLER
 DL  .F               966:   DEPTH LOGGER
 BLI .F               960:   BOTTOM LOG INTERVAL
 TLI .F                80:   TOP LOG INTERVAL
 CS  .IN            8.625:   CASING SIZE
 CBD .F                40:   CASING BOTTOM DRILLER
 BS  .IN            7.875:   BIT SIZE
 BSD .F               963:   BIT SIZE AT DEPTH
 DFT .         LIGNO SULF:   DRILLING FLUID TYPE
 DFD .                8.6:   DRILLING FLUID DENSITY
 DFV .                 30:   DRILLING FLUID VISCOSITY
 DFPH.               10.5:   DRILLING FLUID PH
 DFL .                4.8:   DRILLING FLUID LOSS
 MSS .          FLOW LINE:   MUD SAMPLE SOURCE
 RMS .OHMM            1.7:   RESISTIVITY MUD SAMPLE
 MST .F                60:   MUD SAMPLE TEMPERATURE
 RMF .OHMM            1.5:   RESISTIVITY MUD FILTRATE SAMPLE
 MFST.F                74:   MUD FILTRATE SAMPLE TEMPERATURE
 RMC .OHMM            2.8:   RESISTIVITY MUD CAKE
 MCST.F                68:   MUD CAKE SAMPLE TEMPERATURE
 MFSS.               MEAS:   MUD FILTRATE SAMPLE SOURCE
 MCSS.               MEAS:   MUD CAKE SAMPLE SOURCE
 RMB .OHMM           1.38:   RESISTIVITY MUD AT BHT
 BHT .F                74:   BOTTOM HOLE TEMPERATURE
 TCS .HRS               4:   TIME CURCULATED STOPPED
 MRT .F                74:   MAXIMUM RECORDED TEMPERATURE
 LUN .               2958:   LOGGING UNIT NUMBER
 LUL .               CASP:   LOGGING UNIT LOCATION
 ENGI.             MILLER:   RECORDING ENGINEER
 WITN.         HARRINGTON:   WITNESSED BY
 CLNT.            A2DTECH:   CLIENT CODE
 ORIG.      2" , 5" PRINT:   ORIGIN OF DATA
 UWI .       490251060100:   UNIQUE WELL ID
 DICO. A2D Technologies, Inc.:   DIGITIZING COMPANY
~OTHER INFORMATION
~A   DEPT      SPR         SN        ILD       CALD         GRD      CORR       RHOB       DPHI   
# ...
  101.0000   -33.1399     0.5491     6.5989     7.9752    75.1696     0.0304     2.4409     0.1336
  101.5000   -33.0817     1.0664     6.6673     7.9741    76.8310     0.0297     2.4396     0.1344
  102.0000   -33.1300     3.2364     6.7877     7.9728    76.0163     0.0248     2.4390     0.1382
  102.5000   -33.5469     7.1923     6.7843     7.9716    75.0820     0.0219     2.4385     0.1329
  103.0000   -33.9562     7.3762     6.9322     7.9704    73.9570     0.0268     2.4436     0.1270
  103.5000   -34.3778     7.5649     7.0262     7.9692    73.4455     0.0310     2.4490     0.1239
  104.0000   -34.0208     7.7583     7.1217     7.9680    73.8126     0.0328     2.4544     0.1227
  104.5000   -33.5378     7.8914     7.2193     7.9668    74.0838     0.0305     2.4602     0.1215
  105.0000   -33.2405     7.9460     7.3182     7.9657    74.3676     0.0287     2.4625     0.1215
  105.5000   -33.2381     8.0009     7.3745     7.9645    74.6737     0.0260     2.4621     0.1215
  106.0000   -33.4436     8.0562     7.3194     7.9633    74.9689     0.0236     2.4616     0.1263
  106.5000   -32.9972     8.0882     7.2752     7.9622    75.2094     0.0211     2.4520     0.1315
  107.0000   -32.5345     7.9119     7.2312     7.9610    75.8926     0.0187     2.4429     0.1343
  107.5000   -32.4368     7.8134     7.1875     7.9598    76.8660     0.0162     2.4364     0.1346
  108.0000   -32.4340     7.7948     7.1440     7.9586    77.6546     0.0137     2.4376     0.1349
  108.5000   -32.4348     7.7948     7.1008     7.9574    76.1813     0.0113     2.4370     0.1381
  109.0000   -32.4351     7.7948     7.0579     7.9563    74.7269     0.0091     2.4325     0.1377
  109.5000   -32.4351     7.8671     7.0152     7.9551    74.0141     0.0087     2.4325     0.1384
  110.0000   -32.4351     7.6920     6.9728     7.9539    73.8568     0.0118     2.4322     0.1437
  110.5000   -32.4351     7.5161     6.9307     7.9528    74.2604     0.0191     2.4339     0.1380
  111.0000   -32.4351     7.3056     6.9127     7.9516    75.6288     0.0263     2.4399     0.1289
  111.5000   -32.4351     7.3071     6.9127     7.9504    78.1404     0.0290     2.4458     0.1255
  112.0000   -32.4351     7.3191     6.9126     7.9492    80.4689     0.0288     2.4519     0.1255
  112.5000   -32.4348     7.3355     6.9127     7.9481    80.5760     0.0281     2.4560     0.1235
  113.0000   -32.4343     7.3520     6.9127     7.9469    80.6407     0.0275     2.4591     0.1223
  113.5000   -32.4370     7.3685     6.9127     7.9457    80.5742     0.0267     2.4598     0.1242
  114.0000   -32.5243     7.3850     6.9127     7.9445    80.6411     0.0260     2.4581     0.1246
  114.5000   -32.9655     7.4014     6.9127     7.9434    80.5717     0.0253     2.4608     0.1244
  115.0000   -33.2331     7.4179     6.9126     7.9422    80.4371     0.0244     2.4661     0.1242
  115.5000   -33.2312     7.4344     6.9125     7.9410    77.3732     0.0231     2.4641     0.1240
  116.0000   -33.1114     7.4429     6.8900     7.9398    74.6828     0.0220     2.4604     0.1259
  116.5000   -32.3888     7.2701     6.8463     7.9387    71.7195     0.0213     2.4525     0.1318
  117.0000   -32.3103     7.1176     6.8029     7.9375    72.9125     0.0266     2.4409     0.1377
  117.5000   -32.4381     7.0416     6.7596     7.9363    75.8158     0.0313     2.4295     0.1429
  118.0000   -32.1293     7.0325     6.7167     7.9351    76.4378     0.0341     2.4273     0.1410
  118.5000   -31.7249     7.0189     6.6740     7.9340    75.9912     0.0355     2.4311     0.1393
  119.0000   -31.3191     7.0054     6.6315     7.9328    76.2441     0.0392     2.4347     0.1374
  119.5000   -31.0198     6.9921     6.5408     7.9316    77.8823     0.0470     2.4365     0.1364
  120.0000   -30.9816     6.9787     6.5461     7.9304    76.5631     0.0549     2.4364     0.1358
  120.5000   -30.9387     6.9654     6.5533     7.9293    74.6503     0.0632     2.4360     0.1364
  121.0000   -30.8955     6.9521     6.5605     7.9281    75.0518     0.0638     2.4406     0.1349
  121.5000   -30.8520     6.9388     6.5676     7.9269    73.4895     0.0459     2.4571     0.1324
  122.0000   -30.7889     6.9248     6.5748     7.9257    72.1376     0.0286     2.4634     0.1300
  122.5000   -30.7148     6.9107     6.5820     7.9246    73.6648     0.0189     2.4455     0.1301
  123.0000   -30.6407     6.9804     6.5893     7.9234    76.2380     0.0167     2.4328     0.1334
  123.5000   -30.5666     6.9728     6.5964     7.9222    78.4657     0.0138     2.4332     0.1367
  124.0000   -30.4923     7.0416     6.6216     7.9211    79.6632     0.0101     2.4340     0.1406
  124.5000   -30.4180     6.9768     6.6725     7.9199    78.0438     0.0124     2.4325     0.1434
  125.0000   -30.3462     7.1234     6.7237     7.9187    75.8891     0.0215     2.4274     0.1465
  125.5000   -30.2726     7.2056     6.7754     7.9175    74.6562     0.0302     2.4225     0.1440
  126.0000   -30.5381     7.2888     6.8274     7.9163    75.0563     0.0402     2.4197     0.1404
  126.5000   -31.0223     7.3729     6.8799     7.9152    75.4612     0.0407     2.4263     0.1378
  127.0000   -31.4294     7.4580     6.9514     7.9140    75.9657     0.0277     2.4451     0.1372
  127.5000   -31.2750     7.5441     7.0547     7.9128    76.0697     0.0178     2.4519     0.1365
  128.0000   -31.0981     7.6312     7.1596     7.9117    75.5860     0.0208     2.4403     0.1327
  128.5000   -30.9107     7.7193     7.2660     7.9105    75.1579     0.0242     2.4412     0.1279
  129.0000   -30.7290     7.8085     7.3741     7.9093    74.7161     0.0212     2.4514     0.1216
  129.5000   -30.4194     7.8986     7.4837     7.9081    74.2828     0.0172     2.4596     0.1212
  130.0000   -30.4477     7.9898     7.5511     7.9070    73.8201     0.0133     2.4669     0.1251
  130.5000   -30.4705     8.0819     7.6237     7.9058    73.4025     0.0093     2.4492     0.1290
  131.0000   -30.4897     8.1744     7.6970     7.9046    73.0892     0.0113     2.4469     0.1326
  131.5000   -30.5098     8.2697     7.7709     7.9034    74.1274     0.0135     2.4421     0.1351
  132.0000   -30.5300     8.3926     7.8456     7.9023    74.9582     0.0164     2.4390     0.1326
  132.5000   -30.5501     8.3876     7.9401     7.9011    75.3168     0.0151     2.4427     0.1295
  133.0000   -30.5703     8.3821     7.9401     7.8997    75.6182     0.0117     2.4464     0.1303
  133.5000   -30.5905     8.3766     7.9401     7.8946    75.4420     0.0087     2.4450     0.1330
  134.0000   -30.6108     8.3711     7.9401     7.8898    74.2141     0.0058     2.4438     0.1355
  134.5000   -30.6307     8.3656     7.9401     7.8847    73.7692     0.0024     2.4312     0.1389
  135.0000   -30.6199     8.3601     7.9401     7.8798    73.3116     0.0022     2.4300     0.1402
  135.5000   -30.5201     8.3547     7.9401     7.8748    72.9064     0.0059     2.4274     0.1421
  136.0000   -30.4211     8.3492     7.9403     7.8699    72.4840     0.0089     2.4262     0.1402
  136.5000   -30.3223     8.3437     7.9408     7.8649    71.9894     0.0125     2.4246     0.1380
  137.0000   -30.2231     8.3382     7.9397     7.8600    72.1109     0.0109     2.4329     0.1356
  137.5000   -30.1233     8.3328     7.8441     7.8550    72.9631     0.0086     2.4446     0.1330
  138.0000   -30.0441     8.3268     7.7548     7.8500    73.7353     0.0056     2.4483     0.1302
  138.5000   -30.3041     8.3229     7.6664     7.8451    73.3533     0.0079     2.4402     0.1361
  139.0000   -30.5874     8.3195     7.5789     7.8401    72.9613     0.0139     2.4333     0.1384
  139.5000   -30.8404     8.1506     7.4924     7.8352    72.6670     0.0195     2.4307     0.1349
  140.0000   -30.6915     8.0067     7.4069     7.8302    74.6668     0.0209     2.4379     0.1326
  140.5000   -30.4837     7.8663     7.3224     7.8252    76.7188     0.0209     2.4407     0.1326
  141.0000   -30.2754     7.8675     7.2830     7.8203    74.7083     0.0209     2.4388     0.1326
