~VERSION INFORMATION
 VERS.                2.0:   CWLS LOG ASCII STANDARD - VERSION 2.0
 WRAP.                 NO:   ONE LINE PER DEPTH STEP
~WELL INFORMATION
#MNEM.UNIT      DATA TYPE    INFORMATION
#----------   ------------   ------------------------------
 STRT.F           32.0000:   START DEPTH
 STOP.F          557.0000:   STOP DEPTH
 STEP.F            0.5000:   STEP LENGTH
 NULL.          -999.2500:   NO VALUE
 COMP. FENIX & SCISSON U.S. NAVY:   COMPANY
 WELL.   S-3 NPR #3 #31-3:   WELL
 FLD .              NPR-3:   FIELD
 LOC .       S3 T38N R78W:   LOCATION
 CNTY.            NATRONA:   COUNTY
 STAT.            WYOMING:   STATE
 CTRY. UNITED STATES OF AMERICA:   COUNTRY
 SRVC.              Welex:   SERVICE COMPANY
 DATE.        05-MAR-1977:   LOGDATE
 API .       490251039500:   API NUMBER
~CURVE INFORMATION
#MNEM.UNIT       API CODE    CURVE DESCRIPTION
#----------   ------------   ------------------------------
 DEPT.F                  :   
 CALD.IN     45 280 60 00:   CALIPER FROM DENSITY LOG
 DPHI.DEC    45 890 12 00:   DENSITY POROSITY SANDSTONE
 DRHO.G/C3   45 356 01 00:   DENSITY CORRECTION
 GRD .GAPI   45 310 01 00:   GAMMA RAY FROM DENSITY LOG
 RHOB.G/C3   45 350 01 00:   BULK DENSITY
 ILD .OHMM   07 120 46 00:   INDUCTION LOG DEEP
 ILM .OHMM   07 120 44 00:   INDUCTION LOG MEDIUM
 SGRD.OHMM   07 220 05 00:   SHALLOW GUARD RESISTIVITY
 SPR .MV     07 010 01 00:   SPONTANEOUS POTENTIAL FROM RES.
~PARAMETER INFORMATION
#MNEM.UNIT          VALUE    DESCRIPTION
#----------   ------------   ------------------------------
 PD  .                 GL:   PERMANENT DATUM
 EPD .F              5178:   ELEVATION PERMANENT DATUM
 LMF .                 GL:   LOG MEASURED FROM
 DMF .                 GL:   DRILLING MEASURED FROM
 EGL .F              5178:   GROUND LEVEL
 DATE.        05-MAR-1977:   RUN DATE
 RUN .                  1:   RUN NUMBER
 DD  .F               560:   DEPTH DRILLER
 DL  .F               560:   DEPTH LOGGER
 BLI .F               558:   BOTTOM LOG INTERVAL
 TLI .F                40:   TOP LOG INTERVAL
 CS  .IN            8.625:   CASING SIZE
 CBD .F                43:   CASING BOTTOM DRILLER
 CBL .F                43:   CASING BOTTOM LOGGER
 BS  .IN            7.875:   BIT SIZE
 BSD .F               560:   BIT SIZE AT DEPTH
 DFT .                KCL:   DRILLING FLUID TYPE
 DFD .                8.8:   DRILLING FLUID DENSITY
 DFV .                 32:   DRILLING FLUID VISCOSITY
 MSS .           FLOWLINE:   MUD SAMPLE SOURCE
 RMS .OHMM           1.46:   RESISTIVITY MUD SAMPLE
 MST .F                48:   MUD SAMPLE TEMPERATURE
 RMF .OHMM          0.972:   RESISTIVITY MUD FILTRATE SAMPLE
 MFST.F                48:   MUD FILTRATE SAMPLE TEMPERATURE
 RMC .OHMM           2.32:   RESISTIVITY MUD CAKE
 MCST.F                48:   MUD CAKE SAMPLE TEMPERATURE
 MFSS.               MEAS:   MUD FILTRATE SAMPLE SOURCE
 MCSS.               MEAS:   MUD CAKE SAMPLE SOURCE
 RMB .OHMM           1.03:   RESISTIVITY MUD AT BHT
 BHT .F                68:   BOTTOM HOLE TEMPERATURE
 TCS .HRS               2:   TIME CURCULATED STOPPED
 MRT .F                68:   MAXIMUM RECORDED TEMPERATURE
 LUN .               8611:   LOGGING UNIT NUMBER
 LUL .           GILLETTE:   LOGGING UNIT LOCATION
 ENGI.          D. LAWSON:   RECORDING ENGINEER
 WITN.     MR. STUEBINGER:   WITNESSED BY
 CLNT.            A2DTECH:   CLIENT CODE
 ORIG.           5" PRINT:   ORIGIN OF DATA
 UWI .       490251039500:   UNIQUE WELL ID
 DICO. A2D Technologies, Inc.:   DIGITIZING COMPANY
~OTHER INFORMATION
~A   DEPT       CALD     DPHI        DRHO        GRD        RHOB      ILD        ILM       SGRD        SPR   
# ...
  324.0000     8.1032     0.1239     0.0237   136.0486     2.4384     5.5975     6.7441     8.0421   -18.4760
  324.5000     8.1045     0.1244     0.0179   135.5252     2.4392     5.3736     6.6560     7.9357   -18.4643
  325.0000     8.0906     0.1250     0.0181   137.7823     2.4385     5.1580     6.6157     8.1067   -18.4524
  325.5000     8.0770     0.1262     0.0182   136.7565     2.4341     5.0200     6.5292     8.2813   -18.4384
  326.0000     8.0787     0.1318     0.0230   134.2360     2.4266     4.8857     6.3554     8.0049   -18.4268
  326.5000     8.0800     0.1384     0.0246   136.1951     2.4141     4.7879     5.9760     6.8308   -18.4153
  327.0000     8.0813     0.1464     0.0248   135.0202     2.3939     4.7247     5.0564     5.2542   -18.4037
  327.5000     8.0826     0.1620     0.0249   130.8647     2.3759     4.7601     4.8630     4.9389   -18.3921
  328.0000     8.0842     0.1571     0.0191   125.2032     2.3835     4.7961     5.0733     5.7949   -18.3806
  328.5000     8.0855     0.1439     0.0162   125.0872     2.4211     4.9032     5.3654     7.0376   -18.3690
  329.0000     8.0868     0.1331     0.0194   126.5992     2.4601     5.0396     5.7534     7.9754   -18.5062
  329.5000     8.1030     0.1223     0.0256   128.2559     2.4654     5.2559     6.2988     8.0397   -18.3430
  330.0000     8.1043     0.1073     0.0257   130.9558     2.4700     5.4815     6.7078     8.1526   -18.3314
  330.5000     8.1205     0.1032     0.0259   132.9106     2.4753     5.7564     6.9006     8.3281   -18.3198
  331.0000     8.1218     0.1007     0.0256   133.3707     2.4754     5.9621     7.0014     8.3325   -18.3083
  331.5000     8.1082     0.1054     0.0217   131.0079     2.4707     6.1326     7.1037     8.3370   -18.2967
  332.0000     8.1095     0.1072     0.0203   128.3388     2.4651     6.1359     7.1085     8.3415   -18.2851
  332.5000     8.1260     0.1098     0.0205   128.5693     2.4636     6.0536     7.1135     8.4039   -18.2736
  333.0000     8.1273     0.1083     0.0222   130.1702     2.4667     5.8871     7.1193     8.4668   -18.2619
  333.5000     8.1286     0.1068     0.0269   130.4856     2.4713     5.5795     7.0250     8.4714   -18.2500
  334.0000     8.1299     0.1085     0.0270   129.9068     2.4669     5.2821     6.6526     8.4761   -18.5365
  334.5000     8.1312     0.1160     0.0302   129.6218     2.4550     5.0702     6.2988     8.2501   -18.5220
  335.0000     8.1325     0.1227     0.0304   130.0906     2.4445     5.0026     5.8012     7.3894   -18.5105
  335.5000     8.1338     0.1291     0.0245   132.6415     2.4303     4.9365     5.4927     5.5671   -18.4989
  336.0000     8.1500     0.1315     0.0217   133.2550     2.4237     4.8720     5.4208     4.0791   -18.4873
  336.5000     8.1516     0.1236     0.0219   133.2723     2.4418     4.8746     5.5001     5.6900   -18.4758
  337.0000     8.1678     0.1158     0.0220   131.5056     2.4613     4.9489     5.7370     8.1226   -18.6131
  337.5000     8.1691     0.1092     0.0222   130.0284     2.4697     5.0985     5.9981     6.6327   -18.7502
  338.0000     8.1704     0.1098     0.0209   129.1559     2.4600     5.3795     6.5978     7.8752   -18.7358
  338.5000     8.1866     0.1058     0.0195   127.6829     2.4683     5.6885     6.9778     8.7584   -18.7242
  339.0000     8.2028     0.1025     0.0197   126.5080     2.4751     6.0153     7.2783     8.8853   -18.8615
  339.5000     8.2189     0.1007     0.0183   127.1215     2.4807     6.3608     7.4875     9.0139   -19.0016
  340.0000     8.2351     0.1019     0.0185   125.9466     2.4783     6.6799     7.6496     9.1445   -18.9871
  340.5000     8.2365     0.1024     0.0171   123.4305     2.4761     6.9186     7.7613     9.2769   -18.9756
  341.0000     8.2232     0.1018     0.0173   125.3145     2.4771     7.1165     7.8205     9.4112   -18.9640
  341.5000     8.2245     0.0988     0.0175   127.4934     2.4830     7.2195     7.9347     9.4163   -18.9524
  342.0000     8.2258     0.0957     0.0177   129.8952     2.4876     7.2243     7.9438     9.3564   -18.9405
  342.5000     8.2119     0.0945     0.0178   129.3165     2.4899     7.2282     8.0563     9.4277   -18.9264
  343.0000     8.2284     0.0958     0.0180   126.9493     2.4885     7.2822     8.1751     9.5642   -18.9148
  343.5000     8.2446     0.0986     0.0182   126.3662     2.4840     7.3367     8.1807     9.7027   -18.9033
  344.0000     8.2459     0.1010     0.0153   128.0273     2.4804     7.3407     8.1862     9.7079   -18.7429
  344.5000     8.2472     0.1034     0.0155   128.9409     2.4767     7.3446     8.1917     9.5796   -18.7313
  345.0000     8.2485     0.1009     0.0187   129.5728     2.4783     7.3996     8.1972     9.5848   -18.8690
  345.5000     8.2501     0.0937     0.0249   131.0643     2.4882     7.4549     8.2028     9.4580   -18.8570
  346.0000     8.4300     0.0901     0.0280   132.1206     2.4959     7.4590     8.2083     9.4633   -18.5476
  346.5000     8.3420     0.0912     0.0282   128.8636     2.4942     7.4115     8.1010     9.4896   -18.5334
  347.0000     8.2391     0.0882     0.0283   126.1984     2.4988     7.4680     8.1066     9.6734   -18.5218
  347.5000     8.2252     0.0846     0.0270   123.9760     2.5049     7.4720     8.0561     9.6786   -18.5102
  348.0000     8.2268     0.0879     0.0257   126.2331     2.5012     7.4760     7.9521     9.6157   -18.4986
  348.5000     8.2281     0.0917     0.0228   125.6543     2.4960     7.5319     7.9013     9.3595   -18.6359
  349.0000     8.2295     0.0947     0.0230   126.5802     2.4909     7.4840     8.0181     9.3646   -18.6243
  349.5000     8.2311     0.0979     0.0201   127.1837     2.4819     7.4881     8.2485     9.3696   -18.6128
  350.0000     8.2324     0.0985     0.0218   124.2205     2.4768     7.3892     8.3690     9.6377   -18.4524
  350.5000     8.2337     0.0952     0.0234   122.7432     2.4854     7.2916     8.6752    10.0077   -18.4321
  351.0000     8.2201     0.0898     0.0280   122.9139     2.4964     7.0975     8.7336    10.4844   -18.4147
  351.5000     8.1767     0.0912     0.0341   123.3784     2.4935     6.7658     8.7383    10.7845   -18.3973
  352.0000     8.1626     0.0976     0.0357   124.4390     2.4845     6.4496     8.4459    10.6420   -18.5331
  352.5000     8.1191     0.1022     0.0358   125.7976     2.4754     6.1908     8.0511    10.6330   -18.5113
  353.0000     8.1202     0.1130     0.0344   127.0233     2.4547     5.9424     7.5173    10.8019   -18.4939
  353.5000     8.0905     0.1219     0.0315   129.0920     2.4413     5.7435     6.6872    10.0996   -18.3274
  354.0000     8.0630     0.1326     0.0284   134.4715     2.4159     5.6677     5.7864     4.4602   -18.3060
  354.5000     8.0645     0.1494     0.0226   132.5486     2.3830     5.6716     5.7497     3.8853   -18.2886
  355.0000     8.0656     0.1607     0.0137   129.6523     2.3785     5.7239     6.0389     5.2717   -18.2712
  355.5000     8.0668     0.1465     0.0018   121.0071     2.4071     5.9592     6.8904    11.4491   -18.2538
  356.0000     8.0680     0.1145     0.0049   110.6882     2.4687     6.3208     7.8620    11.2978   -18.2364
  356.5000     8.0691     0.0953     0.0140   110.4010     2.4882     6.6759     8.5468    11.1470   -18.3722
  357.0000     8.0703     0.0971     0.0186   113.1017     2.4853     7.0117     9.1636    11.6274   -18.2016
  357.5000     8.1012     0.0959     0.0232   115.6497     2.4878     7.5709     9.6900    11.9658   -18.1842
  358.0000     8.5488     0.0940     0.0263   121.6255     2.4915     8.0069    10.0363    11.9668   -18.1667
  358.5000     8.4861     0.0952     0.0279   122.9813     2.4878     8.4679    10.2523    11.8085   -18.1488
  359.0000     8.3728     0.0991     0.0294   123.0194     2.4796     8.8326    10.4019    11.8164   -18.1277
  359.5000     8.3142     0.1011     0.0295   120.9082     2.4797     9.0864    10.5524    11.7413   -18.1103
  360.0000     8.2263     0.1023     0.0311   119.0909     2.4768     9.2875    10.5580    11.6650   -17.7953
