~VERSION INFORMATION
 VERS.                2.0:   CWLS LOG ASCII STANDARD - VERSION 2.0
 WRAP.                 NO:   ONE LINE PER DEPTH STEP
~WELL INFORMATION
#MNEM.UNIT      DATA TYPE    INFORMATION
#----------   ------------   ------------------------------
 STRT.F           25.0000:   START DEPTH
 STOP.F          528.0000:   STOP DEPTH
 STEP.F            0.5000:   STEP LENGTH
 NULL.          -999.2500:   NO VALUE
 COMP. FENIX & SCISSON INC:   COMPANY
 WELL.       NPR #3 #11-3:   WELL
 FLD .             NPR #3:   FIELD
 LOC .       S3 T38N R78W:   LOCATION
 CNTY.            NATRONA:   COUNTY
 STAT.            WYOMING:   STATE
 CTRY. UNITED STATES OF AMERICA:   COUNTRY
 SRVC.       Schlumberger:   SERVICE COMPANY
 DATE.        01-MAR-1977:   LOGDATE
 API .       490251028300:   API NUMBER
~CURVE INFORMATION
#MNEM.UNIT       API CODE    CURVE DESCRIPTION
#----------   ------------   ------------------------------
 DEPT.F                  :   
 SPR .MV     07 010 01 00:   SPONTANEOUS POTENTIAL
 LL8 .OHMM   07 220 08 00:   LATEROLOG-8 RES.
 ILM .OHMM   07 120 44 00:   INDUCTION LOG MEDIUM
 ILD .OHMM   07 120 46 00:   INDUCTION LOG DEEP
 GRD .GAPI   45 310 01 00:   GAMMA RAY FROM DENSITY LOG
 CALD.IN     45 280 60 00:   CALIPER
 RHOB.G/C3   45 350 01 00:   BULK DENSITY
 CORR.G/C3   45 356 01 00:   DENSITY CORRECTION
 DPHI.DEC    45 890 12 00:   DENSITY POROSITY SANDSTONE
~PARAMETER INFORMATION
#MNEM.UNIT          VALUE    DESCRIPTION
#----------   ------------   ------------------------------
 PD  .                 GL:   PERMANENT DATUM
 EPD .F              5178:   ELEVATION PERMANENT DATUM
 LMF .                 GL:   LOG MEASURED FROM
 DMF .                 GL:   DRILLING MEASURED FROM
 EKB .F              5183:   KELLING BUSHING
 EGL .F              5178:   GROUND LEVEL
 DATE.           3-1-1977:   RUN DATE
 RUN .                  1:   RUN NUMBER
 DD  .F               535:   DEPTH DRILLER
 DL  .F               526:   DEPTH LOGGER
 BLI .F               520:   BOTTOM LOG INTERVAL
 TLI .F                30:   TOP LOG INTERVAL
 CS  .IN            8.625:   CASING SIZE
 CBD .F                40:   CASING BOTTOM DRILLER
 CBL .F                30:   CASING BOTTOM LOGGER
 BS  .IN            7.875:   BIT SIZE
 BSD .F               535:   BIT SIZE AT DEPTH
 DFT .                KCL:   DRILLING FLUID TYPE
 DFD .                8.7:   DRILLING FLUID DENSITY
 DFV .                 37:   DRILLING FLUID VISCOSITY
 DFPH.                  8:   DRILLING FLUID PH
 DFL .                7.2:   DRILLING FLUID LOSS
 MSS .                PIT:   MUD SAMPLE SOURCE
 RMS .OHMM           .495:   RESISTIVITY MUD SAMPLE
 MST .F                62:   MUD SAMPLE TEMPERATURE
 RMF .OHMM           .406:   RESISTIVITY MUD FILTRATE SAMPLE
 MFST.F                65:   MUD FILTRATE SAMPLE TEMPERATURE
 MFSS.                  M:   MUD FILTRATE SAMPLE SOURCE
 RMB .OHMM           .438:   RESISTIVITY MUD AT BHT
 BHT .F                70:   BOTTOM HOLE TEMPERATURE
 TCS .HRS            0800:   TIME CURCULATED STOPPED
 TLAB.HRS            1130:   TIME LOGGER AT BOTTOM
 MRT .F                70:   MAXIMUM RECORDED TEMPERATURE
 LUN .               5642:   LOGGING UNIT NUMBER
 LUL .               CSPR:   LOGGING UNIT LOCATION
 ENGI.             MARTIN:   RECORDING ENGINEER
 CLNT.            A2DTECH:   CLIENT CODE
 ORIG.       2", 5" PRINT:   ORIGIN OF DATA
 UWI .       490251028300:   UNIQUE WELL ID
 DICO. A2D Technologies, Inc.:   DIGITIZING COMPANY
~OTHER INFORMATION
~A   DEPT      SPR        LL8        ILM        ILD         GRD      CALD       RHOB       CORR       DPHI   
# ...
  244.0000   -48.5438     9.8161     9.1437     8.4242   105.5182     8.1092     2.4492     0.0033     0.1251
  244.5000   -50.7570     9.6944     9.2403     8.5517   106.6712     8.1112     2.4526     0.0064     0.1229
  245.0000   -53.6181     9.8611     9.2403     8.6749   107.7155     8.1131     2.4665     0.0096     0.1186
  245.5000   -55.7002    10.0804     9.4128     8.7997   106.8734     8.1150     2.4800     0.0072     0.1142
  246.0000   -57.1128    10.3050     9.4289     8.9265   103.5938     8.1169     2.4900     0.0027     0.1161
  246.5000   -57.0082    10.5175     9.4440     9.0712   100.4872     8.1186     2.4627     0.0065     0.1180
  247.0000   -55.9753    10.2956     9.4591     8.9880   100.2298     8.1202     2.4610     0.0133     0.1199
  247.5000   -55.0834    10.0928     9.4736     8.8650   102.3269     8.1218     2.4804     0.0202     0.1164
  248.0000   -55.4437     9.8583     9.4984     8.7436   104.4901     8.1235     2.5007     0.0242     0.1092
  248.5000   -54.6248     9.8895     9.5074     8.6241   104.2791     8.1251     2.4974     0.0178     0.1082
  249.0000   -52.5238     9.9248     9.3191     8.5063   103.9412     8.1267     2.4936     0.0109     0.1091
  249.5000   -50.4063     9.9499     9.1098     8.4242   103.5779     8.1283     2.5048     0.0083     0.1120
  250.0000   -48.2051     9.7968     8.9160     8.4242   102.2011     8.1299     2.4934     0.0002     0.1155
  250.5000   -48.5378     9.5814     8.7263     8.3227   100.6818     8.1315     2.4760    -0.0070     0.1187
  251.0000   -50.0322     9.3707     8.5407     8.1230    99.2678     8.1331     2.4722    -0.0005     0.1148
  251.5000   -51.4335     9.1646     8.3590     7.9281   100.7337     8.1348     2.4865     0.0106     0.1137
  252.0000   -52.6200     8.9631     8.1811     7.7379   102.6796     8.1364     2.5006     0.0218     0.0874
  252.5000   -51.7607     8.8228     8.0071     7.5522   103.3697     8.1380     2.5132     0.0315     0.0851
  253.0000   -50.5764     8.6612     7.8368     7.3710   100.7209     8.1396     2.5094     0.0211     0.0878
  253.5000   -52.2921     8.5024     7.6700     7.1942   103.4145     8.1412     2.4973     0.0158     0.0878
  254.0000   -53.9663     8.2476     7.5068     7.0215   106.1949     8.1428     2.4875     0.0157     0.0976
  254.5000   -55.6281     7.9088     7.3471     6.8102   106.3917     8.1444     2.4777     0.0047     0.1118
  255.0000   -56.8073     7.5839     6.8177     6.3833   105.2289     8.1461     2.4703     0.0030     0.1118
  255.5000   -56.4603     7.2723     5.9730     5.8424   104.0257     8.1477     2.4752     0.0067     0.1118
  256.0000   -55.0524     6.9736     5.2329     5.0191   104.6606     8.1493     2.4874     0.0026     0.1128
  256.5000   -53.0601     6.7475     4.5845     4.3125   106.3625     8.1509     2.4751    -0.0030     0.1152
  257.0000   -51.2189     5.8634     4.0179     3.7050   108.8123     8.1525     2.4701     0.0011     0.1176
  257.5000   -51.9337     5.1448     3.5215     3.1833   111.1294     8.1541     2.4683     0.0052     0.1201
  258.0000   -54.4357     4.2221     3.1775     2.8353   112.1341     8.1558     2.4584     0.0094     0.1232
  258.5000   -56.9762     3.3522     2.9114     2.6654   111.6094     8.1574     2.4449     0.0050     0.1306
  259.0000   -57.7015     2.6615     2.6763     2.4855   105.9749     8.1590     2.4256    -0.0049     0.1446
  259.5000   -54.3559     2.4391     2.5732     2.5791   104.9736     8.1606     2.4060    -0.0066     0.1521
  260.0000   -51.6839     2.4554     2.4855     2.8645   105.1282     8.1622     2.4062    -0.0003     0.1494
  260.5000   -50.8249     2.4640     2.6763     3.2191   104.1049     8.1638     2.4003     0.0060     0.1632
  261.0000   -54.6869     2.8807     3.1988     3.6176   102.5296     8.1654     2.3759     0.0110     0.1698
  261.5000   -57.5027     3.3372     3.7183     3.9465   100.5613     8.1671     2.3525     0.0078     0.1835
  262.0000   -58.5019     3.8682     4.3423     4.2495    98.5950     8.1687     2.3040     0.0049     0.2033
  262.5000   -55.7508     4.4837     5.0742     4.4920    96.6330     8.1703     2.2470     0.0068     0.2278
  263.0000   -53.4635     5.1971     5.9308     5.2092    94.7246     8.1719     2.2225     0.0090     0.2524
  263.5000   -52.3619     6.0245     6.4426     5.5434    92.1173     8.1735     2.2020     0.0112     0.2734
  264.0000   -54.7135     6.9384     6.6260     5.8992    90.3948     8.1751     2.2116     0.0135     0.2642
  264.5000   -58.4991     7.3402     6.7703     6.2777    93.6241     8.1767     2.2591     0.0088     0.2529
  265.0000   -57.1939     7.8497     6.9177     6.6806    97.4372     8.1784     2.3079    -0.0023     0.2244
  265.5000   -55.5376     7.5329     7.0682     6.8734   102.5171     8.1800     2.3535    -0.0027     0.1959
  266.0000   -53.9062     6.8104     7.2221     6.9373   106.1355     8.1816     2.3953     0.0014     0.1674
  266.5000   -53.2702     7.0252     7.3793     7.0668   109.3908     8.1832     2.4156     0.0056     0.1410
  267.0000   -53.8450     7.3801     7.5394     6.9768   110.0039     8.1848     2.4358     0.0098     0.1326
  267.5000   -51.7857     7.8962     7.3910     6.8703   108.1330     8.1864     2.4557     0.0100     0.1242
  268.0000   -49.7129     7.8516     7.0577     6.6854   107.1940     8.1881     2.4652     0.0067     0.1182
  268.5000   -50.9331     7.7515     6.7394     6.4447   108.5963     8.1897     2.4543     0.0034     0.1221
  269.0000   -54.0030     8.2484     6.4355     6.1655   109.9095     8.1913     2.4563     0.0001     0.1202
  269.5000   -57.1473     8.9766     6.1453     5.8983   110.0781     8.1929     2.4580    -0.0030     0.1231
  270.0000   -57.2823     9.6776     5.8681     5.6427   110.2007     8.1945     2.4531    -0.0015     0.1257
  270.5000   -55.4446     7.0209     5.6072     5.3982   110.3508     8.1961     2.4479     0.0004     0.1259
  271.0000   -53.5098     4.8369     5.5116     5.2083   111.2060     8.1952     2.4473     0.0009     0.1234
  271.5000   -54.6840     5.3597     5.3487     5.0370   112.1549     8.1924     2.4599     0.0046     0.1210
  272.0000   -57.1309     6.3019     5.3593     4.8882   111.1673     8.1897     2.4904     0.0100     0.1167
  272.5000   -59.2763     5.9487     5.4045     4.7449   109.6613     8.1869     2.5049     0.0090     0.1126
  273.0000   -59.6026     5.1415     5.5054     4.8320   109.1272     8.1841     2.4795     0.0021     0.1142
  273.5000   -58.5661     5.5100     5.6082     5.0606   110.3302     8.1813     2.4684    -0.0018     0.1157
  274.0000   -56.8502     6.5025     5.8487     5.2523   113.5590     8.1785     2.4623     0.0017     0.1243
  274.5000   -55.1135     6.1507     6.0984     5.5579   117.1457     8.1757     2.4420     0.0097     0.1373
  275.0000   -55.1572     5.8195     6.3580     5.8421   118.2867     8.1729     2.4193     0.0179     0.1457
  275.5000   -55.1204     6.4813     6.6291     6.1401   117.7876     8.1701     2.4044     0.0215     0.1471
  276.0000   -54.3814     7.0897     6.9118     6.4524   114.6034     8.1673     2.3939     0.0008     0.1727
  276.5000   -57.1421     7.7552     7.2064     6.7802   111.4382     8.1645     2.4019     0.0058     0.1624
  277.0000   -59.8937     8.1142     7.5136     7.1247   109.7484     8.1617     2.4164     0.0139     0.1385
  277.5000   -60.9949     8.2970     7.8340     7.5072   108.5199     8.1589     2.4327     0.0198     0.1379
  278.0000   -61.6026     8.4839     8.0435     7.6695   107.2872     8.1562     2.4216     0.0111     0.1391
  278.5000   -60.8436     8.6750     8.2085     7.8358   108.3835     8.1534     2.4304     0.0039     0.1280
  279.0000   -58.9602     8.8705     8.2887     8.0457   109.6905     8.1506     2.4455     0.0112     0.1195
  279.5000   -56.9082     9.0703     8.3696     8.0423   109.4175     8.1478     2.4364     0.0189     0.1178
  280.0000   -56.3304     9.1553     8.4513     7.9702   109.2564     8.1450     2.4482     0.0141     0.1208
