~VERSION INFORMATION
 VERS.                2.0:   CWLS LOG ASCII STANDARD - VERSION 2.0
 WRAP.                 NO:   ONE LINE PER DEPTH STEP
~WELL INFORMATION
#MNEM.UNIT      DATA TYPE    INFORMATION
#----------   ------------   ------------------------------
 STRT.F           23.0000:   START DEPTH
 STOP.F         1106.0000:   STOP DEPTH
 STEP.F            0.5000:   STEP LENGTH
 NULL.          -999.2500:   NO VALUE
 COMP. FENIX & SCISSON INC:   COMPANY
 WELL.       NPR-3 #67-11:   WELL
 FLD . TEAPOT DOME NPR #3:   FIELD
 LOC .      S11 T38N R78W:   LOCATION
 CNTY.            NATRONA:   COUNTY
 STAT.            WYOMING:   STATE
 CTRY. UNITED STATES OF AMERICA:   COUNTRY
 SRVC.            Unknown:   SERVICE COMPANY
 DATE.        06-MAR-1978:   LOGDATE
 API .       490251059100:   API NUMBER
~CURVE INFORMATION
#MNEM.UNIT       API CODE    CURVE DESCRIPTION
#----------   ------------   ------------------------------
 DEPT.F                  :   
 ILD .OHMM   05 120 46 00:   INDUCTION LOG DEEP
 SN  .OHMM   05 040 16 00:   SHORT NORMAL 16"
 SPR .MV     05 010 01 00:   SPONTANEOUS POTENTIAL FROM RES.
 CALD.IN     45 280 60 00:   CALIPER
 GRD .GAPI   45 310 01 00:   GAMMA RAY FROM DENSITY LOG
 CORR.G/C3   45 356 01 00:   DENSITY CORRECTION
 DPHI.DEC    45 890 12 00:   DENSITY POROSITY SANDSTONE
 RHOB.G/C3   45 350 01 00:   BULK DENSITY
~PARAMETER INFORMATION
#MNEM.UNIT          VALUE    DESCRIPTION
#----------   ------------   ------------------------------
 PD  .                 GL:   PERMANENT DATUM
 EPD .F              5243:   ELEVATION PERMANENT DATUM
 LMF .                 KB:   LOG MEASURED FROM
 DAPD.F                 4:   FEET ABOVE PERMANENT DATUM
 DMF .                 KB:   DRILLING MEASURED FROM
 EKB .F              5247:   KELLING BUSHING
 EGL .F              5243:   GROUND LEVEL
 DATE.           3-6-1978:   RUN DATE
 RUN .                  1:   RUN NUMBER
 DD  .F              1104:   DEPTH DRILLER
 DL  .F              1108:   DEPTH LOGGER
 BLI .F              1102:   BOTTOM LOG INTERVAL
 TLI .F                40:   TOP LOG INTERVAL
 CS  .IN            8.625:   CASING SIZE
 CBD .F                40:   CASING BOTTOM DRILLER
 CBL .F                40:   CASING BOTTOM LOGGER
 BS  .IN            7.875:   BIT SIZE
 BSD .F              1104:   BIT SIZE AT DEPTH
 DFT .         LIGNO/SULF:   DRILLING FLUID TYPE
 DFD .                8.6:   DRILLING FLUID DENSITY
 DFV .                 31:   DRILLING FLUID VISCOSITY
 DFL .                  8:   DRILLING FLUID LOSS
 MSS .            MUD PIT:   MUD SAMPLE SOURCE
 RMS .OHMM              2:   RESISTIVITY MUD SAMPLE
 MST .F                58:   MUD SAMPLE TEMPERATURE
 RMF .OHMM            1.2:   RESISTIVITY MUD FILTRATE SAMPLE
 MFST.F                64:   MUD FILTRATE SAMPLE TEMPERATURE
 RMC .OHMM              3:   RESISTIVITY MUD CAKE
 MCST.F                64:   MUD CAKE SAMPLE TEMPERATURE
 MFSS.               MEAS:   MUD FILTRATE SAMPLE SOURCE
 RMB .OHMM            1.5:   RESISTIVITY MUD AT BHT
 BHT .F                78:   BOTTOM HOLE TEMPERATURE
 TCS .HRS               4:   TIME CURCULATED STOPPED
 MRT .F                78:   MAXIMUM RECORDED TEMPERATURE
 LUN .               2959:   LOGGING UNIT NUMBER
 LUL .               CASP:   LOGGING UNIT LOCATION
 ENGI.             MILLER:   RECORDING ENGINEER
 WITN.           MCGINLEY:   WITNESSED BY
 CLNT.            A2DTECH:   CLIENT CODE
 ORIG.       2", 5" PRINT:   ORIGIN OF DATA
 UWI .       490251059100:   UNIQUE WELL ID
 DICO. A2D Technologies, Inc.:   DIGITIZING COMPANY
~OTHER INFORMATION
~A   DEPT      ILD         SN        SPR       CALD         GRD      CORR       DPHI       RHOB   
# ...
  428.0000     3.1087     3.2073   -23.6940     7.6365    97.3365     0.0301     0.1954     2.3156
  428.5000     3.0946     3.1927   -23.4016     7.6358    97.1830     0.0341     0.1843     2.3477
  429.0000     3.0946     3.1815   -23.2948     7.6350    88.4959     0.0337     0.1714     2.3731
  429.5000     3.0946     3.2060   -23.5651     7.6342    81.6864     0.0238     0.1580     2.3832
  430.0000     3.0946     3.4061   -23.8274     7.6334    80.8332     0.0162     0.1599     2.3949
  430.5000     3.2909     3.7571   -24.0063     7.6326    80.7374     0.0145     0.1616     2.3968
  431.0000     3.4943     3.8325   -24.0031     7.6319    81.4633     0.0129     0.1634     2.3947
  431.5000     3.7107     3.9243   -24.0607     7.6311    82.5203     0.0113     0.1627     2.3926
  432.0000     3.8967     4.0573   -24.5123     7.6303    85.1089     0.0097     0.1620     2.3933
  432.5000     4.1207     4.1975   -24.9822     7.6295    87.7376     0.0093     0.1612     2.3948
  433.0000     4.1163     4.2928   -24.9222     7.6287    88.0681     0.0101     0.1605     2.3962
  433.5000     4.1045     4.3954   -24.8271     7.6280    84.6691     0.0109     0.1597     2.3977
  434.0000     4.0928     4.4114   -25.7817     7.6272    82.2594     0.0117     0.1590     2.3993
  434.5000     4.0828     4.4378   -25.1762     7.6264    83.4802     0.0126     0.1605     2.3968
  435.0000     4.1068     4.4063   -24.9257     7.6256    85.5065     0.0134     0.1626     2.3932
  435.5000     4.1207     4.3144   -25.1709     7.6248    86.7526     0.0142     0.1646     2.3912
  436.0000     4.0141     4.2190   -25.4140     7.6240    87.8336     0.0150     0.1662     2.3826
  436.5000     3.9360     4.0817   -25.6036     7.6233    88.8725     0.0159     0.1752     2.3725
  437.0000     3.8595     3.9488   -25.5953     7.6225    88.7322     0.0166     0.1763     2.3687
  437.5000     3.7920     3.8203   -25.4827     7.6217    88.4234     0.0212     0.1779     2.3691
  438.0000     3.5538     3.6471   -24.9813     7.6210    88.6251     0.0283     0.1825     2.3631
  438.5000     3.2551     3.4350   -24.5887     7.6201    89.1585     0.0309     0.1926     2.3470
  439.0000     3.1041     3.2352   -24.5159     7.6136    86.3123     0.0346     0.2038     2.3310
  439.5000     3.0645     3.1573   -24.1138     7.5817    82.9704     0.0404     0.1968     2.3187
  440.0000     3.0255     3.1067   -23.7248     7.5503    81.2555     0.0453     0.1866     2.3337
  440.5000     2.9869     3.0568   -23.4152     7.5200    79.6245     0.0375     0.1901     2.3483
  441.0000     2.9277     3.0100   -23.4003     7.5588    78.5110     0.0284     0.1943     2.3490
  441.5000     2.9304     2.9955   -23.9444     7.6248    77.5722     0.0222     0.2049     2.3309
  442.0000     2.9365     2.9666   -24.7465     7.7756    77.6592     0.0191     0.2167     2.3182
  442.5000     2.9426     2.8680   -23.5748     7.7989    77.9786     0.0195     0.2259     2.3033
  443.0000     2.9488     2.7317   -23.6130     7.7963    78.9231     0.0200     0.2257     2.2886
  443.5000     2.9549     2.6019   -24.5749     7.7934    82.2758     0.0205     0.2345     2.2769
  444.0000     2.7186     2.4821   -24.0577     7.7907    82.9446     0.0211     0.2447     2.2741
  444.5000     2.4504     2.3831   -23.3474     7.7880    85.5513     0.0156     0.2550     2.2607
  445.0000     2.2087     2.2880   -23.2466     7.7854    88.3915     0.0091     0.2647     2.2431
  445.5000     2.0917     2.1967   -23.1378     7.7827    90.7445     0.0069     0.2667     2.2253
  446.0000     2.0420     2.1385   -23.0330     7.7800    90.9174     0.0108     0.2556     2.2201
  446.5000     2.1192     2.2334   -22.9432     7.7774    90.4324     0.0195     0.2380     2.2374
  447.0000     2.2249     2.3181   -22.8538     7.7747    86.7657     0.0332     0.2225     2.2726
  447.5000     2.3359     2.4114   -23.2380     7.7720    82.9268     0.0291     0.2116     2.3162
  448.0000     2.4110     2.5022   -23.8772     7.7694    80.7837     0.0168     0.2009     2.3600
  448.5000     2.4999     2.7887   -24.1806     7.7667    80.8839     0.0075     0.1901     2.3917
  449.0000     2.9154     3.2488   -24.5363     7.7640    81.1825     0.0088     0.1794     2.3826
  449.5000     3.3014     3.4551   -25.2494     7.7614    81.4208     0.0167     0.1716     2.3763
  450.0000     3.4335     3.5426   -24.4553     7.7589    83.9620     0.0245     0.1706     2.3798
  450.5000     3.4894     3.6208   -24.7706     7.7581    85.5834     0.0325     0.1638     2.3843
  451.0000     3.4276     3.5875   -25.0566     7.7573    86.2286     0.0310     0.1746     2.3889
  451.5000     3.3720     3.4642   -25.3445     7.7565    87.1323     0.0224     0.1787     2.3737
  452.0000     3.3011     3.3543   -25.5347     7.7558    90.3785     0.0146     0.1924     2.3531
  452.5000     3.1896     3.2478   -24.2385     7.7550    91.5021     0.0112     0.2020     2.3317
  453.0000     3.0819     3.1449   -24.2661     7.7542    90.4501     0.0125     0.2026     2.3277
  453.5000     2.9823     3.0451   -24.4233     7.7534    89.8333     0.0136     0.2054     2.3242
  454.0000     2.8581     2.9283   -24.5901     7.7526    92.6131     0.0147     0.2092     2.3208
  454.5000     2.7135     2.8054   -24.2530     7.7518    93.3834     0.0137     0.2217     2.3022
  455.0000     2.5762     2.6871   -24.0917     7.7510    90.9938     0.0113     0.2291     2.2871
  455.5000     2.5022     2.6205   -24.4938     7.7503    89.5238     0.0111     0.2322     2.2801
  456.0000     2.5489     2.6205   -24.7826     7.7495    91.0950     0.0197     0.2138     2.2832
  456.5000     2.6346     2.7010   -23.7999     7.7487    92.8212     0.0281     0.1985     2.3173
  457.0000     2.7414     2.8667   -23.5749     7.7479    93.0750     0.0363     0.1815     2.3501
  457.5000     2.8524     3.0211   -23.5150     7.7471    92.9540     0.0336     0.1645     2.3778
  458.0000     2.9511     3.0833   -23.4587     7.7463    87.7262     0.0122     0.1526     2.4000
  458.5000     3.0894     3.3575   -23.4185     7.7456    83.4731     0.0110     0.1537     2.4074
  459.0000     3.3301     4.1975   -24.0061     7.7448    83.4468     0.0110     0.1558     2.4051
  459.5000     3.6857     4.3642   -24.6641     7.7440    84.7520     0.0110     0.1582     2.4028
  460.0000     4.0793     4.5353   -25.1006     7.7432    86.0609     0.0110     0.1524     2.4056
  460.5000     4.3958     4.6486   -26.0560     7.7424    85.4146     0.0110     0.1500     2.4140
  461.0000     4.4836     4.7647   -26.3271     7.7416    84.4348     0.0110     0.1515     2.4145
  461.5000     4.5007     4.8387   -25.5270     7.7408    83.6186     0.0100     0.1526     2.4124
  462.0000     4.5195     5.0029   -24.9249     7.7401    83.5121     0.0091     0.1506     2.4148
  462.5000     4.6208     5.1435   -25.3060     7.7393    84.2907     0.0082     0.1487     2.4164
  463.0000     4.7352     5.2908   -25.5908     7.7369    84.1551     0.0072     0.1426     2.4170
  463.5000     4.8523     5.4942   -25.9051     7.7339    83.5138     0.0075     0.1409     2.4253
  464.0000     5.0089     5.7065   -25.7097     7.7309    82.2608     0.0081     0.1418     2.4327
  464.5000     5.1755     5.9119   -25.1233     7.7279    80.8817     0.0088     0.1395     2.4337
  465.0000     5.3477     6.1010   -24.8041     7.7249    80.8390     0.0094     0.1366     2.4343
  465.5000     5.5894     6.1893   -24.8025     7.7218    83.9761     0.0101     0.1413     2.4307
  466.0000     5.5858     6.1780   -24.8002     7.7188    87.4043     0.0108     0.1419     2.4272
  466.5000     5.5801     6.1623   -24.8003     7.7158    91.0128     0.0114     0.1430     2.4255
  467.0000     5.5744     6.1469   -24.8011     7.7128    88.3344     0.0121     0.1461     2.4255
  467.5000     5.5687     6.1316   -24.8027     7.7098    85.3396     0.0127     0.1471     2.4250
  468.0000     5.5630     6.1164   -24.9217     7.7067    85.9217     0.0134     0.1473     2.4229
