~VERSION INFORMATION
 VERS.                2.0:   CWLS LOG ASCII STANDARD - VERSION 2.0
 WRAP.                 NO:   ONE LINE PER DEPTH STEP
~WELL INFORMATION
#MNEM.UNIT      DATA TYPE    INFORMATION
#----------   ------------   ------------------------------
 STRT.F            0.0000:   START DEPTH
 STOP.F         2660.0000:   STOP DEPTH
 STEP.F            0.5000:   STEP LENGTH
 NULL.          -999.2500:   NO VALUE
 COMP. FENIX & SCISSON INC:   COMPANY
 WELL.     101-20 #101-20:   WELL
 FLD .        TEAPOT DOME:   FIELD
 LOC .      S20 T39N R78W:   LOCATION
 CNTY.            NATRONA:   COUNTY
 STAT.            WYOMING:   STATE
 CTRY. UNITED STATES OF AMERICA:   COUNTRY
 SRVC.      NL McCullough:   SERVICE COMPANY
 DATE.        19-SEP-1965:   LOGDATE
 API .       490251022100:   API NUMBER
~CURVE INFORMATION
#MNEM.UNIT       API CODE    CURVE DESCRIPTION
#----------   ------------   ------------------------------
 DEPT.F                  :   
 GR  .GAPI   30 310 01 00:   GAMMA RAY
 CALI.IN     30 280 01 00:   CALIPER
~PARAMETER INFORMATION
#MNEM.UNIT          VALUE    DESCRIPTION
#----------   ------------   ------------------------------
 PD  .                 GL:   PERMANENT DATUM
 LMF .                 GL:   LOG MEASURED FROM
 DMF .                 GL:   DRILLING MEASURED FROM
 DATE.          9-19-1965:   RUN DATE
 RUN .                  1:   RUN NUMBER
 DD  .F              2661:   DEPTH DRILLER
 DL  .F              2659:   DEPTH LOGGER
 BLI .F              2657:   BOTTOM LOG INTERVAL
 TLI .F              2000:   TOP LOG INTERVAL
 CS  .IN              6.5:   CASING SIZE
 CBD .F              2619:   CASING BOTTOM DRILLER
 BSD .F              2661:   BIT SIZE AT DEPTH
 DFT .              WATER:   DRILLING FLUID TYPE
 TCS .HRS               1:   TIME CURCULATED STOPPED
 ENGI.        FITZSIMMONS:   RECORDING ENGINEER
 WITN.          JORGENSEN:   WITNESSED BY
 CLNT.            A2DTECH:   CLIENT CODE
 ORIG.           5" PRINT:   ORIGIN OF DATA
 UWI .       490251022100:   UNIQUE WELL ID
 DICO. A2D Technologies, Inc.:   DIGITIZING COMPANY
~OTHER INFORMATION
~A    DEPT      GR         CALI 
# ...
 1579.5000  -999.2500     6.5546
 1580.0000  -999.2500     6.5558
 1580.5000  -999.2500     6.5680
 1581.0000  -999.2500     6.5851
 1581.5000  -999.2500     6.6023
 1582.0000  -999.2500     6.6105
 1582.5000  -999.2500     6.5654
 1583.0000  -999.2500     6.5578
 1583.5000  -999.2500     6.5594
 1584.0000  -999.2500     6.5613
 1584.5000  -999.2500     6.5631
 1585.0000  -999.2500     6.5649
 1585.5000  -999.2500     6.5682
 1586.0000  -999.2500     6.5812
 1586.5000  -999.2500     6.5841
 1587.0000  -999.2500     6.5803
 1587.5000  -999.2500     6.5760
 1588.0000  -999.2500     6.5630
 1588.5000  -999.2500     6.5539
 1589.0000  -999.2500     6.5487
 1589.5000  -999.2500     6.5436
 1590.0000  -999.2500     6.5384
 1590.5000  -999.2500     6.5333
 1591.0000  -999.2500     6.5282
 1591.5000  -999.2500     6.5230
 1592.0000  -999.2500     6.5178
 1592.5000  -999.2500     6.5172
 1593.0000  -999.2500     6.5184
 1593.5000  -999.2500     6.5196
 1594.0000  -999.2500     6.5208
 1594.5000  -999.2500     6.5220
 1595.0000  -999.2500     6.5233
 1595.5000  -999.2500     6.5245
 1596.0000  -999.2500     6.5257
 1596.5000  -999.2500     6.5263
 1597.0000  -999.2500     6.5263
 1597.5000  -999.2500     6.5263
 1598.0000  -999.2500     6.5263
 1598.5000  -999.2500     6.5263
 1599.0000  -999.2500     6.5263
 1599.5000  -999.2500     6.5263
 1600.0000  -999.2500     6.5263
 1600.5000  -999.2500     6.5263
 1601.0000  -999.2500     6.5263
 1601.5000  -999.2500     6.5263
 1602.0000  -999.2500     6.5263
 1602.5000  -999.2500     6.5263
 1603.0000  -999.2500     6.5263
 1603.5000  -999.2500     6.5264
 1604.0000  -999.2500     6.5334
 1604.5000  -999.2500     6.5487
 1605.0000  -999.2500     6.5640
 1605.5000  -999.2500     6.5795
 1606.0000  -999.2500     6.5957
 1606.5000  -999.2500     6.5490
 1607.0000  -999.2500     6.5461
 1607.5000  -999.2500     6.5478
 1608.0000  -999.2500     6.5493
 1608.5000  -999.2500     6.5508
 1609.0000  -999.2500     6.5523
 1609.5000  -999.2500     6.5538
 1610.0000  -999.2500     6.5553
 1610.5000  -999.2500     6.5564
 1611.0000  -999.2500     6.5564
 1611.5000  -999.2500     6.5564
 1612.0000  -999.2500     6.5564
 1612.5000  -999.2500     6.5564
 1613.0000  -999.2500     6.5564
 1613.5000  -999.2500     6.5564
 1614.0000  -999.2500     6.5564
 1614.5000  -999.2500     6.5546
 1615.0000  -999.2500     6.5525
 1615.5000  -999.2500     6.5504
 1616.0000  -999.2500     6.5483
 1616.5000  -999.2500     6.5470
 1617.0000  -999.2500     6.5362
 1617.5000  -999.2500     6.5364
 1618.0000  -999.2500     6.5363
 1618.5000  -999.2500     6.5363
 1619.0000  -999.2500     6.5363
 1619.5000  -999.2500     6.5363
 1620.0000  -999.2500     6.5363
 1620.5000  -999.2500     6.5363
 1621.0000  -999.2500     6.5363
 1621.5000  -999.2500     6.5363
 1622.0000  -999.2500     6.5363
 1622.5000  -999.2500     6.5363
 1623.0000  -999.2500     6.5363
 1623.5000  -999.2500     6.5363
 1624.0000  -999.2500     6.5416
 1624.5000  -999.2500     6.5507
 1625.0000  -999.2500     6.5599
 1625.5000  -999.2500     6.5690
 1626.0000  -999.2500     6.5762
 1626.5000  -999.2500     6.5733
 1627.0000  -999.2500     6.5707
 1627.5000  -999.2500     6.5681
 1628.0000  -999.2500     6.5691
 1628.5000  -999.2500     6.5767
 1629.0000  -999.2500     6.5843
 1629.5000  -999.2500     6.5915
 1630.0000  -999.2500     6.5862
 1630.5000  -999.2500     6.5565
 1631.0000  -999.2500     6.5408
 1631.5000  -999.2500     6.5451
 1632.0000  -999.2500     6.5633
 1632.5000  -999.2500     6.5510
 1633.0000  -999.2500     6.5372
 1633.5000  -999.2500     6.5423
 1634.0000  -999.2500     6.5471
 1634.5000  -999.2500     6.5520
 1635.0000  -999.2500     6.5560
 1635.5000  -999.2500     6.5472
 1636.0000  -999.2500     6.5382
 1636.5000  -999.2500     6.5351
 1637.0000  -999.2500     6.5334
 1637.5000  -999.2500     6.5318
 1638.0000  -999.2500     6.5301
 1638.5000  -999.2500     6.5285
 1639.0000  -999.2500     6.5268
 1639.5000  -999.2500     6.5281
 1640.0000  -999.2500     6.5307
 1640.5000  -999.2500     6.5333
 1641.0000  -999.2500     6.5360
 1641.5000  -999.2500     6.5329
 1642.0000  -999.2500     6.5274
 1642.5000  -999.2500     6.5292
 1643.0000  -999.2500     6.5330
 1643.5000  -999.2500     6.5369
 1644.0000  -999.2500     6.5407
 1644.5000  -999.2500     6.5445
 1645.0000  -999.2500     6.5484
 1645.5000  -999.2500     6.5523
 1646.0000  -999.2500     6.5562
 1646.5000  -999.2500     6.5615
 1647.0000  -999.2500     6.5353
 1647.5000  -999.2500     6.5066
 1648.0000  -999.2500     6.5050
 1648.5000  -999.2500     6.5036
 1649.0000  -999.2500     6.5022
 1649.5000  -999.2500     6.5008
 1650.0000  -999.2500     6.4994
 1650.5000  -999.2500     6.4980
 1651.0000  -999.2500     6.4965
 1651.5000  -999.2500     6.4980
 1652.0000  -999.2500     6.5004
 1652.5000  -999.2500     6.5027
 1653.0000  -999.2500     6.5051
 1653.5000  -999.2500     6.5063
 1654.0000  -999.2500     6.5063
 1654.5000  -999.2500     6.5063
 1655.0000  -999.2500     6.5063
 1655.5000  -999.2500     6.5063
 1656.0000  -999.2500     6.5063
 1656.5000  -999.2500     6.5063
 1657.0000  -999.2500     6.5061
 1657.5000  -999.2500     6.5127
 1658.0000  -999.2500     6.5217
 1658.5000  -999.2500     6.5307
 1659.0000  -999.2500     6.5358
 1659.5000  -999.2500     6.5340
 1660.0000  -999.2500     6.5324
 1660.5000  -999.2500     6.5307
 1661.0000  -999.2500     6.5290
 1661.5000  -999.2500     6.5274
 1662.0000  -999.2500     6.5264
 1662.5000  -999.2500     6.5287
 1663.0000  -999.2500     6.5311
 1663.5000  -999.2500     6.5336
 1664.0000  -999.2500     6.5357
 1664.5000  -999.2500     6.5487
 1665.0000  -999.2500     6.5632
 1665.5000  -999.2500     6.5699
 1666.0000  -999.2500     6.5747
 1666.5000  -999.2500     6.5707
 1667.0000  -999.2500     6.5614
 1667.5000  -999.2500     6.5564
 1668.0000  -999.2500     6.5564
 1668.5000  -999.2500     6.5564
 1669.0000  -999.2500     6.5564
 1669.5000  -999.2500     6.5564
 1670.0000  -999.2500     6.5564
 1670.5000  -999.2500     6.5564
 1671.0000  -999.2500     6.5564
 1671.5000  -999.2500     6.5564
 1672.0000  -999.2500     6.5597
 1672.5000  -999.2500     6.5634
 1673.0000  -999.2500     6.5671
 1673.5000  -999.2500     6.5708
 1674.0000  -999.2500     6.5745
 1674.5000  -999.2500     6.5781
 1675.0000  -999.2500     6.5818
 1675.5000  -999.2500     6.5856
 1676.0000  -999.2500     6.5865
 1676.5000  -999.2500     6.5865
 1677.0000  -999.2500     6.5865
 1677.5000  -999.2500     6.5865
 1678.0000  -999.2500     6.5865
 1678.5000  -999.2500     6.5865
 1679.0000  -999.2500     6.5865
 1679.5000  -999.2500     6.5865
 1680.0000  -999.2500     6.5865
 1680.5000  -999.2500     6.5872
 1681.0000  -999.2500     6.5909
 1681.5000  -999.2500     6.5944
 1682.0000  -999.2500     6.5884
 1682.5000  -999.2500     6.5753
 1683.0000  -999.2500     6.5725
 1683.5000  -999.2500     6.5694
 1684.0000  -999.2500     6.5664
 1684.5000  -999.2500     6.5634
 1685.0000  -999.2500     6.5603
 1685.5000  -999.2500     6.5574
 1686.0000  -999.2500     6.5503
 1686.5000  -999.2500     6.5416
 1687.0000  -999.2500     6.5230
 1687.5000  -999.2500     6.5043
 1688.0000  -999.2500     6.4967
 1688.5000  -999.2500     6.4982
 1689.0000  -999.2500     6.4999
 1689.5000  -999.2500     6.5016
 1690.0000  -999.2500     6.5033
 1690.5000  -999.2500     6.5049
 1691.0000  -999.2500     6.5064
 1691.5000  -999.2500     6.5071
 1692.0000  -999.2500     6.5077
 1692.5000  -999.2500     6.5084
 1693.0000  -999.2500     6.5090
 1693.5000  -999.2500     6.5097
 1694.0000  -999.2500     6.5104
 1694.5000  -999.2500     6.5110
 1695.0000  -999.2500     6.5117
 1695.5000  -999.2500     6.5123
 1696.0000  -999.2500     6.5130
 1696.5000  -999.2500     6.5137
 1697.0000  -999.2500     6.5143
 1697.5000  -999.2500     6.5150
 1698.0000  -999.2500     6.5156
 1698.5000  -999.2500     6.5164
 1699.0000  -999.2500     6.5194
 1699.5000  -999.2500     6.5224
 1700.0000  -999.2500     6.5255
 1700.5000  -999.2500     6.5285
