~VERSION INFORMATION
 VERS.                2.0:   CWLS LOG ASCII STANDARD - VERSION 2.0
 WRAP.                 NO:   ONE LINE PER DEPTH STEP
~WELL INFORMATION
#MNEM.UNIT      DATA TYPE    INFORMATION
#----------   ------------   ------------------------------
 STRT.F            1.0000:   START DEPTH
 STOP.F          886.0000:   STOP DEPTH
 STEP.F            0.5000:   STEP LENGTH
 NULL.          -999.2500:   NO VALUE
 COMP. BROWN JOHN E&C INC:   COMPANY
 WELL. NAVAL PETROLEUM RESERVE 3 SHX-1 #33-2:   WELL
 FLD .             NPR #3:   FIELD
 LOC .       S2 T38N R78W:   LOCATION
 CNTY.            NATRONA:   COUNTY
 STAT.            WYOMING:   STATE
 CTRY. UNITED STATES OF AMERICA:   COUNTRY
 SRVC.      Western Atlas:   SERVICE COMPANY
 DATE.        26-NOV-1991:   LOGDATE
 API .       490252248300:   API NUMBER
~CURVE INFORMATION
#MNEM.UNIT       API CODE    CURVE DESCRIPTION
#----------   ------------   ------------------------------
 DEPT.F                  :   
 RILD.OHMM   07 120 46 00:   INDUCTION LOG DEEP RESISTIVITY
 RILM.OHMM   07 120 44 00:   INDUCTION LOG MEDIUM RESISTIVITY
 RFOC.OHMM   07 220 04 00:   RESISTIVITY FOCUSED LOG
 SPR .MV     07 010 01 00:   SPONTANEOUS POTENTIAL
 GRR .GAPI   07 310 01 00:   GAMMA RAY
~PARAMETER INFORMATION
#MNEM.UNIT          VALUE    DESCRIPTION
#----------   ------------   ------------------------------
 PD  .                 GL:   PERMANENT DATUM
 EPD .F              5133:   ELEVATION PERMANENT DATUM
 LMF .                 KB:   LOG MEASURED FROM
 DAPD.F                10:   FEET ABOVE PERMANENT DATUM
 DMF .                 KB:   DRILLING MEASURED FROM
 EKB .F              5143:   KELLING BUSHING
 EGL .F              5133:   GROUND LEVEL
 DATE.        26-NOV-1991:   RUN DATE
 RUN .                  1:   RUN NUMBER
 DD  .F               892:   DEPTH DRILLER
 DL  .F               889:   DEPTH LOGGER
 BLI .F               837:   BOTTOM LOG INTERVAL
 CS  .IN            8.625:   CASING SIZE
 CBD .F                40:   CASING BOTTOM DRILLER
 CBL .F                55:   CASING BOTTOM LOGGER
 BS  .IN            7.875:   BIT SIZE
 BSD .F               892:   BIT SIZE AT DEPTH
 DFT .            POLYMER:   DRILLING FLUID TYPE
 DFD .                9.8:   DRILLING FLUID DENSITY
 DFV .                 38:   DRILLING FLUID VISCOSITY
 DFPH.                9.5:   DRILLING FLUID PH
 DFL .               10.6:   DRILLING FLUID LOSS
 MSS .           FLOWLINE:   MUD SAMPLE SOURCE
 RMS .OHMM           2.08:   RESISTIVITY MUD SAMPLE
 MST .F                78:   MUD SAMPLE TEMPERATURE
 RMF .OHMM           1.66:   RESISTIVITY MUD FILTRATE SAMPLE
 MFST.F                78:   MUD FILTRATE SAMPLE TEMPERATURE
 RMC .OHMM           2.60:   RESISTIVITY MUD CAKE
 MCST.F                78:   MUD CAKE SAMPLE TEMPERATURE
 MFSS.               MEAS:   MUD FILTRATE SAMPLE SOURCE
 MCSS.               CALC:   MUD CAKE SAMPLE SOURCE
 RMB .OHMM           1.08:   RESISTIVITY MUD AT BHT
 BHT .F               150:   BOTTOM HOLE TEMPERATURE
 TCS .HRS               2:   TIME CURCULATED STOPPED
 MRT .F               150:   MAXIMUM RECORDED TEMPERATURE
 LUN .            HL-6307:   LOGGING UNIT NUMBER
 LUL .         CASPER, WY:   LOGGING UNIT LOCATION
 ENGI.             ZIEGER:   RECORDING ENGINEER
 WITN.             STRONG:   WITNESSED BY
 CLNT.            A2DTECH:   CLIENT CODE
 ORIG.           5" PRINT:   ORIGIN OF DATA
 UWI .       490252248300:   UNIQUE WELL ID
 DICO. A2D Technologies, Inc.:   DIGITIZING COMPANY
~OTHER INFORMATION
~A    DEPT    RILD       RILM       RFOC        SPR         GRR  
# ...
  123.0000     4.4930     4.4785     4.4619   -99.0015   104.2576
  123.5000     4.4296     4.4150     4.3685   -99.3077   101.2323
  124.0000     4.3972     4.3827     4.3671   -99.4639   101.5273
  124.5000     4.4266     4.3507     4.4266   -99.9256   100.3097
  125.0000     4.4248     4.3489     4.5181  -100.2514    98.7926
  125.5000     4.4233     4.3471     4.6433  -100.5332    98.4822
  126.0000     4.4218     4.3149     4.7393  -100.3868   100.8867
  126.5000     4.3594     4.2834     4.7711  -100.2392   106.3399
  127.0000     4.2979     4.2816     4.6386   -99.9419   110.2645
  127.5000     4.2964     4.2503     4.5415   -99.9474   112.3212
  128.0000     4.2947     4.2786     4.4436   -99.8010   114.4240
  128.5000     4.2932     4.2765     4.3531   -99.3529   114.7191
  129.0000     4.2918     4.3045     4.3216   -99.3583   113.5014
  129.5000     4.2903     4.3327     4.3201   -99.3627   112.5877
  130.0000     4.3191     4.3305     4.3188   -99.5179   111.6739
  130.5000     4.3173     4.3593     4.3777   -99.5223   114.0784
  131.0000     4.3459     4.3879     4.4063   -99.6775   116.5792
  131.5000     4.3444     4.3857     4.4358   -99.5309   120.0918
  132.0000     4.3426     4.3235     4.4959   -99.5355   121.5935
  132.5000     4.2813     4.2919     4.5257   -99.5400   120.3759
  133.0000     4.2503     4.2303     4.5560   -99.3934   117.3505
  133.5000     4.1903     4.1378     4.4914   -99.2469   113.1185
  134.0000     4.1600     3.9991     4.3974   -98.7999   109.4898
  134.5000     4.1298     3.8612     4.2439   -98.8043   110.3860
  135.0000     4.0716     3.7802     4.0432   -98.3551   111.8855
  135.5000     3.9839     3.7009     4.0139   -98.2097   109.4613
  136.0000     3.8223     3.6738     3.9851   -98.0593   110.0558
  136.5000     3.6908     3.6723     4.0115   -97.7426   111.2536
  137.0000     3.6641     3.6455     4.0098   -97.4699   110.9432
  137.5000     3.6886     3.6694     4.0085   -97.0218   106.7112
  138.0000     3.7130     3.7187     4.0072   -96.5737   100.9709
  138.5000     3.7634     3.7435     4.0361   -95.8239    99.7555
  139.0000     3.8146     3.7680     4.1168   -95.2249    99.4449
  139.5000     3.8399     3.8187     4.1154   -94.6260   100.7753
  140.0000     3.8653     3.8441     4.1430   -94.3187   104.2518
  140.5000     3.8909     3.8690     4.1704   -94.0315   107.8629
  141.0000     3.8892     3.8674     4.1398   -94.0369   112.3790
  141.5000     3.8879     3.8654     4.1673   -93.7397   115.6885
  142.0000     3.9140     3.8639     4.1948   -93.8949   117.4896
  142.5000     3.9124     3.9163     4.1905   -94.0501   115.0676
  143.0000     3.9383     3.9419     4.1339   -94.3561   108.4223
  143.5000     3.9937     3.9403     4.1325   -94.8130   102.0140
  144.0000     4.0184     3.9388     4.1312   -95.4369   100.5616
  144.5000     3.9889     3.9372     4.1298   -96.0295   104.7738
  145.0000     3.9876     3.9648     4.2152   -96.4864   107.7816
  145.5000     3.9862     4.0447     4.3624   -96.7924   106.5662
  146.0000     4.0130     4.1276     4.5149   -97.0984   103.5408
  146.5000     4.0673     4.1836     4.3561   -97.1028   101.7221
  147.0000     4.1227     4.2698     4.2679   -97.1072   101.4116
  147.5000     4.1803     4.2982     4.3265   -96.9608   102.9914
  148.0000     4.2409     4.3864     4.4156   -96.9653   111.9499
  148.5000     4.3532     4.3846     4.4757   -96.8198   116.4660
  149.0000     4.4125     4.4441     4.5058   -96.5214   114.9490
  149.5000     4.4726     4.4732     4.5353   -96.0744   109.2087
  150.0000     4.4402     4.4096     4.5024   -96.2300   106.4871
  150.5000     4.4055     4.3789     4.4087   -96.5405   107.9781
  151.0000     4.3778     4.2587     4.4076   -96.5492   107.6618
  151.5000     4.3470     4.1133     4.4067   -96.7089   106.1106
  152.0000     4.1693     3.9728     4.3754   -96.7179   105.2193
  152.5000     3.9437     3.7843     4.3143   -96.5756   109.4243
  153.0000     3.8088     3.5798     4.2540   -96.1341   110.6200
  153.5000     3.5778     3.4099     4.0798   -96.2937   109.6979
  154.0000     3.3146     3.1812     3.8321   -96.7550   107.5676
  154.5000     3.0899     2.9648     3.6739   -96.9146   105.0167
  155.0000     2.9384     2.8043     3.5905   -97.2251   100.6006
  155.5000     2.8246     2.7116     3.3336   -97.3847    99.0777
  156.0000     2.7853     2.6741     3.0881   -97.3937   102.3814
  156.5000     2.8435     2.7301     2.9208   -97.4045   110.8132
  157.0000     2.9846     2.8857     2.9002   -97.4133   113.5172
  157.5000     3.1764     3.0713     3.2174   -97.4221   112.8956
  158.0000     3.3109     3.3146     3.9062   -97.2801   111.9678
  158.5000     3.5237     3.6020     4.1569   -96.9872   111.0096
  159.0000     3.8105     3.9253     4.1850   -96.8430   109.5298
  159.5000     4.1606     4.2537     4.3016   -96.4015   108.9119
  160.0000     4.4279     4.4341     4.4525   -96.2594   109.2026
  160.5000     4.5836     4.6223     4.6408   -96.1001   108.8826
  161.0000     4.6793     4.4955     4.7704   -95.6759   108.2647
  161.5000     4.8438     4.3722     4.9377   -95.6847   109.1550
  162.0000     5.0140     4.4949     5.0758   -95.5405   112.1810
  162.5000     5.1544     4.6210     5.2173   -95.7023   112.0413
  163.0000     5.2998     4.7518     5.3642   -96.0127   107.9009
  163.5000     5.4149     4.8840     5.4746   -96.4740   106.0763
  164.0000     5.4462     4.9175     5.5116   -96.9353   104.5534
  164.5000     5.4453     4.9860     5.4721   -97.7059   103.3321
  165.0000     5.4446     5.0552     5.3956   -98.3358   103.0195
  165.5000     5.3688     5.0548     5.2470   -98.9247   104.5095
  166.0000     5.2576     4.8822     5.0671   -99.2351   103.8592
  166.5000     5.1130     4.6506     4.9275   -99.0931    99.6501
  167.0000     5.0071     4.5230     4.8250   -98.7980    98.7342
  167.5000     4.8666     4.4914     4.7879   -98.3565   102.3358
  168.0000     4.6702     4.4911     4.6263   -98.0636   105.9411
  168.5000     4.5104     4.4597     4.4368   -97.4691   107.1367
  169.0000     4.3561     4.3374     4.2847   -97.0106   107.1185
  169.5000     4.1779     4.1603     4.1378   -96.4309   105.5956
  170.0000     3.9246     3.9905     4.0518   -96.4419   103.7506
  170.5000     3.6866     3.8011     4.0230   -96.7523   102.2444
  171.0000     3.4631     3.6208     4.0502   -97.0628   105.8497
  171.5000     3.2750     3.3069     3.9655   -97.2224   111.8683
  172.0000     3.1857     2.9965     3.6860   -97.5329   117.2835
  172.5000     3.1851     2.8995     3.1973   -97.6925   120.8888
  173.0000     3.2070     2.9195     2.8609   -98.1589   120.9794
  173.5000     3.2967     3.0645     3.2406   -98.4872   114.2231
  174.0000     3.4125     3.2391     3.7220   -98.9277   105.9427
  174.5000     3.4839     3.4000     3.9336   -99.2382   100.9172
  175.0000     3.5813     3.5689     3.9878   -99.5486    99.0926
  175.5000     3.7851     3.7723     3.9594   -99.5574    98.4746
  176.0000     3.9747     3.9069     4.0437   -99.5662    98.4600
  176.5000     4.1698     4.0147     4.2418   -99.5750    99.0524
  177.0000     4.2569     4.0143     4.3602   -99.2821    99.9391
  177.5000     4.2563     4.0141     4.2993   -98.9893   102.0361
  178.0000     4.2557     4.0138     4.2687   -98.8494   104.1609
  178.5000     4.2552     4.0135     4.2678   -98.5566   106.5281
  179.0000     4.2252     4.0133     4.2375   -98.4123   105.3068
  179.5000     4.2246     3.9853     4.1783   -97.9686   101.6723
  180.0000     4.1949     3.9575     4.1486   -97.6758    98.6411
  180.5000     4.1943     3.9298     4.0590   -97.2321    99.5314
  181.0000     4.1646     3.9023     3.7370   -96.9414   102.8351
  181.5000     3.8582     3.6915     3.7106   -96.6485   105.5354
  182.0000     3.1114     3.1909     3.7096   -96.5065   104.2815
  182.5000     2.5266     2.6643     3.7089   -96.5175   103.0892
  183.0000     2.2609     2.0611     3.5324   -96.5263   103.0746
  183.5000     2.1238     1.8833     2.9490   -96.5351   103.6633
