~VERSION INFORMATION
 VERS.                2.0:   CWLS LOG ASCII STANDARD - VERSION 2.0
 WRAP.                 NO:   ONE LINE PER DEPTH STEP
~WELL INFORMATION
#MNEM.UNIT      DATA TYPE    INFORMATION
#----------   ------------   ------------------------------
 STRT.F          103.0000:   START DEPTH
 STOP.F          898.0000:   STOP DEPTH
 STEP.F            0.5000:   STEP LENGTH
 NULL.          -999.2500:   NO VALUE
 COMP. LAWRENCE/ALLISON INC:   COMPANY
 WELL. NPR 3 32-66 SX #2-2:   WELL
 FLD .             TEAPOT:   FIELD
 LOC .       S2 T38N R78W:   LOCATION
 CNTY.            NATRONA:   COUNTY
 STAT.            WYOMING:   STATE
 CTRY. UNITED STATES OF AMERICA:   COUNTRY
 SRVC.      Dresser Atlas:   SERVICE COMPANY
 DATE.        30-JAN-1986:   LOGDATE
 API .       490251106900:   API NUMBER
~CURVE INFORMATION
#MNEM.UNIT       API CODE    CURVE DESCRIPTION
#----------   ------------   ------------------------------
 DEPT.F                  :   
 RILD.OHMM   07 120 46 00:   INDUCTION LOG DEEP RESISTIVITY
 RILM.OHMM   07 120 44 00:   INDUCTION LOG MEDIUM RESISTIVITY
 CALD.IN     45 280 60 00:   CALIPER FROM DENSITY
 GRD .GAPI   45 310 01 00:   GAMMA RAY FROM DENSITY LOG
 CORR.G/C3   45 356 01 00:   DENSITY CORRECTION
 PORD.DEC    45 890 10 00:   POROSITY DENSITY LIMESTONE
 DEN .G/C3   45 350 01 00:   COMPENSATED BULK DENSITY
~PARAMETER INFORMATION
#MNEM.UNIT          VALUE    DESCRIPTION
#----------   ------------   ------------------------------
 PD  .                 GL:   PERMANENT DATUM
 EPD .F              5136:   ELEVATION PERMANENT DATUM
 LMF .                 GL:   LOG MEASURED FROM
 DMF .                 GL:   DRILLING MEASURED FROM
 EGL .F              5136:   GROUND LEVEL
 DATE.        30-JAN-1986:   RUN DATE
 RUN .                  1:   RUN NUMBER
 DD  .F               885:   DEPTH DRILLER
 DL  .F               902:   DEPTH LOGGER
 BLI .F               894:   BOTTOM LOG INTERVAL
 CS  .IN            8.625:   CASING SIZE
 CBD .F               130:   CASING BOTTOM DRILLER
 CBL .F               126:   CASING BOTTOM LOGGER
 BS  .IN             6.25:   BIT SIZE
 BSD .F               885:   BIT SIZE AT DEPTH
 DFT .                AIR:   DRILLING FLUID TYPE
 LUN .            HL-6264:   LOGGING UNIT NUMBER
 LUL .           GILLETTE:   LOGGING UNIT LOCATION
 ENGI.     P. M. FAHLSING:   RECORDING ENGINEER
 WITN.        LINDA FIVAS:   WITNESSED BY
 CLNT.            A2DTECH:   CLIENT CODE
 ORIG.           5" PRINT:   ORIGIN OF DATA
 UWI .       490251106900:   UNIQUE WELL ID
 DICO. A2D Technologies, Inc.:   DIGITIZING COMPANY
 R1  . POROSITY WITH LIMESTONE:   REMARKS 1
~OTHER INFORMATION
~A   DEPT     RILD       RILM       CALD        GRD       CORR       PORD        DEN   
# ...
  376.0000     7.6685     7.6544     7.1620   142.0673     0.0630     0.1173     2.4841
  376.5000     7.3611     7.5470     7.1474   143.8810     0.0661     0.1125     2.4895
  377.0000     7.2274     7.4020     7.1479   145.9951     0.0827     0.1092     2.4985
  377.5000     7.2340     7.2615     7.1483   147.8087     0.1087     0.1077     2.5001
  378.0000     7.1905     7.2184     7.1489   148.4183     0.1284     0.1089     2.4970
  378.5000     7.1476     7.1756     7.1493   146.6314     0.1255     0.1113     2.4925
  379.0000     7.1032     7.1330     7.1498   144.2409     0.1003     0.1155     2.4864
  379.5000     7.0606     7.0420     7.1502   143.0511     0.0798     0.1179     2.4820
  380.0000     6.9715     6.9986     7.1507   143.0635     0.0768     0.1173     2.4836
  380.5000     6.9281     6.9091     7.1511   145.4778     0.0858     0.1155     2.4898
  381.0000     6.8866     6.8682     7.1516   147.2915     0.0934     0.1125     2.4911
  381.5000     6.8454     6.8275     7.1520   148.8049     0.0813     0.1113     2.4911
  382.0000     6.8532     6.8359     7.1524   146.7067     0.0783     0.1101     2.4927
  382.5000     6.9072     6.8427     7.1529   144.3093     0.0844     0.1101     2.4942
  383.0000     6.9122     6.8494     7.1534   142.8088     0.1025     0.1113     2.4927
  383.5000     6.9665     6.9038     7.1538   140.7444     0.1237     0.1128     2.4912
  384.0000     7.0700     6.9106     7.1543   141.4534     0.1357     0.1197     2.4836
  384.5000     7.0765     6.9160     7.1547   146.7772     0.1358     0.1204     2.4761
  385.0000     7.0830     6.9708     7.1552   150.3927     0.1358     0.1164     2.4867
  385.5000     7.1387     6.9812     7.1556   149.2034     0.1298     0.1119     2.4943
  386.0000     7.2449     7.0818     7.1561   148.0111     0.0875     0.1094     2.4928
  386.5000     7.4038     7.1380     7.1565   150.1281     0.0739     0.1088     2.4928
  387.0000     7.5140     7.2447     7.1570   152.8427     0.0890     0.1094     2.4958
  387.5000     7.6787     7.4040     7.1574   155.8576     0.1132     0.1076     2.5026
  388.0000     7.8471     7.6195     7.1578   156.7674     0.1268     0.1058     2.5049
  388.5000     7.9089     7.7334     7.1583   155.8784     0.1283     0.1089     2.5004
  389.0000     7.8055     7.8489     7.1587   155.2107     0.1237     0.1125     2.4929
  389.5000     7.8130     7.8567     7.1592   153.9291     0.1208     0.1136     2.4898
  390.0000     7.7659     7.8644     7.1596   152.4335     0.1210     0.1116     2.4914
  390.5000     7.8271     7.8722     7.1300   152.4395     0.1239     0.1049     2.5095
  391.0000     7.8342     7.8799     7.1304   152.4454     0.1088     0.1002     2.5133
  391.5000     7.8959     7.8877     7.1309   151.2502     0.0847     0.0991     2.5141
  392.0000     7.9031     7.8954     7.1313   149.4543     0.0756     0.1010     2.5141
  392.5000     7.9104     7.9032     7.1318   147.6585     0.0847     0.0961     2.5157
  393.0000     7.9726     7.9094     7.1323   146.7635     0.1149     0.0955     2.5202
  393.5000     8.0354     7.9171     7.1328   147.3701     0.1149     0.0967     2.5180
  394.0000     8.0428     7.9247     7.1332   153.3820     0.1134     0.1046     2.5074
  394.5000     8.1061     7.9324     7.1337   154.8895     0.1270     0.1082     2.4991
  395.0000     8.1135     7.9402     7.1341   152.7934     0.1542     0.1097     2.4915
  395.5000     8.1210     8.0033     7.1346   148.5951     0.1497     0.1148     2.4791
  396.0000     8.0705     8.0112     7.1350   145.8983     0.1150     0.1239     2.4657
  396.5000     8.0883     8.0748     7.1355   146.5049     0.0969     0.1263     2.4676
  397.0000     8.1415     8.0827     7.1359   150.1144     0.0939     0.1245     2.4752
  397.5000     8.0351     8.0349     7.1364   153.1234     0.0984     0.1190     2.4807
  398.0000     7.9887     7.9322     7.1368   152.8291     0.0939     0.1190     2.4817
  398.5000     8.1076     7.9400     7.1221   151.9341     0.0847     0.1232     2.4711
  399.0000     8.2282     8.1146     7.1226   152.5406     0.0698     0.1287     2.4606
  399.5000     8.3506     8.1791     7.1231   153.4475     0.0698     0.1311     2.4568
  400.0000     8.4144     8.4168     7.1254   153.1532     0.0728     0.1287     2.4599
  400.5000     8.5754     8.6002     7.1373   152.5475     0.0834     0.1244     2.4683
  401.0000     8.7017     8.7255     7.1492   152.5646     0.0970     0.1199     2.4804
  401.5000     8.8298     8.7928     7.1611   153.8379     0.1031     0.1151     2.4850
  402.0000     8.9599     8.9223     7.1718   155.5794     0.0940     0.1172     2.4790
  402.5000     9.0904     8.9913     7.1725   151.4065     0.0940     0.1193     2.4790
  403.0000     9.1647     9.0609     7.1733   143.2804     0.1031     0.1190     2.4806
  403.5000     9.2952     9.1944     7.1740   141.1828     0.1031     0.1148     2.4889
  404.0000     9.4321     9.3299     7.1748   141.7908     0.1001     0.1087     2.5003
  404.5000     9.6375     9.5332     7.1755   140.5956     0.0941     0.1075     2.4988
  405.0000     9.7795     9.7409     7.1763   137.5985     0.0910     0.1087     2.4943
  405.5000     9.8550     9.8163     7.1620   136.4018     0.0896     0.1102     2.4906
  406.0000     9.9312     9.8224     7.1475   138.8116     0.0911     0.1099     2.4921
  406.5000    10.0080     9.8299     7.1484   141.2200     0.0983     0.1010     2.5103
  407.0000    10.0158     9.8374     7.1491   143.0278     0.1274     0.0906     2.5217
  407.5000    10.0220     9.8450     7.1499   145.1358     0.1199     0.0925     2.5234
  408.0000     9.9559     9.7844     7.1506   146.0427     0.1123     0.0988     2.5120
  408.5000     9.7633     9.6576     7.1514   146.0486     0.1048     0.1089     2.4901
  409.0000     9.5702     9.5966     7.1521   145.4525     0.0927     0.1159     2.4795
  409.5000     9.5098     9.4066     7.1529   144.5590     0.0776     0.1199     2.4765
  410.0000     9.4516     9.3490     7.1537   143.0635     0.0701     0.1211     2.4766
  410.5000     9.4608     9.3581     7.1544   141.8667     0.0792     0.1192     2.4811
  411.0000     9.5339     9.3654     7.1551   141.5724     0.0928     0.1171     2.4843
  411.5000     9.5414     9.3712     7.1559   143.0813     0.1064     0.1168     2.4857
  412.0000     9.5488     9.3784     7.1566   143.6879     0.1155     0.1174     2.4826
  412.5000     9.5547     9.3855     7.1574   143.6938     0.1094     0.1189     2.4795
  413.0000     9.4959     9.3928     7.1581   144.3004     0.1004     0.1213     2.4722
  413.5000     9.5034     9.4002     7.1589   146.4084     0.1019     0.1256     2.4670
  414.0000     9.3798     9.4075     7.1596   149.7177     0.1065     0.1250     2.4701
  414.5000     9.3208     9.4149     7.1605   149.1041     0.1035     0.1204     2.4799
  415.0000     9.3299     9.2908     7.1638   147.2372     0.1035     0.1132     2.5027
  415.5000     9.2728     9.1719     7.1922   142.3645     0.1050     0.1020     2.5118
  416.0000     9.1507     9.1157     7.1929   140.7325     0.1035     0.0972     2.5179
  416.5000     9.0947     9.0581     7.1784   140.7399     0.0914     0.0954     2.5209
  417.0000     9.0391     9.0026     7.1944   140.7459     0.0613     0.1011     2.5187
  417.5000     8.9838     9.0098     7.1951   140.1497     0.0738     0.1071     2.5028
  418.0000     8.9909     9.0167     7.1959   140.1572     0.1015     0.1120     2.4908
  418.5000     8.9978     9.0237     7.1966   141.3643     0.1219     0.1117     2.4938
  419.0000     9.0048     9.0308     7.1974   144.9739     0.1214     0.1062     2.4999
  419.5000     9.0118     9.0378     7.1981   148.5834     0.1187     0.1020     2.5075
  420.0000     9.0189     9.0449     7.1989   152.1930     0.1308     0.0984     2.5166
  420.5000     8.9619     8.9895     7.1844   149.1959     0.1399     0.0975     2.5189
  421.0000     8.9071     8.9965     7.1701   146.1989     0.1338     0.0987     2.5122
