~VERSION INFORMATION
 VERS.                2.0:   CWLS LOG ASCII STANDARD - VERSION 2.0
 WRAP.                 NO:   ONE LINE PER DEPTH STEP
~WELL INFORMATION
#MNEM.UNIT      DATA TYPE    INFORMATION
#----------   ------------   ------------------------------
 STRT.F         1400.0000:   START DEPTH
 STOP.F         3422.0000:   STOP DEPTH
 STEP.F            0.5000:   STEP LENGTH
 NULL.          -999.2500:   NO VALUE
 COMP. LAWRENCE/ALLISON INC:   COMPANY
 WELL.   NPR 3 #36-STX-23:   WELL
 FLD .             TEAPOT:   FIELD
 LOC .      S23 T38N R78W:   LOCATION
 CNTY.            NATRONA:   COUNTY
 STAT.            WYOMING:   STATE
 CTRY. UNITED STATES OF AMERICA:   COUNTRY
 SRVC.            Unknown:   SERVICE COMPANY
 DATE.        04-JAN-1985:   LOGDATE
 API .       490251137700:   API NUMBER
~CURVE INFORMATION
#MNEM.UNIT       API CODE    CURVE DESCRIPTION
#----------   ------------   ------------------------------
 DEPT.F                  :   
 ROP .MIN/FT 91 810 01 00:   RAT OF DRILLING PENETRATION
 TGAS.UNITS  91 830 01 00:   TOTAL GAS UNIT
~PARAMETER INFORMATION
#MNEM.UNIT          VALUE    DESCRIPTION
#----------   ------------   ------------------------------
 DATE.           1-4-1985:   RUN DATE
 RUN .                  1:   RUN NUMBER
 DD  .F              3427:   DEPTH DRILLER
 TLI .F              1400:   TOP LOG INTERVAL
 BSD .F              3427:   BIT SIZE AT DEPTH
 WITN. RAY ANDERSON/JACK HARBISON:   WITNESSED BY
 CLNT.            A2DTECH:   CLIENT CODE
 ORIG.           5" PRINT:   ORIGIN OF DATA
 UWI .       490251137700:   UNIQUE WELL ID
 DICO. A2D Technologies, Inc.:   DIGITIZING COMPANY
~OTHER INFORMATION
~A  DEPT       ROP       TGAS   
# ...
 1521.5000     0.3997     1.6543
 1522.0000     0.3955     1.6464
 1522.5000     0.3913     1.6384
 1523.0000     0.3870     1.6305
 1523.5000     0.3828     1.6225
 1524.0000     0.4000     1.6146
 1524.5000     0.4392     1.6066
 1525.0000     0.4784     1.5987
 1525.5000     0.5176     1.5907
 1526.0000     0.5279     1.5828
 1526.5000     0.5285     1.5748
 1527.0000     0.5287     1.5668
 1527.5000     0.5290     1.5578
 1528.0000     0.5292     1.5279
 1528.5000     0.5294     1.4931
 1529.0000     0.5297     1.4584
 1529.5000     0.5299     1.4237
 1530.0000     0.5301     1.3890
 1530.5000     0.5304     1.3542
 1531.0000     0.5306     1.3195
 1531.5000     0.5308     1.2848
 1532.0000     0.5311     1.2501
 1532.5000     0.5313     1.2153
 1533.0000     0.5316     1.1806
 1533.5000     0.5318     1.1459
 1534.0000     0.5320     1.1112
 1534.5000     0.5323     1.0765
 1535.0000     0.5325     1.0417
 1535.5000     0.5327     1.0070
 1536.0000     0.5330     0.9723
 1536.5000     0.5348     0.9376
 1537.0000     0.6121     0.9028
 1537.5000     0.6530     0.8681
 1538.0000     0.6543     0.8334
 1538.5000     0.5901     0.7987
 1539.0000     0.5518     0.7639
 1539.5000     0.5348     0.7292
 1540.0000     0.5298     0.6945
 1540.5000     0.5248     0.6598
 1541.0000     0.5206     0.6250
 1541.5000     0.5214     0.5903
 1542.0000     0.5221     0.5556
 1542.5000     0.5228     0.5209
 1543.0000     0.5236     0.4861
 1543.5000     0.5243     0.4514
 1544.0000     0.5250     0.4167
 1544.5000     0.5257     0.3820
 1545.0000     0.5264     0.3472
 1545.5000     0.5272     0.3125
 1546.0000     0.5279     0.2778
 1546.5000     0.5286     0.2431
 1547.0000     0.5293     0.2083
 1547.5000     0.5300     0.1736
 1548.0000     0.5303     0.1389
 1548.5000     0.5298     0.1042
 1549.0000     0.5293     0.0694
 1549.5000     0.5288     0.0347
 1550.0000     0.5283     0.0000
 1550.5000     0.5278     0.0000
 1551.0000     0.5274     0.0000
 1551.5000     0.5269     0.0000
 1552.0000     0.5077     0.0000
 1552.5000     0.4508     0.0000
 1553.0000     0.4130     0.0000
 1553.5000     0.3849     0.0000
 1554.0000     0.3824     0.0000
 1554.5000     0.3797     0.0000
 1555.0000     0.3773     0.0000
 1555.5000     0.3781     0.0000
 1556.0000     0.3788     0.0000
 1556.5000     0.3796     0.0000
 1557.0000     0.3803     0.0000
 1557.5000     0.3810     0.0000
 1558.0000     0.3817     0.0000
 1558.5000     0.3825     0.0000
 1559.0000     0.3832     0.0000
 1559.5000     0.3839     0.0000
 1560.0000     0.3846     0.0000
 1560.5000     0.3853     0.0000
 1561.0000     0.3862     0.0000
 1561.5000     0.3864     0.0000
 1562.0000     0.3867     0.0000
 1562.5000     0.3869     0.0000
 1563.0000     0.3872     0.0000
 1563.5000     0.3875     0.0000
 1564.0000     0.3877     0.0000
 1564.5000     0.3880     0.0000
 1565.0000     0.3883     0.0000
 1565.5000     0.3911     0.0000
 1566.0000     0.3960     0.0000
 1566.5000     0.4010     0.0000
 1567.0000     0.4059     0.0000
 1567.5000     0.4093     0.0000
 1568.0000     0.4096     0.0000
 1568.5000     0.4100     0.0000
 1569.0000     0.4103     0.0000
 1569.5000     0.4107     0.0000
 1570.0000     0.4111     0.0000
 1570.5000     0.4114     0.0000
 1571.0000     0.4118     0.0000
 1571.5000     0.4121     0.0000
 1572.0000     0.4125     0.0000
 1572.5000     0.4129     0.0000
 1573.0000     0.4132     0.0000
 1573.5000     0.4136     0.0000
 1574.0000     0.4139     0.0000
 1574.5000     0.4143     0.0000
 1575.0000     0.4147     0.0000
 1575.5000     0.4150     0.0000
 1576.0000     0.4154     0.0000
 1576.5000     0.4157     0.0000
 1577.0000     0.4161     0.0000
 1577.5000     0.4165     0.0000
 1578.0000     0.4168     0.0000
 1578.5000     0.4172     0.0000
 1579.0000     0.4175     0.0000
 1579.5000     0.4179     0.0000
 1580.0000     0.4168     0.0000
 1580.5000     0.4000     0.0000
 1581.0000     0.3901     0.0000
 1581.5000     0.3905     0.0000
 1582.0000     0.3909     0.0000
 1582.5000     0.3912     0.0000
 1583.0000     0.3916     0.0000
 1583.5000     0.3919     0.0000
 1584.0000     0.3923     0.0000
 1584.5000     0.3927     0.0000
 1585.0000     0.3930     0.0000
 1585.5000     0.3934     0.0000
 1586.0000     0.4226     0.0000
 1586.5000     0.4519     0.0000
 1587.0000     0.4907     0.0008
 1587.5000     0.4814     0.0135
 1588.0000     0.4336     0.0130
 1588.5000     0.4052     0.0124
 1589.0000     0.3959     0.0119
 1589.5000     0.3963     0.0113
 1590.0000     0.3967     0.0108
 1590.5000     0.3971     0.0103
 1591.0000     0.3973     0.0097
 1591.5000     0.3977     0.0092
 1592.0000     0.3980     0.0086
 1592.5000     0.3984     0.0081
 1593.0000     0.3987     0.0076
 1593.5000     0.3991     0.0070
 1594.0000     0.3994     0.0065
 1594.5000     0.3998     0.0059
 1595.0000     0.4001     0.0054
 1595.5000     0.4004     0.0049
 1596.0000     0.4008     0.0043
 1596.5000     0.4011     0.0038
 1597.0000     0.4015     0.0032
 1597.5000     0.4018     0.0027
 1598.0000     0.4022     0.0022
 1598.5000     0.4025     0.0016
 1599.0000     0.4029     0.0011
 1599.5000     0.4032     0.0005
 1600.0000     0.4231     0.0000
 1600.5000     0.3945     0.1634
 1601.0000     0.3947     0.3269
 1601.5000     0.3853     0.4903
 1602.0000     0.3952     0.6538
 1602.5000     0.3954     0.8172
 1603.0000     0.3957     0.0000
 1603.5000     0.3959     0.0000
 1604.0000     0.3962     0.0000
 1604.5000     0.3964     0.0000
 1605.0000     0.3967     0.0000
 1605.5000     0.3969     0.0000
 1606.0000     0.3971     0.0000
 1606.5000     0.3974     0.0000
 1607.0000     0.3976     0.0000
 1607.5000     0.3979     0.0000
 1608.0000     0.4080     0.0000
 1608.5000     0.4089     0.0000
 1609.0000     0.4097     0.0000
 1609.5000     0.4105     0.0000
 1610.0000     0.4113     0.0000
 1610.5000     0.4122     0.0000
 1611.0000     0.4130     0.0000
 1611.5000     0.4138     0.0000
 1612.0000     0.4146     0.0000
 1612.5000     0.4155     0.0000
 1613.0000     0.4163     0.0000
 1613.5000     0.4171     0.0000
 1614.0000     0.4179     0.0000
 1614.5000     0.4188     0.0000
 1615.0000     0.4196     0.0000
 1615.5000     0.4204     0.0000
 1616.0000     0.4212     0.0000
 1616.5000     0.4118     0.0000
 1617.0000     0.4121     0.0000
 1617.5000     0.4123     0.0000
 1618.0000     0.4125     0.0000
 1618.5000     0.4032     0.0000
 1619.0000     0.4034     0.0000
 1619.5000     0.4132     0.0000
 1620.0000     0.4936     0.0000
 1620.5000     0.5291     0.0000
 1621.0000     0.5389     0.0000
 1621.5000     0.5488     0.0000
 1622.0000     0.5490     0.0397
 1622.5000     0.5493     0.0797
 1623.0000     0.5495     0.1197
 1623.5000     0.5498     0.1598
 1624.0000     0.5500     0.1998
 1624.5000     0.5502     0.2398
 1625.0000     0.5505     0.2798
 1625.5000     0.5507     0.3198
 1626.0000     0.5510     0.3598
 1626.5000     0.5512     0.3999
 1627.0000     0.5514     0.4399
 1627.5000     0.5517     0.4799
 1628.0000     0.5519     0.5199
 1628.5000     0.5522     0.5599
 1629.0000     0.5524     0.5999
 1629.5000     0.5526     0.6400
 1630.0000     0.5529     0.6800
 1630.5000     0.5531     0.7200
 1631.0000     0.5534     0.7600
 1631.5000     0.5536     0.8000
 1632.0000     0.5538     0.8400
 1632.5000     0.5541     0.8801
 1633.0000     0.5544     0.9201
 1633.5000     0.5533     0.9601
 1634.0000     0.5522     1.0001
 1634.5000     0.5511     1.0401
 1635.0000     0.5499     1.0801
 1635.5000     0.5488     1.1202
 1636.0000     0.5476     1.1602
 1636.5000     0.5465     1.2002
 1637.0000     0.5453     0.2534
 1637.5000     0.5442     0.3146
 1638.0000     0.5430     0.3872
 1638.5000     0.5419     0.4597
 1639.0000     0.5408     0.5322
 1639.5000     0.5396     0.6047
 1640.0000     0.5385     0.6772
 1640.5000     0.5368     0.7498
 1641.0000     0.5351     0.8223
 1641.5000     0.5335     0.8948
 1642.0000     0.5318     0.9673
 1642.5000     0.5305     1.0398
