~VERSION INFORMATION
 VERS.                2.0:   CWLS LOG ASCII STANDARD - VERSION 2.0
 WRAP.                 NO:   ONE LINE PER DEPTH STEP
~WELL INFORMATION
#MNEM.UNIT      DATA TYPE    INFORMATION
#----------   ------------   ------------------------------
 STRT.F            0.0000:   START DEPTH
 STOP.F         3024.5000:   STOP DEPTH
 STEP.F            0.5000:   STEP LENGTH
 NULL.          -999.2500:   NO VALUE
 COMP. LAWRENCE/ALLISON INC:   COMPANY
 WELL.   NPR 3 77X #77-28:   WELL
 FLD .           N.P.R. 3:   FIELD
 LOC .      S28 T39N R78W:   LOCATION
 CNTY.            NATRONA:   COUNTY
 STAT.            WYOMING:   STATE
 CTRY. UNITED STATES OF AMERICA:   COUNTRY
 SRVC.      Dresser Atlas:   SERVICE COMPANY
 DATE.        19-OCT-1986:   LOGDATE
 API .       490251110400:   API NUMBER
~CURVE INFORMATION
#MNEM.UNIT       API CODE    CURVE DESCRIPTION
#----------   ------------   ------------------------------
 DEPT.F                  :   
 PORD.DEC    45 890 12 00:   DENSITY POROSITY SANDSTONE
 CNC .DEC    42 890 03 00:   NEUTRON POROSITY SANDSTONE
 DEN .G/C3   45 350 01 00:   COMPENSATED BULK DENSTIY
 CORR.G/C3   45 356 01 00:   DENSITY CORRECTION
 CALD.IN     45 280 60 00:   CALIPER FROM DENSITY LOG
 GRR .GAPI   07 310 01 00:   GAMMA RAY FROM RES. LOG.
 RFOC.OHMM   07 220 04 00:   RESISTIVITY FOCUSED LOG
 RILD.OHMM   07 120 46 00:   INDUCTION LOG DEEP RESISTIVITY
 RILM.OHMM   07 120 44 00:   INDUCTION LOG MEDIUM RESISTIVITY
 SPR .MV     07 010 01 00:   SPONTANEOUS POTENTIAL
~PARAMETER INFORMATION
#MNEM.UNIT          VALUE    DESCRIPTION
#----------   ------------   ------------------------------
 PD  .                 GL:   PERMANENT DATUM
 EPD .F              5074:   ELEVATION PERMANENT DATUM
 LMF .                 KB:   LOG MEASURED FROM
 DAPD.F                12:   FEET ABOVE PERMANENT DATUM
 DMF .                 KB:   DRILLING MEASURED FROM
 EKB .F              5086:   KELLING BUSHING
 EGL .F              5074:   GROUND LEVEL
 DATE.           10-19-86:   RUN DATE
 RUN .                  1:   RUN NUMBER
 DD  .F              3021:   DEPTH DRILLER
 DL  .F              3025:   DEPTH LOGGER
 BLI .F              3023:   BOTTOM LOG INTERVAL
 CS  .IN            8.625:   CASING SIZE
 CBD .F               620:   CASING BOTTOM DRILLER
 CBL .F               615:   CASING BOTTOM LOGGER
 BS  .IN            7.875:   BIT SIZE
 BSD .F              3021:   BIT SIZE AT DEPTH
 DFT .        KCL POLYMER:   DRILLING FLUID TYPE
 DFD .                8.9:   DRILLING FLUID DENSITY
 DFV .                 38:   DRILLING FLUID VISCOSITY
 DFPH.                9.5:   DRILLING FLUID PH
 DFL .               11.2:   DRILLING FLUID LOSS
 MSS .           FLOWLINE:   MUD SAMPLE SOURCE
 RMS .OHMM            .25:   RESISTIVITY MUD SAMPLE
 MST .F                65:   MUD SAMPLE TEMPERATURE
 RMF .OHMM           .203:   RESISTIVITY MUD FILTRATE SAMPLE
 MFST.F                65:   MUD FILTRATE SAMPLE TEMPERATURE
 RMC .OHMM            .31:   RESISTIVITY MUD CAKE
 MCST.F                65:   MUD CAKE SAMPLE TEMPERATURE
 MFSS.               MEAS:   MUD FILTRATE SAMPLE SOURCE
 MCSS.               CALC:   MUD CAKE SAMPLE SOURCE
 RMB .OHMM           .136:   RESISTIVITY MUD AT BHT
 BHT .F               119:   BOTTOM HOLE TEMPERATURE
 TCS .HRS               5:   TIME CURCULATED STOPPED
 MRT .F               119:   MAXIMUM RECORDED TEMPERATURE
 LUN .               6274:   LOGGING UNIT NUMBER
 LUL .               GLTE:   LOGGING UNIT LOCATION
 ENGI.             RAUTIO:   RECORDING ENGINEER
 WITN.             STRONG:   WITNESSED BY
 CLNT.            A2DTECH:   CLIENT CODE
 ORIG.       2", 5" PRINT:   ORIGIN OF DATA
 UWI .       490251110400:   UNIQUE WELL ID
 DICO. A2D Technologies, Inc.:   DIGITIZING COMPANY
~OTHER INFORMATION
~A    DEPT    PORD        CNC        DEN       CORR       CALD        GRR       RFOC       RILD       RILM        SPR   
# ...
 1273.0000  -999.2500  -999.2500  -999.2500  -999.2500  -999.2500   108.5513     7.0361     5.9996     5.7689   -83.9383
 1273.5000  -999.2500  -999.2500  -999.2500  -999.2500  -999.2500   107.9867     7.0248     5.9867     5.7535   -83.8196
 1274.0000  -999.2500  -999.2500  -999.2500  -999.2500  -999.2500   107.7877     7.0138     5.9757     5.7382   -83.7993
 1274.5000  -999.2500  -999.2500  -999.2500  -999.2500  -999.2500   102.6546     7.0009     5.9647     5.7229   -83.6027
 1275.0000  -999.2500  -999.2500  -999.2500  -999.2500  -999.2500    97.3478     6.9634     5.9537     5.7077   -83.2997
 1275.5000  -999.2500  -999.2500  -999.2500  -999.2500  -999.2500    92.3924     6.9264     5.9427     5.6925   -82.9969
 1276.0000  -999.2500  -999.2500  -999.2500  -999.2500  -999.2500    94.5563     6.8896     5.9369     5.6775   -82.8306
 1276.5000  -999.2500  -999.2500  -999.2500  -999.2500  -999.2500    98.3198     6.8785     5.9369     5.6699   -83.0161
 1277.0000  -999.2500  -999.2500  -999.2500  -999.2500  -999.2500   102.0925     6.9062     5.9368     5.7126   -83.1964
 1277.5000  -999.2500  -999.2500  -999.2500  -999.2500  -999.2500   105.1699     6.9573     5.9369     5.7509   -83.3774
 1278.0000  -999.2500  -999.2500  -999.2500  -999.2500  -999.2500   107.2563     7.0062     5.9369     5.7895   -83.5645
 1278.5000  -999.2500  -999.2500  -999.2500  -999.2500  -999.2500   105.4106     7.0062     5.9946     5.8284   -83.5185
 1279.0000  -999.2500  -999.2500  -999.2500  -999.2500  -999.2500   103.1035     6.8929     6.0501     5.8675   -83.4151
 1279.5000  -999.2500  -999.2500  -999.2500  -999.2500  -999.2500   102.5121     6.8133     6.1062     5.9069   -83.3106
 1280.0000  -999.2500  -999.2500  -999.2500  -999.2500  -999.2500   104.8662     6.8131     6.1627     5.9465   -83.2066
 1280.5000  -999.2500  -999.2500  -999.2500  -999.2500  -999.2500   106.3571     7.1253     6.2164     5.9864   -83.1019
 1281.0000  -999.2500  -999.2500  -999.2500  -999.2500  -999.2500   105.6552     7.3910     6.2738     5.9917   -82.9988
 1281.5000  -999.2500  -999.2500  -999.2500  -999.2500  -999.2500   105.6779     7.6815     6.2738     5.9917   -83.1890
 1282.0000  -999.2500  -999.2500  -999.2500  -999.2500  -999.2500   108.3215     7.4830     6.2738     5.9917   -83.4155
 1282.5000  -999.2500  -999.2500  -999.2500  -999.2500  -999.2500   109.4347     7.2283     6.2738     5.9920   -83.6420
 1283.0000  -999.2500  -999.2500  -999.2500  -999.2500  -999.2500   108.8550     6.9824     6.2738     5.9893   -83.8670
 1283.5000  -999.2500  -999.2500  -999.2500  -999.2500  -999.2500   108.7511     6.8155     6.2738     5.9974   -84.0039
 1284.0000  -999.2500  -999.2500  -999.2500  -999.2500  -999.2500   108.7429     6.8145     6.2737     5.9390   -83.7607
 1284.5000  -999.2500  -999.2500  -999.2500  -999.2500  -999.2500   108.3935     6.9297     6.2728     5.9936   -83.4838
 1285.0000  -999.2500  -999.2500  -999.2500  -999.2500  -999.2500   107.2499     7.0713     6.3077     6.0686   -83.2061
 1285.5000  -999.2500  -999.2500  -999.2500  -999.2500  -999.2500   106.3415     7.0704     6.3627     6.1445   -82.9286
 1286.0000  -999.2500  -999.2500  -999.2500  -999.2500  -999.2500   106.2565     7.1458     6.4184     6.2213   -82.6510
 1286.5000  -999.2500  -999.2500  -999.2500  -999.2500  -999.2500   106.1104     7.3917     6.4746     6.2991   -82.3979
 1287.0000  -999.2500  -999.2500  -999.2500  -999.2500  -999.2500   101.6813     7.6477     6.5090     6.3318   -82.4048
 1287.5000  -999.2500  -999.2500  -999.2500  -999.2500  -999.2500    99.2387     7.9012     6.5090     6.2313   -82.4054
 1288.0000  -999.2500  -999.2500  -999.2500  -999.2500  -999.2500   100.8367     7.6830     6.5090     6.1600   -82.4049
 1288.5000  -999.2500  -999.2500  -999.2500  -999.2500  -999.2500   103.4434     7.3641     6.5090     6.0895   -82.4063
 1289.0000  -999.2500  -999.2500  -999.2500  -999.2500  -999.2500   106.1567     7.0596     6.5091     6.0199   -82.4982
 1289.5000  -999.2500  -999.2500  -999.2500  -999.2500  -999.2500   107.0862     6.8768     6.5092     5.9917   -82.8044
 1290.0000  -999.2500  -999.2500  -999.2500  -999.2500  -999.2500   104.7757     6.9735     6.5090     6.1147   -83.1070
 1290.5000  -999.2500  -999.2500  -999.2500  -999.2500  -999.2500   104.3419     7.1925     6.4948     6.2730   -83.4098
 1291.0000  -999.2500  -999.2500  -999.2500  -999.2500  -999.2500   105.3078     7.4193     6.4458     6.2378   -83.7246
 1291.5000  -999.2500  -999.2500  -999.2500  -999.2500  -999.2500   105.5538     7.6126     6.3972     6.1887   -83.7973
 1292.0000  -999.2500  -999.2500  -999.2500  -999.2500  -999.2500   106.9705     7.6126     6.3490     6.1393   -83.7982
 1292.5000  -999.2500  -999.2500  -999.2500  -999.2500  -999.2500   109.3909     7.3202     6.3318     6.0904   -83.7975
 1293.0000  -999.2500  -999.2500  -999.2500  -999.2500  -999.2500   111.8363     7.0904     6.3318     6.0471   -83.7976
 1293.5000  -999.2500  -999.2500  -999.2500  -999.2500  -999.2500   114.2792     6.8671     6.3316     6.0854   -83.8040
 1294.0000  -999.2500  -999.2500  -999.2500  -999.2500  -999.2500   116.4080     6.8155     6.3468     6.1387   -83.4899
 1294.5000  -999.2500  -999.2500  -999.2500  -999.2500  -999.2500   114.3641     7.0558     6.3861     6.1924   -83.0743
 1295.0000  -999.2500  -999.2500  -999.2500  -999.2500  -999.2500   111.8706     7.2351     6.4257     6.2466   -82.6532
 1295.5000  -999.2500  -999.2500  -999.2500  -999.2500  -999.2500   109.3557     7.4208     6.4656     6.3013   -82.7654
 1296.0000  -999.2500  -999.2500  -999.2500  -999.2500  -999.2500   106.8570     7.5435     6.5058     6.3565   -82.9547
 1296.5000  -999.2500  -999.2500  -999.2500  -999.2500  -999.2500   106.7460     7.5065     6.5463     6.3904   -83.1460
 1297.0000  -999.2500  -999.2500  -999.2500  -999.2500  -999.2500   106.7580     7.4467     6.5692     6.3529   -83.3434
 1297.5000  -999.2500  -999.2500  -999.2500  -999.2500  -999.2500   106.3179     7.4039     6.5694     6.3261   -83.5933
 1298.0000  -999.2500  -999.2500  -999.2500  -999.2500  -999.2500   104.3581     7.3361     6.5578     6.2994   -83.4943
 1298.5000  -999.2500  -999.2500  -999.2500  -999.2500  -999.2500   102.7179     7.2058     6.5219     6.2728   -83.4071
 1299.0000  -999.2500  -999.2500  -999.2500  -999.2500  -999.2500   103.7868     7.0710     6.4862     6.2463   -83.3233
 1299.5000  -999.2500  -999.2500  -999.2500  -999.2500  -999.2500   104.7826     7.0704     6.4507     6.2200   -83.2390
 1300.0000  -999.2500  -999.2500  -999.2500  -999.2500  -999.2500   104.3015     7.0706     6.4154     6.2164   -83.1542
 1300.5000  -999.2500  -999.2500  -999.2500  -999.2500  -999.2500   103.4279     7.1373     6.3803     6.2025   -83.0700
 1301.0000  -999.2500  -999.2500  -999.2500  -999.2500  -999.2500   102.5580     7.2318     6.3454     6.1899   -83.0348
 1301.5000  -999.2500  -999.2500  -999.2500  -999.2500  -999.2500   101.6918     7.3278     6.3318     6.1774   -83.2475
 1302.0000  -999.2500  -999.2500  -999.2500  -999.2500  -999.2500   100.8240     7.4238     6.3354     6.1648   -83.4561
 1302.5000  -999.2500  -999.2500  -999.2500  -999.2500  -999.2500   100.3674     7.4737     6.3487     6.1523   -83.6643
 1303.0000  -999.2500  -999.2500  -999.2500  -999.2500  -999.2500   102.1172     7.3318     6.3620     6.1398   -83.8738
 1303.5000  -999.2500  -999.2500  -999.2500  -999.2500  -999.2500   104.4315     7.2267     6.3753     6.1273   -83.9893
 1304.0000  -999.2500  -999.2500  -999.2500  -999.2500  -999.2500   106.7590     7.1231     6.3887     6.1149   -84.1887
 1304.5000  -999.2500  -999.2500  -999.2500  -999.2500  -999.2500   109.0778     7.0062     6.3904     6.1025   -83.7647
 1305.0000  -999.2500  -999.2500  -999.2500  -999.2500  -999.2500   111.4673     7.0710     6.3904     6.0901   -83.3601
 1305.5000  -999.2500  -999.2500  -999.2500  -999.2500  -999.2500   110.5391     7.1936     6.3904     6.0777   -82.9521
 1306.0000  -999.2500  -999.2500  -999.2500  -999.2500  -999.2500   108.3964     7.3381     6.3910     6.0653   -82.8066
