~VERSION INFORMATION
 VERS.                2.0:   CWLS LOG ASCII STANDARD - VERSION 2.0
 WRAP.                 NO:   ONE LINE PER DEPTH STEP
~WELL INFORMATION
#MNEM.UNIT      DATA TYPE    INFORMATION
#----------   ------------   ------------------------------
 STRT.F          103.0000:   START DEPTH
 STOP.F          898.0000:   STOP DEPTH
 STEP.F            0.5000:   STEP LENGTH
 NULL.          -999.2500:   NO VALUE
 COMP. LAWRENCE/ALLISON INC:   COMPANY
 WELL. NPR 3 32-66 SX #2-2:   WELL
 FLD .             TEAPOT:   FIELD
 LOC .       S2 T38N R78W:   LOCATION
 CNTY.            NATRONA:   COUNTY
 STAT.            WYOMING:   STATE
 CTRY. UNITED STATES OF AMERICA:   COUNTRY
 SRVC.      Dresser Atlas:   SERVICE COMPANY
 DATE.        30-JAN-1986:   LOGDATE
 API .       490251106900:   API NUMBER
~CURVE INFORMATION
#MNEM.UNIT       API CODE    CURVE DESCRIPTION
#----------   ------------   ------------------------------
 DEPT.F                  :   
 RILD.OHMM   07 120 46 00:   INDUCTION LOG DEEP RESISTIVITY
 RILM.OHMM   07 120 44 00:   INDUCTION LOG MEDIUM RESISTIVITY
 CALD.IN     45 280 60 00:   CALIPER FROM DENSITY
 GRD .GAPI   45 310 01 00:   GAMMA RAY FROM DENSITY LOG
 CORR.G/C3   45 356 01 00:   DENSITY CORRECTION
 PORD.DEC    45 890 10 00:   POROSITY DENSITY LIMESTONE
 DEN .G/C3   45 350 01 00:   COMPENSATED BULK DENSITY
~PARAMETER INFORMATION
#MNEM.UNIT          VALUE    DESCRIPTION
#----------   ------------   ------------------------------
 PD  .                 GL:   PERMANENT DATUM
 EPD .F              5136:   ELEVATION PERMANENT DATUM
 LMF .                 GL:   LOG MEASURED FROM
 DMF .                 GL:   DRILLING MEASURED FROM
 EGL .F              5136:   GROUND LEVEL
 DATE.        30-JAN-1986:   RUN DATE
 RUN .                  1:   RUN NUMBER
 DD  .F               885:   DEPTH DRILLER
 DL  .F               902:   DEPTH LOGGER
 BLI .F               894:   BOTTOM LOG INTERVAL
 CS  .IN            8.625:   CASING SIZE
 CBD .F               130:   CASING BOTTOM DRILLER
 CBL .F               126:   CASING BOTTOM LOGGER
 BS  .IN             6.25:   BIT SIZE
 BSD .F               885:   BIT SIZE AT DEPTH
 DFT .                AIR:   DRILLING FLUID TYPE
 LUN .            HL-6264:   LOGGING UNIT NUMBER
 LUL .           GILLETTE:   LOGGING UNIT LOCATION
 ENGI.     P. M. FAHLSING:   RECORDING ENGINEER
 WITN.        LINDA FIVAS:   WITNESSED BY
 CLNT.            A2DTECH:   CLIENT CODE
 ORIG.           5" PRINT:   ORIGIN OF DATA
 UWI .       490251106900:   UNIQUE WELL ID
 DICO. A2D Technologies, Inc.:   DIGITIZING COMPANY
 R1  . POROSITY WITH LIMESTONE:   REMARKS 1
~OTHER INFORMATION
~A   DEPT     RILD       RILM       CALD        GRD       CORR       PORD        DEN   
# ...
  194.0000     4.9266     4.5242     6.9675   141.5335     0.0753     0.1758     2.3842
  194.5000     4.7298     4.3483     6.9679   143.3573     0.0708     0.1812     2.3804
  195.0000     4.5408     4.2340     6.9684   144.5846     0.0648     0.1890     2.3600
  195.5000     4.2994     4.1218     6.9688   145.7838     0.0588     0.1963     2.3494
  196.0000     3.9596     3.9029     6.9542   146.4745     0.0574     0.1987     2.3456
  196.5000     3.8014     3.6702     6.9547   148.5665     0.0575     0.1890     2.3615
  197.0000     3.7773     3.2653     6.9552   150.3944     0.0652     0.1845     2.3721
  197.5000     3.6777     3.2002     6.9557   151.8654     0.0633     0.1845     2.3653
  198.0000     3.6049     3.2259     6.9561   151.2827     0.0588     0.2011     2.3207
  198.5000     3.5573     3.2510     6.9716   147.6970     0.0501     0.2296     2.2776
  199.0000     3.4876     3.2764     6.9721   146.5093     0.0577     0.2427     2.2700
  199.5000     3.4185     3.3249     6.9876   148.9340     0.0696     0.2333     2.2837
  200.0000     3.3215     3.2940     6.9895   151.4766     0.0841     0.2083     2.3209
  200.5000     3.2568     3.1946     7.0086   153.0076     0.0985     0.1944     2.3578
  201.0000     3.1967     3.1540     7.0196   154.6804     0.0940     0.1893     2.3608
  201.5000     3.1343     3.1138     7.0354   155.5932     0.0839     0.1965     2.3593
  202.0000     3.0512     3.0530     7.0362   156.8062     0.0669     0.2047     2.3510
  202.5000     2.8892     2.9735     7.0369   155.6169     0.0744     0.2137     2.3245
  203.0000     2.7169     2.8358     7.0377   154.1273     0.0880     0.2209     2.3064
  203.5000     2.5726     2.6488     7.0384   151.7368     0.0850     0.2258     2.3019
  204.0000     2.3859     2.4066     7.0392   152.6495     0.0699     0.2279     2.3010
  204.5000     2.2592     2.2793     7.0550   158.6674     0.0564     0.2354     2.2901
  205.0000     2.1837     2.2193     7.0559   165.2859     0.0534     0.2472     2.2595
  205.5000     2.1860     2.2057     7.0566   167.0995     0.0594     0.2635     2.2376
  206.0000     2.2806     2.2707     7.0574   165.6099     0.0896     0.2795     2.2036
  206.5000     2.4293     2.3531     7.0581   157.5137     0.0972     0.2867     2.1960
  207.0000     2.6238     2.4824     7.0285   146.7148     0.0881     0.2778     2.2210
  207.5000     2.8934     2.6799     6.9993   140.1001     0.0821     0.2434     2.2565
  208.0000     3.0722     2.9798     6.9848   138.9307     0.0836     0.1866     2.3330
  208.5000     3.4606     3.3960     6.9705   143.2992     0.0942     0.1681     2.3973
  209.0000     3.7570     3.7664     6.9714   148.1721     0.1003     0.1696     2.3950
  209.5000     4.1375     4.0941     6.9569   151.2816     0.0940     0.1738     2.3889
  210.0000     4.3449     4.3288     6.9729   149.7920     0.0882     0.1757     2.3837
  210.5000     4.4664     4.4551     6.9586   146.2002     0.1003     0.1787     2.3806
  211.0000     4.3476     4.3680     6.9594   146.8127     0.0973     0.1799     2.3791
  211.5000     4.1171     4.2238     6.9752   150.4282     0.0792     0.1805     2.3791
  212.0000     3.8985     4.0281     6.9759   154.6443     0.0521     0.1826     2.3730
  212.5000     3.7172     3.8951     6.9767   158.8604     0.0460     0.1904     2.3579
  213.0000     3.5442     3.6132     6.9774   163.0764     0.0461     0.1937     2.3518
  213.5000     3.3329     3.3985     6.9783   167.8931     0.0521     0.1961     2.3467
  214.0000     3.1341     3.1965     7.0092   171.5086     0.0582     0.1989     2.3414
  214.5000     2.8866     3.0065     7.0400   173.3223     0.0612     0.2046     2.3353
  215.0000     2.7145     2.8083     7.0558   176.0368     0.0627     0.2124     2.3262
  215.5000     2.5703     2.6050     7.0716   179.6523     0.0582     0.2200     2.3134
  216.0000     2.5366     2.4843     7.0724   181.8698     0.0552     0.2295     2.3021
  216.5000     2.7402     2.6653     7.0731   176.9734     0.0613     0.2416     2.2733
  217.0000     2.8588     2.8594     7.0739   169.1774     0.0839     0.2519     2.2521
  217.5000     2.9826     2.9838     7.0746   160.1803     0.1096     0.2552     2.2476
  218.0000     3.1552     3.2234     7.0601   154.7867     0.1141     0.2335     2.2824
  218.5000     3.4314     3.5063     7.0309   158.4384     0.1001     0.1892     2.3361
  219.0000     3.8634     3.9213     7.0166   159.9480     0.0885     0.1641     2.4065
  219.5000     4.2309     4.0637     7.0023   159.2813     0.0976     0.1545     2.4216
  220.0000     4.6655     4.3296     7.0030   156.0384     0.0991     0.1569     2.4179
  220.5000     5.1448     5.0824     6.9887   153.0473     0.0870     0.1587     2.4111
  221.0000     5.3305     5.2307     6.9895   150.3565     0.0795     0.1611     2.4080
  221.5000     5.3720     5.3461     6.9902   148.2662     0.0871     0.1617     2.4081
  222.0000     5.5276     5.4327     6.9910   146.4763     0.0916     0.1593     2.4174
  222.5000     5.7271     5.6287     6.9919   145.8846     0.0931     0.1545     2.4224
  223.0000     5.8118     5.8263     6.9926   145.8994     0.0886     0.1508     2.4277
  223.5000     5.9801     5.8769     6.9933   146.5119     0.0856     0.1466     2.4368
  224.0000     6.2824     6.1767     7.0091   148.3256     0.0856     0.1303     2.4588
  224.5000     6.4631     6.5762     7.0250   149.5387     0.0856     0.1282     2.4671
  225.0000     6.5740     6.7196     7.0257   149.8508     0.0887     0.1297     2.4610
  225.5000     6.8492     6.7734     7.0566   149.8627     0.0947     0.1352     2.4565
  226.0000     6.8959     6.7336     7.0573   151.0758     0.1008     0.1372     2.4550
  226.5000     6.8539     6.7408     7.0580   154.3910     0.1008     0.1356     2.4550
  227.0000     6.7653     6.7479     7.0588   157.1055     0.0915     0.1339     2.4558
  227.5000     6.7710     6.7080     7.0595   160.4207     0.0793     0.1339     2.4497
  228.0000     6.7767     6.7153     7.0452   163.4356     0.0623     0.1354     2.4444
  228.5000     6.7823     6.6742     7.0309   165.5496     0.0586     0.1393     2.4460
  229.0000     6.7411     6.7294     7.0316   164.6605     0.0797     0.1387     2.4581
  229.5000     6.7001     6.6882     7.0324   164.6727     0.1039     0.1309     2.4740
  230.0000     6.6594     6.6490     7.0331   166.2663     0.1251     0.1215     2.4800
  230.5000     6.5735     6.6577     7.0339   167.6997     0.1055     0.1212     2.4727
  231.0000     6.5790     6.6170     7.0346   168.0113     0.0907     0.1357     2.4545
  231.5000     6.5845     6.5345     7.0355   168.9271     0.0768     0.1369     2.4513
  232.0000     6.5432     6.5414     7.0363   170.7408     0.0722     0.1297     2.4649
  232.5000     6.4586     6.5482     7.0370   173.7527     0.1012     0.1224     2.4748
  233.0000     6.4654     6.5082     7.0378   171.3651     0.1191     0.1191     2.4801
  233.5000     6.4708     6.5167     7.0686   166.2719     0.1144     0.1185     2.4793
  234.0000     6.5212     6.5235     7.0694   168.3858     0.1038     0.1212     2.4778
  234.5000     6.5720     6.5757     7.0701   170.8001     0.0920     0.1291     2.4657
  235.0000     6.7156     6.7675     7.0709   171.4126     0.0799     0.1358     2.4529
  235.5000     6.8623     6.9649     7.0716   170.5236     0.0648     0.1401     2.4415
  236.0000     7.0122     7.0694     7.0723   165.4303     0.0588     0.1436     2.4378
  236.5000     7.1654     7.1260     7.0731   157.3341     0.0558     0.1447     2.4393
  237.0000     7.2715     7.2918     7.0738   147.4361     0.0800     0.1411     2.4461
  237.5000     7.5340     7.5636     7.0746   141.4419     0.1042     0.1363     2.4522
  238.0000     7.9148     7.9365     7.0904   145.0574     0.1253     0.1345     2.4544
  238.5000     8.2575     8.1660     7.0911   152.2765     0.1132     0.1339     2.4513
  239.0000     8.4965     8.3441     7.0932   158.5947     0.0951     0.1357     2.4406
