~VERSION INFORMATION
 VERS.                2.0:   CWLS LOG ASCII STANDARD - VERSION 2.0
 WRAP.                 NO:   ONE LINE PER DEPTH STEP
~WELL INFORMATION
#MNEM.UNIT      DATA TYPE    INFORMATION
#----------   ------------   ------------------------------
 STRT.F           66.0000:   START DEPTH
 STOP.F          814.0000:   STOP DEPTH
 STEP.F            0.5000:   STEP LENGTH
 NULL.          -999.2500:   NO VALUE
 COMP.   FLUOR DANIEL INC:   COMPANY
 WELL. NAVAL PETROLEUM RESERVE 3 SX-2 #32-11-2:   WELL
 FLD .        N.P.R NO. 3:   FIELD
 LOC .       S2 T38N R78W:   LOCATION
 CNTY.            NATRONA:   COUNTY
 STAT.            WYOMING:   STATE
 CTRY. UNITED STATES OF AMERICA:   COUNTRY
 SRVC.      Dresser Atlas:   SERVICE COMPANY
 DATE.        15-AUG-1985:   LOGDATE
 API .       490251104000:   API NUMBER
~CURVE INFORMATION
#MNEM.UNIT       API CODE    CURVE DESCRIPTION
#----------   ------------   ------------------------------
 DEPT.F                  :   
 SPR .MV     07 010 01 00:   SPONTANEOUS POTENTIAL
 RILD.OHMM   07 120 46 00:   INDUCTION LOG DEEP RESISTIVITY
 RILM.OHMM   07 120 44 00:   INDUCTION LOG MEDIUM RESISTIVITY
 RFOC.OHMM   07 220 04 00:   RESISTIVITY FOCUSED LOG
 PORD.DEC    45 890 12 00:   POROSITY DENSITY SANDSTONE
 CNC .DEC    42 890 03 00:   NEUTRON POROSITY SANDSTONE
 GRD .GAPI   45 310 01 00:   GAMMA RAY FROM DENSITY LOG
 CALD.IN     45 280 60 00:   CALIPER FROM DENSITY LOG
 CORR.G/C3   45 356 01 00:   DENSITY CORRECTION
 DEN .G/C3   45 350 01 00:   COMPENSATED BULK DENSTIY
~PARAMETER INFORMATION
#MNEM.UNIT          VALUE    DESCRIPTION
#----------   ------------   ------------------------------
 PD  .                 GL:   PERMANENT DATUM
 EPD .F              5113:   ELEVATION PERMANENT DATUM
 LMF .                 GL:   LOG MEASURED FROM
 DMF .                 GL:   DRILLING MEASURED FROM
 EGL .F              5113:   GROUND LEVEL
 DATE.            8-15-85:   RUN DATE
 RUN .                  1:   RUN NUMBER
 DD  .F               817:   DEPTH DRILLER
 DL  .F               817:   DEPTH LOGGER
 BLI .F               814:   BOTTOM LOG INTERVAL
 CS  .IN            8.625:   CASING SIZE
 CBD .F                79:   CASING BOTTOM DRILLER
 CBL .F                79:   CASING BOTTOM LOGGER
 BS  .IN            7.875:   BIT SIZE
 BSD .F               817:   BIT SIZE AT DEPTH
 DFT .          KCL WATER:   DRILLING FLUID TYPE
 MSS .               TANK:   MUD SAMPLE SOURCE
 RMS .OHMM            .25:   RESISTIVITY MUD SAMPLE
 MST .F                70:   MUD SAMPLE TEMPERATURE
 BHT .F               100:   BOTTOM HOLE TEMPERATURE
 TCS .HRS               2:   TIME CURCULATED STOPPED
 MRT .F               100:   MAXIMUM RECORDED TEMPERATURE
 LUN .            HL-6274:   LOGGING UNIT NUMBER
 LUL .           GILLETTE:   LOGGING UNIT LOCATION
 ENGI.             RAUTIO:   RECORDING ENGINEER
 WITN.           JENNINGS:   WITNESSED BY
 CLNT.            A2DTECH:   CLIENT CODE
 ORIG.       2", 5" PRINT:   ORIGIN OF DATA
 UWI .       490251104000:   UNIQUE WELL ID
 DICO. A2D Technologies, Inc.:   DIGITIZING COMPANY
~OTHER INFORMATION
~A   DEPT      SPR       RILD       RILM       RFOC       PORD        CNC        GRD       CALD       CORR        DEN   
# ...
  635.5000   -41.5798    15.8512    15.8508    15.3656     0.2046     0.2747    67.6843     8.0719     0.0046     2.3375
  636.0000   -41.7369    15.9597    16.0707    15.4707     0.2064     0.2761    68.5908     8.0716    -0.0015     2.3359
  636.5000   -41.8941    16.1811    16.1813    15.5765     0.2098     0.2730    68.8941     8.0563    -0.0171     2.3299
  637.0000   -41.9013    16.4051    16.2920    15.6859     0.2170     0.2706    67.3917     8.0560    -0.0391     2.3216
  637.5000   -41.9072    16.5179    16.4036    15.9005     0.2243     0.2700    66.7922     8.0708    -0.0255     2.3088
  638.0000   -42.0643    16.6310    16.5154    15.8978     0.2270     0.2752    67.7230     8.0705    -0.0090     2.2990
  638.5000   -42.2214    16.7449    16.6283    16.0071     0.2276     0.2770    69.2077     8.0702    -0.0088     2.2975
  639.0000   -42.3785    16.7420    16.5107    16.2284     0.2204     0.2724    65.5968     8.0698    -0.0166     2.3019
  639.5000   -42.5357    16.8566    16.5081    16.3400     0.2168     0.2709    63.7918     8.0847    -0.0225     2.3074
  640.0000   -42.6929    16.7370    16.5058    16.3373     0.2135     0.2761    63.4934     8.0843    -0.0271     2.3139
  640.5000   -43.3052    16.7347    16.6194    16.3351     0.2098     0.2767    67.7139     8.0840    -0.0106     2.3206
  641.0000   -44.0675    16.8498    16.6166    16.0910     0.2023     0.2645    70.1446     8.0837     0.0092     2.3304
  641.5000   -44.6785    17.2023    16.7309    15.5545     0.1911     0.2442    72.2385     8.0809     0.0254     2.3409
  642.0000   -45.1382    17.6853    17.4410    14.8138     0.1772     0.2100    73.1443     8.0680     0.0374     2.3559
  642.5000   -45.5979    18.4366    18.0684    14.8118     0.1458     0.2009    69.5335     8.0677     0.0494     2.3844
  643.0000   -45.9063    19.2252    19.2193    15.3336     0.1201     0.1939    68.6320     8.0674     0.0554     2.4242
  643.5000   -45.9123    19.7588    19.8968    19.5545     0.1004     0.1976    68.3343     8.0672     0.0374     2.4775
  644.0000   -45.9194    19.8948    20.0337    24.4226     0.1031     0.2076    67.0963     8.0669    -0.0032     2.5090
  644.5000   -45.4714    19.2114    19.0783    25.8384     0.1131     0.2176    64.4253     8.0665    -0.0107     2.5045
  645.0000   -44.8721    18.2959    18.5523    25.6326     0.1395     0.2270    65.0306     8.0662    -0.0168     2.4909
  645.5000   -44.1215    17.5456    17.9157    22.6149     0.1595     0.2388    68.0455     8.0659    -0.0108     2.4375
  646.0000   -43.2196    16.7094    17.0619    17.7287     0.1834     0.2603    71.0605     8.0656     0.0088     2.3812
  646.5000   -42.3177    16.1317    16.1260    15.7506     0.1904     0.2658    70.7622     8.0804     0.0300     2.3616
  647.0000   -41.3979    15.5478    15.3666    15.2105     0.1943     0.2709    70.1567     8.0801     0.0268     2.3548
  647.5000   -40.5154    15.0472    14.9429    14.6890     0.1977     0.2779    69.5631     8.0798     0.0117     2.3450
  648.0000   -39.6136    14.7344    14.5309    14.3732     0.2016     0.2824    70.7716     8.0795    -0.0048     2.3345
  648.5000   -38.8630    14.5289    14.4282    14.2819     0.2080     0.2755    74.0877     8.0943    -0.0154     2.3299
  649.0000   -38.2637    14.5269    14.3262    14.2800     0.2101     0.2694    77.1026     8.1091    -0.0199     2.3321
  649.5000   -37.6644    14.3243    14.2250    14.1791     0.2059     0.2618    79.5152     8.1239    -0.0214     2.3381
  650.0000   -36.9138    14.1245    14.1245    14.0790     0.2027     0.2603    80.7229     8.1235    -0.0215     2.3438
  650.5000   -36.3468    13.8728    14.0066    13.7195     0.1994     0.2639    78.8132     8.1383    -0.0226     2.3471
  651.0000   -35.7797    13.6211    13.8887    13.3726     0.1965     0.2678    76.7229     8.1680    -0.0214     2.3471
  651.5000   -35.2127    13.3599    13.6416    13.0256     0.1974     0.2672    71.9497     8.1677    -0.0123     2.3440
  652.0000   -34.6457    13.2673    13.4532    12.7771     0.1989     0.2621    74.9503     8.1674    -0.0033     2.3380
  652.5000   -34.0787    13.1753    13.3599    12.7781     0.2038     0.2593    76.7489     8.1370     0.0057     2.3334
  653.0000   -33.9244    13.0840    13.1753    12.6903     0.2080     0.2587    75.8309     8.1217     0.0147     2.3304
  653.5000   -33.9304    13.0840    13.0840    12.7798     0.2074     0.2587    72.1647     8.1042     0.0193     2.3417
  654.0000   -33.9374    13.0840    13.0840    12.7807     0.2010     0.2608    69.7810     8.0885     0.0163     2.3514
  654.5000   -33.9432    13.1753    13.2673    12.9605     0.1920     0.2626    72.1792     8.0878     0.0088     2.3544
  655.0000   -33.9490    13.2673    13.3599    13.2347     0.1907     0.2632    74.2762     8.0873     0.0073     2.3521
  655.5000   -33.9549    13.2673    13.3599    13.3279     0.1923     0.2674    74.2647     8.0867     0.0028     2.3469
  656.0000   -33.8094    13.1753    13.3599    13.3288     0.1947     0.2753    74.2530     8.0861    -0.0032     2.3461
  656.5000   -33.9679    12.9933    13.3599    13.5163     0.1992     0.2777    73.9377     8.0855     0.0088     2.3453
  657.0000   -34.1250    12.9933    13.3599    13.5172     0.2007     0.2725    74.5286     8.0848     0.0149     2.3475
  657.5000   -34.2821    12.9933    13.3599    13.5181     0.1959     0.2692    75.7219     8.0842     0.0179     2.3514
  658.0000   -34.2879    12.9885    13.1753    13.4254     0.1937     0.2655    76.6141     8.0837     0.0119     2.3535
  658.5000   -34.1410    12.8138    12.9933    13.2409     0.1934     0.2628    78.1086     8.0831     0.0029     2.3542
  659.0000   -33.9970    12.8138    12.9032    13.1501     0.1925     0.2728    77.1907     8.0825    -0.0001     2.3557
  659.5000   -34.0030    12.9933    12.9032    13.1512     0.1897     0.2800    75.0708     8.0818    -0.0031     2.3587
  660.0000   -34.0100    13.0840    12.9032    13.0609     0.1822     0.2833    72.6496     8.0963     0.0210     2.3647
  660.5000   -34.0159    13.1753    12.9933    12.8729     0.1761     0.2606    72.5984     8.0957     0.0615     2.3729
  661.0000   -34.3242    13.3667    13.2673    12.5291     0.1672     0.2327    73.2291     8.1253     0.0751     2.3842
  661.5000   -34.6326    14.4223    14.2231    12.3569     0.1589     0.2166    73.8200     8.1398     0.0736     2.3954
  662.0000   -35.0923    15.1420    15.2477    12.3579     0.1332     0.2025    74.4110     8.1390     0.0841     2.4152
  662.5000   -35.5774    15.4614    15.5693    13.6220     0.0887     0.1936    73.7942     8.1385     0.0977     2.4630
  663.0000   -36.0131    15.2477    15.2477    19.9667     0.0760     0.1896    70.1683     8.1379     0.0706     2.5065
  663.5000   -35.8661    14.8293    14.8293    27.5363     0.0718     0.1944    61.0402     8.1373     0.0237     2.5426
  664.0000   -35.5694    14.4130    14.3224    30.5156     0.0942     0.2175    57.4919     8.1367     0.0046     2.5553
  664.5000   -35.2738    13.4532    13.6416    22.6329     0.1302     0.2365    59.5888     8.1360     0.0166     2.5505
  665.0000   -34.9773    12.9933    12.8138    14.8121     0.1559     0.2608    64.6978     8.1355     0.0557     2.4884
  665.5000   -34.3794    12.3757    12.2776    12.9804     0.1719     0.2535    67.3972     8.1349     0.0587     2.4343
  666.0000   -33.9314    11.9527    11.9527    12.1096     0.1758     0.2468    70.7390     8.1343     0.0403     2.3967
  666.5000   -33.4833    11.7058    11.7875    11.5262     0.1749     0.2459    73.0943     8.1337     0.0121     2.3862
  667.0000   -32.8840    11.3846    11.6247    11.2981     0.1728     0.2616    73.6852     8.1330     0.0046     2.3886
  667.5000   -32.1334    11.1495    11.4641    11.2989     0.1716     0.2664    74.5774     8.1325     0.0032     2.3914
  668.0000   -31.3828    11.0722    11.3057    11.2211     0.1710     0.2649    79.9876     8.1471     0.0032     2.3914
  668.5000   -30.7584    11.0722    11.2273    10.9903     0.1725     0.2616    80.8797     8.1313     0.0077     2.3906
