~VERSION INFORMATION
 VERS.                2.0:   CWLS LOG ASCII STANDARD - VERSION 2.0
 WRAP.                 NO:   ONE LINE PER DEPTH STEP
~WELL INFORMATION
#MNEM.UNIT      DATA TYPE    INFORMATION
#----------   ------------   ------------------------------
 STRT.F           36.0000:   START DEPTH
 STOP.F         2324.5000:   STOP DEPTH
 STEP.F            0.5000:   STEP LENGTH
 NULL.          -999.2500:   NO VALUE
 COMP. FENIX & SCISSON INC:   COMPANY
 WELL.           SX #57-3:   WELL
 FLD .             TEAPOT:   FIELD
 LOC .       S3 T38N R78W:   LOCATION
 CNTY.            NATRONA:   COUNTY
 STAT.            WYOMING:   STATE
 CTRY. UNITED STATES OF AMERICA:   COUNTRY
 SRVC.           BIRDWELL:   SERVICE COMPANY
 DATE.        15-JUN-1978:   LOGDATE
 API .       490251028800:   API NUMBER
~CURVE INFORMATION
#MNEM.UNIT       API CODE    CURVE DESCRIPTION
#----------   ------------   ------------------------------
 DEPT.F                  :   
 CALD.IN     45 280 60 00:   CALIPER FROM DENSITY LOG
 GRD .GAPI   45 310 01 00:   GAMMA RAY FROM DENSITY LOG
 CORR.G/C3   45 356 01 00:   DENSITY CORRECTION
 RHOB.G/C3   45 350 01 00:   BULK DENSITY
 DPHI.DEC    45 890 12 00:   DENSITY POROSITY SANDSTONE
 SPR .MV     07 010 01 00:   SPONTANEOUS POTENTIAL
 ILD .OHMM   07 120 46 00:   INDUCTION LOG DEEP
 ILM .OHMM   07 120 44 00:   INDUCTION LOG MEDIUM
 SGRD.OHMM   07 220 05 00:   SHALLOW GUARD RESISTIVITY
~PARAMETER INFORMATION
#MNEM.UNIT          VALUE    DESCRIPTION
#----------   ------------   ------------------------------
 PD  .                 GL:   PERMANENT DATUM
 EPD .F              5184:   ELEVATION PERMANENT DATUM
 LMF .                 KB:   LOG MEASURED FROM
 DAPD.F                10:   FEET ABOVE PERMANENT DATUM
 DMF .                 KB:   DRILLING MEASURED FROM
 EKB .F              5184:   KELLING BUSHING
 EGL .F              5184:   GROUND LEVEL
 DATE.            6-15-78:   RUN DATE
 RUN .                  1:   RUN NUMBER
 DD  .F              2340:   DEPTH DRILLER
 DL  .F              2324:   DEPTH LOGGER
 BLI .F              2324:   BOTTOM LOG INTERVAL
 TLI .F                50:   TOP LOG INTERVAL
 CS  .IN            9.625:   CASING SIZE
 CBD .F               600:   CASING BOTTOM DRILLER
 CBL .F               601:   CASING BOTTOM LOGGER
 BS  .IN             8.75:   BIT SIZE
 BSD .F              2340:   BIT SIZE AT DEPTH
 DFT .           AIR MIST:   DRILLING FLUID TYPE
 BHT .F                68:   BOTTOM HOLE TEMPERATURE
 MRT .F                68:   MAXIMUM RECORDED TEMPERATURE
 LUN .               2958:   LOGGING UNIT NUMBER
 LUL .               CASP:   LOGGING UNIT LOCATION
 ENGI.           REYNOLDS:   RECORDING ENGINEER
 WITN.           MCGINLEY:   WITNESSED BY
 CLNT.            A2DTECH:   CLIENT CODE
 ORIG.   2" 2.5" 5" PRINT:   ORIGIN OF DATA
 UWI .       490251028800:   UNIQUE WELL ID
 DICO. A2D Technologies, Inc.:   DIGITIZING COMPANY
~OTHER INFORMATION
~A   DEPT       CALD      GRD        CORR      RHOB         DPHI      SPR        ILD        ILM       SGRD   
# ...
 2007.0000     8.1276   171.6489    -0.0024     2.4461     0.0669  -999.2500  -999.2500  -999.2500  -999.2500
 2007.5000     8.0944   178.4486    -0.0022     2.4446     0.0681  -999.2500  -999.2500  -999.2500  -999.2500
 2008.0000     8.0634   177.4171    -0.0019     2.4436     0.0688  -999.2500  -999.2500  -999.2500  -999.2500
 2008.5000     8.0399   174.0048    -0.0017     2.4437     0.0688  -999.2500  -999.2500  -999.2500  -999.2500
 2009.0000     8.0652   174.3843    -0.0015     2.4438     0.0672  -999.2500  -999.2500  -999.2500  -999.2500
 2009.5000     8.0947   173.3247    -0.0013     2.4449     0.0659  -999.2500  -999.2500  -999.2500  -999.2500
 2010.0000     8.1250   169.3572    -0.0011     2.4465     0.0628  -999.2500  -999.2500  -999.2500  -999.2500
 2010.5000     8.1543   167.3954    -0.0009     2.4483     0.0592  -999.2500  -999.2500  -999.2500  -999.2500
 2011.0000     8.1860   166.9380    -0.0006     2.4561     0.0553  -999.2500  -999.2500  -999.2500  -999.2500
 2011.5000     8.1896   164.5251    -0.0004     2.4632     0.0578  -999.2500  -999.2500  -999.2500  -999.2500
 2012.0000     8.1744   162.7625    -0.0002     2.4639     0.0562  -999.2500  -999.2500  -999.2500  -999.2500
 2012.5000     8.1613   163.0269     0.0001     2.4613     0.0531  -999.2500  -999.2500  -999.2500  -999.2500
 2013.0000     8.1482   163.1089     0.0011     2.4637     0.0513  -999.2500  -999.2500  -999.2500  -999.2500
 2013.5000     8.1347   159.2269     0.0021     2.4676     0.0506  -999.2500  -999.2500  -999.2500  -999.2500
 2014.0000     8.1216   154.7932     0.0030     2.4717     0.0520  -999.2500  -999.2500  -999.2500  -999.2500
 2014.5000     8.1081   150.9316     0.0039     2.4717     0.0541  -999.2500  -999.2500  -999.2500  -999.2500
 2015.0000     8.0953   144.9149     0.0036     2.4691     0.0562  -999.2500  -999.2500  -999.2500  -999.2500
 2015.5000     8.0820   140.0309     0.0034     2.4671     0.0583  -999.2500  -999.2500  -999.2500  -999.2500
 2016.0000     8.0961   134.3906     0.0031     2.4639     0.0608  -999.2500  -999.2500  -999.2500  -999.2500
 2016.5000     8.1206   134.7218     0.0028     2.4561     0.0599  -999.2500  -999.2500  -999.2500  -999.2500
 2017.0000     8.1462   141.7477     0.0025     2.4554     0.0587  -999.2500  -999.2500  -999.2500  -999.2500
 2017.5000     8.1685   156.6489     0.0022     2.4601     0.0598  -999.2500  -999.2500  -999.2500  -999.2500
 2018.0000     8.1933   172.2173     0.0019     2.4606     0.0616  -999.2500  -999.2500  -999.2500  -999.2500
 2018.5000     8.1668   178.8867     0.0016     2.4582     0.0633  -999.2500  -999.2500  -999.2500  -999.2500
 2019.0000     8.1323   180.9132     0.0014     2.4562     0.0640  -999.2500  -999.2500  -999.2500  -999.2500
 2019.5000     8.1281   179.4238     0.0011     2.4542     0.0634  -999.2500  -999.2500  -999.2500  -999.2500
 2020.0000     8.1576   180.7962     0.0008     2.4521     0.0628  -999.2500  -999.2500  -999.2500  -999.2500
 2020.5000     8.1845   173.2746     0.0005     2.4521     0.0622  -999.2500  -999.2500  -999.2500  -999.2500
 2021.0000     8.2096   164.4781     0.0002     2.4527     0.0617  -999.2500  -999.2500  -999.2500  -999.2500
 2021.5000     8.2322   159.3533     0.0000     2.4533     0.0637  -999.2500  -999.2500  -999.2500  -999.2500
 2022.0000     8.2003   158.4384     0.0000     2.4502     0.0666  -999.2500  -999.2500  -999.2500  -999.2500
 2022.5000     8.1695   157.0586     0.0000     2.4460     0.0688  -999.2500  -999.2500  -999.2500  -999.2500
 2023.0000     8.1496   155.7057     0.0000     2.4458     0.0696  -999.2500  -999.2500  -999.2500  -999.2500
 2023.5000     8.1391   154.5976     0.0000     2.4475     0.0735  -999.2500  -999.2500  -999.2500  -999.2500
 2024.0000     8.1287   156.3681     0.0000     2.4444     0.0714  -999.2500  -999.2500  -999.2500  -999.2500
 2024.5000     8.1177   162.5704     0.0000     2.4432     0.0664  -999.2500  -999.2500  -999.2500  -999.2500
 2025.0000     8.1226   171.1289     0.0000     2.4490     0.0614  -999.2500  -999.2500  -999.2500  -999.2500
 2025.5000     8.1318   175.9145     0.0000     2.4548     0.0564  -999.2500  -999.2500  -999.2500  -999.2500
 2026.0000     8.1407   175.0437     0.0000     2.4611     0.0561  -999.2500  -999.2500  -999.2500  -999.2500
 2026.5000     8.1495   172.7371     0.0000     2.4636     0.0585  -999.2500  -999.2500  -999.2500  -999.2500
 2027.0000     8.1584   168.7941     0.0000     2.4634     0.0609  -999.2500  -999.2500  -999.2500  -999.2500
 2027.5000     8.1672   156.6191     0.0000     2.4634     0.0609  -999.2500  -999.2500  -999.2500  -999.2500
 2028.0000     8.1763   152.7286     0.0000     2.4635     0.0566  -999.2500  -999.2500  -999.2500  -999.2500
 2028.5000     8.1846   157.1257     0.0003     2.4636     0.0519  -999.2500  -999.2500  -999.2500  -999.2500
 2029.0000     8.1936   161.4494     0.0058     2.4682     0.0472  -999.2500  -999.2500  -999.2500  -999.2500
 2029.5000     8.1730   163.1824     0.0077     2.4759     0.0426  -999.2500  -999.2500  -999.2500  -999.2500
 2030.0000     8.1401   163.4916     0.0069     2.4849     0.0415  -999.2500  -999.2500  -999.2500  -999.2500
 2030.5000     8.1067   167.0068     0.0063     2.4873     0.0430  -999.2500  -999.2500  -999.2500  -999.2500
 2031.0000     8.0759   169.9281     0.0057     2.4866     0.0444  -999.2500  -999.2500  -999.2500  -999.2500
 2031.5000     8.0419   167.6067     0.0050     2.4852     0.0459  -999.2500  -999.2500  -999.2500  -999.2500
 2032.0000     8.0498   164.5765     0.0043     2.4843     0.0447  -999.2500  -999.2500  -999.2500  -999.2500
 2032.5000     8.0603   156.5506     0.0043     2.4836     0.0414  -999.2500  -999.2500  -999.2500  -999.2500
 2033.0000     8.0726   150.5795     0.0054     2.4859     0.0402  -999.2500  -999.2500  -999.2500  -999.2500
 2033.5000     8.0836   154.2784     0.0064     2.4881     0.0389  -999.2500  -999.2500  -999.2500  -999.2500
 2034.0000     8.0954   159.2940     0.0075     2.4905     0.0379  -999.2500  -999.2500  -999.2500  -999.2500
 2034.5000     8.1065   159.2899     0.0085     2.4930     0.0371  -999.2500  -999.2500  -999.2500  -999.2500
 2035.0000     8.1166   153.6269     0.0095     2.4931     0.0371  -999.2500  -999.2500  -999.2500  -999.2500
 2035.5000     8.1087   151.1432     0.0105     2.4930     0.0371  -999.2500  -999.2500  -999.2500  -999.2500
 2036.0000     8.1006   151.1114     0.0116     2.4949     0.0364  -999.2500  -999.2500  -999.2500  -999.2500
 2036.5000     8.0919   150.8593     0.0110     2.4972     0.0353  -999.2500  -999.2500  -999.2500  -999.2500
 2037.0000     8.0835   149.7010     0.0098     2.4952     0.0348  -999.2500  -999.2500  -999.2500  -999.2500
 2037.5000     8.0750   147.9190     0.0087     2.4934     0.0373  -999.2500  -999.2500  -999.2500  -999.2500
 2038.0000     8.0666   149.5614     0.0075     2.4916     0.0396  -999.2500  -999.2500  -999.2500  -999.2500
 2038.5000     8.0580   150.9027     0.0063     2.4896     0.0403  -999.2500  -999.2500  -999.2500  -999.2500
 2039.0000     8.0498   150.8259     0.0051     2.4879     0.0395  -999.2500  -999.2500  -999.2500  -999.2500
 2039.5000     8.0414   152.0101     0.0040     2.4868     0.0402  -999.2500  -999.2500  -999.2500  -999.2500
 2040.0000     8.0486   154.4868     0.0028     2.4883     0.0461  -999.2500  -999.2500  -999.2500  -999.2500
 2040.5000     8.0616   153.3302     0.0016     2.4783     0.0530  -999.2500  -999.2500  -999.2500  -999.2500
 2041.0000     8.0744   154.6247     0.0004     2.4730     0.0530  -999.2500  -999.2500  -999.2500  -999.2500
 2041.5000     8.0869   158.0143     0.0002     2.4734     0.0526  -999.2500  -999.2500  -999.2500  -999.2500
 2042.0000     8.0997   158.7225     0.0005     2.4733     0.0506  -999.2500  -999.2500  -999.2500  -999.2500
 2042.5000     8.1124   159.4018     0.0009     2.4733     0.0487  -999.2500  -999.2500  -999.2500  -999.2500
 2043.0000     8.1250   161.8857     0.0012     2.4733     0.0489  -999.2500  -999.2500  -999.2500  -999.2500
