~VERSION INFORMATION
 VERS.                2.0:   CWLS LOG ASCII STANDARD - VERSION 2.0
 WRAP.                 NO:   ONE LINE PER DEPTH STEP
~WELL INFORMATION
#MNEM.UNIT      DATA TYPE    INFORMATION
#----------   ------------   ------------------------------
 STRT.F           32.0000:   START DEPTH
 STOP.F          707.0000:   STOP DEPTH
 STEP.F            0.5000:   STEP LENGTH
 NULL.          -999.2500:   NO VALUE
 COMP. FENIX & SCISSON INC:   COMPANY
 WELL.     NPR 3 #28SX-11:   WELL
 FLD .             TEAPOT:   FIELD
 LOC .      S11 T38N R78W:   LOCATION
 CNTY.            NATRONA:   COUNTY
 STAT.            WYOMING:   STATE
 CTRY. UNITED STATES OF AMERICA:   COUNTRY
 SRVC.              Welex:   SERVICE COMPANY
 DATE.        26-APR-1977:   LOGDATE
 API .       490251034400:   API NUMBER
~CURVE INFORMATION
#MNEM.UNIT       API CODE    CURVE DESCRIPTION
#----------   ------------   ------------------------------
 DEPT.F                  :   
 CALD.IN     45 280 60 00:   CALIPER FROM DENSITY LOG
 GRD .GAPI   45 310 01 00:   GAMMA RAY FROM DENSITY LOG
 CORR.G/C3   45 356 01 00:   DENSITY CORRECTION
 DPHI.DEC    45 890 12 00:   DENSITY POROSITY SANDSTONE
 RHOB.G/C3   45 350 01 00:   BULK DENSITY
~PARAMETER INFORMATION
#MNEM.UNIT          VALUE    DESCRIPTION
#----------   ------------   ------------------------------
 PD  .                 GL:   PERMANENT DATUM
 EPD .F              5203:   ELEVATION PERMANENT DATUM
 LMF .                 GL:   LOG MEASURED FROM
 DMF .                 GL:   DRILLING MEASURED FROM
 EGL .F              5203:   GROUND LEVEL
 DATE.        26-APR-1977:   RUN DATE
 RUN .                  1:   RUN NUMBER
 DD  .F               714:   DEPTH DRILLER
 DL  .F               709:   DEPTH LOGGER
 BLI .F               707:   BOTTOM LOG INTERVAL
 TLI .F                32:   TOP LOG INTERVAL
 CS  .IN            8.625:   CASING SIZE
 BS  .IN               12:   BIT SIZE
 BSD .F               714:   BIT SIZE AT DEPTH
 DFT .            KCL MUD:   DRILLING FLUID TYPE
 DFD .                8.7:   DRILLING FLUID DENSITY
 TCS .HRS            0100:   TIME CURCULATED STOPPED
 MRT .F                74:   MAXIMUM RECORDED TEMPERATURE
 ENGI.            C. DOAK:   RECORDING ENGINEER
 WITN.           ROB LYON:   WITNESSED BY
 CLNT.            A2DTECH:   CLIENT CODE
 ORIG.           5" PRINT:   ORIGIN OF DATA
 UWI .       490251034400:   UNIQUE WELL ID
 DICO. A2D Technologies, Inc.:   DIGITIZING COMPANY
~OTHER INFORMATION
~A   DEPT       CALD      GRD        CORR      DPHI       RHOB   
   32.0000     7.9827   104.7549    -0.5542  -999.2500  -999.2500
   32.5000     7.9638   103.7283    -0.5465  -999.2500  -999.2500
   33.0000     7.9929   101.3684    -0.5388  -999.2500  -999.2500
   33.5000     7.9927    98.8711    -0.5325  -999.2500  -999.2500
   34.0000     7.9925    97.4036    -0.5248  -999.2500  -999.2500
   34.5000     7.9923    96.0840    -0.5155  -999.2500  -999.2500
   35.0000     7.9921    94.7644    -0.5033  -999.2500  -999.2500
   35.5000     7.9919    94.3294    -0.4850  -999.2500  -999.2500
   36.0000     7.9917    94.6400    -0.4592  -999.2500  -999.2500
   36.5000     7.9915    96.1311    -0.4319  -999.2500  -999.2500
   37.0000     7.9912    97.4742    -0.3970  -999.2500  -999.2500
   37.5000     7.9910    98.9652    -0.3441  -999.2500  -999.2500
   38.0000     7.9908   100.7521    -0.2641  -999.2500     2.0221
   38.5000     7.9906   102.0953    -0.1961  -999.2500     2.0609
   39.0000     7.9904   103.8822    -0.1341  -999.2500     2.0983
   39.5000     7.9902   105.8170    -0.0541  -999.2500     2.1282
   40.0000     7.9900   108.4915    -0.0102     0.2938     2.1976
   40.5000     7.9898   110.1305     0.0397     0.2782     2.2402
   41.0000     7.9896   111.7695     0.0595     0.2568     2.2432
   41.5000     7.9893   115.1836     0.0582     0.2643     2.2314
   42.0000     7.9891   118.0060     0.0538     0.2615     2.2397
   42.5000     7.9889   120.5326     0.0525     0.2555     2.2480
   43.0000     7.9886   122.4703     0.0528     0.2500     2.2547
   43.5000     7.9884   124.4156     0.0530     0.2479     2.2660
   44.0000     7.9882   126.2208     0.0532     0.2500     2.2556
   44.5000     7.9880   127.9876     0.0534     0.2449     2.2512
   45.0000     7.9878   127.9587     0.0536     0.2517     2.2535
   45.5000     7.9876   125.9676     0.0553     0.2454     2.2730
   46.0000     7.9874   123.2565     0.0616     0.2328     2.2895
   46.5000     7.9872   122.6977     0.0678     0.2241     2.3007
   47.0000     7.9870   124.3036     0.0725     0.2217     2.3075
   47.5000     7.9868   127.4579     0.0697     0.2336     2.2897
   48.0000     7.9866   128.9490     0.0639     0.2491     2.2592
   48.5000     7.9863   129.8483     0.0596     0.2580     2.2421
   49.0000     7.9861   130.0051     0.0493     0.2538     2.2437
   49.5000     7.9859   127.9488     0.0405     0.2517     2.2587
   50.0000     7.9857   124.7061     0.0331     0.2212     2.2916
   50.5000     7.9855   123.3865     0.0364     0.1858     2.3500
   51.0000     7.9853   122.2148     0.0426     0.1691     2.4022
   51.5000     7.9851   120.5994     0.0443     0.1601     2.4096
   52.0000     7.9849   117.8005     0.0400     0.1627     2.4035
   52.5000     7.9847   118.1081     0.0372     0.1661     2.3986
   53.0000     7.9845   119.1554     0.0359     0.1630     2.4079
   53.5000     7.9549   119.3151     0.0361     0.1591     2.4152
   54.0000     7.9547   119.1760     0.0378     0.1543     2.4222
   54.5000     7.9551   120.2262     0.0380     0.1507     2.4272
   55.0000     7.9555   122.9007     0.0398     0.1549     2.4124
   55.5000     7.9559   126.3148     0.0415     0.1599     2.4140
   56.0000     7.9564   129.2852     0.0447     0.1539     2.4245
   56.5000     7.9568   126.1904     0.0480     0.1482     2.4313
   57.0000     7.9572   125.7555     0.0527     0.1455     2.4351
   57.5000     7.9577   128.7287     0.0544     0.1469     2.4254
   58.0000     7.9581   129.7760     0.0501     0.1591     2.4099
   58.5000     7.9586   128.7523     0.0472     0.1698     2.3958
   59.0000     7.9590   126.9889     0.0430     0.1725     2.3876
   59.5000     7.9594   125.3734     0.0462     0.1692     2.3952
   60.0000     7.9599   123.6101     0.0524     0.1679     2.3997
   60.5000     7.9603   120.9591     0.0557     0.1775     2.3797
   61.0000     7.9607   116.8288     0.0559     0.1777     2.3805
   61.5000     7.9612   115.5093     0.0471     0.1741     2.3865
   62.0000     7.9616   117.1482     0.0442     0.1660     2.4142
   62.5000     7.9621   120.1186     0.0445     0.1513     2.4299
   63.0000     7.9625   121.7576     0.0537     0.1459     2.4360
   63.5000     7.9629   122.0652     0.0614     0.1455     2.4323
   64.0000     7.9634   120.7456     0.0586     0.1533     2.4070
   64.5000     7.9638   116.6096     0.0513     0.1682     2.3959
   65.0000     7.9642   114.9951     0.0455     0.1756     2.3788
   65.5000     7.9647   114.0992     0.0382     0.1813     2.3729
   66.0000     7.9651   112.3138     0.0294     0.1771     2.3849
   66.5000     7.9655   110.7304     0.0251     0.1723     2.3932
   67.0000     7.9660   109.7032     0.0222     0.1701     2.3970
   67.5000     7.9664   107.9736     0.0194     0.1701     2.3911
   68.0000     7.9669   103.1797     0.0136     0.1734     2.3800
   68.5000     7.9673   102.3604     0.0108     0.1791     2.3726
   69.0000     7.9677   104.1502     0.0095     0.1826     2.3682
   69.5000     7.9682   103.8661     0.0067     0.1860     2.3668
   70.0000     7.9686   101.9548     0.0054     0.1911     2.3617
   70.5000     7.9690    98.1204     0.0056     0.1926     2.3535
   71.0000     7.9695    95.4695     0.0059     0.1913     2.3603
   71.5000     7.9699    91.4872     0.0091     0.1874     2.3708
   72.0000     7.9704    88.2415     0.0153     0.1757     2.3883
   72.5000     7.9708    90.7710     0.0215     0.1655     2.4070
   73.0000     7.9712    91.8183     0.0247     0.1554     2.4173
   73.5000     7.9717    91.2384     0.0159     0.1622     2.4067
   74.0000     7.9721    87.2561     0.0207     0.1634     2.3988
   74.5000     7.9725    84.9009     0.0299     0.1567     2.4257
   75.0000     7.9730    85.3565     0.0362     0.1475     2.4348
   75.5000     7.9734    88.3268     0.0379     0.1435     2.4371
   76.0000     7.9738    91.4451     0.0411     0.1468     2.4267
   76.5000     7.9743    92.6403     0.0428     0.1536     2.4171
   77.0000     7.9744    91.3207     0.0475     0.1622     2.4052
   77.5000     8.0036    91.4804     0.0508     0.1712     2.3882
   78.0000     8.0034    91.9330     0.0570     0.1681     2.3957
   78.5000     8.0039    87.8057     0.0617     0.1654     2.4054
   79.0000     8.0323    88.1133     0.0664     0.1684     2.3914
   79.5000     8.0321    90.0482     0.0697     0.1794     2.3691
   80.0000     8.0332    93.0185     0.0714     0.1862     2.3386
   80.5000     8.0610    93.9179     0.0701     0.2041     2.3103
   81.0000     8.0608    90.8231     0.0672     0.2333     2.2828
   81.5000     8.0605    89.7965     0.0599     0.2500     2.2530
   82.0000     8.0603    94.1011     0.0510     0.2765     2.2076
   82.5000     8.0576    96.1839     0.0436     0.2893     2.1890
   83.0000     8.0306    98.8584     0.0333     0.2875     2.1951
   83.5000     8.0304    99.7577     0.0275     0.2743     2.2086
   84.0000     8.0302    94.0002     0.0234     0.2551     2.2482
   84.5000     8.0300    90.7576     0.0298     0.2090     2.3191
   85.0000     8.0004    89.7338     0.0358     0.1917     2.3617
   85.5000     8.0002    87.9704     0.0376     0.1720     2.3998
   86.0000     7.9961    84.8676     0.0363     0.1476     2.4334
   86.5000     7.9705    83.0960     0.0365     0.1437     2.4350
   87.0000     7.9703    81.6360     0.0367     0.1529     2.4208
   87.5000     7.9701    80.9048     0.0369     0.1570     2.4117
   88.0000     7.9699    80.4849     0.0371     0.1591     2.4069
   88.5000     7.9696    81.1466     0.0374     0.1593     2.4123
   89.0000     7.9694    82.6253     0.0376     0.1590     2.4145
   89.5000     7.9692    84.1234     0.0378     0.1601     2.4090
   90.0000     7.9690    86.1562     0.0380     0.1634     2.3982
   90.5000     7.9688    88.2390     0.0382     0.1690     2.3931
   91.0000     7.9686    90.4697     0.0384     0.1738     2.3879
   91.5000     7.9684    92.2566     0.0371     0.1785     2.3768
   92.0000     7.9682    93.5997     0.0373     0.1853     2.3627
   92.5000     7.9680    95.8304     0.0375     0.1958     2.3434
