~VERSION INFORMATION
 VERS.                2.0:   CWLS LOG ASCII STANDARD - VERSION 2.0
 WRAP.                 NO:   ONE LINE PER DEPTH STEP
~WELL INFORMATION
#MNEM.UNIT      DATA TYPE    INFORMATION
#----------   ------------   ------------------------------
 STRT.F           48.0000:   START DEPTH
 STOP.F          484.0000:   STOP DEPTH
 STEP.F            0.5000:   STEP LENGTH
 NULL.          -999.2500:   NO VALUE
 COMP. BROWN JOHN E&C INC:   COMPANY
 WELL.    SX 10 #55-11-10:   WELL
 FLD .             TEAPOT:   FIELD
 LOC .      S10 T38N R78W:   LOCATION
 CNTY.            NATRONA:   COUNTY
 STAT.            WYOMING:   STATE
 CTRY. UNITED STATES OF AMERICA:   COUNTRY
 SRVC.       Schlumberger:   SERVICE COMPANY
 DATE.        29-SEP-1990:   LOGDATE
 API .       490251131800:   API NUMBER
~CURVE INFORMATION
#MNEM.UNIT       API CODE    CURVE DESCRIPTION
#----------   ------------   ------------------------------
 DEPT.F                  :   
 ILD .OHMM   07 120 46 00:   INDUCTION LOG DEEP
 ILM .OHMM   07 120 44 00:   INDUCTION LOG MEDIUM
 GRR .GAPI   07 310 01 00:   GAMMA RAY FROM RES. LOG.
~PARAMETER INFORMATION
#MNEM.UNIT          VALUE    DESCRIPTION
#----------   ------------   ------------------------------
 PD  .                 GL:   PERMANENT DATUM
 EPD .F              5216:   ELEVATION PERMANENT DATUM
 LMF .                 KB:   LOG MEASURED FROM
 DAPD.F                10:   FEET ABOVE PERMANENT DATUM
 DMF .                 KB:   DRILLING MEASURED FROM
 EKB .F              5226:   KELLING BUSHING
 EDF .F              5225:   DRILLING FLOOR
 EGL .F              5216:   GROUND LEVEL
 DATE.          9-29-1990:   RUN DATE
 RUN .                  1:   RUN NUMBER
 DD  .F               490:   DEPTH DRILLER
 DL  .F               490:   DEPTH LOGGER
 BLI .F               484:   BOTTOM LOG INTERVAL
 TLI .F                48:   TOP LOG INTERVAL
 CS  .IN            8.625:   CASING SIZE
 CBD .F                53:   CASING BOTTOM DRILLER
 CBL .F                53:   CASING BOTTOM LOGGER
 BS  .IN            7.875:   BIT SIZE
 BSD .F               490:   BIT SIZE AT DEPTH
 DFT .                AIR:   DRILLING FLUID TYPE
 TLAB.HRS            1855:   TIME LOGGER AT BOTTOM
 LUN .               6887:   LOGGING UNIT NUMBER
 LUL .               CODY:   LOGGING UNIT LOCATION
 ENGI.        MIKE FISHER:   RECORDING ENGINEER
 WITN.       GARRY STRONG:   WITNESSED BY
 CLNT.            A2DTECH:   CLIENT CODE
 ORIG.      2" & 5" PRINT:   ORIGIN OF DATA
 UWI .       490251131800:   UNIQUE WELL ID
 DICO. A2D Technologies, Inc.:   DIGITIZING COMPANY
~OTHER INFORMATION
~A   DEPT      ILD        ILM         GRR  
# ...
  230.0000     5.8764     5.9054   141.4183
  230.5000     6.2380     5.8846   144.3084
  231.0000     6.8413     6.7558   146.6482
  231.5000     7.4702     7.3281   148.5084
  232.0000     7.8794     7.6884   150.6010
  232.5000     8.1495     7.8518   152.7422
  233.0000     8.1225     7.8797   153.8402
  233.5000     8.0996     7.9275   151.7558
  234.0000     8.0740     7.9722   147.6165
  234.5000     8.1267     8.0957   143.5991
  235.0000     8.2057     8.1690   141.2421
  235.5000     8.3032     8.2428   140.1050
  236.0000     8.3026     8.3026   139.8389
  236.5000     8.3026     8.2693   141.3618
  237.0000     8.3026     8.2363   143.8876
  237.5000     8.3026     8.2033   144.8626
  238.0000     8.3027     8.1704   143.8171
  238.5000     8.3042     8.1491   142.1071
  239.0000     8.3026     8.1495   140.6745
  239.5000     7.9993     8.1003   139.4425
  240.0000     8.0363     7.8518   138.5736
  240.5000     8.0809     7.9211   140.4894
  241.0000     8.1258     8.0009   143.7605
  241.5000     8.1709     8.0821   147.0240
  242.0000     8.2257     8.1491   150.2460
  242.5000     8.1944     8.0768   151.5008
  243.0000     8.1551     8.0158   151.3342
  243.5000     8.1161     7.9553   151.1088
  244.0000     8.0740     7.8306   152.1568
  244.5000     7.9173     7.6449   153.9795
  245.0000     7.7502     7.4636   155.0773
  245.5000     7.5866     7.2864   153.0922
  246.0000     7.4593     7.1134   150.7884
  246.5000     7.3771     6.9569   151.3314
  247.0000     7.2886     6.9573   155.3055
  247.5000     7.1251     7.0074   158.4059
  248.0000     6.9933     7.0224   159.0912
  248.5000     6.8640     6.7717   155.7243
  249.0000     6.7659     6.4792   154.9886
  249.5000     6.2627     6.1273   154.7660
  250.0000     5.9358     5.7964   154.7635
  250.5000     5.9229     5.4625   154.8545
  251.0000     5.9100     5.5444   155.5514
  251.5000     5.8972     5.6337   156.0433
  252.0000     5.8846     5.8115   153.6389
  252.5000     6.1444     6.0552   150.3141
  253.0000     6.4104     6.3090   149.8773
  253.5000     6.6880     6.5735   150.3877
  254.0000     6.9776     6.8221   151.0741
  254.5000     7.2877     7.0548   151.8081
  255.0000     7.3758     7.2116   151.2186
  255.5000     7.4915     7.3109   150.3013
  256.0000     7.4376     7.4249   148.4597
  256.5000     6.8929     7.1298   142.9660
  257.0000     6.6165     6.8393   140.4351
  257.5000     6.3715     6.4536   139.4434
  258.0000     6.0962     5.9415   139.9641
  258.5000     5.8132     5.5170   143.4543
  259.0000     5.7410     5.3130   145.9009
  259.5000     5.6682     5.4732   144.9680
  260.0000     5.6171     5.6171   143.0536
  260.5000     5.6696     5.7327   141.3543
  261.0000     5.7761     5.8634   143.3183
  261.5000     6.0507     5.9971   145.4172
  262.0000     6.4559     6.2927   146.9262
  262.5000     6.8882     6.7155   145.9252
  263.0000     7.2899     7.1666   144.6383
  263.5000     7.5484     7.3848   142.9388
  264.0000     7.8051     7.5745   141.1003
  264.5000     7.9789     7.7691   140.4755
  265.0000     8.1593     7.9330   141.2982
  265.5000     8.3026     8.0743   141.7495
  266.0000     8.3711     8.2183   140.7186
  266.5000     8.4382     8.3647   140.2098
  267.0000     8.5375     8.3894   140.4092
  267.5000     8.5266     8.4077   140.4779
  268.0000     8.5062     8.4260   139.7669
  268.5000     8.4856     8.4443   138.6301
  269.0000     8.4590     8.4645   136.7903
  269.5000     8.5238     8.4917   134.9710
  270.0000     8.6285     8.5194   133.6488
  270.5000     8.6992     8.5374   133.6744
  271.0000     8.6337     8.4994   133.4449
  271.5000     8.5650     8.4700   131.8887
  272.0000     8.5379     8.3977   130.5441
  272.5000     8.5365     8.3026   133.1854
  273.0000     8.6556     8.4078   136.6139
  273.5000     8.7386     8.5327   139.3261
  274.0000     8.8683     8.6671   138.5970
  274.5000     9.0399     8.8194   137.7663
  275.0000     9.2832     8.9440   137.5463
  275.5000     9.2229     8.9499   137.3000
  276.0000     9.1252     8.9512   136.5379
  276.5000     8.3385     8.0707   135.7495
  277.0000     7.7358     7.5051   136.7612
  277.5000     7.3568     7.0770   137.9662
  278.0000     7.3902     6.8291   139.0520
  278.5000     7.4291     6.9077   136.4353
  279.0000     7.4660     7.0708   131.1067
  279.5000     7.4949     7.2816   125.7250
  280.0000     7.5650     7.5009   121.2062
  280.5000     8.6133     8.1274   119.3766
  281.0000     9.3204     9.0277   119.1665
  281.5000     9.8699     9.5406   120.9010
  282.0000    10.2730    10.0939   124.0443
  282.5000    10.6734    10.3435   129.3994
  283.0000    10.6061    10.5746   131.5606
  283.5000    10.5049    10.4300   129.8984
  284.0000    10.3796    10.2981   127.1301
  284.5000    10.7154    10.1886   124.4338
  285.0000    11.1816    10.5361   124.6621
  285.5000    11.6681    10.9621   124.5742
  286.0000    12.3949    11.8497   122.7747
  286.5000    13.8812    13.1740   114.5204
  287.0000    15.5719    14.9225    99.8959
  287.5000    17.6942    17.5361    86.4255
  288.0000    20.0602    20.6074    73.3915
  288.5000    22.6546    24.2166    63.8780
  289.0000    25.5845    27.5106    58.6579
  289.5000    28.2705    29.6994    58.9743
  290.0000    32.5748    30.1167    61.7323
  290.5000    31.8420    30.2572    66.8309
  291.0000    30.5284    29.3970    69.6851
  291.5000    29.1713    29.2215    73.3391
  292.0000    27.8010    28.6390    78.3669
  292.5000    26.8842    27.8070    83.9895
  293.0000    26.0768    27.0610    87.8138
  293.5000    25.2938    25.4851    89.1709
  294.0000    24.5342    24.0907    90.1742
  294.5000    23.6944    22.7875    92.5145
  295.0000    23.1454    22.2107    92.6321
  295.5000    22.8884    22.1290    91.1946
  296.0000    23.7797    22.0523    90.2936
  296.5000    24.4293    23.3196    89.6857
  297.0000    25.2606    24.6704    87.3721
  297.5000    26.5004    26.8471    84.2262
  298.0000    28.4076    29.2157    81.5700
  298.5000    30.9662    31.7934    79.3729
  299.0000    32.6355    33.5800    75.3041
  299.5000    33.6947    35.1135    71.0945
  300.0000    34.5200    34.2073    69.2537
  300.5000    34.7052    32.9162    71.7275
  301.0000    34.8915    31.7859    74.6668
  301.5000    35.1135    30.7315    78.0588
  302.0000    34.8389    30.1504    79.9425
  302.5000    33.8057    29.6959    80.1679
  303.0000    32.5950    29.6987    79.0022
  303.5000    32.3112    29.6988    78.0446
  304.0000    31.9252    29.6994    76.9988
  304.5000    31.4550    29.7727    78.8241
  305.0000    30.8724    29.9770    82.4461
  305.5000    30.2971    28.7532    86.2204
  306.0000    29.6994    27.4004    88.2015
  306.5000    29.0767    26.7398    89.2701
  307.0000    28.4247    26.5423    90.1482
  307.5000    27.5692    26.3161    89.6430
  308.0000    28.0061    26.9844    87.1710
  308.5000    28.6891    27.7966    84.7422
  309.0000    29.1519    28.4517    83.7937
  309.5000    29.1519    28.7580    83.8090
  310.0000    28.1720    28.8819    83.9449
  310.5000    26.8126    26.9905    84.0835
  311.0000    26.1497    25.4783    84.6841
  311.5000    25.2743    23.9379    86.8668
  312.0000    24.4254    22.4906    89.6201
  312.5000    23.6460    21.5654    92.9413
  313.0000    23.0830    21.3911    96.2624
  313.5000    22.5343    21.1545    97.0599
  314.0000    21.8414    20.9205    95.9929
  314.5000    21.8920    20.8551    93.4735
  315.0000    22.0261    21.6122    91.8401
  315.5000    22.4483    22.0446    93.5353
  316.0000    23.1049    22.3791    95.6329
  316.5000    23.1018    22.8884    97.6263
  317.0000    23.1030    22.7713    99.1657
  317.5000    23.1033    22.5414   100.4108
  318.0000    22.9805    22.3145   100.1330
  318.5000    22.8228    22.0867    99.4186
  319.0000    22.8884    21.9349    98.0063
  319.5000    22.6151    21.7504    97.0883
  320.0000    22.3058    21.5689    97.4833
  320.5000    22.0417    21.3889    98.3743
