~VERSION INFORMATION
 VERS.                2.0:   CWLS LOG ASCII STANDARD - VERSION 2.0
 WRAP.                 NO:   ONE LINE PER DEPTH STEP
~WELL INFORMATION
#MNEM.UNIT      DATA TYPE    INFORMATION
#----------   ------------   ------------------------------
 STRT.F            4.0000:   START DEPTH
 STOP.F          578.0000:   STOP DEPTH
 STEP.F            0.5000:   STEP LENGTH
 NULL.          -999.2500:   NO VALUE
 COMP.              FENIX:   COMPANY
 WELL.   NPR-3 #14SX11-11:   WELL
 FLD .             TEAPOT:   FIELD
 LOC .      S11 T38N R78W:   LOCATION
 CNTY.            NATRONA:   COUNTY
 STAT.            WYOMING:   STATE
 CTRY. UNITED STATES OF AMERICA:   COUNTRY
 SRVC.           BIRDWELL:   SERVICE COMPANY
 DATE.        14-FEB-1978:   LOGDATE
 API .       490251057100:   API NUMBER
~CURVE INFORMATION
#MNEM.UNIT       API CODE    CURVE DESCRIPTION
#----------   ------------   ------------------------------
 DEPT.F                  :   
 ILD .OHMM   05 120 46 00:   INDUCTION LOG DEEP
 SN  .OHMM   05 040 16 00:   SHORT NORMAL 16"
 SPR .MV     05 010 01 00:   SPONTANEOUS POTENTIAL FROM RES.
 CALD.IN     45 280 60 00:   CALIPER FROM DENSITY LOG
 CORR.G/C3   45 356 01 00:   DENSITY CORRECTION
 DPHI.DEC    45 890 12 00:   DENSITY POROSITY SANDSTONE
 GRD .GAPI   45 310 01 00:   GAMMA RAY FROM DENSITY LOG
 RHOB.G/C3   45 350 01 00:   BULK DENSITY
~PARAMETER INFORMATION
#MNEM.UNIT          VALUE    DESCRIPTION
#----------   ------------   ------------------------------
 PD  .                 GL:   PERMANENT DATUM
 EPD .F              5183:   ELEVATION PERMANENT DATUM
 LMF .                 KB:   LOG MEASURED FROM
 DAPD.F                 4:   FEET ABOVE PERMANENT DATUM
 DMF .                 KB:   DRILLING MEASURED FROM
 EKB .F              5187:   KELLING BUSHING
 EGL .F              5183:   GROUND LEVEL
 DATE.        14-FEB-1978:   RUN DATE
 RUN .                  1:   RUN NUMBER
 DD  .F               580:   DEPTH DRILLER
 DL  .F               580:   DEPTH LOGGER
 BLI .F               578:   BOTTOM LOG INTERVAL
 TLI .F                20:   TOP LOG INTERVAL
 CS  .IN            8.625:   CASING SIZE
 CBD .F                15:   CASING BOTTOM DRILLER
 CBL .F                39:   CASING BOTTOM LOGGER
 BS  .IN            7.875:   BIT SIZE
 BSD .F               580:   BIT SIZE AT DEPTH
 DFT .         LIGNO-SULF:   DRILLING FLUID TYPE
 DFD .                8.6:   DRILLING FLUID DENSITY
 DFV .                 33:   DRILLING FLUID VISCOSITY
 DFPH.                 11:   DRILLING FLUID PH
 DFL .                  4:   DRILLING FLUID LOSS
 MSS .           FLOWLINE:   MUD SAMPLE SOURCE
 RMS .OHMM            1.3:   RESISTIVITY MUD SAMPLE
 MST .F                62:   MUD SAMPLE TEMPERATURE
 RMF .OHMM            1.2:   RESISTIVITY MUD FILTRATE SAMPLE
 MFST.F                64:   MUD FILTRATE SAMPLE TEMPERATURE
 RMC .OHMM            1.6:   RESISTIVITY MUD CAKE
 MCST.F                62:   MUD CAKE SAMPLE TEMPERATURE
 MFSS.               MEAS:   MUD FILTRATE SAMPLE SOURCE
 BHT .F                70:   BOTTOM HOLE TEMPERATURE
 TCS .HRS               3:   TIME CURCULATED STOPPED
 MRT .F                70:   MAXIMUM RECORDED TEMPERATURE
 LUN .               2958:   LOGGING UNIT NUMBER
 LUL .               CASP:   LOGGING UNIT LOCATION
 ENGI.            POINTER:   RECORDING ENGINEER
 WITN.           MCGINLEY:   WITNESSED BY
 CLNT.            A2DTECH:   CLIENT CODE
 ORIG.           5" PRINT:   ORIGIN OF DATA
 UWI .       490251057100:   UNIQUE WELL ID
 DICO. A2D Technologies, Inc.:   DIGITIZING COMPANY
~OTHER INFORMATION
~A    DEPT     ILD         SN        SPR       CALD       CORR       DPHI         GRD      RHOB   
# ...
  409.0000    10.0152    11.5643   -39.6534     7.4661     0.0411     0.1305    59.5499     2.4759
  409.5000    10.6574    12.2211   -39.5091     7.4200     0.0455     0.1483    50.1245     2.4414
  410.0000    11.5793    13.3706   -39.5152     7.4498     0.0546     0.1609    43.5866     2.4045
  410.5000    12.7831    14.7300   -39.8254     7.5100     0.0453     0.1691    42.8238     2.3789
  411.0000    14.2709    16.2275   -40.1342     7.6006     0.0362     0.1751    44.0359     2.3684
  411.5000    15.0820    18.1335   -40.7461     7.6456     0.0421     0.1846    44.6409     2.3715
  412.0000    16.8487    20.3882   -41.3580     7.6450     0.0511     0.2070    44.3340     2.3547
  412.5000    18.8222    21.6960   -41.8184     7.5988     0.0480     0.2271    42.8113     2.3366
  413.0000    21.0270    23.0878   -42.4303     7.7044     0.0449     0.2344    41.4406     2.2850
  413.5000    22.7560    24.2306   -42.8909     7.8406     0.0614     0.2395    41.4316     2.2647
  414.0000    24.1447    26.5096   -43.0495     7.8858     0.0762     0.2404    42.2107     2.2489
  414.5000    24.8189    27.6297   -43.2069     7.8395     0.0656     0.2167    42.9508     2.2752
  415.0000    25.5120    28.8235   -43.5157     7.8085     0.0430     0.2213    43.4038     2.3060
  415.5000    26.2244    30.0122   -43.2171     7.7927     0.0324     0.2253    44.0088     2.2902
  416.0000    26.7704    30.2164   -42.6183     7.7465     0.0533     0.2189    45.5256     2.2812
  416.5000    27.1389    30.4204   -42.0091     7.7448     0.0772     0.1957    50.6394     2.3045
  417.0000    26.2073    29.9942   -41.2678     7.6844     0.0831     0.1699    56.5620     2.3211
  417.5000    25.3090    29.3712   -40.6676     7.6534     0.0784     0.1603    58.8372     2.3368
  418.0000    24.4415    28.3468   -40.2189     7.6224     0.0695     0.1471    58.2249     2.3759
  418.5000    23.7680    27.0152   -39.7688     7.6066     0.0634     0.1377    56.8040     2.4098
  419.0000    22.9533    26.2713   -39.9276     7.6364     0.0483     0.1299    54.7195     2.4301
  419.5000    22.1666    25.5480   -39.9335     7.7118     0.0317     0.1321    54.5642     2.4331
  420.0000    21.2391    25.0173   -39.9394     7.6808     0.0286     0.1327    55.3186     2.4339
  420.5000    20.6720    24.8395   -40.0981     7.6347     0.0300     0.1285    55.3141     2.4391
  421.0000    20.3831    24.6630   -40.1039     7.6339     0.0360     0.1240    54.8538     2.4429
  421.5000    20.0983    24.6569   -40.2613     7.6791     0.0374     0.1300    54.5454     2.4436
  422.0000    20.5168    24.8234   -40.2671     7.7391     0.0298     0.1336    54.0850     2.4353
  422.5000    21.0897    25.1661   -40.1212     7.8449     0.0282     0.1615    53.7766     2.4090
  423.0000    22.1508    25.8670   -40.1273     7.9203     0.0326     0.1739    53.7711     2.3872
  423.5000    23.3913    26.7737   -40.1345     7.9045     0.0385     0.1974    52.8549     2.3752
  424.0000    24.2119    27.1444   -40.4434     7.8583     0.0474     0.2055    51.1787     2.3266
  424.5000    25.0612    28.0933   -40.9037     7.8115     0.0503     0.2101    51.7822     2.3075
  425.0000    25.5842    28.8758   -41.2126     7.7634     0.0502     0.2074    52.5376     2.3023
  425.5000    25.9364    29.4765   -41.5215     7.7197     0.0471     0.2107    54.9648     2.3015
  426.0000    25.9299    30.0898   -41.9818     7.6735     0.0425     0.2091    57.0880     2.3038
  426.5000    26.1051    30.5036   -42.4424     7.6729     0.0365     0.1975    57.3876     2.3083
  427.0000    26.4631    30.4975   -42.6010     7.6267     0.0394     0.1918    57.5572     2.3248
  427.5000    26.6433    30.0715   -42.6068     7.5805     0.0423     0.1933    58.1386     2.3308
  428.0000    27.0087    29.8566   -42.4597     7.5647     0.0422     0.1930    56.7653     2.3278
  428.5000    27.1925    29.2364   -42.3155     7.5641     0.0391     0.1888    54.9371     2.3308
  429.0000    27.1857    29.0287   -42.3213     7.5963     0.0375     0.1834    58.5801     2.3421
  429.5000    26.9837    28.8224   -42.1756     7.6692     0.0419     0.1791    60.4005     2.3571
  430.0000    26.2473    28.6177   -42.0299     7.7294     0.0523     0.1717    58.7233     2.3624
  430.5000    25.8806    28.0231   -42.0372     7.7288     0.0546     0.1702    56.1352     2.3692
  431.0000    25.5189    27.2502   -42.0430     7.7282     0.0471     0.1741    54.5785     2.3694
  431.5000    25.1624    26.6842   -41.8959     7.7124     0.0425     0.1817    54.3016     2.3579
  432.0000    24.6393    25.7702   -41.2971     7.6966     0.0454     0.1819    55.6649     2.3503
  432.5000    24.1271    25.2349   -40.6969     7.6958     0.0438     0.1715    59.9158     2.3556
  433.0000    23.4426    24.7108   -40.8557     7.6346     0.0393     0.1650    63.1029     2.3662
  433.5000    22.6569    23.8467   -41.0130     7.5732     0.0362     0.1589    64.6182     2.3789
  434.0000    21.7291    22.7286   -41.3219     7.5574     0.0346     0.1562    65.8296     2.3850
  434.5000    21.1303    21.7986   -41.4792     7.5720     0.0330     0.1643    66.4331     2.3902
  435.0000    20.4061    21.1983   -41.6366     7.6322     0.0330     0.1724    67.3506     2.3789
  435.5000    19.9819    20.6147   -42.1010     7.7090     0.0329     0.1784    67.9440     2.3662
  436.0000    19.2916    20.0470   -42.7103     7.7222     0.0373     0.1806    67.1786     2.3555
  436.5000    18.5058    19.6306   -42.8676     7.7063     0.0477     0.1798    66.5662     2.3511
  437.0000    18.2472    19.4902   -42.8734     7.6905     0.0537     0.1713    66.4098     2.3549
  437.5000    18.2436    19.3517   -42.7263     7.6899     0.0474     0.1701    66.4054     2.3632
  438.0000    18.2399    19.2142   -42.7336     7.6893     0.0385     0.1761    66.7049     2.3639
  438.5000    18.2362    19.0777   -42.5879     7.6887     0.0324     0.1821    66.5485     2.3564
  439.0000    18.2326    19.0739   -42.5939     7.7033     0.0339     0.1829    65.5461     2.3519
  439.5000    18.2288    19.0701   -42.6010     7.7355     0.0443     0.1749    64.1930     2.3504
  440.0000    18.3521    19.0661   -42.4539     7.8388     0.0532     0.1488    60.4551     2.3746
  440.5000    18.4761    19.1950   -42.3082     7.8382     0.0561     0.1037    61.6665     2.4256
  441.0000    18.6010    19.4581   -42.1625     7.8072     0.0558     0.0848    62.4231     2.4459
  441.5000    18.9873    19.7267   -42.0182     7.8066     0.0515     0.0541    60.1379     2.4752
  442.0000    19.6534    20.5591   -41.7051     7.8060     0.0574     0.0484    57.2459     2.5549
  442.5000    20.2068    21.4277   -40.9708     7.7902     0.0633     0.0562    55.2658     2.5647
  443.0000    21.2018    22.6891   -40.5220     7.7897     0.0693     0.0671    54.0456     2.5617
  443.5000    22.7199    24.4324   -40.2234     7.7891     0.0737     0.0770    54.3774     2.5548
  444.0000    24.0113    25.2888   -39.9262     7.7883     0.0812     0.0947    56.3153     2.5310
  444.5000    24.6819    25.6379   -40.0850     7.7877     0.0659     0.1188    58.2865     2.5098
  445.0000    24.8499    25.9906   -40.2424     7.8023     0.0660     0.1351    60.2578     2.4737
  445.5000    24.5014    25.4494   -40.5526     7.8018     0.0614     0.1519    61.7731     2.4451
  446.0000    23.9920    24.3900   -40.8615     7.8165     0.0493     0.1634    62.5286     2.4120
  446.5000    23.1686    23.2464   -41.0188     7.8311     0.0417     0.1718    64.0439     2.3985
  447.0000    21.4625    22.2951   -41.0247     7.8304     0.0402     0.1703    65.7112     2.3729
  447.5000    20.1597    21.0885   -41.4850     7.8290     0.0431     0.1658    67.4088     2.3676
  448.0000    19.0678    19.8093   -41.7939     7.7836     0.0462     0.1603    69.3486     2.3728
  448.5000    18.1606    18.8675   -42.2557     7.7221     0.0549     0.1571    69.4973     2.3737
  449.0000    17.6569    17.9688   -42.7161     7.5087     0.0594     0.1565    69.0358     2.3805
