~VERSION INFORMATION
 VERS.                2.0:   CWLS LOG ASCII STANDARD - VERSION 2.0
 WRAP.                 NO:   ONE LINE PER DEPTH STEP
~WELL INFORMATION
#MNEM.UNIT      DATA TYPE    INFORMATION
#----------   ------------   ------------------------------
 STRT.F           18.0000:   START DEPTH
 STOP.F          501.0000:   STOP DEPTH
 STEP.F            0.5000:   STEP LENGTH
 NULL.          -999.2500:   NO VALUE
 COMP. FENIX & SCISSON INC:   COMPANY
 WELL.     NPR-3 SX #34-3:   WELL
 FLD .             TEAPOT:   FIELD
 LOC .       S3 T38N R78W:   LOCATION
 CNTY.            NATRONA:   COUNTY
 STAT.            WYOMING:   STATE
 CTRY. UNITED STATES OF AMERICA:   COUNTRY
 SRVC.            Unknown:   SERVICE COMPANY
 DATE.        13-JUL-1978:   LOGDATE
 API .       490251066600:   API NUMBER
~CURVE INFORMATION
#MNEM.UNIT       API CODE    CURVE DESCRIPTION
#----------   ------------   ------------------------------
 DEPT.F                  :   
 SPR .MV     05 010 01 00:   SPONTANEOUS POTENTIAL FROM RES.
 SN  .OHMM   05 040 16 00:   SHORT NORMAL 16"
 ILD .OHMM   05 120 46 00:   INDUCTION LOG DEEP
 CALD.IN     45 280 60 00:   CALIPER FROM DENSITY LOG
 GRD .GAPI   45 310 01 00:   GAMMA RAY FROM DENSITY LOG
 CORR.G/C3   45 356 01 00:   DENSITY CORRECTION
 DEN .G/C3   45 350 01 00:   COMPENSATED BULK DENSTIY
 DPHI.DEC    45 890 12 00:   DENSITY POROSITY SANDSTONE
~PARAMETER INFORMATION
#MNEM.UNIT          VALUE    DESCRIPTION
#----------   ------------   ------------------------------
 PD  .                 GL:   PERMANENT DATUM
 EPD .F              5209:   ELEVATION PERMANENT DATUM
 LMF .                 KB:   LOG MEASURED FROM
 DAPD.F                 4:   FEET ABOVE PERMANENT DATUM
 DMF .                 KB:   DRILLING MEASURED FROM
 EKB .F              5213:   KELLING BUSHING
 EGL .F              5209:   GROUND LEVEL
 DATE.            7-13-78:   RUN DATE
 RUN .                  1:   RUN NUMBER
 DD  .F               500:   DEPTH DRILLER
 DL  .F               507:   DEPTH LOGGER
 BLI .F               500:   BOTTOM LOG INTERVAL
 TLI .F                30:   TOP LOG INTERVAL
 CS  .IN            8.625:   CASING SIZE
 CBL .F                30:   CASING BOTTOM LOGGER
 BS  .IN            7.875:   BIT SIZE
 BSD .F               500:   BIT SIZE AT DEPTH
 DFT .                KCL:   DRILLING FLUID TYPE
 DFD .                8.6:   DRILLING FLUID DENSITY
 DFV .                 32:   DRILLING FLUID VISCOSITY
 DFPH.                  9:   DRILLING FLUID PH
 DFL .               12.2:   DRILLING FLUID LOSS
 MSS .          FLOW LINE:   MUD SAMPLE SOURCE
 RMS .OHMM            .22:   RESISTIVITY MUD SAMPLE
 MST .F                80:   MUD SAMPLE TEMPERATURE
 RMF .OHMM            .19:   RESISTIVITY MUD FILTRATE SAMPLE
 MFST.F                88:   MUD FILTRATE SAMPLE TEMPERATURE
 RMC .OHMM            .38:   RESISTIVITY MUD CAKE
 MCST.F                84:   MUD CAKE SAMPLE TEMPERATURE
 MFSS.               MEAS:   MUD FILTRATE SAMPLE SOURCE
 BHT .F                76:   BOTTOM HOLE TEMPERATURE
 TCS .HRS               1:   TIME CURCULATED STOPPED
 MRT .F                76:   MAXIMUM RECORDED TEMPERATURE
 LUN .               2958:   LOGGING UNIT NUMBER
 LUL .               CASP:   LOGGING UNIT LOCATION
 ENGI.             MILLER:   RECORDING ENGINEER
 WITN.           MCGINLEY:   WITNESSED BY
 CLNT.            A2DTECH:   CLIENT CODE
 ORIG. 2", 2.5", 5" PRINT:   ORIGIN OF DATA
 UWI .       490251066600:   UNIQUE WELL ID
 DICO. A2D Technologies, Inc.:   DIGITIZING COMPANY
~OTHER INFORMATION
~A   DEPT      SPR         SN        ILD       CALD        GRD       CORR        DEN       DPHI   
# ...
   99.0000   -13.5723     8.2996     9.4353     7.6585    85.9873     0.0312     2.5130     0.1070
   99.5000   -13.8539     8.3046     8.8366     7.6314    87.2009     0.0389     2.5206     0.1026
  100.0000   -14.7618     8.2525     8.6546     7.5891    88.5602     0.0479     2.5249     0.0989
  100.5000   -16.5043     8.2471     8.5902     7.5610    84.9834     0.0542     2.5280     0.0974
  101.0000   -17.6831     8.2417     8.5506     7.5147    86.3507     0.0513     2.5253     0.1145
  101.5000   -18.4155     8.2362     8.5563     7.4651    87.2650     0.0470     2.5149     0.1175
  102.0000   -18.8531     8.2308     8.5610     7.4152    87.6028     0.0321     2.4999     0.1171
  102.5000   -19.7314     8.2253     8.5056     7.3161    88.0493     0.0143     2.4986     0.1144
  103.0000   -21.0590     8.2199     8.5114     7.2289    88.5144     0.0114     2.4972     0.1270
  103.5000   -22.0890     8.2145     8.5160     7.1270    88.8298     0.0116     2.4860     0.1353
  104.0000   -23.1190     8.2090     8.4621     7.0398    88.9915     0.0056     2.4703     0.1350
  104.5000   -24.3348     8.2036     8.4667     6.9966    87.3608    -0.0019     2.4667     0.1341
  105.0000   -25.2034     8.1982     8.4714     6.9689    87.9796    -0.0045     2.4600     0.1338
  105.5000   -25.9085     8.1927     8.4176     6.9410    89.6423    -0.0043     2.4586     0.1340
  106.0000   -26.4921     8.1873     8.3643     6.9429    92.4172    -0.0027     2.4662     0.1358
  106.5000   -26.9269     8.1828     8.3700     6.9293    95.2172     0.0005     2.4678     0.1421
  107.0000   -27.3616     8.1306     8.4324     6.8721    94.7840     0.0006     2.4601     0.1429
  107.5000   -27.7964     8.1341     8.5540     6.8585    90.4587    -0.0008     2.4520     0.1438
  108.0000   -28.2341     8.0815     8.6178     6.8605    85.0855    -0.0006     2.4418     0.1549
  108.5000   -28.6659     8.1407     8.7420     6.8621    83.0017     0.0011     2.4329     0.1576
  109.0000   -29.1012     8.1441     8.8072     6.8784    83.6205     0.0042     2.4495     0.1455
  109.5000   -29.3869     8.0913     8.8729     6.9096    85.4328     0.0136     2.4503     0.1392
  110.0000   -29.5238     8.0954     8.9391     6.9260    86.9561     0.0090     2.4519     0.1314
  110.5000   -29.5121     8.0987     9.0058     6.8244    86.9658     0.0076     2.4693     0.1256
  111.0000   -29.9712     8.0455     9.0731     6.7516    86.9818     0.0123     2.4814     0.1244
  111.5000   -30.3817     8.0496     9.0790     6.8127    87.5966     0.0155     2.4807     0.1244
  112.0000   -30.5159     8.0529     9.0839     6.9031    88.9599     0.0156     2.4907     0.1210
  112.5000   -30.5043     8.0561     9.0888     7.0378    91.2214     0.0158     2.4989     0.1147
  113.0000   -30.7902     8.0594     8.9693     7.1873    94.3811     0.0159     2.4990     0.1159
  113.5000   -31.0762     8.1184     8.6703     7.4159    94.8462     0.0161     2.5006     0.1095
  114.0000   -31.2133     8.0659     8.3812     7.6346    94.4092     0.0207     2.5059     0.1035
  114.5000   -31.2017     8.0138     8.1018     7.6510    93.6372     0.0315     2.5172     0.1092
  115.0000   -31.3393     8.0726     7.9951     7.6082    92.2035     0.0390     2.5076     0.1088
  115.5000   -31.4762     8.0766     7.8902     7.5506    91.0219     0.0452     2.5054     0.1064
  116.0000   -31.6131     8.0793     7.8944     7.4930    89.6906     0.0544     2.5153     0.1004
  116.5000   -31.6012     8.0831     7.8988     7.3762    90.1557     0.0665     2.5326     0.0932
  117.0000   -31.5893     8.0864     7.9031     7.2743    92.2675     0.0727     2.5303     0.0953
  117.5000   -31.7269     8.1456     7.9083     7.1694    93.0320     0.0698     2.5234     0.1051
  118.0000   -31.7123     8.1489     7.9126     7.0707    93.3474     0.0625     2.5089     0.1180
  118.5000   -31.5519     8.1522     8.0267     6.9983    93.0484     0.0521     2.4970     0.1257
  119.0000   -31.5402     8.2118     8.1424     6.9551    92.0360     0.0342     2.4851     0.1314
  119.5000   -31.5285     8.2152     8.3744     6.9271    89.3574     0.0164     2.4731     0.1347
  120.0000   -31.5169     8.2753     8.6130     6.9291    83.0820     0.0089     2.4665     0.1386
  120.5000   -31.5052     8.2787     8.8584     6.9307    84.0002     0.0077     2.4643     0.1460
  121.0000   -31.4936     8.3394     9.0483     6.9323    85.6628     0.0093     2.4554     0.1493
  121.5000   -31.4819     8.3435     9.1788     6.9487    87.3255     0.0095     2.4465     0.1483
  122.0000   -31.4702     8.3469     9.1837     6.9802    89.4373     0.0081     2.4473     0.1459
  122.5000   -31.4583     8.2921     9.1888     7.0409    87.9166     0.0083     2.4442     0.1504
  123.0000   -31.4712     8.1266     9.1939     7.1017    85.2817     0.0069     2.4453     0.1438
  123.5000   -31.5841     8.0732     9.1999     7.1772    84.9943     0.0071     2.4649     0.1308
  124.0000   -31.7183     8.0773     9.2048     7.2823    91.9005     0.0072     2.4807     0.1251
  124.5000   -31.7066     8.0806     9.2098     7.3579    97.6051     0.0074     2.4890     0.1224
  125.0000   -31.8467     8.0282     9.0887     7.3743    97.0223     0.0060     2.4944     0.1194
  125.5000   -31.8321     7.8673     8.9076     7.3148    93.5952     0.0062     2.4885     0.1268
  126.0000   -31.9722     7.7628     8.6702     7.3035    86.2758     0.0048     2.4780     0.1277
  126.5000   -31.9576     7.6597     8.4391     7.3054    85.9924     0.0065     2.4781     0.1251
  127.0000   -31.9459     7.6102     8.2141     7.3218    86.0090     0.0096     2.4844     0.1192
  127.5000   -32.0833     7.5610     8.0505     7.3677    86.0284     0.0143     2.4953     0.1159
  128.0000   -32.2202     7.5649     7.9995     7.3989    86.4935     0.0174     2.4979     0.1222
  128.5000   -32.2083     7.6202     7.9489     7.4153    87.1083     0.0191     2.4927     0.1173
  129.0000   -32.3457     7.6760     8.0084     7.4317    89.0704     0.0192     2.5004     0.1074
  129.5000   -32.3311     7.7857     8.0690     7.4649    92.8289     0.0209     2.5147     0.1128
  130.0000   -32.3195     7.8426     8.1291     7.5388    93.1442     0.0195     2.5080     0.1146
  130.5000   -32.3078     7.9001     8.2464     7.5995    93.1602     0.0182     2.5006     0.1121
  131.0000   -32.2962     7.9579     8.3653     7.6307    93.0110     0.0198     2.5067     0.1106
  131.5000   -32.2845     8.0716     8.4277     7.6322    91.9986     0.0215     2.5173     0.1031
  132.0000   -32.2728     8.1306     8.5492     7.6186    90.5176     0.0231     2.5302     0.0973
  132.5000   -32.2612     8.1387     8.6129     7.6058    89.3360     0.0218     2.5392     0.1012
  133.0000   -32.2495     8.2503     8.6176     7.5778    88.6034     0.0189     2.5461     0.1024
  133.5000   -32.0890     8.2543     8.6222     7.5032    86.9727     0.0146     2.5244     0.1039
  134.0000   -32.2262     8.2576     8.6269     7.4038    83.9947     0.0102     2.5193     0.1060
  134.5000   -32.2143     8.2610     8.6316     7.3167    87.1544     0.0119     2.5118     0.1071
  135.0000   -32.3517     8.2643     8.6364     7.2147    87.1806     0.0105     2.5089     0.1079
  135.5000   -32.3371     8.3248     8.6420     7.1571    88.2383     0.0077     2.5050     0.1211
  136.0000   -32.3254     8.3282     8.6467     7.0995    89.3022     0.0032     2.4919     0.1265
  136.5000   -32.3138     8.3316     8.7112     7.0567    91.8631     0.0034     2.4800     0.1301
  137.0000   -32.3021     8.3349     8.7159     7.0435    92.1785     0.0066     2.4830     0.1234
  137.5000   -32.2905     8.2810     8.7206     7.0451    92.1944     0.0128     2.4914     0.1195
  138.0000   -32.4305     8.2844     8.7856     7.0470    92.2104     0.0189     2.4997     0.1174
  138.5000   -32.4159     8.2879     8.7904     7.0782    91.6276     0.0176     2.4893     0.1279
  139.0000   -32.4043     8.2913     8.8559     7.1094    88.1685     0.0132     2.4781     0.1389
