~VERSION INFORMATION
 VERS.                2.0:   CWLS LOG ASCII STANDARD - VERSION 2.0
 WRAP.                 NO:   ONE LINE PER DEPTH STEP
~WELL INFORMATION
#MNEM.UNIT      DATA TYPE    INFORMATION
#----------   ------------   ------------------------------
 STRT.F           32.0000:   START DEPTH
 STOP.F          551.0000:   STOP DEPTH
 STEP.F            0.5000:   STEP LENGTH
 NULL.          -999.2500:   NO VALUE
 COMP.    FENIX & SCISSON:   COMPANY
 WELL.   NPR ##3 84-SX-10:   WELL
 FLD .              NPR 3:   FIELD
 LOC .      S10 T38N R78W:   LOCATION
 CNTY.            NATRONA:   COUNTY
 STAT.            WYOMING:   STATE
 CTRY. UNITED STATES OF AMERICA:   COUNTRY
 SRVC.              Welex:   SERVICE COMPANY
 DATE.        25-JAN-1978:   LOGDATE
 API .       490251033700:   API NUMBER
~CURVE INFORMATION
#MNEM.UNIT       API CODE    CURVE DESCRIPTION
#----------   ------------   ------------------------------
 DEPT.F                  :   
 SPR .MV     07 010 01 00:   SPONTANEOUS POTENTIAL FROM RES.
 ILD .OHMM   07 120 46 00:   INDUCTION LOG DEEP
 ILM .OHMM   07 120 44 00:   INDUCTION LOG MEDIUM
 SGRD.OHMM   07 220 05 00:   SHALLOW GUARD RESISTIVITY
 CALD.IN     45 280 60 00:   CALIPER FROM DENSITY LOG
 GRD .GAPI   45 310 01 00:   GAMMA RAY FROM DENSITY LOG
 CORR.G/C3   45 356 01 00:   DENSITY CORRECTION
 RHOB.G/C3   45 350 01 00:   BULK DENSITY
 DPHI.DEC    45 890 12 00:   DENSITY POROSITY SANDSTONE
~PARAMETER INFORMATION
#MNEM.UNIT          VALUE    DESCRIPTION
#----------   ------------   ------------------------------
 CLNT.            A2DTECH:   CLIENT CODE
 ORIG.           5" PRINT:   ORIGIN OF DATA
 UWI .       490251033700:   UNIQUE WELL ID
 DICO. A2D Technologies, Inc.:   DIGITIZING COMPANY
~OTHER INFORMATION
~A   DEPT      SPR        ILD        ILM       SGRD         CALD      GRD       CORR       RHOB       DPHI   
# ...
  141.5000   -37.6623     7.5074     7.6391    12.7617     8.3050   133.3841     0.0426     2.5145     0.0859
  142.0000   -37.8139     7.6118     7.6903    12.8497     8.2895   132.7806     0.0470     2.5175     0.0850
  142.5000   -37.9655     7.6644     7.7952    12.9381     8.3040   131.2762     0.0530     2.5213     0.0823
  143.0000   -38.1371     7.7710     7.8475    13.1180     8.3036   129.2765     0.0560     2.5311     0.0786
  143.5000   -38.4192     7.8247     7.9001    13.3930     8.2998   126.4650     0.0559     2.5340     0.0733
  144.0000   -38.5708     7.8787     7.9536    13.4853     8.2952   124.9613     0.0559     2.5355     0.0730
  144.5000   -38.7224     7.8784     8.0065    13.4843     8.2906   127.3601     0.0559     2.5355     0.0721
  145.0000   -38.8740     7.9328     8.0620    13.5775     8.2859   127.6583     0.0559     2.5340     0.0715
  145.5000   -39.0256     7.9324     8.3417    13.7660     8.2813   126.2958     0.0558     2.5280     0.0766
  146.0000   -39.0271     7.9321     8.5152    14.7815     8.2767   125.5497     0.0558     2.5204     0.0814
  146.5000   -39.0285     7.9318     8.4540    16.2571     8.2720   127.4981     0.0558     2.5219     0.0811
  147.0000   -39.0303     7.9315     8.1079    14.9577     8.2550   129.1468     0.0542     2.5196     0.0821
  147.5000   -39.0318     7.9312     7.9393    12.4889     8.2545   130.1950     0.0542     2.5159     0.0839
  148.0000   -39.1834     7.8761     7.9374    13.1094     8.2540   130.6426     0.0512     2.5158     0.0851
  148.5000   -39.1848     7.8214     7.8803    13.1085     8.2536   130.6396     0.0496     2.5166     0.0842
  149.0000   -39.1863     7.7135     7.8784    13.1077     8.2532   130.4860     0.0481     2.5166     0.0845
  149.5000   -39.3379     7.6600     7.8222    13.0161     8.2527   130.1828     0.0443     2.5113     0.0890
  150.0000   -39.4895     7.5861     7.8364    12.8375     8.2523   129.4324     0.0397     2.5063     0.0946
  150.5000   -39.6413     7.4807     7.9074    12.4784     8.2521   127.6261     0.0360     2.5006     0.0969
  151.0000   -39.6428     7.5324     7.9077    12.9166     8.2520   125.2222     0.0360     2.4947     0.1002
  151.5000   -39.7944     7.5844     7.9629    13.0052     8.2668   124.0195     0.0360     2.4863     0.1020
  152.0000   -39.6457     7.6368     8.0184    12.9132     8.2517   125.2193     0.0375     2.4827     0.1026
  152.5000   -39.7973     7.7430     8.0744    12.4715     8.2665   121.3136     0.0390     2.4842     0.1016
  153.0000   -39.9492     7.7965     8.1872    13.1905     8.2663   122.6635     0.0428     2.4925     0.0942
  153.5000   -39.9507     7.9598     8.2443    13.8352     8.2662   123.2630     0.0479     2.5120     0.0894
  154.0000   -40.2524     8.0149     8.4176    14.0261     8.2661   120.5585     0.0509     2.5150     0.0836
  154.5000   -40.2539     8.0145     8.7762    14.4188     8.2659   119.2057     0.0554     2.5203     0.0827
  155.0000   -40.4055     8.1260     9.0928    14.5177     8.2658   117.3776     0.0539     2.5234     0.0803
  155.5000   -40.7072     8.2389     9.3399    14.5153     8.2656   115.2221     0.0449     2.5263     0.0788
  156.0000   -40.8729     8.4131     9.4704    14.8186     8.2655   113.6454     0.0359     2.5256     0.0792
  156.5000   -41.1609     8.6475     9.5364    15.2335     8.2653   113.0433     0.0298     2.5105     0.0837
  157.0000   -41.3125     8.8899     9.6030    14.8147     8.2652   113.1920     0.0276     2.5015     0.0948
  157.5000   -41.4641     9.0135     9.6032    14.7103     8.2650   114.0915     0.0253     2.4962     0.0966
  158.0000   -41.7659     9.2024     9.6035    14.9134     8.2649   114.6907     0.0283     2.4925     0.0972
  158.5000   -41.9175     9.3952     9.6038    15.4376     8.2647   114.6892     0.0313     2.4910     0.0997
  159.0000   -42.0691     9.5258     9.6735    16.5441     8.2646   114.2182     0.0343     2.4940     0.1012
  159.5000   -42.0706     9.6583     9.7382    16.7736     8.2644   113.3346     0.0358     2.5008     0.0988
  160.0000   -42.2225     9.7250     9.8062    16.6549     8.2642   112.5824     0.0342     2.5030     0.0952
  160.5000   -42.2239     9.7922     9.9433    16.6527     8.2641   115.7341     0.0342     2.5000     0.0937
  161.0000   -42.2254     9.8708    10.0822    17.0006     8.2640   113.4804     0.0357     2.5008     0.0961
  161.5000   -42.3770     9.9970    10.2231    17.4786     8.2638   112.7285     0.0357     2.5008     0.0937
  162.0000   -42.5286    10.1359    10.4380    17.7183     8.2637   114.5285     0.0357     2.4962     0.0952
  162.5000   -42.5300    10.2060    10.5839    17.3507     8.2785   115.7659     0.0372     2.4947     0.0985
  163.0000   -42.5315    10.3479    10.7318    17.3484     8.2784   117.0778     0.0356     2.4970     0.0949
  163.5000   -42.3828    10.4195    10.9620    17.2262     8.2782   116.3256     0.0371     2.4962     0.0958
  164.0000   -42.3846    10.4189    11.1105    16.8693     8.2781   115.5734     0.0371     2.4895     0.1003
  164.5000   -42.3860    10.4185    11.1109    16.6348     8.2779   114.9713     0.0371     2.4872     0.1027
  165.0000   -42.3875    10.4133    11.4233    16.7484     8.2778   113.9188     0.0371     2.4947     0.1024
  165.5000   -42.3889    10.2743    11.4236    16.7461     8.2776   113.3168     0.0371     2.4978     0.0988
  166.0000   -42.3904    10.2030    11.3450    16.6282     8.2775   112.8649     0.0371     2.5008     0.0955
  166.5000   -42.2420    10.1322    11.1121    16.2832     8.2773   113.6138     0.0385     2.5000     0.0982
  167.0000   -42.2435     9.9924    11.0357    16.2810     8.2772   114.6634     0.0400     2.4902     0.1034
  167.5000   -42.2449     9.9231    10.8842    16.1664     8.2770   116.3136     0.0415     2.4812     0.1070
  168.0000   -42.2464     9.8542    10.7289    15.8314     8.2769   118.1140     0.0468     2.4902     0.1031
  168.5000   -42.3980     9.7183    10.5144    15.7199     8.2767   115.4098     0.0535     2.4985     0.0968
  169.0000   -42.3994     9.7179    10.2985    15.3942     8.2766   114.5075     0.0550     2.5008     0.0929
  169.5000   -42.7012     9.7175    10.2277    15.7158     8.2764   114.5060     0.0535     2.5015     0.0941
  170.0000   -42.8531     9.6499    10.1574    16.3815     8.2763   114.0341     0.0520     2.5015     0.0947
  170.5000   -43.0047     9.6495    10.0876    16.6081     8.2761   113.3015     0.0489     2.5015     0.0929
  171.0000   -43.0062     9.6492    10.0879    15.7092     8.2760   112.2490     0.0474     2.5008     0.0959
  171.5000   -43.3079     9.6488    10.0882    15.3842     8.2758   111.7971     0.0444     2.4970     0.0998
  172.0000   -43.3094     9.5818    10.0885    16.1468     8.2757   112.5464     0.0482     2.4872     0.1043
  172.5000   -43.6111     9.5814    10.0887    16.3708     8.2755   113.1459     0.0549     2.4857     0.1055
  173.0000   -43.9249     9.5149    10.0891    16.1426     8.2754   111.7928     0.0579     2.4902     0.1019
  173.5000   -44.0648     9.4489    10.0894    15.9182     8.2903   110.8904     0.0564     2.5008     0.0989
  174.0000   -44.3666     9.4485    10.1598    15.3736     8.3051   112.9907     0.0548     2.5060     0.0959
  174.5000   -44.5182     9.3828    10.0898    15.3716     8.3049   114.3406     0.0533     2.4955     0.0983
  175.0000   -44.6698     9.3177    10.0902    15.2633     8.3198   112.9878     0.0548     2.4925     0.1002
  175.5000   -44.8214     9.2530     9.9516    14.8433     8.3197   112.6864     0.0578     2.4985     0.0977
  176.0000   -44.8228     9.1888     9.7473    14.4353     8.3195   114.7867     0.0623     2.5039     0.0941
  176.5000   -44.8243     9.1250     9.5467    14.4334     8.3194   115.2899     0.0623     2.5083     0.0899
  177.0000   -44.8261     9.0617     9.3434    14.8375     8.3192   113.1321     0.0562     2.5075     0.0893
  177.5000   -44.8275     8.8750     9.0960    14.9393     8.3191   114.6318     0.0517     2.5075     0.0912
