~VERSION INFORMATION
 VERS.                2.0:   CWLS LOG ASCII STANDARD - VERSION 2.0
 WRAP.                 NO:   ONE LINE PER DEPTH STEP
~WELL INFORMATION
#MNEM.UNIT      DATA TYPE    INFORMATION
#----------   ------------   ------------------------------
 STRT.F            0.0000:   START DEPTH
 STOP.F          883.0000:   STOP DEPTH
 STEP.F            0.5000:   STEP LENGTH
 NULL.          -999.2500:   NO VALUE
 COMP.       F D SERV INC:   COMPANY
 WELL. N P R 3 SX-35 #26-1-35:   WELL
 FLD .             TEAPOT:   FIELD
 LOC .      S35 T39N R78W:   LOCATION
 CNTY.            NATRONA:   COUNTY
 STAT.            WYOMING:   STATE
 CTRY. UNITED STATES OF AMERICA:   COUNTRY
 SRVC.     Atlas Wireline:   SERVICE COMPANY
 DATE.        21-NOV-1991:   LOGDATE
 API .       490252247800:   API NUMBER
~CURVE INFORMATION
#MNEM.UNIT       API CODE    CURVE DESCRIPTION
#----------   ------------   ------------------------------
 DEPT.F                  :   
 GRR .GAPI   07 310 01 00:   GAMMA RAY
 RILD.OHMM   07 120 46 00:   INDUCTION LOG DEEP RESISTIVITY
 RILM.OHMM   07 120 44 00:   INDUCTION LOG MEDIUM RESISTIVITY
 SPR .MV     07 010 01 00:   SPONTANEOUS POTENTIAL
 RFOC.OHMM   07 270 04 00:   RESISTIVITY FOCUSED LOG
~PARAMETER INFORMATION
#MNEM.UNIT          VALUE    DESCRIPTION
#----------   ------------   ------------------------------
 PD  .                 GL:   PERMANENT DATUM
 EPD .F              5098:   ELEVATION PERMANENT DATUM
 LMF .                 KB:   LOG MEASURED FROM
 DAPD.F                10:   FEET ABOVE PERMANENT DATUM
 DMF .                 KB:   DRILLING MEASURED FROM
 EKB .F              5108:   KELLING BUSHING
 EGL .F              5098:   GROUND LEVEL
 DATE.        21-NOV-1991:   RUN DATE
 RUN .                  1:   RUN NUMBER
 DD  .F               939:   DEPTH DRILLER
 DL  .F               887:   DEPTH LOGGER
 BLI .F               884:   BOTTOM LOG INTERVAL
 CS  .IN            9.625:   CASING SIZE
 CBD .F                40:   CASING BOTTOM DRILLER
 CBL .F                47:   CASING BOTTOM LOGGER
 BS  .IN             8.75:   BIT SIZE
 BSD .F               939:   BIT SIZE AT DEPTH
 DFT .               LSND:   DRILLING FLUID TYPE
 MSS .            MUDTANK:   MUD SAMPLE SOURCE
 RMS .OHMM           0.32:   RESISTIVITY MUD SAMPLE
 MST .F                90:   MUD SAMPLE TEMPERATURE
 RMB .OHMM           0.27:   RESISTIVITY MUD AT BHT
 BHT .F               103:   BOTTOM HOLE TEMPERATURE
 TCS .HRS               2:   TIME CURCULATED STOPPED
 MRT .F               103:   MAXIMUM RECORDED TEMPERATURE
 LUN .            HL 6307:   LOGGING UNIT NUMBER
 LUL .             CASPER:   LOGGING UNIT LOCATION
 ENGI.            WADDELL:   RECORDING ENGINEER
 WITN.             STRONG:   WITNESSED BY
 CLNT.            A2DTECH:   CLIENT CODE
 ORIG.           5" PRINT:   ORIGIN OF DATA
 UWI .       490252247800:   UNIQUE WELL ID
 DICO. A2D Technologies, Inc.:   DIGITIZING COMPANY
~OTHER INFORMATION
~A    DEPT      GRR      RILD       RILM        SPR       RFOC   
# ...
  244.0000   100.2057     2.6662     3.7747   -45.7905     4.6905
  244.5000   103.8431     3.0599     3.9899   -45.4900     4.8560
  245.0000   107.4806     3.6167     4.2768   -45.1894     4.5270
  245.5000   108.8430     4.0709     4.6163   -44.8889     4.3703
  246.0000   106.1061     3.8752     4.7784   -44.5890     4.3385
  246.5000   106.1312     3.9833     4.8437   -44.4395     4.3680
  247.0000   109.5105     4.1232     4.7079   -44.1397     4.2166
  247.5000   111.5557     4.1795     4.6084   -44.1426     4.3349
  248.0000   111.0950     4.2365     4.4796   -43.9938     4.3645
  248.5000   108.3592     4.2344     4.3545   -43.9975     4.3630
  249.0000   106.0786     4.1740     4.2923   -44.0004     4.3296
  249.5000   104.7085     4.1144     4.2017   -44.1551     4.2106
  250.0000   104.7041     3.9995     4.1417   -44.9168     4.0085
  250.5000   107.8863     3.8607     3.9907   -45.6785     3.8429
  251.0000   107.1980     3.6494     3.8053   -46.2884     3.7099
  251.5000   104.9174     3.2578     3.6223   -46.4431     3.6574
  252.0000   102.4092     2.8357     3.3766   -46.9020     3.5557
  252.5000   101.9496     2.5885     3.1257   -46.9049     3.4563
  253.0000   102.8556     2.4130     2.7362   -46.9078     3.2348
  253.5000   105.7230     2.3130     2.6229   -46.7583     3.0040
  254.0000   108.3091     2.2800     2.6976   -46.6095     2.5395
  254.5000   108.7611     2.3112     2.9617   -46.3097     2.3346
  255.0000   107.8451     2.3591     3.3098   -45.7056     2.3503
  255.5000   106.2473     2.4465     3.7234   -45.0870     2.5731
  256.0000   104.1456     2.5936     3.9583   -44.0431     3.6995
  256.5000   102.5955     2.8132     4.1554   -43.2873     4.3132
  257.0000   102.3646     3.1451     4.3624   -42.8342     4.6241
  257.5000   106.6838     3.8772     4.5162   -42.9897     4.5587
  258.0000   109.8660     4.2793     4.6428   -43.2961     4.4010
  258.5000   109.6340     4.6795     4.7069   -43.6025     4.3358
  259.0000   107.8086     4.8788     4.7388   -44.0607     4.3073
  259.5000   105.7556     5.0159     4.7705   -44.5190     4.4279
  260.0000   106.2367     5.0857     4.6986   -44.6743     4.4890
  260.5000   107.7954     5.0490     4.6687   -45.1325     4.5513
  261.0000   105.9689     5.0480     4.5389   -45.2871     4.5181
  261.5000   104.8275     4.8738     4.3515   -45.5936     4.4541
  262.0000   106.4153     4.5646     4.1428   -45.9000     4.3302
  262.5000   107.7766     4.2071     3.8088   -46.1330     4.1488
  263.0000   109.8207     3.8145     3.4728   -46.3049     3.8698
  263.5000   112.0925     3.3633     3.0230   -46.5161     3.2486
  264.0000   113.6935     2.9655     3.1078   -46.5191     2.8439
  264.5000   115.0759     2.6147     3.4501   -46.3703     2.6698
  265.0000   116.1752     2.5779     3.6729   -45.8776     2.6878
  265.5000   115.0327     2.6136     3.8290   -44.7077     3.0686
  266.0000   111.6140     2.6528     3.9917   -43.6484     3.7833
  266.5000   108.6506     2.8014     4.1037   -43.0444     4.1131
  267.0000   105.2319     3.0244     4.1919   -42.7431     3.9984
  267.5000   102.2684     3.3111     4.3066   -42.5950     3.7537
  268.0000   103.8573     3.6250     4.4584   -42.7497     3.8055
  268.5000   105.6980     3.8325     4.5835   -42.7526     3.9673
  269.0000   106.8064     3.9957     4.6470   -42.7557     4.1361
  269.5000   106.8020     4.1699     4.7438   -43.0628     4.2820
  270.0000   105.8871     4.3127     4.8429   -43.3692     4.3715
  270.5000   104.9722     4.3423     4.8755   -43.6756     4.4010
  271.0000   106.7887     4.3110     4.9083   -44.1338     4.3384
  271.5000   109.7434     4.2801     4.7383   -44.4402     4.2771
  272.0000   114.5189     4.1905     4.5745   -44.7467     4.2166
  272.5000   117.7314     4.0178     4.3248   -44.7496     4.1569
  273.0000   118.6072     3.7987     4.1174   -44.6008     4.1268
  273.5000   117.6912     3.5611     3.9199   -44.6045     4.0970
  274.0000   113.1344     3.3485     3.7319   -44.7592     3.8462
  274.5000   104.7082     3.1881     3.5264   -44.7621     3.8172
  275.0000    99.2409     3.0567     3.3278   -44.9168     3.7035
  275.5000    96.2786     2.9307     3.1754   -45.0715     3.4124
  276.0000   101.9635     2.8494     3.3104   -44.7709     3.0082
  276.5000   109.5129     2.7897     3.5241   -44.4633     2.7849
  277.0000   112.1974     2.7310     3.6232   -43.8402     2.6885
  277.5000   109.0053     2.7089     3.6220   -43.4140     2.9641
  278.0000   102.8552     2.6922     3.6210   -43.2652     3.4078
  278.5000    98.7536     2.6917     3.5412   -42.9654     3.6027
  279.0000    99.4321     2.7101     3.3747   -42.9684     3.5232
  279.5000   100.7934     2.7286     3.1683   -43.1231     3.2878
  280.0000   100.5613     2.6343     3.0375   -43.4295     3.0226
  280.5000    98.9636     2.4561     2.9121   -43.8968     2.8375
  281.0000   101.1047     2.3051     2.7918   -44.4983     2.7779
  281.5000   105.5545     2.1500     2.6953   -44.8048     2.7968
  282.0000   109.4196     2.0045     2.5660   -45.2629     2.7980
  282.5000   111.6914     1.9763     2.4561   -45.5694     2.7171
  283.0000   109.6384     1.9898     2.3583   -45.7241     2.5290
  283.5000   110.3168     2.0457     2.3742   -45.8787     2.3457
  284.0000   111.9057     2.1180     2.8066   -45.7299     2.2021
  284.5000   110.3080     2.2236     3.3178   -45.4294     2.2325
  285.0000   105.4173     2.3890     3.5568   -44.9778     3.2550
  285.5000    98.4619     2.6651     3.7340   -44.5003     3.6646
  286.0000    97.3194     2.8176     3.8663   -44.1902     3.7675
  286.5000   100.0464     3.0420     3.9507   -43.7727     3.7929
  287.0000   100.9536     3.3537     4.0288   -43.4721     3.7885
  287.5000   101.6309     3.5457     4.0841   -43.0199     3.7641
  288.0000   105.0407     3.6200     3.9705   -42.7193     3.7109
  288.5000   109.5887     3.5688     3.8872   -43.0258     3.6778
  289.0000   112.0941     3.3915     3.7791   -43.6364     3.5815
  289.5000   111.5615     3.1242     3.6230   -44.0946     3.4819
  290.0000   108.8914     2.9745     3.5206   -44.7045     3.3147
  290.5000   108.6605     2.8519     3.2155   -45.3144     3.2001
  291.0000   111.3864     2.6405     3.0400   -45.9243     3.1316
  291.5000   112.0659     2.4278     2.9145   -46.2308     3.0883
  292.0000   111.8328     2.2012     2.7747   -46.6889     3.0234
  292.5000   112.0560     1.9799     2.5869   -46.8437     2.9188
  293.0000   113.8725     1.8478     2.2967   -46.9991     2.7401
  293.5000   116.4931     1.8604     2.1562   -47.3055     2.5545
  294.0000   123.4225     1.8994     2.3185   -47.1567     2.2836
  294.5000   128.4257     1.9802     2.6020   -46.7044     2.0273
  295.0000   128.8316     2.0936     2.9088   -45.9486     2.0126
  295.5000   119.3121     2.2289     3.2745   -45.1928     2.3628
  296.0000   105.1954     2.4402     3.8709   -44.7405     3.6943
  296.5000    99.9558     2.7143     3.9518   -44.4400     4.4292
  297.0000    98.7891     3.1803     4.0063   -44.2912     4.4594
  297.5000   100.6601     3.7598     4.2368   -43.9914     4.2748
  298.0000   103.3557     4.0591     4.6737   -43.6908     4.1558
  298.5000   105.6275     4.2320     4.8332   -43.5420     4.1258
  299.0000   107.8992     4.2311     4.9002   -43.6967     4.1536
  299.5000   110.3986     4.2599     4.9678   -43.8514     4.2109
  300.0000   113.3532     4.3189     5.1426   -44.1578     4.2690
  300.5000   114.9421     4.4755     5.3611   -44.6545     4.4193
  301.0000   114.7101     4.6943     5.5890   -45.5301     4.5752
  301.5000   113.3338     4.8941     5.7883   -46.1401     4.8033
  302.0000   112.6191     5.1025     5.7841   -46.4465     5.1857
  302.5000   112.4195     5.2094     5.7825   -46.6012     5.4062
  303.0000   112.6438     5.2452     5.7810   -46.7559     5.5580
  303.5000   111.9554     5.2438     5.7392   -46.7588     5.5174
  304.0000   111.7234     5.2048     5.7376   -46.7618     5.4015
  304.5000   116.5402     5.1330     5.7361   -46.6129     5.3624
