~VERSION INFORMATION
 VERS.                2.0:   CWLS LOG ASCII STANDARD - VERSION 2.0
 WRAP.                 NO:   ONE LINE PER DEPTH STEP
~WELL INFORMATION
#MNEM.UNIT      DATA TYPE    INFORMATION
#----------   ------------   ------------------------------
 STRT.F           40.0000:   START DEPTH
 STOP.F          596.0000:   STOP DEPTH
 STEP.F            0.5000:   STEP LENGTH
 NULL.          -999.2500:   NO VALUE
 COMP. FENIX & SCISSON INC:   COMPANY
 WELL. SX-15 N.O.R. #3 #51-15:   WELL
 FLD .             TEAPOT:   FIELD
 LOC .      S15 T38N R78W:   LOCATION
 CNTY.            NATRONA:   COUNTY
 STAT.            WYOMING:   STATE
 CTRY. UNITED STATES OF AMERICA:   COUNTRY
 SRVC.              Welex:   SERVICE COMPANY
 DATE.        12-MAR-1977:   LOGDATE
 API .       490251031100:   API NUMBER
~CURVE INFORMATION
#MNEM.UNIT       API CODE    CURVE DESCRIPTION
#----------   ------------   ------------------------------
 DEPT.F                  :   
 GRD .GAPI   45 310 01 00:   GAMMA RAY FROM DENSITY LOG
 CALD.IN     45 280 60 00:   CALIPER FROM DENSITY LOG
 CORR.G/C3   45 356 01 00:   DENSITY CORRECTION
 RHOB.G/C3   45 350 01 00:   BULK DENSITY
 DPOR.DEC    45 890 12 00:   DENSITY POROSITY SANDSTONE
 SGRD.OHMM   07 220 05 00:   SHALLOW GUARD RESISTIVITY
 ILD .OHMM   07 120 46 00:   INDUCTION LOG DEEP
 ILM .OHMM   07 120 44 00:   INDUCTION LOG MEDIUM
 SPR .MV     07 010 01 00:   SPONTANEOUS POTENTIAL
~PARAMETER INFORMATION
#MNEM.UNIT          VALUE    DESCRIPTION
#----------   ------------   ------------------------------
 PD  .                 GL:   PERMANENT DATUM
 EPD .F              5221:   ELEVATION PERMANENT DATUM
 LMF .                 GL:   LOG MEASURED FROM
 DMF .                 GL:   DRILLING MEASURED FROM
 EGL .F              5221:   GROUND LEVEL
 DATE.            3-12-77:   RUN DATE
 RUN .                  1:   RUN NUMBER
 DD  .F               600:   DEPTH DRILLER
 DL  .F               597:   DEPTH LOGGER
 BLI .F               596:   BOTTOM LOG INTERVAL
 TLI .F                45:   TOP LOG INTERVAL
 CS  .IN            8.625:   CASING SIZE
 CBD .F                46:   CASING BOTTOM DRILLER
 CBL .F                45:   CASING BOTTOM LOGGER
 BS  .IN            7.875:   BIT SIZE
 BSD .F               600:   BIT SIZE AT DEPTH
 DFT .            KCL-MUD:   DRILLING FLUID TYPE
 DFD .                8.9:   DRILLING FLUID DENSITY
 DFV .                 34:   DRILLING FLUID VISCOSITY
 MSS .            MUD PIT:   MUD SAMPLE SOURCE
 RMS .OHMM            .68:   RESISTIVITY MUD SAMPLE
 MST .F                40:   MUD SAMPLE TEMPERATURE
 RMF .OHMM            .57:   RESISTIVITY MUD FILTRATE SAMPLE
 MFST.F                40:   MUD FILTRATE SAMPLE TEMPERATURE
 RMC .OHMM            .78:   RESISTIVITY MUD CAKE
 MCST.F                40:   MUD CAKE SAMPLE TEMPERATURE
 MFSS.           MEASURED:   MUD FILTRATE SAMPLE SOURCE
 MCSS.           MEASURED:   MUD CAKE SAMPLE SOURCE
 RMB .OHMM            .41:   RESISTIVITY MUD AT BHT
 BHT .F                65:   BOTTOM HOLE TEMPERATURE
 TCS .HRS               3:   TIME CURCULATED STOPPED
 MRT .F                65:   MAXIMUM RECORDED TEMPERATURE
 LUN .                716:   LOGGING UNIT NUMBER
 LUL .             VERNAL:   LOGGING UNIT LOCATION
 ENGI.           CALLAHAN:   RECORDING ENGINEER
 WITN.         STUEBINGER:   WITNESSED BY
 CLNT.            A2DTECH:   CLIENT CODE
 ORIG.       2", 5" PRINT:   ORIGIN OF DATA
 UWI .       490251031100:   UNIQUE WELL ID
 DICO. A2D Technologies, Inc.:   DIGITIZING COMPANY
~OTHER INFORMATION
~A   DEPT       GRD        CALD     CORR       RHOB       DPOR       SGRD        ILD        ILM        SPR   
# ...
  478.0000    86.9241     7.8216     0.0702     2.3994     0.1581    18.6562    14.0905    17.9053   -47.9001
  478.5000    87.1996     7.8304     0.0720     2.4183     0.1473    18.3722    14.0889    17.7092   -47.9822
  479.0000    87.7020     7.8227     0.0687     2.4281     0.1380    20.3256    14.2358    17.3912   -48.0646
  479.5000    88.2100     7.8151     0.0653     2.4378     0.1315    24.3912    14.5342    18.2869   -48.1448
  480.0000    88.8036     7.8073     0.0619     2.4462     0.1252    33.7376    14.8389    21.5670   -48.1793
  480.5000    89.4048     7.7996     0.0585     2.4466     0.1235    40.3027    15.1499    25.7176   -48.0738
  481.0000    89.7909     7.7919     0.0549     2.4310     0.1341    26.0702    15.3078    27.1120   -47.9740
  481.5000    90.1738     7.7841     0.0593     2.4109     0.1449    21.9316    15.1606    22.6044   -47.8742
  482.0000    90.5529     7.7763     0.0658     2.3908     0.1690    19.0990    15.0483    19.2196   -47.7744
  482.5000    90.9322     7.7650     0.0724     2.3784     0.1673    19.4381    14.9368    20.5249   -47.6746
  483.0000    91.3118     7.7448     0.0793     2.3840     0.1641    19.9331    14.8262    23.3937   -47.5748
  483.5000    91.6914     7.7247     0.0736     2.3894     0.1610    20.1852    14.7163    23.2432   -47.4750
  484.0000    92.0709     7.7046     0.0648     2.3948     0.1579    20.1852    14.6182    22.4494   -47.3750
  484.5000    92.4505     7.6849     0.0559     2.3945     0.1573    20.1852    14.7578    20.1794   -47.2768
  485.0000    92.8300     7.6808     0.0511     2.3941     0.1585    19.9310    14.8863    18.1390   -47.2094
  485.5000    93.2096     7.7148     0.0563     2.4001     0.1585    19.7026    15.0307    16.4796   -47.2322
  486.0000    93.5892     7.7483     0.0617     2.4168     0.1497    19.4768    14.7691    15.2881   -47.2524
  486.5000    93.9687     7.7817     0.0535     2.4198     0.1420    19.2537    14.4877    14.2794   -47.2728
  487.0000    94.3489     7.8153     0.0424     2.4139     0.1475    19.0331    14.2111    13.3351   -47.2932
  487.5000    94.7291     7.8486     0.0312     2.4074     0.1530    18.8150    13.9397    12.4568   -47.3135
  488.0000    95.1061     7.8818     0.0205     2.4058     0.1513    18.5994    13.6736    11.7165   -47.3339
  488.5000    95.4071     7.9174     0.0232     2.4081     0.1478    18.3863    13.4125    12.9671   -47.3544
  489.0000    94.9501     7.9191     0.0264     2.4075     0.1465    18.1756    13.1565    13.0751   -47.3746
  489.5000    94.2826     7.8985     0.0295     2.4004     0.1511    18.0712    12.9053    13.1999   -47.3942
  490.0000    93.6100     7.8769     0.0347     2.3933     0.1567    18.2505    12.6587    13.3163   -47.3627
  490.5000    92.9945     7.8552     0.0402     2.3878     0.1622    18.3711    12.4155    14.4348   -47.2778
  491.0000    93.3874     7.8337     0.0457     2.3885     0.1607    18.4925    12.1537    16.1785   -47.1934
  491.5000    93.8607     7.8122     0.0511     2.3890     0.1607    18.6147    12.1483    15.9195   -47.1086
  492.0000    94.3328     7.7908     0.0525     2.3895     0.1604    18.7500    12.1338    15.5927   -47.0238
  492.5000    94.8046     7.7691     0.0482     2.3892     0.1593    18.6024    12.1221    16.5003   -46.9391
  493.0000    95.2746     7.7448     0.0440     2.3860     0.1582    18.4398    12.1102    17.5708   -46.8544
  493.5000    95.7404     7.7109     0.0396     2.3818     0.1630    18.2786    12.0984    17.9053   -46.7696
  494.0000    95.9069     7.6776     0.0415     2.3738     0.1706    18.1188    12.0865    17.3429   -46.6849
  494.5000    95.5640     7.6430     0.0466     2.3683     0.1664    18.0511    12.0747    16.9417   -46.6001
  495.0000    95.2299     7.6544     0.0516     2.3895     0.1599    18.0224    12.0628    17.1302   -46.5154
  495.5000    94.8971     7.6975     0.0477     2.3901     0.1582    17.9938    12.0510    17.3421   -46.4307
  496.0000    94.5646     7.7411     0.0424     2.3881     0.1601    17.9652    12.0159    17.7410   -46.3459
  496.5000    94.5962     7.7847     0.0371     2.3860     0.1619    17.9366    11.9577    17.5984   -46.2612
  497.0000    95.0176     7.8281     0.0321     2.3839     0.1637    17.9073    11.8998    17.4169   -46.1764
  497.5000    95.4384     7.8714     0.0289     2.3819     0.1656    17.8619    11.8422    17.3434   -46.0917
  498.0000    95.8616     7.8854     0.0340     2.3884     0.1579    17.8133    11.7849    17.2570   -46.0070
  498.5000    96.2848     7.8688     0.0425     2.4039     0.1490    17.7651    11.7278    17.4169   -45.9222
  499.0000    96.7076     7.8522     0.0502     2.4153     0.1452    17.6987    11.6708    17.2086   -45.8374
  499.5000    97.1320     7.8354     0.0503     2.4154     0.1465    17.5584    11.6086    17.0711   -45.7527
  500.0000    97.5524     7.8181     0.0482     2.4158     0.1442    17.4193    11.6451    16.9347   -45.6689
  500.5000    97.5051     7.8134     0.0458     2.4131     0.1435    17.2812    11.6856    16.7863   -45.5898
  501.0000    97.3749     7.8127     0.0434     2.4072     0.1472    17.1442    11.7262    16.2509   -45.5282
  501.5000    97.2435     7.8123     0.0411     2.4019     0.1521    17.0083    11.7668    15.7371   -45.4659
  502.0000    97.1099     7.8118     0.0387     2.4032     0.1497    16.9112    11.8077    16.0300   -45.4039
  502.5000    96.9971     7.8113     0.0363     2.4085     0.1467    16.8513    11.8486    15.3071   -45.3418
  503.0000    97.7166     7.8109     0.0339     2.4139     0.1471    16.7915    11.8897    14.4840   -45.2797
  503.5000    98.5427     7.8104     0.0304     2.4194     0.1420    16.7319    11.9345    14.5782   -45.2177
  504.0000    99.3708     7.8099     0.0260     2.4221     0.1420    16.6726    12.0123    14.6822   -45.1556
  504.5000   100.1886     7.8094     0.0221     2.4148     0.1464    16.6134    12.0980    14.7536   -45.0935
  505.0000   100.7448     7.8089     0.0184     2.4092     0.1505    16.5545    12.1566    14.3115   -45.0314
  505.5000   100.4073     7.8084     0.0185     2.4098     0.1464    16.4958    12.0709    13.9847   -44.9694
  506.0000   100.0897     7.8080     0.0297     2.4239     0.1371    16.4796    11.9080    13.6106   -44.9073
  506.5000    99.8242     7.8075     0.0389     2.4369     0.1320    16.4794    11.7473    13.1978   -44.8452
  507.0000   100.3869     7.8070     0.0330     2.4381     0.1327    16.4795    11.6090    12.7976   -44.7832
  507.5000   100.9601     7.8065     0.0269     2.4394     0.1319    16.4793    11.8020    12.6133   -44.7211
  508.0000   101.5280     7.8060     0.0207     2.4310     0.1373    16.4796    12.0135    12.4643   -44.6590
  508.5000   102.0951     7.8055     0.0146     2.4211     0.1427    16.6068    12.1566    12.0244   -44.5970
  509.0000   102.6621     7.8050     0.0085     2.4110     0.1482    16.7820    12.1566    11.6006   -44.5349
  509.5000   103.2297     7.8046     0.0069     2.4098     0.1493    16.9593    12.1202    11.0860   -44.4728
  510.0000   103.7987     7.8041     0.0099     2.4180     0.1393    17.1404    12.0515    11.2966   -44.4108
  510.5000   104.3621     7.8036     0.0205     2.4367     0.1303    17.2561    11.9835    11.5882   -44.3487
  511.0000   104.8237     7.8031     0.0312     2.4360     0.1352    16.9918    11.9159    11.8873   -44.2866
  511.5000   104.8177     7.8026     0.0421     2.4388     0.1260    16.7967    11.8487    12.1941   -44.2246
  512.0000   104.1634     7.8021     0.0384     2.4425     0.1281    16.6322    11.7818    12.5089   -44.1625
  512.5000   103.1078     7.8017     0.0308     2.4387     0.1318    16.7140    11.7154    12.8481   -44.1004
  513.0000   102.0599     7.8012     0.0233     2.4328     0.1356    16.7852    11.6493    12.7856   -44.0383
  513.5000   101.2230     7.8007     0.0220     2.4329     0.1378    16.4809    11.5836    12.7302   -43.9763
  514.0000   101.5290     7.8002     0.0355     2.4378     0.1306    16.0330    11.5185    12.8478   -43.9143
