~VERSION INFORMATION
 VERS.                2.0:   CWLS LOG ASCII STANDARD - VERSION 2.0
 WRAP.                 NO:   ONE LINE PER DEPTH STEP
~WELL INFORMATION
#MNEM.UNIT      DATA TYPE    INFORMATION
#----------   ------------   ------------------------------
 STRT.F            2.0000:   START DEPTH
 STOP.F          518.0000:   STOP DEPTH
 STEP.F            0.5000:   STEP LENGTH
 NULL.          -999.2500:   NO VALUE
 COMP. LAWRENCE/ALLISON INC:   COMPANY
 WELL.    54-51 SX #10-10:   WELL
 FLD .             TEAPOT:   FIELD
 LOC .      S10 T38N R78W:   LOCATION
 CNTY.            NATRONA:   COUNTY
 STAT.            WYOMING:   STATE
 CTRY. UNITED STATES OF AMERICA:   COUNTRY
 SRVC.            Unknown:   SERVICE COMPANY
 DATE.        14-AUG-1984:   LOGDATE
 API .       490251098800:   API NUMBER
~CURVE INFORMATION
#MNEM.UNIT       API CODE    CURVE DESCRIPTION
#----------   ------------   ------------------------------
 DEPT.F                  :   
 CALD.IN     45 280 60 00:   CALIPER
 DEN .G/C3   45 350 01 00:   COMPENSATED BULK DENSTIY
 CORR.G/C3   45 356 01 00:   DENSITY CORRECTION
 CNC .DEC    42 890 03 00:   NEUTRON POROSITY SANDSTONE
 PORD.DEC    45 890 12 00:   POROSITY DENSITY SANDSTONE
 GRR .GAPI   07 310 01 00:   GAMMA RAY FROM RES. LOG.
 RFOC.OHMM   07 220 04 00:   RESISTIVITY FOCUSED LOG
 RILD.OHMM   07 120 46 00:   INDUCTION LOG DEEP RESISTIVITY
 RILM.OHMM   07 120 44 00:   INDUCTION LOG MEDIUM RESISTIVITY
 AC  .US/F   60 520 00 00:   ACOUSTIC SONIC
 SPR .MV     07 010 01 00:   SPONTANEOUS POTENTIAL
~PARAMETER INFORMATION
#MNEM.UNIT          VALUE    DESCRIPTION
#----------   ------------   ------------------------------
 PD  .                 GL:   PERMANENT DATUM
 EPD .F              5197:   ELEVATION PERMANENT DATUM
 LMF .                 GL:   LOG MEASURED FROM
 DMF .                 GL:   DRILLING MEASURED FROM
 EGL .F              5197:   GROUND LEVEL
 DATE.        14-AUG-1984:   RUN DATE
 RUN .                  1:   RUN NUMBER
 DD  .F               530:   DEPTH DRILLER
 DL  .F               520:   DEPTH LOGGER
 BLI .F               518:   BOTTOM LOG INTERVAL
 CS  .IN            9.625:   CASING SIZE
 CBD .F                40:   CASING BOTTOM DRILLER
 CBL .F                42:   CASING BOTTOM LOGGER
 BS  .IN            7.875:   BIT SIZE
 BSD .F               530:   BIT SIZE AT DEPTH
 DFT .          KCL WATER:   DRILLING FLUID TYPE
 MSS .           FLOWLINE:   MUD SAMPLE SOURCE
 RMS .OHMM            .19:   RESISTIVITY MUD SAMPLE
 MST .F                80:   MUD SAMPLE TEMPERATURE
 RMB .OHMM            .17:   RESISTIVITY MUD AT BHT
 BHT .F                90:   BOTTOM HOLE TEMPERATURE
 TCS .HRS               4:   TIME CURCULATED STOPPED
 MRT .F                90:   MAXIMUM RECORDED TEMPERATURE
 LUN .               6274:   LOGGING UNIT NUMBER
 LUL .               GLTE:   LOGGING UNIT LOCATION
 ENGI.             RAUTIO:   RECORDING ENGINEER
 WITN.              FIVAS:   WITNESSED BY
 CLNT.            A2DTECH:   CLIENT CODE
 ORIG.       2", 5" PRINT:   ORIGIN OF DATA
 UWI .       490251098800:   UNIQUE WELL ID
 DICO. A2D Technologies, Inc.:   DIGITIZING COMPANY
~OTHER INFORMATION
~A    DEPT    CALD        DEN       CORR        CNC       PORD         GRR      RFOC       RILD       RILM         AC        SPR   
# ...
  185.0000     8.4306     2.4285    -0.0132     0.0676     0.1506   119.8515  -999.2500     7.6290     8.1026   217.9602    11.2347
  185.5000     8.4306     2.4248    -0.0288     0.0667     0.1530   120.7405  -999.2500     7.9222     8.2853   209.4761    12.3362
  186.0000     8.4306     2.4258    -0.0426     0.0658     0.1523   121.8117  -999.2500     8.1317     8.2818   210.7542    12.3755
  186.5000     8.4306     2.4262    -0.0338     0.0672     0.1516   122.8402  -999.2500     8.1027     8.2410   172.1786    11.8551
  187.0000     8.4306     2.4242    -0.0253     0.0681     0.1524   123.3040  -999.2500     8.0784     8.2034   161.0872    11.2001
  187.5000     8.4306     2.4223    -0.0168     0.0675     0.1532   124.5010  -999.2500     8.0578     8.1658   155.9291    10.5476
  188.0000     8.4306     2.4205    -0.0084     0.0681     0.1542   126.2952  -999.2500     7.9232     8.1321   154.5896     9.9068
  188.5000     8.4306     2.4186    -0.0009     0.0692     0.1566   126.0362  -999.2500     7.8029     8.0267   153.1738     9.2595
  189.0000     8.4306     2.4186    -0.0023     0.0703     0.1563   124.4072  -999.2500     7.6844     7.9111   148.0597     8.6571
  189.5000     8.4306     2.4203    -0.0050     0.0715     0.1553   122.7450  -999.2500     7.5561     7.7957   141.5506     8.7822
  190.0000     8.4306     2.4215    -0.0008     0.0705     0.1538   121.5674  -999.2500     7.3762     7.6953   140.1205     8.7895
  190.5000     8.4305     2.4179     0.0014     0.0675     0.1560   121.7948  -999.2500     7.1265     7.3535   139.7097     8.6576
  191.0000     8.4302     2.4136    -0.0109     0.0652     0.1588   122.4080  -999.2500     6.8380     7.0264   142.5247     8.2112
  191.5000     8.4294     2.4100    -0.0230     0.0640     0.1610   123.7247  -999.2500     6.6445     6.8416   110.7878     8.0597
  192.0000     8.4286     2.4166    -0.0314     0.0642     0.1564   124.3466  -999.2500     6.1081     6.5073   109.9000    10.5138
  192.5000     8.4278     2.4239    -0.0159     0.0648     0.1514   124.9587  -999.2500     5.6582     6.1081   109.7717    14.8156
  193.0000     8.4270     2.4244     0.0000     0.0643     0.1546   125.3510  -999.2500     5.2786     5.6582   110.2798    18.8080
  193.5000     8.4262     2.4114     0.0068     0.0598     0.1561   124.2729  -999.2500     4.9510     5.2413   111.6940    22.5502
  194.0000     8.4255     2.3986    -0.0008     0.0553     0.1714   123.5599  -999.2500     4.9530     5.0446   113.6365    26.2421
  194.5000     8.4247     2.3714    -0.0303     0.0509     0.1938   123.7933  -999.2500     4.9982     5.1716   116.5046    30.0048
  195.0000     8.4239     2.3407    -0.0105     0.0514     0.2040   122.4608  -999.2500     5.0469     5.2816   117.6617    30.3431
  195.5000     8.4231     2.3267     0.0220     0.0559     0.2115   119.7148  -999.2500     5.2117     5.4955   116.2624    29.0637
  196.0000     8.4223     2.3331     0.0351     0.0631     0.1906   118.3482  -999.2500     5.4042     5.8162   113.2255    27.5689
  196.5000     8.4215     2.3802     0.0209     0.0703     0.1661   120.1952  -999.2500     5.6582     6.1556   110.1337    29.2229
  197.0000     8.4207     2.4197     0.0070     0.0720     0.1503   122.1493  -999.2500     5.9240     6.5148   107.2357    32.7027
  197.5000     8.4199     2.4386     0.0071     0.0729     0.1413   123.6207  -999.2500     6.3155     6.8950   105.5613    37.3037
  198.0000     8.4192     2.4459     0.0086     0.0737     0.1384   124.6149  -999.2500     6.7852     7.2974   104.8640    41.9366
  198.5000     8.4184     2.4470     0.0155     0.0715     0.1370   125.7397  -999.2500     7.2899     7.7672   105.0775    46.7561
  199.0000     8.4176     2.4480     0.0222     0.0682     0.1367   127.0194  -999.2500     7.5993     7.7652   105.2911    48.9821
  199.5000     8.4168     2.4445     0.0244     0.0653     0.1385   127.5800  -999.2500     7.6901     7.8649   105.5224    49.8726
  200.0000     8.4160     2.4356     0.0130     0.0662     0.1405   127.2230  -999.2500     7.7819     7.9658   105.1910    49.9162
  200.5000     8.4152     2.4395    -0.0001     0.0673     0.1418   127.0437  -999.2500     7.8740     8.0681   104.8298    50.7060
  201.0000     8.4144     2.4478     0.0033     0.0672     0.1371   128.6914  -999.2500     7.9672     8.1716   104.4686    52.9813
  201.5000     8.4136     2.4565     0.0112     0.0671     0.1344   129.1838  -999.2500     8.0616     8.2765   104.3336    55.1720
  202.0000     8.4128     2.4543    -0.0001     0.0670     0.1370   128.5328  -999.2500     8.1570     8.4363   104.1961    56.5380
  202.5000     8.4120     2.4459    -0.0156     0.0682     0.1418   125.5952  -999.2500     8.2536     8.3760   104.0590    59.5470
  203.0000     8.4113     2.4370    -0.0214     0.0709     0.1453   123.3809  -999.2500     8.3497     8.2567   103.9308    62.4495
  203.5000     8.4125     2.4329    -0.0190     0.0737     0.1468   123.9429  -999.2500     8.4460     8.1391   104.0059    65.0929
  204.0000     8.4190     2.4290    -0.0254     0.0727     0.1487   125.0523  -999.2500     8.6323     8.0578   104.1998    67.3146
  204.5000     8.4254     2.4255    -0.0295     0.0697     0.1505   125.5413  -999.2500     8.9142     8.1016   104.4585    68.5419
  205.0000     8.4318     2.4251    -0.0186     0.0701     0.1514   122.4565  -999.2500     8.6549     8.1321   104.7172    69.7336
  205.5000     8.4382     2.4246    -0.0073     0.0707     0.1522   116.6268  -999.2500     8.3757     8.1321   104.9769    70.3125
  206.0000     8.4447     2.4212    -0.0145     0.0755     0.1543   106.7543  -999.2500     8.1321     6.9249   105.3089    70.4728
  206.5000     8.4500     2.4174    -0.0246     0.0872     0.1570    97.9306   142.7150     8.1089     5.9787   105.7375    70.6318
  207.0000     8.4468     2.4166    -0.0265     0.0997     0.1562    96.5462    56.9726     8.0833     6.3216   106.1661    70.7959
  207.5000     8.4435     2.4166    -0.0232     0.1117     0.1564    96.6846    15.7522     8.0578     6.6914   106.4735    70.9607
  208.0000     8.4403     2.4201    -0.0192     0.1391     0.1547    97.9771    10.8102     8.0323     7.0841   106.6084    71.1247
  208.5000     8.4370     2.4294    -0.0151     0.2165     0.1478    99.2439    11.4936     8.0069     7.6258   106.7023    71.2455
  209.0000     8.4337     2.4387    -0.0111     0.2598     0.1408    98.7448    12.2965     7.9841     7.5580   106.6317    71.1629
  209.5000     8.4305     2.4480    -0.0072     0.2994     0.1384    96.4222    13.1554     7.7687     7.4243   106.3969    71.0842
  210.0000     8.4272     2.4573    -0.0059     0.3023     0.1339    93.4874    13.9797     7.5778     7.2929   106.1188    71.0064
  210.5000     8.4239     2.4667    -0.0012     0.3052     0.1259    94.9786    14.4236     7.3917     7.1524   105.8406    70.9285
  211.0000     8.4206     2.4734     0.0211     0.3081     0.1223    96.0045    14.8395     7.2101     7.0352   105.5929    70.8504
  211.5000     8.4174     2.4793     0.0378     0.3086     0.1198    95.5183    15.2673     7.0857     6.8951   105.3682    70.7727
  212.0000     8.4141     2.4769     0.0280     0.3138     0.1212    94.9929    15.7522     6.8931     6.5355   105.6540    70.6959
  212.5000     8.4108     2.4697     0.0185     0.3262     0.1259    96.7745    14.3701     6.7059     6.1141   106.9154    70.6730
  213.0000     8.4075     2.4596     0.0136     0.3328     0.1313    98.9282    12.7698     6.6255     6.1147   108.8663    70.7646
  213.5000     8.4043     2.4444     0.0322     0.3365     0.1404    99.9090    11.1121     6.5876     6.1466   110.9205    70.8534
  214.0000     8.4010     2.4299     0.0491     0.3286     0.1498   100.2568    11.5865     6.5499     6.1735   112.2886    70.9446
  214.5000     8.3977     2.4282     0.0314     0.3180     0.1454   100.5662    12.5600     6.4366     6.0477   110.8226    71.0513
  215.0000     8.3945     2.4481     0.0091     0.3075     0.1374    99.9594    13.6201     6.1472     5.8718   109.5184    70.5790
