~VERSION INFORMATION
 VERS.                2.0:   CWLS LOG ASCII STANDARD - VERSION 2.0
 WRAP.                 NO:   ONE LINE PER DEPTH STEP
~WELL INFORMATION
#MNEM.UNIT      DATA TYPE    INFORMATION
#----------   ------------   ------------------------------
 STRT.F           30.0000:   START DEPTH
 STOP.F         1178.5000:   STOP DEPTH
 STEP.F            0.5000:   STEP LENGTH
 NULL.          -999.2500:   NO VALUE
 COMP. FENIX & SCISSON INC:   COMPANY
 WELL.     64-S-14 #14-14:   WELL
 FLD .        TEAPOT DOME:   FIELD
 LOC .      S14 T38N R78W:   LOCATION
 CNTY.            NATRONA:   COUNTY
 STAT.            WYOMING:   STATE
 CTRY. UNITED STATES OF AMERICA:   COUNTRY
 SRVC.            Unknown:   SERVICE COMPANY
 DATE.        19-APR-1978:   LOGDATE
 API .       490251061400:   API NUMBER
~CURVE INFORMATION
#MNEM.UNIT       API CODE    CURVE DESCRIPTION
#----------   ------------   ------------------------------
 DEPT.F                  :   
 SPR .MV     05 010 01 00:   SPONTANEOUS POTENTIAL
 SN  .OHMM   05 040 16 00:   SHORT NORMAL 16'
 ILD .OHMM   05 120 46 00:   INDUCTION LOG DEEP
 CALD.IN     45 280 60 00:   CALIPER
 GRD .GAPI   45 310 01 00:   GAMMA RAY FROM DENSITY LOG
 RHOB.G/C3   45 350 01 00:   BULK DENSITY
 DPHI.DEC    45 890 12 00:   DENSITY POROSITY SANDSTONE
 CORR.G/C3   45 356 01 00:   DENSITY CORRECTION
~PARAMETER INFORMATION
#MNEM.UNIT          VALUE    DESCRIPTION
#----------   ------------   ------------------------------
 PD  .                 GL:   PERMANENT DATUM
 EPD .F              5235:   ELEVATION PERMANENT DATUM
 LMF .                 KB:   LOG MEASURED FROM
 DMF .                 KB:   DRILLING MEASURED FROM
 EKB .F              5299:   KELLING BUSHING
 EGL .F              5295:   GROUND LEVEL
 DATE.          4-19-1978:   RUN DATE
 RUN .                  1:   RUN NUMBER
 DD  .F              1180:   DEPTH DRILLER
 DL  .F              1182:   DEPTH LOGGER
 BLI .F              1176:   BOTTOM LOG INTERVAL
 TLI .F                50:   TOP LOG INTERVAL
 CS  .IN            8.625:   CASING SIZE
 CBD .F                40:   CASING BOTTOM DRILLER
 CBL .F                50:   CASING BOTTOM LOGGER
 BS  .IN            7.875:   BIT SIZE
 BSD .F              1180:   BIT SIZE AT DEPTH
 DFT .                KCL:   DRILLING FLUID TYPE
 DFD .                8.7:   DRILLING FLUID DENSITY
 DFV .                 33:   DRILLING FLUID VISCOSITY
 DFPH.               10.5:   DRILLING FLUID PH
 DFL .               12.3:   DRILLING FLUID LOSS
 MSS .            MUD PIT:   MUD SAMPLE SOURCE
 RMS .OHMM            .54:   RESISTIVITY MUD SAMPLE
 MST .F                62:   MUD SAMPLE TEMPERATURE
 RMF .OHMM            .65:   RESISTIVITY MUD FILTRATE SAMPLE
 MFST.F                60:   MUD FILTRATE SAMPLE TEMPERATURE
 RMC .OHMM            .35:   RESISTIVITY MUD CAKE
 MCST.F                60:   MUD CAKE SAMPLE TEMPERATURE
 MFSS.           MEASURED:   MUD FILTRATE SAMPLE SOURCE
 RMB .OHMM            .42:   RESISTIVITY MUD AT BHT
 BHT .F                80:   BOTTOM HOLE TEMPERATURE
 TCS .HRS               2:   TIME CURCULATED STOPPED
 MRT .F                80:   MAXIMUM RECORDED TEMPERATURE
 LUN .               2955:   LOGGING UNIT NUMBER
 LUL .               CASP:   LOGGING UNIT LOCATION
 ENGI.             MILLER:   RECORDING ENGINEER
 WITN.           MCGINLEY:   WITNESSED BY
 CLNT.            A2DTECH:   CLIENT CODE
 ORIG.      2" & 5" PRINT:   ORIGIN OF DATA
 UWI .       490251061400:   UNIQUE WELL ID
 DICO. A2D Technologies, Inc.:   DIGITIZING COMPANY
~OTHER INFORMATION
~A   DEPT      SPR         SN        ILD       CALD         GRD      RHOB       DPHI       CORR   
# ...
 1002.0000   -39.9567     8.5107     8.1295     7.9048    82.7887     2.4109     0.1557     0.0160
 1002.5000   -39.9594     8.5063     8.1253     7.9516    84.3832     2.4105     0.1557     0.0200
 1003.0000   -39.9620     8.5020     8.1212     7.9655    85.1892     2.4106     0.1539     0.0238
 1003.5000   -39.9647     8.4976     8.1170     7.9706    84.5970     2.4187     0.1523     0.0252
 1004.0000   -39.9674     8.4932     8.1128     7.9642    84.0304     2.4220     0.1508     0.0204
 1004.5000   -39.9701     8.4888     8.1086     7.9573    83.4737     2.4140     0.1555     0.0149
 1005.0000   -39.9728     8.4845     8.1045     7.9504    81.4914     2.4059     0.1581     0.0178
 1005.5000   -39.9755     8.4801     8.1003     7.9435    78.9995     2.4096     0.1535     0.0235
 1006.0000   -39.9782     8.4758     8.0961     7.9364    76.4966     2.4193     0.1490     0.0287
 1006.5000   -39.9809     8.4714     8.0920     7.9315    73.9915     2.4265     0.1448     0.0280
 1007.0000   -39.9835     8.4670     8.0878     7.9724    71.4744     2.4285     0.1448     0.0275
 1007.5000   -39.9862     8.4627     8.0837     8.0147    70.9642     2.4285     0.1465     0.0269
 1008.0000   -39.9889     8.4583     8.0795     8.0579    72.4706     2.4278     0.1483     0.0266
 1008.5000   -39.9916     8.4540     8.0754     8.0480    74.0813     2.4237     0.1500     0.0274
 1009.0000   -39.9943     8.4514     8.0729     8.0175    74.2864     2.4282     0.1447     0.0281
 1009.5000   -39.9970     8.4540     8.0753     7.9864    72.6820     2.4382     0.1416     0.0296
 1010.0000   -39.9997     8.4564     8.0777     7.9551    70.9328     2.4348     0.1392     0.0365
 1010.5000   -40.0023     8.4589     8.0800     7.9072    69.7400     2.4427     0.1357     0.0486
 1011.0000   -40.0050     8.4613     8.0823     7.7815    68.5569     2.4510     0.1336     0.0566
 1011.5000   -40.0077     8.4638     8.0847     7.6573    67.8184     2.4532     0.1319     0.0531
 1012.0000   -40.0104     8.4662     8.0870     7.5334    71.1274     2.4539     0.1320     0.0439
 1012.5000   -40.0131     8.4687     8.0894     7.4697    74.0866     2.4506     0.1350     0.0405
 1013.0000   -40.0158     8.4711     8.0917     7.5347    74.2047     2.4474     0.1379     0.0454
 1013.5000   -40.0185     8.4736     8.0940     7.6611    74.2514     2.4444     0.1388     0.0526
 1014.0000   -40.0211     8.4760     8.0964     7.7884    75.9170     2.4455     0.1376     0.0666
 1014.5000   -40.0238     8.4785     8.0987     7.9252    78.0030     2.4490     0.1352     0.0812
 1015.0000   -40.0265     8.4809     8.1011     7.9912    79.1200     2.4536     0.1328     0.0827
 1015.5000   -40.0292     8.4834     8.1034     7.9900    73.8267     2.4564     0.1304     0.0850
 1016.0000   -40.0319     8.4858     8.1058     7.9901    69.7089     2.4532     0.1320     0.0961
 1016.5000   -40.0346     8.4883     8.1081     7.9899    72.3730     2.4515     0.1328     0.1073
 1017.0000   -40.0373     8.4907     8.1104     7.9793    75.0753     2.4596     0.1263     0.1060
 1017.5000   -40.0400     8.4932     8.1128     7.9427    72.4274     2.4700     0.1224     0.0904
 1018.0000   -40.0426     8.4957     8.1151     7.9066    69.8031     2.4608     0.1305     0.0748
 1018.5000   -40.0453     8.4981     8.1175     7.8704    67.4893     2.4569     0.1296     0.0661
 1019.0000   -40.0480     8.5006     8.1198     7.8343    67.9557     2.4573     0.1326     0.0600
 1019.5000   -40.0507     8.5030     8.1222     7.7981    70.5368     2.4514     0.1352     0.0586
 1020.0000   -40.0534     8.5055     8.1245     7.7620    72.9012     2.4517     0.1348     0.0593
 1020.5000   -40.0549     8.5079     8.1269     7.7258    73.3192     2.4564     0.1318     0.0623
 1021.0000   -40.0549     8.5104     8.1292     7.6896    73.5300     2.4574     0.1291     0.0652
 1021.5000   -40.0550     8.5129     8.1316     7.6537    75.1040     2.4624     0.1263     0.0681
 1022.0000   -40.0550     8.5153     8.1339     7.6302    76.6548     2.4683     0.1236     0.0710
 1022.5000   -40.0550     8.5178     8.1363     7.6605    75.0829     2.4659     0.1261     0.0741
 1023.0000   -40.0550     8.5201     8.1385     7.6927    74.1146     2.4595     0.1286     0.0775
 1023.5000   -40.0550     8.5227     8.1410     7.7249    73.8832     2.4543     0.1312     0.0811
 1024.0000   -40.0550     8.5266     8.1447     7.7293    73.9051     2.4541     0.1324     0.0852
 1024.5000   -40.0550     8.5298     8.1381     7.7083    74.0935     2.4538     0.1320     0.0887
 1025.0000   -40.0550     8.6080     8.2217     7.7120    74.7888     2.4532     0.1363     0.0886
 1025.5000   -40.0550     8.6039     8.2217     7.7591    75.5683     2.4450     0.1408     0.0889
 1026.0000   -40.0550     8.6795     8.2974     7.8045    76.3624     2.4363     0.1425     0.0901
 1026.5000   -40.0550     8.7664     8.3738     7.8495    76.6789     2.4321     0.1396     0.0842
 1027.0000   -40.0550     8.8471     8.4508     7.8953    75.8843     2.4294     0.1491     0.0659
 1027.5000   -40.0550     8.9286     8.5287     7.9464    75.0682     2.4062     0.1601     0.0482
 1028.0000   -40.0550     9.0108     8.6072     7.9487    72.3506     2.3808     0.1712     0.0425
 1028.5000   -40.0550     9.1774     8.7664     7.9002    68.3835     2.3599     0.1786     0.0538
 1029.0000   -40.0550     9.2619     8.8471     7.8516    66.1520     2.3451     0.1834     0.0635
 1029.5000   -40.0550     9.3560     9.1237     7.8014    65.6884     2.3382     0.1882     0.0668
 1030.0000   -40.0550     9.5529     9.5442     7.7896    65.6958     2.3396     0.1944     0.0676
 1030.5000   -40.0550     9.7539     9.9842     7.8041    65.7023     2.3428     0.1875     0.0655
 1031.0000   -40.0550     9.9592    10.4444     7.8216    65.4465     2.3435     0.1899     0.0657
 1031.5000   -40.0550    10.1688    10.9258     7.9164    63.7435     2.3433     0.1887     0.0725
 1032.0000   -40.0550    10.3829    11.4294     7.9005    60.8193     2.3537     0.1831     0.0802
 1032.5000   -40.0550    10.6013    11.9591     7.8085    58.1558     2.3646     0.1775     0.0768
 1033.0000   -40.0550    10.9228    12.5376     7.7875    57.9049     2.3686     0.1737     0.0746
 1033.5000   -40.0550    10.9136    12.6528     7.8369    57.6989     2.3705     0.1740     0.0774
 1034.0000   -40.0550    10.8975    12.6519     7.8422    59.6203     2.3691     0.1733     0.0836
 1034.5000   -40.0550    10.8814    12.6496     7.8279    63.2970     2.3823     0.1641     0.0711
 1035.0000   -40.0550    10.8651    12.6481     7.8132    67.0057     2.3869     0.1645     0.0506
 1035.5000   -40.0550    10.8489    12.6481     7.7985    69.0855     2.3713     0.1754     0.0343
 1036.0000   -40.0550    10.8327    12.6481     7.7837    69.5825     2.3551     0.1845     0.0350
 1036.5000   -40.0550    10.8165    12.6481     7.7710    68.4355     2.3468     0.1893     0.0410
 1037.0000   -40.0550    10.8004    12.4184     7.7887    66.5036     2.3631     0.1800     0.0424
 1037.5000   -40.0550    10.7843    12.1789     7.8070    65.5026     2.3668     0.1788     0.0405
 1038.0000   -40.0550    10.7682    11.9529     7.8252    65.8591     2.3742     0.1685     0.0353
 1038.5000   -40.0550    10.7523    11.7310     7.8601    67.0557     2.3788     0.1716     0.0261
 1039.0000   -40.0550    10.7358    11.5133     7.9020    68.2716     2.3714     0.1769     0.0252
 1039.5000   -40.0550    10.7256    11.2997     7.9098    68.6165     2.3667     0.1771     0.0260
 1040.0000   -40.0550    10.7959    11.0899     7.8939    65.9719     2.3700     0.1759     0.0244
 1040.5000   -40.0550    10.8515    10.8841     7.8533    63.2035     2.3734     0.1747     0.0200
 1041.0000   -40.0550    10.9075    10.6821     7.8131    61.9088     2.3768     0.1735     0.0155
 1041.5000   -40.0550    10.9637    10.6059     7.7728    63.6348     2.3774     0.1730     0.0111
 1042.0000   -40.0550    11.0236    10.5771     7.7323    65.4703     2.3729     0.1756     0.0085
