~VERSION INFORMATION
 VERS.                2.0:   CWLS LOG ASCII STANDARD - VERSION 2.0
 WRAP.                 NO:   ONE LINE PER DEPTH STEP
~WELL INFORMATION
#MNEM.UNIT      DATA TYPE    INFORMATION
#----------   ------------   ------------------------------
 STRT.F            8.0000:   START DEPTH
 STOP.F          513.0000:   STOP DEPTH
 STEP.F            0.5000:   STEP LENGTH
 NULL.          -999.2500:   NO VALUE
 COMP. LAWRENCE-ALLISON &AS:   COMPANY
 WELL. NPR 3 #51-63SX10UP3:   WELL
 FLD .             TEAPOT:   FIELD
 LOC .      S10 T38N R78W:   LOCATION
 CNTY.            NATRONA:   COUNTY
 STAT.            WYOMING:   STATE
 CTRY. UNITED STATES OF AMERICA:   COUNTRY
 SRVC.      Dresser Atlas:   SERVICE COMPANY
 DATE.        09-DEC-1984:   LOGDATE
 API .       490251099400:   API NUMBER
~CURVE INFORMATION
#MNEM.UNIT       API CODE    CURVE DESCRIPTION
#----------   ------------   ------------------------------
 DEPT.F                  :   
 RFOC.OHMM   07 220 01 00:   RESISTIVITY FOCUSED LOG
 RILD.OHMM   07 120 46 00:   INDUCTION LOG DEEP RESISTIVITY
 RILM.OHMM   07 120 44 00:   RESITIVITY LONG MEDIUM
 SPR .MV     07 010 01 00:   SPONTANEOUS POTENTIAL
 CALD.IN     45 280 60 00:   CALIPER FROM DENSITY LOG
 CORR.none               :   
 DEN .G/C3   45 350 01 00:   COMPENSATED BULK DENSTIY
 GRD .GAPI   45 310 01 00:   GAMMA RAY FROM DENSITY LOG
 PORD.DEC    45 890 12 00:   POROSITY DENSITY SANDSTONE
 CNC .DEC    42 890 03 00:   NEUTRON POROSITY SANDSTONE
~PARAMETER INFORMATION
#MNEM.UNIT          VALUE    DESCRIPTION
#----------   ------------   ------------------------------
 PD  .                 GL:   PERMANENT DATUM
 EPD .F              5162:   ELEVATION PERMANENT DATUM
 LMF .                 GL:   LOG MEASURED FROM
 DMF .                 GL:   DRILLING MEASURED FROM
 EGL .F              5162:   GROUND LEVEL
 DATE.        09-DEC-1984:   RUN DATE
 RUN .                  1:   RUN NUMBER
 DD  .F               510:   DEPTH DRILLER
 DL  .F               515:   DEPTH LOGGER
 BLI .F               513:   BOTTOM LOG INTERVAL
 TLI .F                20:   TOP LOG INTERVAL
 CS  .IN            8.625:   CASING SIZE
 CBD .F                20:   CASING BOTTOM DRILLER
 CBL .F                20:   CASING BOTTOM LOGGER
 BS  .IN            7.875:   BIT SIZE
 BSD .F               510:   BIT SIZE AT DEPTH
 DFT .          KCL-WATER:   DRILLING FLUID TYPE
 MSS .            MUDTANK:   MUD SAMPLE SOURCE
 RMS .OHMM           0.41:   RESISTIVITY MUD SAMPLE
 MST .F                45:   MUD SAMPLE TEMPERATURE
 RMF .OHMM           0.31:   RESISTIVITY MUD FILTRATE SAMPLE
 MFST.F                45:   MUD FILTRATE SAMPLE TEMPERATURE
 RMC .OHMM           0.51:   RESISTIVITY MUD CAKE
 MCST.F                45:   MUD CAKE SAMPLE TEMPERATURE
 MFSS.               CALC:   MUD FILTRATE SAMPLE SOURCE
 MCSS.               CALC:   MUD CAKE SAMPLE SOURCE
 RMB .OHMM           0.22:   RESISTIVITY MUD AT BHT
 BHT .F                85:   BOTTOM HOLE TEMPERATURE
 TCS .HRS               2:   TIME CURCULATED STOPPED
 MRT .F               100:   MAXIMUM RECORDED TEMPERATURE
 LUN .               6270:   LOGGING UNIT NUMBER
 LUL .                 FM:   LOGGING UNIT LOCATION
 ENGI.          E. GOVETT:   RECORDING ENGINEER
 WITN.              LUERS:   WITNESSED BY
 CLNT.            A2DTECH:   CLIENT CODE
 ORIG.           5" PRINT:   ORIGIN OF DATA
 UWI .       490251099400:   UNIQUE WELL ID
 DICO. A2D Technologies, Inc.:   DIGITIZING COMPANY
~OTHER INFORMATION
~A    DEPT    RFOC       RILD       RILM        SPR       CALD       CORR        DEN        GRD       PORD          CNC 
# ...
  309.5000    15.7924    13.5605    15.1272   -35.5559     8.2053     0.0141     2.4055    78.7107     0.1638     0.2516
  310.0000    15.8012    13.3786    15.1347   -35.5423     8.1898     0.0034     2.4077    80.5108     0.1594     0.2441
  310.5000    15.8100    13.2913    15.2491   -35.6782     8.1893    -0.0012     2.4130    83.3635     0.1576     0.2319
  311.0000    15.8188    13.1629    15.2563   -35.8128     8.1889     0.0063     2.4161    85.9154     0.1567     0.2390
  311.5000    15.9396    13.0274    15.3682   -36.0945     8.1884     0.0062     2.4207    83.8058     0.1552     0.2463
  312.0000    15.9483    12.9424    15.0582   -36.3785     8.1728     0.0137     2.4258    83.1998     0.1531     0.2503
  312.5000    15.8443    12.7701    14.7563   -36.5527     8.1724     0.0334     2.4303    82.5939     0.1504     0.2493
  313.0000    15.8540    12.6855    14.6593   -36.9466     8.1719     0.0424     2.4356    82.5895     0.1474     0.2475
  313.5000    15.7517    12.6920    14.4655   -37.3825     8.1715     0.0393     2.4409    83.6798     0.1437     0.2484
  314.0000    15.7624    12.6079    14.4724   -37.8151     8.1711     0.0423     2.4492    86.6006     0.1389     0.2490
  314.5000    15.7710    12.7024    14.5803   -38.0992     8.1706     0.0513     2.4560    89.6439     0.1346     0.2451
  315.0000    15.6703    12.7076    14.8981   -38.5285     8.1702     0.0406     2.4552    86.1797     0.1337     0.2417
  315.5000    15.6788    12.7128    15.1235   -38.6640     8.1697     0.0314     2.4521    83.9196     0.1365     0.2399
  316.0000    15.7968    12.8962    15.4379   -38.7994     8.1693     0.0316     2.4490    82.7122     0.1390     0.2451
  316.5000    16.2607    12.9915    15.5511   -38.4760     8.1839     0.0343     2.4483    81.8055     0.1402     0.2503
  317.0000    16.8549    13.0876    15.3437   -38.1783     8.1834     0.0297     2.4513    81.1996     0.1362     0.2488
  317.5000    17.3214    13.1845    15.2200   -38.0138     8.1830     0.0281     2.4575    80.7440     0.1326     0.2491
  318.0000    16.6229    13.3759    14.9389   -37.7035     8.1825     0.0311     2.4474    81.7922     0.1335     0.2522
  318.5000    16.0638    13.4747    14.7380   -37.3932     8.1820     0.0325     2.4329    83.7427     0.1402     0.2534
  319.0000    15.8485    13.2927    14.5414   -37.3801     8.1816     0.0320     2.4222    85.9939     0.1518     0.2531
  319.5000    15.8593    13.1144    14.1511   -37.5188     8.1812     0.0308     2.4123    88.3955     0.1584     0.2531
  320.0000    15.8680    13.0288    13.8656   -37.8029     8.1506     0.0307     2.4077    88.3609     0.1621     0.2534
  320.5000    15.7645    12.8553    13.4875   -37.9383     8.1351     0.0261     2.4047    86.9900     0.1645     0.2531
  321.0000    15.7752    12.7701    13.1180   -37.7733     8.1331     0.0224     2.4099    86.4262     0.1621     0.2550
  321.5000    15.7838    12.5128    12.5993   -37.4630     8.1191     0.0184     2.4183    85.5195     0.1570     0.2574
  322.0000    15.5744    12.3450    12.2596   -37.4499     8.1186     0.0122     2.4228    82.8083     0.1527     0.2580
  322.5000    15.3677    12.1794    11.9291   -37.2882     8.1145     0.0076     2.4197    79.7964     0.1531     0.2526
  323.0000    15.3765    12.0988    11.6075   -36.9777     8.1027     0.0044     2.4170    78.5889     0.1561     0.2471
  323.5000    15.3866    12.0209    11.2946   -36.7989     8.0872     0.0029     2.4151    80.5394     0.1582     0.2437
  324.0000    15.5370    11.9425    10.9140   -36.6511     8.0867     0.0195     2.4200    83.5425     0.1570     0.2545
  324.5000    15.6190    12.1160    10.6938   -36.4894     8.0712     0.0422     2.4325    84.8926     0.1504     0.2689
  325.0000    15.7354    12.3766    10.4781   -36.1791     8.0708     0.0497     2.4423    82.4810     0.1437     0.2714
  325.5000    15.8549    12.7310    10.3384   -35.8688     8.0703     0.0466     2.4445    80.9728     0.1407     0.2563
  326.0000    16.6545    13.1870    10.3433   -35.2613     8.0699     0.0435     2.4452    80.0661     0.1398     0.2469
  326.5000    17.7394    13.7547    10.5084   -34.6538     8.0845     0.0449     2.4467    81.6034     0.1401     0.2536
  327.0000    18.7641    14.5478    11.1772   -34.0463     8.0689     0.0540     2.4459    84.3519     0.1401     0.2639
  327.5000    19.9863    16.0425    11.9044   -33.4388     8.0836     0.0448     2.4330    86.5190     0.1425     0.2715
  328.0000    21.5862    19.7735    12.7674   -32.8314     8.0831     0.0356     2.3912    82.0022     0.1538     0.2831
  328.5000    23.8476    23.0530    13.6930   -32.2239     8.0827     0.0386     2.3494    75.3813     0.1825     0.2928
  329.0000    25.4160    24.8964    14.5840   -31.9136     8.0822     0.0552     2.3251    69.5122     0.1982     0.2956
  329.5000    27.0116    26.1691    15.2123   -31.6032     8.0968     0.0718     2.3158    67.5529     0.2154     0.2965
  330.0000    29.1739    27.0861    15.0094   -31.1441     8.0963     0.0793     2.3105    67.3981     0.2194     0.2862
  330.5000    31.0742    25.4553    14.7067   -30.6642     8.1065     0.0561     2.3113    67.9951     0.2218     0.2758
  331.0000    32.8691    24.5952    14.4099   -30.2233     8.1105     0.0315     2.3203    69.1937     0.2182     0.2740
  331.5000    35.2544    23.9300    14.1194   -29.7644     8.1252     0.0199     2.3302    70.6930     0.2137     0.2759
  332.0000    37.2856    23.7714    15.4266   -29.7266     8.1398     0.0289     2.3317    70.8812     0.2094     0.2762
  332.5000    35.5390    24.2851    19.4602   -29.4409     8.1490     0.0288     2.3263    69.3308     0.2061     0.2513
  333.0000    33.8696    24.6355    23.8178   -29.4278     8.1539     0.0348     2.3217    68.8752     0.2131     0.2340
  333.5000    33.1883    25.1653    27.5743   -29.5665     8.1535     0.0424     2.3186    69.9849     0.2186     0.2209
  334.0000    32.9767    25.5283    28.5597   -29.5501     8.1530     0.0469     2.3368    71.7235     0.2243     0.2177
  334.5000    35.1662    25.7170    26.2897   -29.5370     8.1525     0.0285     2.3596    70.5150     0.1998     0.2559
  335.0000    37.4128    25.3721    24.3660   -29.5239     8.1370     0.0178     2.3650    69.9091     0.1903     0.2839
  335.5000    35.9041    25.2065    21.2136   -29.6597     8.1366     0.0102     2.3473    71.1077     0.1889     0.2895
  336.0000    35.4277    24.8684    18.2140   -30.5377     8.1210     0.0207     2.3265    74.5619     0.2101     0.3003
  336.5000    34.7201    24.5058    17.3572   -31.5676     8.1206     0.0374     2.3181    76.2127     0.2159     0.3042
  337.0000    33.7864    24.0404    16.7723   -32.3081     8.1352     0.0282     2.3214    73.8011     0.2144     0.3024
  337.5000    32.6501    23.7156    16.9372   -32.8757     8.1347     0.0175     2.3259    71.2403     0.2117     0.3021
  338.0000    31.9894    23.2376    19.2766   -33.1598     8.1343     0.0113     2.3282    70.1833     0.2099     0.3006
  338.5000    31.5649    22.9236    21.7251   -33.5924     8.1339     0.0223     2.3296    69.5773     0.2090     0.2854
  339.0000    31.3669    22.6161    22.5015   -33.8732     8.1334     0.0339     2.3319    69.4225     0.2075     0.2773
  339.5000    30.5241    22.4685    21.8975   -34.0119     8.1329     0.0354     2.3379    70.1955     0.2051     0.2776
  340.0000    28.8887    22.4800    21.0130   -34.1474     8.1325     0.0277     2.3470    72.4812     0.2014     0.2791
  340.5000    27.9013    22.4892    19.7481   -34.4281     8.1306     0.0216     2.3477    72.1149     0.1975     0.2770
  341.0000    27.1664    22.4984    17.4338   -34.5669     8.1165     0.0184     2.3462    70.6067     0.1981     0.2709
  341.5000    26.9929    22.5077    16.1581   -34.5504     8.1010     0.0260     2.3492    69.7001     0.1966     0.2584
  342.0000    26.8205    22.1977    15.5055   -34.3887     8.0855     0.0396     2.3576    70.4475     0.1932     0.2473
  342.5000    26.4646    21.9745    15.1927   -34.2270     8.0700     0.0501     2.3644    73.3002     0.1886     0.2378
