~VERSION INFORMATION
 VERS.                2.0:   CWLS LOG ASCII STANDARD - VERSION 2.0
 WRAP.                 NO:   ONE LINE PER DEPTH STEP
~WELL INFORMATION
#MNEM.UNIT      DATA TYPE    INFORMATION
#----------   ------------   ------------------------------
 STRT.F           18.0000:   START DEPTH
 STOP.F         2312.0000:   STOP DEPTH
 STEP.F            0.5000:   STEP LENGTH
 NULL.          -999.2500:   NO VALUE
 COMP. FENIX & SCISSON INC:   COMPANY
 WELL.  NPR 3 #51 SHX -15:   WELL
 FLD .             TEAPOT:   FIELD
 LOC .      S15 T38N R78W:   LOCATION
 CNTY.            NATRONA:   COUNTY
 STAT.            WYOMING:   STATE
 CTRY. UNITED STATES OF AMERICA:   COUNTRY
 SRVC.            Unknown:   SERVICE COMPANY
 DATE.        14-MAR-1978:   LOGDATE
 API .       490251060000:   API NUMBER
~CURVE INFORMATION
#MNEM.UNIT       API CODE    CURVE DESCRIPTION
#----------   ------------   ------------------------------
 DEPT.F                  :   
 ILD .OHMM   05 120 46 00:   INDUCTION LOG DEEP
 CILD.MMHO   05 110 46 00:   CONDUCTIVITY INDUCTION LOG DEEP
 CALD.IN     45 280 60 00:   CALIPER FROM DENSITY LOG
 GRD .GAPI   45 310 01 00:   GAMMA RAY FROM DENSITY LOG
 CORR.G/C3   45 356 01 00:   DENSITY CORRECTION
 RHOB.G/C3   45 350 01 00:   BULK DENSITY
 DPHI.DEC    45 890 12 00:   DENSITY POROSITY SANDSTONE
~PARAMETER INFORMATION
#MNEM.UNIT          VALUE    DESCRIPTION
#----------   ------------   ------------------------------
 PD  .                 GL:   PERMANENT DATUM
 EPD .F              5223:   ELEVATION PERMANENT DATUM
 LMF .                 KB:   LOG MEASURED FROM
 DAPD.F                10:   FEET ABOVE PERMANENT DATUM
 DMF .                 KB:   DRILLING MEASURED FROM
 EKB .F              5233:   KELLING BUSHING
 EGL .F              5223:   GROUND LEVEL
 DATE.            3-14-78:   RUN DATE
 RUN .                  1:   RUN NUMBER
 DD  .F              2323:   DEPTH DRILLER
 DL  .F              2314:   DEPTH LOGGER
 BLI .F              2312:   BOTTOM LOG INTERVAL
 TLI .F                20:   TOP LOG INTERVAL
 CS  .IN                9:   CASING SIZE
 CBD .F               680:   CASING BOTTOM DRILLER
 CBL .F               682:   CASING BOTTOM LOGGER
 BS  .IN            7.875:   BIT SIZE
 BSD .F              2323:   BIT SIZE AT DEPTH
 DFT .           AIR MIST:   DRILLING FLUID TYPE
 TCS .HRS               2:   TIME CURCULATED STOPPED
 LUN .               2958:   LOGGING UNIT NUMBER
 LUL .               CASP:   LOGGING UNIT LOCATION
 ENGI.             MILLER:   RECORDING ENGINEER
 WITN.           MCGINLEY:   WITNESSED BY
 CLNT.            A2DTECH:   CLIENT CODE
 ORIG.       2", 5" PRINT:   ORIGIN OF DATA
 UWI .       490251060000:   UNIQUE WELL ID
 DICO. A2D Technologies, Inc.:   DIGITIZING COMPANY
~OTHER INFORMATION
~A   DEPT      ILD       CILD       CALD         GRD      CORR       RHOB       DPHI   
# ...
 1201.0000  -999.2500  -999.2500     9.7926    77.9438    -0.0001     2.4946     0.0962
 1201.5000  -999.2500  -999.2500     9.7917    68.8616     0.0010     2.4923     0.0997
 1202.0000  -999.2500  -999.2500     9.7910    60.9292     0.0022     2.4868     0.1012
 1202.5000  -999.2500  -999.2500     9.7902    61.1205     0.0033     2.4844     0.0966
 1203.0000  -999.2500  -999.2500     9.7894    65.9279     0.0045     2.4939     0.0934
 1203.5000  -999.2500  -999.2500     9.7886    67.9389     0.0056     2.5026     0.0907
 1204.0000  -999.2500  -999.2500     9.7878    69.4788     0.0056     2.5086     0.0898
 1204.5000  -999.2500  -999.2500     9.7869    71.7118     0.0015     2.5124     0.0920
 1205.0000  -999.2500  -999.2500     9.7861    72.5516    -0.0025     2.4993     0.0920
 1205.5000  -999.2500  -999.2500     9.7855    69.5014    -0.0056     2.4985     0.0901
 1206.0000  -999.2500  -999.2500     9.7919    68.5696    -0.0059     2.5096     0.0883
 1206.5000  -999.2500  -999.2500     9.8235    67.4031    -0.0062     2.5103     0.0900
 1207.0000  -999.2500  -999.2500     9.8546    64.9902    -0.0066     2.5072     0.0895
 1207.5000  -999.2500  -999.2500     9.8837    63.3473    -0.0070     2.5107     0.0888
 1208.0000  -999.2500  -999.2500     9.8878    63.5487    -0.0073     2.5119     0.0906
 1208.5000  -999.2500  -999.2500     9.8911    64.6543    -0.0077     2.5054     0.0929
 1209.0000  -999.2500  -999.2500     9.8945    65.9127    -0.0081     2.5036     0.0916
 1209.5000  -999.2500  -999.2500     9.8979    70.5797    -0.0084     2.5029     0.0955
 1210.0000  -999.2500  -999.2500     9.9013    74.1756    -0.0088     2.4997     0.0940
 1210.5000  -999.2500  -999.2500     9.9047    77.1252    -0.0092     2.4964     0.0981
 1211.0000  -999.2500  -999.2500     9.9081    79.2198    -0.0094     2.4928     0.1001
 1211.5000  -999.2500  -999.2500     9.9115    75.8611    -0.0051     2.5042     0.0929
 1212.0000  -999.2500  -999.2500     9.9150    75.6914    -0.0005     2.5184     0.0804
 1212.5000  -999.2500  -999.2500     9.9184    76.4590     0.0014     2.5323     0.0830
 1213.0000  -999.2500  -999.2500     9.9218    74.1199    -0.0020     2.5139     0.0858
 1213.5000  -999.2500  -999.2500     9.9247    71.0520    -0.0033     2.5129     0.0874
 1214.0000  -999.2500  -999.2500     9.9267    70.5792    -0.0031     2.5169     0.0856
 1214.5000  -999.2500  -999.2500     9.9287    69.6773    -0.0028     2.5138     0.0888
 1215.0000  -999.2500  -999.2500     9.9307    68.6844    -0.0026     2.5150     0.0820
 1215.5000  -999.2500  -999.2500     9.9327    71.7896    -0.0023     2.5220     0.0824
 1216.0000  -999.2500  -999.2500     9.9347    79.4597    -0.0020     2.5216     0.0832
 1216.5000  -999.2500  -999.2500     9.9368    76.3940    -0.0017     2.5211     0.0840
 1217.0000  -999.2500  -999.2500     9.9388    75.6550    -0.0018     2.5207     0.0851
 1217.5000  -999.2500  -999.2500     9.9408    72.3080    -0.0075     2.5193     0.0874
 1218.0000  -999.2500  -999.2500     9.9428    70.4771    -0.0113     2.5049     0.0897
 1218.5000  -999.2500  -999.2500     9.9448    72.4342    -0.0102     2.5063     0.0900
 1219.0000  -999.2500  -999.2500     9.9468    70.8278    -0.0092     2.5077     0.0900
 1219.5000  -999.2500  -999.2500     9.9489    72.4314    -0.0081     2.5089     0.0917
 1220.0000  -999.2500  -999.2500     9.9509    75.3942    -0.0071     2.5062     0.0928
 1220.5000  -999.2500  -999.2500     9.9529    75.1283    -0.0061     2.5035     0.0912
 1221.0000  -999.2500  -999.2500     9.9549    74.5648    -0.0046     2.5017     0.0898
 1221.5000  -999.2500  -999.2500     9.9570    75.4341     0.0103     2.5105     0.0864
 1222.0000  -999.2500  -999.2500     9.9589    76.0778     0.0301     2.5205     0.0828
 1222.5000  -999.2500  -999.2500     9.9609    75.0624     0.0298     2.5238     0.0824
 1223.0000  -999.2500  -999.2500     9.9648    68.8413     0.0288     2.5236     0.0819
 1223.5000  -999.2500  -999.2500     9.8928    68.9105     0.0244     2.5343     0.0828
 1224.0000  -999.2500  -999.2500     9.8187    72.1393     0.0069     2.5178     0.0820
 1224.5000  -999.2500  -999.2500     9.7998    80.2776     0.0020     2.5108     0.0871
 1225.0000  -999.2500  -999.2500     9.7549    80.0575     0.0010     2.5194     0.0922
 1225.5000  -999.2500  -999.2500     9.7102    77.5305    -0.0002     2.5003     0.0939
 1226.0000  -999.2500  -999.2500     9.6978    75.1167    -0.0013     2.4961     0.0966
 1226.5000  -999.2500  -999.2500     9.6896    75.6771    -0.0024     2.4984     0.1000
 1227.0000  -999.2500  -999.2500     9.6854    80.5776    -0.0035     2.4884     0.0996
 1227.5000  -999.2500  -999.2500     9.6855    89.9481    -0.0036     2.4932     0.0960
 1228.0000  -999.2500  -999.2500     9.6854    84.5131    -0.0021     2.4970     0.0996
 1228.5000  -999.2500  -999.2500     9.6818    74.4538    -0.0003     2.4844     0.1044
 1229.0000  -999.2500  -999.2500     9.6777    69.8062     0.0015     2.4839     0.1057
 1229.5000  -999.2500  -999.2500     9.6736    69.3393     0.0034     2.4824     0.1068
 1230.0000  -999.2500  -999.2500     9.6694    72.6899     0.0060     2.4718     0.1096
 1230.5000  -999.2500  -999.2500     9.6655    71.9858     0.0127     2.4617     0.1130
 1231.0000  -999.2500  -999.2500     9.6840    71.0868     0.0321     2.4907     0.0884
 1231.5000  -999.2500  -999.2500     9.7066    79.0781     0.0450     2.5307     0.0764
 1232.0000  -999.2500  -999.2500     9.7569    86.3745     0.0305     2.5161     0.0842
 1232.5000  -999.2500  -999.2500     9.8065    82.9680     0.0201     2.4965     0.0963
 1233.0000  -999.2500  -999.2500     9.8555    80.0443     0.0272     2.4968     0.0939
 1233.5000  -999.2500  -999.2500     9.8834    79.5889     0.0365     2.5065     0.0896
 1234.0000  -999.2500  -999.2500     9.8822    84.1049     0.0459     2.5145     0.0760
 1234.5000  -999.2500  -999.2500     9.8811    87.9633     0.0527     2.5468     0.0692
 1235.0000  -999.2500  -999.2500     9.8799    82.3990     0.0349     2.5387     0.0798
 1235.5000  -999.2500  -999.2500     9.8786    82.4112     0.0113     2.5213     0.0840
 1236.0000  -999.2500  -999.2500     9.8774    80.5852     0.0003     2.5182     0.0838
 1236.5000  -999.2500  -999.2500     9.8762    74.9012    -0.0039     2.5132     0.0862
 1237.0000  -999.2500  -999.2500     9.8749    71.0572    -0.0046     2.5012     0.0884
 1237.5000  -999.2500  -999.2500     9.8737    67.8845    -0.0053     2.5122     0.0833
 1238.0000  -999.2500  -999.2500     9.8724    67.3398    -0.0055     2.5263     0.0831
 1238.5000  -999.2500  -999.2500     9.8712    67.2111    -0.0055     2.5203     0.0860
 1239.0000  -999.2500  -999.2500     9.8700    67.0646    -0.0055     2.5211     0.0816
 1239.5000  -999.2500  -999.2500     9.8687    71.1287    -0.0055     2.5178     0.0868
 1240.0000  -999.2500  -999.2500     9.8675    74.6853    -0.0055     2.5116     0.0864
 1240.5000  -999.2500  -999.2500     9.8663    77.3960    -0.0057     2.5170     0.0844
 1241.0000  -999.2500  -999.2500     9.8649    78.9195    -0.0004     2.5182     0.0803
 1241.5000  -999.2500  -999.2500     9.8543    84.7086     0.0045     2.5351     0.0740
 1242.0000  -999.2500  -999.2500     9.8266    84.8574    -0.0019     2.5379     0.0782
 1242.5000  -999.2500  -999.2500     9.7991    74.0661    -0.0083     2.5310     0.0823
 1243.0000  -999.2500  -999.2500     9.7711    71.6011    -0.0143     2.5236     0.0844
 1243.5000  -999.2500  -999.2500     9.7657    72.8904    -0.0179     2.5270     0.0824
 1244.0000  -999.2500  -999.2500     9.7664    72.4189    -0.0149     2.5321     0.0808
 1244.5000  -999.2500  -999.2500     9.7674    70.9498    -0.0099     2.5269     0.0829
 1245.0000  -999.2500  -999.2500     9.7683    76.2429    -0.0110     2.5215     0.0852
 1245.5000  -999.2500  -999.2500     9.7692    81.3234    -0.0110     2.5191     0.0847
 1246.0000  -999.2500  -999.2500     9.7701    76.3715    -0.0073     2.5186     0.0840
