~VERSION INFORMATION
 VERS.                2.0:   CWLS LOG ASCII STANDARD - VERSION 2.0
 WRAP.                 NO:   ONE LINE PER DEPTH STEP
~WELL INFORMATION
#MNEM.UNIT      DATA TYPE    INFORMATION
#----------   ------------   ------------------------------
 STRT.F           99.0000:   START DEPTH
 STOP.F          761.5000:   STOP DEPTH
 STEP.F            0.5000:   STEP LENGTH
 NULL.          -999.2500:   NO VALUE
 COMP.          U.S. NAVY:   COMPANY
 WELL. RES 3 TEAPOT DOM #48S-11:   WELL
 FLD .             TEAPOT:   FIELD
 LOC .      S11 T38N R78W:   LOCATION
 CNTY.            NATRONA:   COUNTY
 STAT.            WYOMING:   STATE
 CTRY. UNITED STATES OF AMERICA:   COUNTRY
 SRVC.       Schlumberger:   SERVICE COMPANY
 DATE.        14-JUL-1963:   LOGDATE
 API .       490250632500:   API NUMBER
~CURVE INFORMATION
#MNEM.UNIT       API CODE    CURVE DESCRIPTION
#----------   ------------   ------------------------------
 DEPT.F                  :   
 SPR .MV     05 010 01 00:   SPONTANEOUS POTENTIAL FROM RES.
 ILD .OHMM   05 120 46 00:   INDUCTION LOG DEEP
 CILD.MMHO   05 110 46 00:   CONDUCTIVITY INDUCTION LOG DEEP
 GR  .GAPI   30 310 01 00:   GAMMA RAY
 ASN .OHMM   05 041 16 00:   AMPLIFIED SHORT NORMAL 16"
~PARAMETER INFORMATION
#MNEM.UNIT          VALUE    DESCRIPTION
#----------   ------------   ------------------------------
 PD  .                 GL:   PERMANENT DATUM
 EPD .F              5187:   ELEVATION PERMANENT DATUM
 LMF .                 KB:   LOG MEASURED FROM
 DAPD.F                 5:   FEET ABOVE PERMANENT DATUM
 DMF .                 KB:   DRILLING MEASURED FROM
 EKB .F              5192:   KELLING BUSHING
 EGL .F              5187:   GROUND LEVEL
 DATE.            7-14-63:   RUN DATE
 RUN .                  1:   RUN NUMBER
 DD  .F               762:   DEPTH DRILLER
 DL  .F               761:   DEPTH LOGGER
 BLI .F               760:   BOTTOM LOG INTERVAL
 TLI .F               100:   TOP LOG INTERVAL
 CS  .IN            8.625:   CASING SIZE
 CBD .F                10:   CASING BOTTOM DRILLER
 BS  .IN            7.875:   BIT SIZE
 BSD .F               762:   BIT SIZE AT DEPTH
 DFT .            GEL-OIL:   DRILLING FLUID TYPE
 DFD .                 10:   DRILLING FLUID DENSITY
 DFV .                 55:   DRILLING FLUID VISCOSITY
 DFPH.                9.5:   DRILLING FLUID PH
 DFL .                  4:   DRILLING FLUID LOSS
 MSS .          FLOW LINE:   MUD SAMPLE SOURCE
 RMS .OHMM           3.11:   RESISTIVITY MUD SAMPLE
 MST .F                78:   MUD SAMPLE TEMPERATURE
 RMF .OHMM           2.31:   RESISTIVITY MUD FILTRATE SAMPLE
 MFST.F                78:   MUD FILTRATE SAMPLE TEMPERATURE
 RMC .OHMM           3.82:   RESISTIVITY MUD CAKE
 MCST.F                78:   MUD CAKE SAMPLE TEMPERATURE
 MFSS.                  M:   MUD FILTRATE SAMPLE SOURCE
 MCSS.                  M:   MUD CAKE SAMPLE SOURCE
 TCS .HRS               1:   TIME CURCULATED STOPPED
 LUN .               4507:   LOGGING UNIT NUMBER
 ENGI.             KNOBEL:   RECORDING ENGINEER
 WITN.          JORGENSEN:   WITNESSED BY
 CLNT.            A2DTECH:   CLIENT CODE
 ORIG.       2", 5" PRINT:   ORIGIN OF DATA
 UWI .       490250632500:   UNIQUE WELL ID
 DICO. A2D Technologies, Inc.:   DIGITIZING COMPANY
~OTHER INFORMATION
~A   DEPT      SPR        ILD       CILD         GR        ASN   
   99.0000   -34.6693  -999.2500  -999.2500  -999.2500  -999.2500
   99.5000   -34.9172     5.4921  -999.2500  -999.2500  -999.2500
  100.0000   -34.9432     5.5413  -999.2500  -999.2500  -999.2500
  100.5000   -34.7889     5.5905   178.2224  -999.2500  -999.2500
  101.0000   -34.5963     5.6299   179.1470  -999.2500  -999.2500
  101.5000   -34.4037     5.6791   176.9233  -999.2500  -999.2500
  102.0000   -34.2321     5.7283   174.2111  -999.2500  -999.2500
  102.5000   -34.2362     5.7776   170.3518  -999.2500  -999.2500
  103.0000   -34.2369     5.8272   168.3417  -999.2500  -999.2500
  103.5000   -34.2368     5.8785   168.3417  -999.2500  -999.2500
  104.0000   -34.2607     5.8147   169.0548  -999.2500  -999.2500
  104.5000   -34.3027     5.7258   170.2656  -999.2500  -999.2500
  105.0000   -34.3450     5.6375   171.4764  -999.2500  -999.2500
  105.5000   -34.3870     5.5637   172.6873  -999.2500  -999.2500
  106.0000   -34.4311     5.4674   175.0402  -999.2500  -999.2500
  106.5000   -34.3471     5.3699   178.8543  -999.2500  -999.2500
  107.0000   -34.1982     5.2728   182.6683  -999.2500  -999.2500
  107.5000   -34.0481     5.1750   186.4824  -999.2500  -999.2500
  108.0000   -33.8976     5.0797   188.4422  -999.2500  -999.2500
  108.5000   -33.7483     5.1069   187.8744  -999.2500  -999.2500
  109.0000   -33.6471     5.1413   187.0402  -999.2500  -999.2500
  109.5000   -33.7239     5.1751   185.7688  -999.2500  -999.2500
  110.0000   -33.7966     5.2088   185.4271  -999.2500  -999.2500
  110.5000   -33.8690     5.2430   185.4271  -999.2500  -999.2500
  111.0000   -33.9409     5.2740   185.4271  -999.2500  -999.2500
  111.5000   -34.0168     5.2152   186.1632  -999.2500  -999.2500
  112.0000   -33.9080     5.1507   190.5717  -999.2500  -999.2500
  112.5000   -33.7263     5.0075   194.9546  -999.2500  -999.2500
  113.0000   -33.5073     4.8659   199.3415  -999.2500  -999.2500
  113.5000   -33.2444     4.7248   203.7255  -999.2500  -999.2500
  114.0000   -33.1222     4.5803   208.1095  -999.2500  -999.2500
  114.5000   -33.0045     4.3940   213.5678  -999.2500  -999.2500
  115.0000   -32.8857     4.3696   215.5653  -999.2500  -999.2500
  115.5000   -32.7665     4.3713   217.9665  -999.2500  -999.2500
  116.0000   -32.6469     4.3718   220.9330  -999.2500  -999.2500
  116.5000   -32.5281     4.3716   223.6181  -999.2500  -999.2500
  117.0000   -32.4438     4.3697   220.8342  -999.2500  -999.2500
  117.5000   -32.5537     4.4509   218.2915  -999.2500  -999.2500
  118.0000   -32.6608     4.5453   215.7487  -999.2500  -999.2500
  118.5000   -32.7681     4.6412   213.2060  -999.2500  -999.2500
  119.0000   -32.9121     4.6729   210.6633  -999.2500  -999.2500
  119.5000   -33.1153     4.6736   208.1206  -999.2500  -999.2500
  120.0000   -33.3149     4.6730   205.5779  -999.2500  -999.2500
  120.5000   -33.3455     4.7001   203.0352  -999.2500  -999.2500
  121.0000   -33.1297     4.7395   200.5025  -999.2500  -999.2500
  121.5000   -32.9173     4.7793   199.9920  -999.2500  -999.2500
  122.0000   -32.7024     4.8192   199.4834  -999.2500  -999.2500
  122.5000   -32.5960     4.8590   198.9749  -999.2500  -999.2500
  123.0000   -32.5421     4.8989   198.4925  -999.2500  -999.2500
  123.5000   -32.4890     4.9391   199.1215  -999.2500  -999.2500
  124.0000   -32.4358     4.9760   199.7198  -999.2500  -999.2500
  124.5000   -32.3826     4.9291   200.3181  -999.2500  -999.2500
  125.0000   -32.3291     4.8772   200.5025  -999.2500  -999.2500
  125.5000   -32.2759     4.8252   200.5025  -999.2500  -999.2500
  126.0000   -32.2274     4.7735   200.5025  -999.2500  -999.2500
  126.5000   -32.2663     4.7217   202.6734  -999.2500  -999.2500
  127.0000   -32.3388     4.6695   205.0386  -999.2500  -999.2500
  127.5000   -32.4110     4.6177   206.5318  -999.2500  -999.2500
  128.0000   -32.4834     4.5885   206.5330  -999.2500  -999.2500
  128.5000   -32.5556     4.7285   204.0603  -999.2500  -999.2500
  129.0000   -32.6280     4.8667   201.5075  -999.2500  -999.2500
  129.5000   -32.7006     4.7581   202.2044  -999.2500  -999.2500
  130.0000   -32.7732     4.6321   207.4121  -999.2500  -999.2500
  130.5000   -32.8303     4.2916   218.6963  -999.2500  -999.2500
  131.0000   -32.7323     3.7924   231.7588  -999.2500  -999.2500
  131.5000   -32.6299     3.4918   257.1859  -999.2500  -999.2500
  132.0000   -32.5113     3.2492   282.6131  -999.2500  -999.2500
  132.5000   -32.3915     3.0161   308.0402  -999.2500  -999.2500
  133.0000   -32.2748     2.8702   321.1055  -999.2500  -999.2500
  133.5000   -31.9942     2.8959   321.1055  -999.2500  -999.2500
  134.0000   -31.6301     2.9180   320.1005  -999.2500  -999.2500
  134.5000   -31.4245     2.9392   313.1092  -999.2500  -999.2500
  135.0000   -31.4259     2.9717   304.7876  -999.2500  -999.2500
  135.5000   -31.4252     3.3210   291.2965  -999.2500  -999.2500
  136.0000   -31.4242     3.6557   263.3876  -999.2500  -999.2500
  136.5000   -31.4350     4.1683   232.1970  -999.2500  -999.2500
  137.0000   -31.6271     4.6716   201.0064  -999.2500  -999.2500
  137.5000   -31.8160     5.1196   188.2595  -999.2500  -999.2500
  138.0000   -32.0037     5.3031   180.4002  -999.2500     5.0768
  138.5000   -32.1915     5.4916   174.2513  -999.2500     5.1785
  139.0000   -32.3891     5.6802   169.1658  -999.2500     6.5100
  139.5000   -32.2713     5.8689   164.0804  -999.2500     7.6974
  140.0000   -32.0545     6.0270   158.9950  -999.2500     5.9244
  140.5000   -31.8354     6.2688   153.9095  -999.2500     4.0283
  141.0000   -31.8765     6.5076   149.7615  -999.2500     3.6848
  141.5000   -31.9459     6.7472   146.0630  -999.2500     3.5721
  142.0000   -32.0222     6.7848   144.2211  -999.2500     3.6182
  142.5000   -31.7138     6.7653   144.1811  -999.2500     3.6403
  143.0000   -31.3011     6.7421   145.6518  -999.2500     3.5768
  143.5000   -31.2507     6.7190   148.5891  -999.2500     3.5510
  144.0000   -31.2822     6.6943   151.5930  -999.2500     3.6400
  144.5000   -31.3158     6.5822   154.5867  -999.2500     3.6089
  145.0000   -31.3485     6.3569   159.1909  -999.2500     3.6284
  145.5000   -31.3815     6.1332   164.2814  -999.2500     3.6845
  146.0000   -31.4124     5.9092   169.3668  -999.2500     3.7465
  146.5000   -31.5566     5.6871   174.4523  -999.2500     3.9492
  147.0000   -31.7594     5.4592   179.5377  -999.2500     4.2080
  147.5000   -31.8263     5.0215   190.5327  -999.2500     4.4174
  148.0000   -31.8279     4.5911   202.7377  -999.2500     4.6740
  148.5000   -31.8290     4.3093   220.9246  -999.2500     4.9123
  149.0000   -31.8264     4.0464   238.6935  -999.2500     4.8412
  149.5000   -31.7024     3.7955   248.7437  -999.2500     4.7322
  150.0000   -31.1721     3.7678   247.9272  -999.2500     4.6343
  150.5000   -30.6492     3.7678   247.0091  -999.2500     4.7818
  151.0000   -30.6393     3.7696   246.7337  -999.2500     4.9256
  151.5000   -30.6846     3.8541   246.7337  -999.2500     4.6050
  152.0000   -30.7274     4.1557   243.6348  -999.2500     4.6681
  152.5000   -30.7694     4.4536   222.6968  -999.2500     4.9374
  153.0000   -30.8141     4.7518   208.7312  -999.2500     5.1903
  153.5000   -30.7674     5.0507   195.5402  -999.2500     5.3423
  154.0000   -30.6904     5.3458   182.3492  -999.2500     5.4214
  154.5000   -30.6363     5.3634   177.2194  -999.2500     5.4358
  155.0000   -30.7719     5.3467   176.3819  -999.2500     5.4503
  155.5000   -30.9066     5.3299   180.2087  -999.2500     5.4568
  156.0000   -31.0281     5.3136   184.4608  -999.2500     5.4362
  156.5000   -31.0775     5.2974   187.7198  -999.2500     5.4067
  157.0000   -31.1346     5.2863   188.6621  -999.2500     5.3800
  157.5000   -31.1922     5.1707   189.6043  -999.2500     5.3269
  158.0000   -31.2497     4.9518   191.4712  -999.2500     5.2161
  158.5000   -31.3073     4.7141   202.3381  -999.2500     5.0212
  159.0000   -31.3658     4.2987   231.1316  -999.2500     4.8253
  159.5000   -31.4214     3.6727   267.2508  -999.2500     4.6298
