~VERSION INFORMATION
 VERS.                2.0:   CWLS LOG ASCII STANDARD - VERSION 2.0
 WRAP.                 NO:   ONE LINE PER DEPTH STEP
~WELL INFORMATION
#MNEM.UNIT      DATA TYPE    INFORMATION
#----------   ------------   ------------------------------
 STRT.F         1000.5000:   START DEPTH
 STOP.F         2590.0000:   STOP DEPTH
 STEP.F            0.5000:   STEP LENGTH
 NULL.          -999.2500:   NO VALUE
 COMP. LAWRENCE/ALLISON INC:   COMPANY
 WELL.    LAWENCE #14x-10:   WELL
 FLD .               NONE:   FIELD
 LOC .      S10 T38N R78W:   LOCATION
 CNTY.            NATRONA:   COUNTY
 STAT.            WYOMING:   STATE
 CTRY. UNITED STATES OF AMERICA:   COUNTRY
 SRVC.            Unknown:   SERVICE COMPANY
 DATE.        13-SEP-1988:   LOGDATE
 API .       490251137000:   API NUMBER
~CURVE INFORMATION
#MNEM.UNIT       API CODE    CURVE DESCRIPTION
#----------   ------------   ------------------------------
 DEPT.F                  :   
 ROP .MIN/FT 91 810 01 00:   RATE OF DRILLING PENETRATION
 TGAS.UNITS  91 830 01 00:   TOTAL GAS FROM HOTWIRE
~PARAMETER INFORMATION
#MNEM.UNIT          VALUE    DESCRIPTION
#----------   ------------   ------------------------------
 EKB .F              5278:   KELLING BUSHING
 EGL .F              5268:   GROUND LEVEL
 DATE.         09-13-1988:   RUN DATE
 RUN .                  1:   RUN NUMBER
 DD  .F              2590:   DEPTH DRILLER
 BLI .F              2590:   BOTTOM LOG INTERVAL
 TLI .F              1000:   TOP LOG INTERVAL
 CS  .IN                7:   CASING SIZE
 CBD .F               991:   CASING BOTTOM DRILLER
 BSD .F              2590:   BIT SIZE AT DEPTH
 ENGI. R. HUSK D. PETERSON:   RECORDING ENGINEER
 CLNT.            A2DTECH:   CLIENT CODE
 ORIG.           5" PRINT:   ORIGIN OF DATA
 UWI .       490251137000:   UNIQUE WELL ID
 DICO. A2D Technologies, Inc.:   DIGITIZING COMPANY
~OTHER INFORMATION
~A  DEPT       ROP         TGAS 
# ...
 2215.5000     0.3668   307.5425
 2216.0000     0.3549   291.8641
 2216.5000     0.3332   267.7054
 2217.0000     0.3074   243.5468
 2217.5000     0.2711   219.3881
 2218.0000     0.2576   195.2295
 2218.5000     0.2424   171.0708
 2219.0000     0.2390   146.9122
 2219.5000     0.2323   122.7535
 2220.0000     0.2414    98.5949
 2220.5000     0.2634    81.9271
 2221.0000     0.2854    78.2471
 2221.5000     0.3074    78.1941
 2222.0000     0.3295    79.1293
 2222.5000     0.3515    81.2207
 2223.0000     0.3735    83.3116
 2223.5000     0.3955    83.2681
 2224.0000     0.4176    78.8830
 2224.5000     0.4396    72.3970
 2225.0000     0.4616    65.9111
 2225.5000     0.4873    60.6002
 2226.0000     0.5034    56.0409
 2226.5000     0.4765    54.4708
 2227.0000     0.4315    54.5710
 2227.5000     0.4123    54.6712
 2228.0000     0.4123    54.7714
 2228.5000     0.4123    54.8716
 2229.0000     0.4123    54.9718
 2229.5000     0.4170    55.0721
 2230.0000     0.4228    55.1723
 2230.5000     0.4327    55.2725
 2231.0000     0.4490    55.3727
 2231.5000     0.4545    55.4729
 2232.0000     0.4598    55.5731
 2232.5000     0.4705    55.6733
 2233.0000     0.4647    55.7735
 2233.5000     0.4377    55.8737
 2234.0000     0.3999    55.9740
 2234.5000     0.3514    56.0742
 2235.0000     0.3099    56.1744
 2235.5000     0.2899    56.2746
 2236.0000     0.2854    56.3748
 2236.5000     0.2854    56.4750
 2237.0000     0.2854    56.5752
 2237.5000     0.2854    56.6754
 2238.0000     0.2854    56.7756
 2238.5000     0.2653    56.8758
 2239.0000     0.2332    56.9761
 2239.5000     0.2220    57.0763
 2240.0000     0.2320    57.1765
 2240.5000     0.2471    57.0779
 2241.0000     0.2653    56.9793
 2241.5000     0.2841    56.8806
 2242.0000     0.3065    56.7820
 2242.5000     0.3303    56.6834
 2243.0000     0.3429    56.5848
 2243.5000     0.3493    56.4862
 2244.0000     0.3446    56.3876
 2244.5000     0.3353    56.4364
 2245.0000     0.3048    56.5282
 2245.5000     0.2405    56.6201
 2246.0000     0.2121    56.7119
 2246.5000     0.2433    56.8037
 2247.0000     0.2973    56.8956
 2247.5000     0.3412    56.9874
 2248.0000     0.3744    57.0792
 2248.5000     0.3865    57.1711
 2249.0000     0.3669    57.2629
 2249.5000     0.3473    57.3547
 2250.0000     0.3488    57.4466
 2250.5000     0.3395    57.5384
 2251.0000     0.3302    57.6303
 2251.5000     0.3217    57.7221
 2252.0000     0.3233    57.8139
 2252.5000     0.3142    57.9058
 2253.0000     0.3161    57.9976
 2253.5000     0.3177    58.0894
 2254.0000     0.3192    58.1813
 2254.5000     0.3240    58.2731
 2255.0000     0.3436    58.3650
 2255.5000     0.3818    58.4568
 2256.0000     0.4313    58.5486
 2256.5000     0.4737    58.6405
 2257.0000     0.4775    58.7323
 2257.5000     0.4572    58.8241
 2258.0000     0.4369    58.9160
 2258.5000     0.4226    59.0078
 2259.0000     0.4197    59.0997
 2259.5000     0.4212    59.1915
 2260.0000     0.4170    59.2685
 2260.5000     0.4094    59.1467
 2261.0000     0.4019    59.0418
 2261.5000     0.3944    58.9368
 2262.0000     0.4043    58.8319
 2262.5000     0.4418    58.7270
 2263.0000     0.4689    58.6221
 2263.5000     0.4909    58.5171
 2264.0000     0.5053    58.4122
 2264.5000     0.4861    58.3073
 2265.0000     0.4532    58.2024
 2265.5000     0.4272    58.0974
 2266.0000     0.3980    57.9925
 2266.5000     0.3801    57.8876
 2267.0000     0.3769    57.7827
 2267.5000     0.4010    57.6777
 2268.0000     0.4186    57.5728
 2268.5000     0.3654    57.4679
 2269.0000     0.2912    57.3630
 2269.5000     0.2592    57.2580
 2270.0000     0.2907    57.1531
 2270.5000     0.3010    57.0482
 2271.0000     0.3324    56.9433
 2271.5000     0.3429    56.8383
 2272.0000     0.3745    56.7334
 2272.5000     0.3845    56.6285
 2273.0000     0.3843    56.5236
 2273.5000     0.3840    56.4186
 2274.0000     0.3838    56.3137
 2274.5000     0.3834    56.2088
 2275.0000     0.3832    56.1039
 2275.5000     0.3829    55.9989
 2276.0000     0.3911    55.8940
 2276.5000     0.4172    55.7891
 2277.0000     0.4347    55.6842
 2277.5000     0.4596    55.5792
 2278.0000     0.4621    55.4743
 2278.5000     0.4379    55.3694
 2279.0000     0.3988    55.2645
 2279.5000     0.3758    55.1595
 2280.0000     0.3649    55.0631
 2280.5000     0.3542    55.2022
 2281.0000     0.3435    55.3308
 2281.5000     0.3328    55.4595
 2282.0000     0.3222    55.5881
 2282.5000     0.3115    55.7168
 2283.0000     0.3007    55.8454
 2283.5000     0.2590    55.9740
 2284.0000     0.2177    56.1027
 2284.5000     0.2194    56.2313
 2285.0000     0.2519    56.3600
 2285.5000     0.2741    56.4886
 2286.0000     0.2957    53.8401
 2286.5000     0.3063    47.3425
 2287.0000     0.3042    39.8845
 2287.5000     0.2761    34.2132
 2288.0000     0.2770    33.0353
 2288.5000     0.2818    34.0365
 2289.0000     0.3147    35.0471
 2289.5000     0.3509    34.9941
 2290.0000     0.3964    33.7942
 2290.5000     0.3915    30.4149
 2291.0000     0.3622    28.4824
 2291.5000     0.3395    29.6692
 2292.0000     0.3058    33.0357
 2292.5000     0.2614    35.9781
 2293.0000     0.2061    36.6519
 2293.5000     0.1561    36.4549
 2294.0000     0.1462    36.2579
 2294.5000     0.1364    36.0609
 2295.0000     0.1357    35.8640
 2295.5000     0.1611    35.6670
 2296.0000     0.1912    35.4700
 2296.5000     0.2154    35.2730
 2297.0000     0.2395    35.0760
 2297.5000     0.2636    34.8791
 2298.0000     0.2854    34.6821
 2298.5000     0.2854    34.4851
 2299.0000     0.2854    34.2881
 2299.5000     0.2854    34.0912
 2300.0000     0.2889    33.8780
 2300.5000     0.3124    33.6581
 2301.0000     0.3489    33.4186
 2301.5000     0.4026    33.1791
 2302.0000     0.4489    32.9395
 2302.5000     0.4519    32.7000
 2303.0000     0.4010    32.4604
 2303.5000     0.3610    32.2209
 2304.0000     0.3383    31.9814
 2304.5000     0.3383    31.7418
 2305.0000     0.3383    31.5023
 2305.5000     0.3420    31.2627
 2306.0000     0.3566    31.0232
 2306.5000     0.3740    30.7837
 2307.0000     0.3932    30.5441
 2307.5000     0.4343    30.3046
 2308.0000     0.4605    30.0650
 2308.5000     0.4260    29.8255
 2309.0000     0.3763    29.5860
 2309.5000     0.3492    29.3464
 2310.0000     0.3383    29.1069
 2310.5000     0.3383    28.8673
 2311.0000     0.3383    28.6278
 2311.5000     0.3383    28.3883
 2312.0000     0.3443    28.1487
 2312.5000     0.3612    27.9092
 2313.0000     0.3763    27.6696
 2313.5000     0.4001    27.5957
 2314.0000     0.4457    27.7555
 2314.5000     0.4376    27.9153
 2315.0000     0.3876    28.0751
 2315.5000     0.3267    28.2349
 2316.0000     0.2843    28.3946
 2316.5000     0.2521    28.5544
 2317.0000     0.2121    28.7142
 2317.5000     0.1692    28.8740
 2318.0000     0.1586    29.0338
 2318.5000     0.1834    29.1936
 2319.0000     0.2326    29.3534
 2319.5000     0.2854    29.5132
 2320.0000     0.3277    29.6471
 2320.5000     0.3432    29.6471
 2321.0000     0.3616    29.6471
 2321.5000     0.3801    29.6471
 2322.0000     0.3986    29.6471
 2322.5000     0.4171    29.6471
 2323.0000     0.4355    29.6471
 2323.5000     0.4540    29.6471
 2324.0000     0.4607    29.6471
 2324.5000     0.4497    29.6471
 2325.0000     0.4334    29.6471
 2325.5000     0.4228    29.6471
 2326.0000     0.4167    29.6471
 2326.5000     0.4123    29.6471
 2327.0000     0.4123    29.6127
 2327.5000     0.4422    29.5323
 2328.0000     0.4862    29.4520
 2328.5000     0.5497    29.3716
 2329.0000     0.6554    29.2912
 2329.5000     0.6765    29.2109
 2330.0000     0.6765    29.1305
 2330.5000     0.6660    29.0501
 2331.0000     0.6554    28.9697
 2331.5000     0.6558    28.8894
 2332.0000     0.6660    28.8090
 2332.5000     0.6673    28.7286
 2333.0000     0.6818    28.6482
 2333.5000     0.7082    28.5679
 2334.0000     0.7082    28.4875
 2334.5000     0.7082    28.4071
 2335.0000     0.7082    28.3267
 2335.5000     0.7043    28.2464
 2336.0000     0.6669    28.1660
 2336.5000     0.5849    28.0856
