~VERSION INFORMATION
 VERS.                2.0:   CWLS LOG ASCII STANDARD - VERSION 2.0
 WRAP.                 NO:   ONE LINE PER DEPTH STEP
~WELL INFORMATION
#MNEM.UNIT      DATA TYPE    INFORMATION
#----------   ------------   ------------------------------
 STRT.F           66.0000:   START DEPTH
 STOP.F         1030.5000:   STOP DEPTH
 STEP.F            0.5000:   STEP LENGTH
 NULL.          -999.2500:   NO VALUE
 COMP. U S NAVY/INTEX OIL CO:   COMPANY
 WELL.      NRP-3 #68S-11:   WELL
 FLD .             TEAPOT:   FIELD
 LOC .      S11 T38N R78W:   LOCATION
 CNTY.            NATRONA:   COUNTY
 STAT.            WYOMING:   STATE
 CTRY. UNITED STATES OF AMERICA:   COUNTRY
 SRVC.       Schlumberger:   SERVICE COMPANY
 DATE.        07-JUL-1962:   LOGDATE
 API .       490250632700:   API NUMBER
~CURVE INFORMATION
#MNEM.UNIT       API CODE    CURVE DESCRIPTION
#----------   ------------   ------------------------------
 DEPT.F                  :   
 SPR .MV     05 010 01 00:   SPONTANEOUS POTENTIAL FROM RES.
 ASN .OHMM   05 041 16 00:   AMPLIFIED SHORT NORMAL 16"
 ILD .OHMM   05 120 46 00:   INDUCTION LOG DEEP
 CILD.MMHO   05 110 46 00:   CONDUCTIVITY INDUCTION LOG DEEP
 GRN .GAPI   35 310 30 00:   GAMMA RAY
 GR  .GAPI   81 310 01 00:   GAMMA RAY
~PARAMETER INFORMATION
#MNEM.UNIT          VALUE    DESCRIPTION
#----------   ------------   ------------------------------
 LMF .                 KB:   LOG MEASURED FROM
 DMF .                 KB:   DRILLING MEASURED FROM
 EKB .F              5226:   KELLING BUSHING
 EGL .F              5221:   GROUND LEVEL
 DATE.           7-7-1962:   RUN DATE
 RUN .                  1:   RUN NUMBER
 DD  .F              1030:   DEPTH DRILLER
 DL  .F              1031:   DEPTH LOGGER
 BLI .F              1030:   BOTTOM LOG INTERVAL
 TLI .F                90:   TOP LOG INTERVAL
 CBD .F                10:   CASING BOTTOM DRILLER
 BS  .IN             6.75:   BIT SIZE
 BSD .F              1030:   BIT SIZE AT DEPTH
 DFT .            GEL-OIL:   DRILLING FLUID TYPE
 DFD .               10.2:   DRILLING FLUID DENSITY
 DFV .                 50:   DRILLING FLUID VISCOSITY
 DFL .                3.6:   DRILLING FLUID LOSS
 RMS .OHMM           5.06:   RESISTIVITY MUD SAMPLE
 MST .F                71:   MUD SAMPLE TEMPERATURE
 RMF .OHMM           4.89:   RESISTIVITY MUD FILTRATE SAMPLE
 MFST.F                71:   MUD FILTRATE SAMPLE TEMPERATURE
 RMC .OHMM           4.85:   RESISTIVITY MUD CAKE
 MCST.F                71:   MUD CAKE SAMPLE TEMPERATURE
 MFSS.                  M:   MUD FILTRATE SAMPLE SOURCE
 MCSS.                  M:   MUD CAKE SAMPLE SOURCE
 RMB .OHMM           4.54:   RESISTIVITY MUD AT BHT
 BHT .F                82:   BOTTOM HOLE TEMPERATURE
 TCS .HRS               1:   TIME CURCULATED STOPPED
 MRT .F                82:   MAXIMUM RECORDED TEMPERATURE
 LUN .               2503:   LOGGING UNIT NUMBER
 LUL .              CSPR.:   LOGGING UNIT LOCATION
 ENGI.             KNOBEL:   RECORDING ENGINEER
 WITN.          JORGENSEN:   WITNESSED BY
 CLNT.            A2DTECH:   CLIENT CODE
 ORIG.      2" & 5" PRINT:   ORIGIN OF DATA
 UWI .       490250632700:   UNIQUE WELL ID
 DICO. A2D Technologies, Inc.:   DIGITIZING COMPANY
~OTHER INFORMATION
~A   DEPT      SPR        ASN        ILD       CILD        GRN          GR  
# ...
  170.0000   -51.4774     6.6405     6.8541   161.2018  -999.2500   101.5200
  170.5000   -51.2983     6.7724     6.9799   158.4416  -999.2500   101.6369
  171.0000   -51.1180     6.9249     7.1056   155.6813  -999.2500   102.2205
  171.5000   -51.1048     7.0776     7.2313   152.9210  -999.2500   102.8181
  172.0000   -51.1210     7.2304     7.3570   150.1607  -999.2500   103.4084
  172.5000   -51.1377     7.3821     7.4828   147.4004  -999.2500   104.0533
  173.0000   -51.1542     7.5096     7.6092   144.9864  -999.2500   106.1237
  173.5000   -51.1706     7.5454     7.7336   144.4118  -999.2500   108.3161
  174.0000   -51.1870     7.5002     7.7566   143.8372  -999.2500   109.8206
  174.5000   -51.2034     7.5207     7.7747   143.2626  -999.2500   107.1344
  175.0000   -51.2197     7.6148     7.7932   142.6871  -999.2500   101.7078
  175.5000   -51.2361     7.5323     7.8116   142.1102  -999.2500    96.3267
  176.0000   -51.2525     7.4574     7.8316   141.5433  -999.2500    90.9792
  176.5000   -51.2691     7.4459     7.7579   141.5531  -999.2500    87.8770
  177.0000   -51.2870     7.4337     7.6334   143.5642  -999.2500    88.7056
  177.5000   -51.2397     7.4197     7.5077   145.5752  -999.2500    95.1173
  178.0000   -51.1723     7.3709     7.3819   148.0393  -999.2500   101.1309
  178.5000   -51.1044     7.2966     7.2562   151.8100  -999.2500   105.9641
  179.0000   -51.0365     7.2019     7.1306   155.5807  -999.2500   109.2995
  179.5000   -50.9687     7.0318     7.0047   157.1721  -999.2500   110.7009
  180.0000   -50.9009     6.8659     6.8735   158.4695  -999.2500   111.3869
  180.5000   -50.8331     6.7801     6.8422   159.7670  -999.2500   112.0514
  181.0000   -50.7653     6.7673     6.8413   161.0644  -999.2500   112.1883
  181.5000   -50.6975     6.7549     6.8884   162.3619  -999.2500   111.0418
  182.0000   -50.6295     6.7485     6.9771   163.6594  -999.2500   108.9776
  182.5000   -50.5610     6.9531     7.0658   161.4479  -999.2500   107.8112
  183.0000   -50.5009     7.1739     7.1545   158.0199  -999.2500   108.0358
  183.5000   -50.5884     7.2011     7.2432   154.5920  -999.2500   106.0638
  184.0000   -50.6802     7.1671     7.3318   151.1640  -999.2500   103.8343
  184.5000   -50.7713     7.1281     7.4197   148.9870  -999.2500   101.7551
  185.0000   -50.8622     7.2571     7.5586   148.6002  -999.2500   104.8111
  185.5000   -50.9531     7.3924     7.7093   148.2135  -999.2500   109.5241
  186.0000   -51.0442     7.6311     7.8595   144.0797  -999.2500   113.1716
  186.5000   -51.1359     7.8883     8.0045   137.4836  -999.2500   114.0547
  187.0000   -51.2247     8.1483     8.3501   130.9199  -999.2500   109.3670
  187.5000   -51.2172     8.5348     8.7264   124.3592  -999.2500   104.7672
  188.0000   -50.9115     8.9179     9.1098   118.1817  -999.2500   102.5453
  188.5000   -50.6192     9.2748     9.1497   116.0578  -999.2500   103.2349
  189.0000   -50.3286     9.0687     9.0342   114.2146  -999.2500   104.1995
  189.5000   -50.0349     8.2810     8.9177   113.7213  -999.2500   105.1854
  190.0000   -49.9967     8.7253     8.8871   113.2190  -999.2500   103.9336
  190.5000   -50.1678     9.5864     9.1232   116.9939  -999.2500   102.3980
  191.0000   -50.3415     9.6923     9.1059   121.1836  -999.2500   102.7997
  191.5000   -50.5164     8.9418     8.8684   125.3733  -999.2500   105.3856
  192.0000   -50.6903     8.7111     8.6292   128.9989  -999.2500   107.9891
  192.5000   -50.7923     8.5347     8.3915   131.5127  -999.2500   109.5317
  193.0000   -50.8921     8.3552     8.2092   134.0266  -999.2500   111.0474
  193.5000   -50.9932     8.1746     8.1419   136.5404  -999.2500   113.2626
  194.0000   -51.0840     8.0507     8.0721   139.1040  -999.2500   116.0928
  194.5000   -50.9494     7.9651     8.0028   139.5968  -999.2500   114.6348
  195.0000   -50.8053     7.8801     7.9336   140.0996  -999.2500   112.0474
  195.5000   -50.6625     7.7942     7.8636   140.6023  -999.2500   106.7030
  196.0000   -50.5234     7.7857     7.8378   141.0951  -999.2500   101.2011
  196.5000   -50.2867     7.7927     7.8373   140.6290  -999.2500    98.7807
  197.0000   -50.0371     7.7997     7.8373   140.1720  -999.2500    98.0236
  197.5000   -49.7835     7.8012     7.8376   139.7149  -999.2500    99.8315
  198.0000   -49.7326     7.7513     7.8493   139.2578  -999.2500   102.0417
  198.5000   -49.7740     7.7358     7.8758   138.8008  -999.2500   103.4022
  199.0000   -49.8175     7.7697     7.9021   138.3437  -999.2500   103.7530
  199.5000   -49.8610     7.7980     7.9285   138.6745  -999.2500   104.1108
  200.0000   -49.9043     7.7704     7.9548   139.8414  -999.2500   104.4742
  200.5000   -49.9476     7.7429     7.9812   141.0083  -999.2500   104.8179
  201.0000   -49.9911     7.6952     8.0082   142.1752  -999.2500   103.4003
  201.5000   -50.0341     7.6456     8.0375   143.3420  -999.2500   101.7225
  202.0000   -50.0764     7.5957     7.9540   144.5089  -999.2500    99.7979
  202.5000   -50.0327     7.5457     7.8617   145.6758  -999.2500    97.8400
  203.0000   -49.9004     7.4962     7.7691   146.8476  -999.2500    95.8649
  203.5000   -49.7686     7.4646     7.6773   148.0220  -999.2500    94.0826
  204.0000   -49.6362     7.5407     7.5856   149.0524  -999.2500    96.6349
  204.5000   -49.5043     7.6151     7.5828   145.8896  -999.2500    98.6491
  205.0000   -49.3712     7.6815     7.6688   143.0077  -999.2500    97.6439
  205.5000   -49.3041     7.8182     7.7551   140.1258  -999.2500    96.7207
  206.0000   -49.3946     7.9816     7.8427   138.4598  -999.2500    98.7296
  206.5000   -49.4936     8.1478     7.9331   139.6310  -999.2500   101.2484
  207.0000   -49.5932     8.0300     7.9085   140.8023  -999.2500   104.8067
  207.5000   -49.6926     7.8489     7.8755   142.0904  -999.2500   108.2966
  208.0000   -49.7923     7.8045     7.8428   141.4515  -999.2500   106.8037
  208.5000   -49.8975     8.1675     7.8103   140.7337  -999.2500   104.9417
  209.0000   -49.7928     8.1078     7.7779   140.0996  -999.2500   104.8343
  209.5000   -49.6418     7.8323     7.7454   142.0907  -999.2500   108.4159
  210.0000   -49.4886     7.6571     7.7129   144.0819  -999.2500   110.8225
  210.5000   -49.3365     7.6965     7.6808   143.1858  -999.2500   107.2557
  211.0000   -49.1845     7.8195     7.6443   142.1903  -999.2500   103.7262
  211.5000   -49.1686     7.9531     7.7566   141.0951  -999.2500   103.7086
  212.0000   -49.2879     8.0901     7.9201   138.9380  -999.2500   105.7732
  212.5000   -49.4076     8.1353     8.0857   136.5439  -999.2500   104.3194
  213.0000   -49.5280     8.1741     8.2527   134.1439  -999.2500   101.0721
  213.5000   -49.6484     8.2127     8.3535   131.7393  -999.2500    98.9089
  214.0000   -49.7698     8.3261     8.3950   129.3510  -999.2500    97.2308
  214.5000   -49.8955     8.4528     8.4348   127.5601  -999.2500   101.0343
  215.0000   -49.8609     8.2906     8.4745   126.3748  -999.2500   105.4826
  215.5000   -49.8145     8.0316     8.5149   125.1896  -999.2500   103.3109
  216.0000   -49.7685     8.4074     8.5623   124.0044  -999.2500   100.0155
  216.5000   -49.7229     8.9055     8.6198   123.1150  -999.2500    96.6245
  217.0000   -49.6773     8.9446     8.6765   122.9115  -999.2500    97.1347
  217.5000   -49.6317     8.9054     8.7334   122.7158  -999.2500    99.1760
  218.0000   -49.5861     8.7454     8.7903   122.5177  -999.2500   101.1434
  218.5000   -49.5405     8.7916     8.8470   122.3186  -999.2500   100.9189
  219.0000   -49.4949     8.8338     8.9039   122.1195  -999.2500   100.5888
  219.5000   -49.4492     8.8763     8.9209   121.9203  -999.2500   100.2408
  220.0000   -49.4036     8.9180     8.8993   121.7212  -999.2500   100.2905
  220.5000   -49.3580     8.9466     8.8773   121.5221  -999.2500   106.7005
  221.0000   -49.3124     8.9108     8.8551   121.3230  -999.2500   111.7877
  221.5000   -49.2668     8.8455     8.8330   121.6103  -999.2500   112.0499
