~VERSION INFORMATION
 VERS.                2.0:   CWLS LOG ASCII STANDARD - VERSION 2.0
 WRAP.                 NO:   ONE LINE PER DEPTH STEP
~WELL INFORMATION
#MNEM.UNIT      DATA TYPE    INFORMATION
#----------   ------------   ------------------------------
 STRT.F            0.0000:   START DEPTH
 STOP.F          883.0000:   STOP DEPTH
 STEP.F            0.5000:   STEP LENGTH
 NULL.          -999.2500:   NO VALUE
 COMP.       F D SERV INC:   COMPANY
 WELL. N P R 3 SX-35 #26-1-35:   WELL
 FLD .             TEAPOT:   FIELD
 LOC .      S35 T39N R78W:   LOCATION
 CNTY.            NATRONA:   COUNTY
 STAT.            WYOMING:   STATE
 CTRY. UNITED STATES OF AMERICA:   COUNTRY
 SRVC.     Atlas Wireline:   SERVICE COMPANY
 DATE.        21-NOV-1991:   LOGDATE
 API .       490252247800:   API NUMBER
~CURVE INFORMATION
#MNEM.UNIT       API CODE    CURVE DESCRIPTION
#----------   ------------   ------------------------------
 DEPT.F                  :   
 GRR .GAPI   07 310 01 00:   GAMMA RAY
 RILD.OHMM   07 120 46 00:   INDUCTION LOG DEEP RESISTIVITY
 RILM.OHMM   07 120 44 00:   INDUCTION LOG MEDIUM RESISTIVITY
 SPR .MV     07 010 01 00:   SPONTANEOUS POTENTIAL
 RFOC.OHMM   07 270 04 00:   RESISTIVITY FOCUSED LOG
~PARAMETER INFORMATION
#MNEM.UNIT          VALUE    DESCRIPTION
#----------   ------------   ------------------------------
 PD  .                 GL:   PERMANENT DATUM
 EPD .F              5098:   ELEVATION PERMANENT DATUM
 LMF .                 KB:   LOG MEASURED FROM
 DAPD.F                10:   FEET ABOVE PERMANENT DATUM
 DMF .                 KB:   DRILLING MEASURED FROM
 EKB .F              5108:   KELLING BUSHING
 EGL .F              5098:   GROUND LEVEL
 DATE.        21-NOV-1991:   RUN DATE
 RUN .                  1:   RUN NUMBER
 DD  .F               939:   DEPTH DRILLER
 DL  .F               887:   DEPTH LOGGER
 BLI .F               884:   BOTTOM LOG INTERVAL
 CS  .IN            9.625:   CASING SIZE
 CBD .F                40:   CASING BOTTOM DRILLER
 CBL .F                47:   CASING BOTTOM LOGGER
 BS  .IN             8.75:   BIT SIZE
 BSD .F               939:   BIT SIZE AT DEPTH
 DFT .               LSND:   DRILLING FLUID TYPE
 MSS .            MUDTANK:   MUD SAMPLE SOURCE
 RMS .OHMM           0.32:   RESISTIVITY MUD SAMPLE
 MST .F                90:   MUD SAMPLE TEMPERATURE
 RMB .OHMM           0.27:   RESISTIVITY MUD AT BHT
 BHT .F               103:   BOTTOM HOLE TEMPERATURE
 TCS .HRS               2:   TIME CURCULATED STOPPED
 MRT .F               103:   MAXIMUM RECORDED TEMPERATURE
 LUN .            HL 6307:   LOGGING UNIT NUMBER
 LUL .             CASPER:   LOGGING UNIT LOCATION
 ENGI.            WADDELL:   RECORDING ENGINEER
 WITN.             STRONG:   WITNESSED BY
 CLNT.            A2DTECH:   CLIENT CODE
 ORIG.           5" PRINT:   ORIGIN OF DATA
 UWI .       490252247800:   UNIQUE WELL ID
 DICO. A2D Technologies, Inc.:   DIGITIZING COMPANY
~OTHER INFORMATION
~A    DEPT      GRR      RILD       RILM        SPR       RFOC   
# ...
  305.0000   121.0926     5.0960     5.7747   -46.1614     5.3800
  305.5000   122.0030     5.0950     5.8583   -45.8608     5.4348
  306.0000   116.0850     5.0940     5.9397   -45.5603     5.4334
  306.5000   113.3430     5.1289     5.9750   -45.2597     5.4789
  307.0000   111.9879     5.0968     5.9730   -44.9592     5.5069
  307.5000   114.4917     5.0854     5.9298   -44.8104     5.5054
  308.0000   115.8574     5.0486     5.8053   -44.6576     5.4625
  308.5000   113.1259     5.0121     5.6835   -44.3610     5.3503
  309.0000   109.2564     4.9413     5.6424   -44.2130     5.2750
  309.5000   106.7527     4.9399     5.6804   -44.0634     5.3478
  310.0000   107.4355     4.9383     5.7587   -44.0671     5.3460
  310.5000   109.4985     4.9525     5.8229   -44.2218     5.3446
  311.0000   110.1669     4.9830     5.9044   -44.8317     5.2689
  311.5000   111.9879     5.0038     5.9644   -45.2899     5.1944
  312.0000   114.7193     5.0374     6.0285   -45.7542     5.1973
  312.5000   118.3612     5.0714     6.0351   -46.0799     5.2643
  313.0000   120.4097     5.1412     6.0700   -46.2099     5.4500
  313.5000   117.9059     5.2518     6.1548   -46.1716     5.6819
  314.0000   111.7602     5.3955     6.2409   -46.1731     5.9651
  314.5000   107.6396     5.6248     6.3727   -46.0228     5.8807
  315.0000   108.3460     5.8231     6.5071   -45.8574     5.9203
  315.5000   110.1669     6.0284     6.6444   -45.5708     5.9615
  316.0000   111.9879     6.1974     6.7374   -45.2688     6.1705
  316.5000   111.0774     6.2829     6.7841   -44.9668     6.2991
  317.0000   110.3945     6.3252     6.7835   -44.9683     6.2536
  317.5000   111.3050     6.2751     6.7360   -44.6662     6.1651
  318.0000   111.3020     6.1472     6.6886   -44.3642     6.0356
  318.5000   107.8255     6.0182     6.5954   -44.2855     5.9502
  319.0000   106.7527     5.8508     6.4582   -44.0637     5.8252
  319.5000   108.3460     5.7280     6.3682   -44.3690     5.7399
  320.0000   107.2079     5.5687     6.2765   -44.3705     5.5826
  320.5000   100.6070     5.4900     5.9794   -44.5237     5.3894
  321.0000    98.1032     5.0827     5.1997   -44.6769     5.3880
  321.5000   100.6070     3.8165     3.9598   -44.9818     5.2747
  322.0000   102.4521     3.0298     3.1446   -45.2888     4.9174
  322.5000   104.7041     2.5438     2.4799   -46.0698     3.9310
  323.0000   109.0288     2.1061     2.0536   -46.8075     2.9509
  323.5000   116.5402     1.8440     1.9830   -46.9608     2.3483
  324.0000   120.6373     1.7433     2.0119   -47.2657     2.1534
  324.5000   119.0440     1.6948     2.1410   -46.9633     2.1229
  325.0000   115.8574     1.7062     2.3280   -46.0547     2.1223
  325.5000   115.4021     1.7819     2.7913   -45.6009     2.1218
  326.0000   116.8103     1.9745     3.4415   -44.8275     2.2431
  326.5000   116.3126     2.3669     4.4870   -43.9350     3.2935
  327.0000   108.1184     3.2174     5.4938   -43.4813     4.6452
  327.5000   101.0622     4.1648     5.9321   -43.3306     6.6813
  328.0000    96.0546     5.6218     6.5257   -43.4842     6.9991
  328.5000    93.5508     6.9301     7.6263   -43.7892     7.1455
  329.0000    91.0470     8.5476     9.0803   -43.9424     7.3461
  329.5000    90.5918     9.5687     9.6686   -44.5605     7.7123
  330.0000    92.5038     9.9559     9.7358   -45.3114     8.1535
  330.5000    93.7785     8.9628     9.0153   -45.9198     8.2660
  331.0000    92.1851     8.1259     8.1182   -46.6800     7.9733
  331.5000    92.6404     7.3158     7.5701   -47.4402     7.5436
  332.0000    94.0061     6.5407     7.3611   -48.0487     7.5415
  332.5000    95.1442     5.6866     7.5164   -49.2641     7.3317
  333.0000    96.5099     5.1518     6.5362   -49.8756     6.6932
  333.5000    99.2807     4.7298     5.8449   -50.5048     5.3505
  334.0000   104.1091     4.5123     5.4503   -51.2415     3.5916
  334.5000   112.8983     4.4797     5.8972   -50.0290     3.4909
  335.0000   115.6297     4.4785     6.5343   -49.1200     3.9566
  335.5000   106.9803     4.5402     6.7191   -48.2110     5.4576
  336.0000    99.4689     4.7003     6.8131   -47.4538     7.0168
  336.5000    96.5099     5.1816     6.8603   -46.3930     7.6285
  337.0000    98.5584     5.9270     7.0050   -45.7704     7.3646
  337.5000    99.0137     6.8319     7.3043   -44.8789     7.0603
  338.0000    96.5099     7.6010     7.7234   -44.4251     7.4122
  338.5000    96.0546     7.8147     8.1715   -43.8196     8.0590
  339.0000    96.9651     7.8674     8.3387   -43.6693     7.9845
  339.5000    99.0137     7.8100     8.4554   -43.6708     7.7228
  340.0000   101.0622     7.8626     8.5738   -43.8240     7.9953
  340.5000    99.0137     8.2542     8.7547   -44.2913     8.3938
  341.0000    98.3293     8.4857     8.8773   -44.8895     8.6899
  341.5000    99.4970     8.6027     8.7535   -45.6497     8.7491
  342.0000   100.1517     8.4806     8.7529   -45.9547     8.7461
  342.5000    96.0546     8.3607     8.8476   -46.4114     8.6829
  343.0000    92.1851     8.4176     9.3192   -46.7163     8.5595
  343.5000    88.5433     8.4742     9.7173   -46.8695     8.4976
  344.0000    86.7223     8.7113     9.9223   -47.1745     8.5554
  344.5000    86.7003     8.8314     9.8528   -47.4795     8.7950
  345.0000    88.5660     8.9532     9.9212   -47.1778     9.2981
  345.5000    91.1586     9.0767     9.8513   -47.0275     9.6262
  346.0000    94.6889     9.2012     9.8506   -46.8772     9.7590
  346.5000    93.5508     9.2638     9.8499   -46.2717     9.6884
  347.0000    92.6404     9.4567     9.8491   -45.8180     9.6851
  347.5000    98.5584     9.5211     9.8485   -45.5159     9.6151
  348.0000   105.1593     9.5846     9.8478   -45.3657     9.5455
  348.5000   105.8809     9.6491     9.8471   -45.2154     9.5430
  349.0000   103.3050     9.6518     9.9155   -44.9137     9.5404
  349.5000   101.0622     9.7114     9.9843   -44.9150     9.4714
  350.0000    99.4689     9.7768    10.0888   -44.9167     9.6021
  350.5000    96.7375     9.8420    10.1942   -45.0699     9.6668
  351.0000    93.0956     9.8393    10.2650   -45.2231     9.7995
  351.5000    93.3232     9.9063    10.3360   -45.2246     9.7969
  352.0000    96.7375     9.9609    10.4078   -45.5299     9.9321
  352.5000    99.9241    10.0203    10.4800   -46.1383     9.9990
  353.0000   102.2518    10.0798    10.4793   -46.8985    10.0664
  353.5000   104.7041    10.1697    10.6259   -47.6587    10.2053
  354.0000   104.2489    10.2375    10.7756   -47.9742    10.2741
  354.5000    98.7860    10.3781    11.0127   -48.2686    10.5618
  355.0000    94.0061    10.6708    11.2339   -48.5736    10.8583
  355.5000    90.5918    10.9797    11.3121   -48.7269    11.3995
  356.0000    90.5675    11.4312    12.3860   -48.5765    13.1059
  356.5000    90.8194    12.2539    14.2414   -48.7395    15.1734
  357.0000    88.0017    13.4137    18.2298   -48.9039    18.0650
  357.5000    78.3005    14.6834    21.5807   -47.5419    24.0520
  358.0000    70.1062    16.1859    23.6250   -46.9378    31.5377
  358.5000    67.3748    19.8123    29.7393   -46.4855    33.1529
  359.0000    65.5539    22.6557    35.1557   -46.1849    30.4759
  359.5000    64.1882    23.4113    31.2122   -45.7334    31.3313
  360.0000    63.0501    22.1300    21.7026   -45.1293    33.1260
  360.5000    62.7269    20.3443    15.0212   -44.3735    31.9778
  361.0000    68.4119    17.9353    13.3035   -43.4660    28.9896
  361.5000    73.6427    14.8485    12.1457   -42.7102    22.7696
  362.0000    83.1983    13.2744    11.3235   -41.9222    15.1263
  362.5000    88.8843    12.1752    10.6309   -40.4406    10.7375
  363.0000    89.1086    10.7574    10.4077   -39.6841     9.8712
  363.5000    88.4203    10.0285    10.1892   -39.5353     9.5296
  364.0000    90.0334     9.6137     9.6960   -39.6907     9.3948
  364.5000    91.8247     9.3458     9.3645   -39.8454     9.3269
  365.0000    93.8688     9.2130     9.5601   -40.1518     9.5219
  365.5000    97.2787     9.2099     9.8283   -40.4583     9.6622
