~VERSION INFORMATION
 VERS.                2.0:   CWLS LOG ASCII STANDARD - VERSION 2.0
 WRAP.                 NO:   ONE LINE PER DEPTH STEP
~WELL INFORMATION
#MNEM.UNIT      DATA TYPE    INFORMATION
#----------   ------------   ------------------------------
 STRT.F          103.0000:   START DEPTH
 STOP.F          898.0000:   STOP DEPTH
 STEP.F            0.5000:   STEP LENGTH
 NULL.          -999.2500:   NO VALUE
 COMP. LAWRENCE/ALLISON INC:   COMPANY
 WELL. NPR 3 32-66 SX #2-2:   WELL
 FLD .             TEAPOT:   FIELD
 LOC .       S2 T38N R78W:   LOCATION
 CNTY.            NATRONA:   COUNTY
 STAT.            WYOMING:   STATE
 CTRY. UNITED STATES OF AMERICA:   COUNTRY
 SRVC.      Dresser Atlas:   SERVICE COMPANY
 DATE.        30-JAN-1986:   LOGDATE
 API .       490251106900:   API NUMBER
~CURVE INFORMATION
#MNEM.UNIT       API CODE    CURVE DESCRIPTION
#----------   ------------   ------------------------------
 DEPT.F                  :   
 RILD.OHMM   07 120 46 00:   INDUCTION LOG DEEP RESISTIVITY
 RILM.OHMM   07 120 44 00:   INDUCTION LOG MEDIUM RESISTIVITY
 CALD.IN     45 280 60 00:   CALIPER FROM DENSITY
 GRD .GAPI   45 310 01 00:   GAMMA RAY FROM DENSITY LOG
 CORR.G/C3   45 356 01 00:   DENSITY CORRECTION
 PORD.DEC    45 890 10 00:   POROSITY DENSITY LIMESTONE
 DEN .G/C3   45 350 01 00:   COMPENSATED BULK DENSITY
~PARAMETER INFORMATION
#MNEM.UNIT          VALUE    DESCRIPTION
#----------   ------------   ------------------------------
 PD  .                 GL:   PERMANENT DATUM
 EPD .F              5136:   ELEVATION PERMANENT DATUM
 LMF .                 GL:   LOG MEASURED FROM
 DMF .                 GL:   DRILLING MEASURED FROM
 EGL .F              5136:   GROUND LEVEL
 DATE.        30-JAN-1986:   RUN DATE
 RUN .                  1:   RUN NUMBER
 DD  .F               885:   DEPTH DRILLER
 DL  .F               902:   DEPTH LOGGER
 BLI .F               894:   BOTTOM LOG INTERVAL
 CS  .IN            8.625:   CASING SIZE
 CBD .F               130:   CASING BOTTOM DRILLER
 CBL .F               126:   CASING BOTTOM LOGGER
 BS  .IN             6.25:   BIT SIZE
 BSD .F               885:   BIT SIZE AT DEPTH
 DFT .                AIR:   DRILLING FLUID TYPE
 LUN .            HL-6264:   LOGGING UNIT NUMBER
 LUL .           GILLETTE:   LOGGING UNIT LOCATION
 ENGI.     P. M. FAHLSING:   RECORDING ENGINEER
 WITN.        LINDA FIVAS:   WITNESSED BY
 CLNT.            A2DTECH:   CLIENT CODE
 ORIG.           5" PRINT:   ORIGIN OF DATA
 UWI .       490251106900:   UNIQUE WELL ID
 DICO. A2D Technologies, Inc.:   DIGITIZING COMPANY
 R1  . POROSITY WITH LIMESTONE:   REMARKS 1
~OTHER INFORMATION
~A   DEPT     RILD       RILM       CALD        GRD       CORR       PORD        DEN   
# ...
  649.0000     6.6334     6.5923     7.3651   155.8559     0.0744     0.1305     2.4622
  649.5000     6.3256     6.3718     7.3798   155.5556     0.0729     0.1281     2.4705
  650.0000     5.9819     5.9941     7.3787   157.9580     0.0693     0.1238     2.4796
  650.5000     5.5591     5.7165     7.3686   158.5586     0.0662     0.1214     2.4796
  651.0000     5.0149     5.0512     7.3584   159.1592     0.0637     0.1221     2.4766
  651.5000     4.9499     4.4466     7.3494   160.9610     0.0667     0.1375     2.4433
  652.0000     4.7526     4.3143     7.3494   166.3664     0.0667     0.1669     2.3986
  652.5000     4.8230     4.5057     7.3494   160.0601     0.0712     0.1664     2.3979
  653.0000     4.8270     4.7631     7.3494   155.5556     0.0788     0.1563     2.4191
  653.5000     4.9325     4.8666     7.3494   151.3513     0.0908     0.1332     2.4667
  654.0000     5.1462     4.9049     7.3494   147.7477     0.1331     0.1082     2.5098
  654.5000     5.7143     5.5228     7.3494   145.0450     0.1361     0.0967     2.5219
  655.0000     6.1718     5.9654     7.3494   142.3423     0.1208     0.0994     2.5174
  655.5000     6.6659     6.4434     7.3494   140.5405     0.0841     0.1055     2.4955
  656.0000     7.1006     7.0081     7.3494   141.1411     0.0757     0.1046     2.5083
  656.5000     7.3139     7.3121     7.3494   145.0450     0.0925     0.1022     2.5113
  657.0000     7.4130     7.3696     7.3494   147.1471     0.0953     0.1003     2.5114
  657.5000     7.4733     7.4276     7.3494   145.9359     0.1028     0.1019     2.5098
  658.0000     7.6339     7.5381     7.3494   144.7448     0.1058     0.1000     2.5144
  658.5000     7.6934     7.7034     7.3343   145.7027     0.0967     0.1016     2.5144
  659.0000     7.8073     7.7640     7.3193   148.4003     0.0922     0.1019     2.5105
  659.5000     7.8139     7.7711     7.3193   150.2162     0.0876     0.1004     2.5098
  660.0000     7.8205     7.7227     7.3193   151.3513     0.0816     0.0961     2.5163
  660.5000     7.8271     7.7315     7.3193   150.7507     0.0785     0.0931     2.5234
  661.0000     7.7797     7.7371     7.3193   150.1501     0.0785     0.0913     2.5250
  661.5000     7.6775     7.7441     7.3193   150.7507     0.0966     0.0907     2.5250
  662.0000     7.6856     7.7511     7.3193   151.6517     0.1072     0.0913     2.5227
  662.5000     7.6921     7.7580     7.3193   152.8529     0.1026     0.0928     2.5053
  663.0000     7.7521     7.7114     7.3193   154.0540     0.0966     0.1088     2.4917
  663.5000     7.7587     7.7186     7.3042   154.6546     0.0936     0.1118     2.4894
  664.0000     7.8735     7.7256     7.2892   153.7538     0.0905     0.1112     2.4947
  664.5000     7.8877     7.7864     7.2892   152.5526     0.0905     0.1088     2.5008
  665.0000     8.0564     7.9571     7.3042   148.9489     0.0875     0.1052     2.5083
  665.5000     8.2267     8.1316     7.3042   144.7448     0.0844     0.1040     2.5136
  666.0000     8.1768     8.1937     7.3042   140.8408     0.0799     0.1016     2.5144
  666.5000     7.7426     7.7609     7.3042   139.3393     0.0754     0.0962     2.5189
  667.0000     6.9846     7.1983     7.3193   140.2402     0.0784     0.0928     2.5257
  667.5000     6.2141     6.2297     7.3193   140.5405     0.0784     0.0889     2.5356
  668.0000     5.4150     4.2018     7.3193   144.1441     0.0860     0.0874     2.5401
  668.5000     5.1275     4.0057     7.3193   153.7538     0.0969     0.0946     2.5333
  669.0000     5.0953     4.2095     7.3193   159.7598     0.1172     0.1559     2.3616
  669.5000     5.1361     4.4843     7.3193   155.2552     0.1507     0.1894     2.3646
  670.0000     5.1762     4.8227     7.3193   142.0420     0.1522     0.1722     2.3933
  670.5000     5.2893     5.1337     7.3193   134.8348     0.1115     0.1445     2.4501
  671.0000     5.6734     5.5794     7.3193   132.1321     0.0873     0.1125     2.5069
  671.5000     6.4767     6.1554     7.3193   130.9309     0.0903     0.0914     2.5258
  672.0000     7.8692     7.5185     7.3193   130.3303     0.0993     0.0884     2.5325
  672.5000     8.6942     8.5243     7.3193   134.2342     0.0993     0.0878     2.5340
  673.0000     9.1835     9.2075     7.3193   138.7387     0.0902     0.0884     2.5316
  673.5000     9.5092     9.5406     7.3193   144.7448     0.0676     0.0887     2.5295
  674.0000     9.4515     9.4812     7.3193   148.0480     0.0615     0.0854     2.5401
  674.5000     9.3294     9.2327     7.3042   148.9489     0.0796     0.0793     2.5582
  675.0000     9.0195     9.0511     7.3042   148.9489     0.0902     0.0763     2.5643
  675.5000     8.8396     8.7511     7.3042   148.3483     0.0932     0.0836     2.5537
  676.0000     8.7860     8.8199     7.3193   148.3483     0.0902     0.0920     2.5234
  676.5000     9.2963     9.2665     7.3193   147.7477     0.0901     0.0968     2.5129
  677.0000     9.6320     9.5354     7.3193   141.7417     0.0962     0.0968     2.5129
  677.5000    10.2600    10.1579     7.3193   132.1321     0.1022     0.1011     2.5091
  678.0000    11.1585    11.0482     7.3494   113.5135     0.1112     0.1204     2.4826
  678.5000    12.2200    12.1841     7.3494    95.1952     0.1263     0.1306     2.4584
  679.0000    14.1448    14.2021     7.3494    88.5583     0.1444     0.1328     2.4554
  679.5000    15.4903    15.5918     7.3645    82.8304     0.1413     0.1379     2.4508
  680.0000    16.4527    16.2711     7.3795    78.0781     0.1092     0.1771     2.4145
  680.5000    18.2620    17.6872     7.3795    80.6424     0.0387     0.2284     2.3116
  681.0000    19.8054    19.0686     7.3795    85.9881     0.0650     0.2667     2.2481
  681.5000    20.4992    19.8882     7.3795    89.3126     0.0917     0.2658     2.2347
  682.0000    20.5165    20.1840     7.3795    91.5916     0.1202     0.2513     2.2678
  682.5000    20.2514    20.0624     7.3795    89.3795     0.0990     0.2314     2.2905
  683.0000    19.9889    19.8051     7.3795    85.8859     0.0718     0.2305     2.2928
  683.5000    19.4600    19.4156     7.3645    85.2853     0.0673     0.2366     2.2844
  684.0000    19.3379    19.2948     7.3645    88.2883     0.0748     0.2405     2.2784
  684.5000    19.6283    19.3169     7.3494    90.6907     0.0839     0.2281     2.2963
  685.0000    19.9189    19.6041     7.3494    91.2913     0.0854     0.2088     2.3424
  685.5000    20.3542    19.8957     7.3494    91.2913     0.0808     0.1799     2.3930
  686.0000    20.9436    20.1916     7.3494    89.7898     0.0748     0.1759     2.3737
  686.5000    21.6998    21.3613     7.3494    89.4895     0.0612     0.2218     2.3162
  687.0000    22.4833    22.4427     7.3494    89.4895     0.0566     0.2387     2.2753
  687.5000    23.6200    23.2546     7.3494    88.2883     0.0581     0.2483     2.2617
  688.0000    24.1320    23.7645     7.3494    85.5856     0.0687     0.2556     2.2458
  688.5000    23.8193    23.1363     7.3494    80.4805     0.0777     0.2731     2.2103
  689.0000    23.5020    22.6761     7.3494    84.0841     0.0837     0.2794     2.2179
  689.5000    23.2077    22.5402     7.3494    89.1892     0.0777     0.2652     2.2511
  690.0000    23.2273    22.7284     7.3494    99.6997     0.0775     0.2345     2.2935
  690.5000    23.2469    23.3770     7.3494   122.5225     0.0837     0.2260     2.3033
  691.0000    23.7550    23.8895     7.3494   125.8258     0.0927     0.2275     2.2965
  691.5000    24.6127    24.4133     7.3494   111.4114     0.1108     0.2357     2.2723
  692.0000    25.1506    24.7763     7.3494    92.4925     0.1229     0.2461     2.2511
  692.5000    25.8788    25.6727     7.3494    89.1892     0.1166     0.2595     2.2436
  693.0000    26.8076    26.5953     7.3494    90.0901     0.1059     0.2598     2.2421
  693.5000    26.1027    25.7196     7.3494    91.2913     0.0937     0.2589     2.2436
  694.0000    25.2357    25.2137     7.3494    94.2943     0.0830     0.2568     2.2496
