~VERSION INFORMATION
 VERS.                2.0:   CWLS LOG ASCII STANDARD - VERSION 2.0
 WRAP.                 NO:   ONE LINE PER DEPTH STEP
~WELL INFORMATION
#MNEM.UNIT      DATA TYPE    INFORMATION
#----------   ------------   ------------------------------
 STRT.F         1000.5000:   START DEPTH
 STOP.F         2590.0000:   STOP DEPTH
 STEP.F            0.5000:   STEP LENGTH
 NULL.          -999.2500:   NO VALUE
 COMP. LAWRENCE/ALLISON INC:   COMPANY
 WELL.    LAWENCE #14x-10:   WELL
 FLD .               NONE:   FIELD
 LOC .      S10 T38N R78W:   LOCATION
 CNTY.            NATRONA:   COUNTY
 STAT.            WYOMING:   STATE
 CTRY. UNITED STATES OF AMERICA:   COUNTRY
 SRVC.            Unknown:   SERVICE COMPANY
 DATE.        13-SEP-1988:   LOGDATE
 API .       490251137000:   API NUMBER
~CURVE INFORMATION
#MNEM.UNIT       API CODE    CURVE DESCRIPTION
#----------   ------------   ------------------------------
 DEPT.F                  :   
 ROP .MIN/FT 91 810 01 00:   RATE OF DRILLING PENETRATION
 TGAS.UNITS  91 830 01 00:   TOTAL GAS FROM HOTWIRE
~PARAMETER INFORMATION
#MNEM.UNIT          VALUE    DESCRIPTION
#----------   ------------   ------------------------------
 EKB .F              5278:   KELLING BUSHING
 EGL .F              5268:   GROUND LEVEL
 DATE.         09-13-1988:   RUN DATE
 RUN .                  1:   RUN NUMBER
 DD  .F              2590:   DEPTH DRILLER
 BLI .F              2590:   BOTTOM LOG INTERVAL
 TLI .F              1000:   TOP LOG INTERVAL
 CS  .IN                7:   CASING SIZE
 CBD .F               991:   CASING BOTTOM DRILLER
 BSD .F              2590:   BIT SIZE AT DEPTH
 ENGI. R. HUSK D. PETERSON:   RECORDING ENGINEER
 CLNT.            A2DTECH:   CLIENT CODE
 ORIG.           5" PRINT:   ORIGIN OF DATA
 UWI .       490251137000:   UNIQUE WELL ID
 DICO. A2D Technologies, Inc.:   DIGITIZING COMPANY
~OTHER INFORMATION
~A  DEPT       ROP         TGAS 
# ...
 2337.0000     0.5021    28.0053
 2337.5000     0.4365    27.9249
 2338.0000     0.3937    27.8445
 2338.5000     0.3805    27.7641
 2339.0000     0.3805    27.6838
 2339.5000     0.4030    27.6034
 2340.0000     0.4058    27.4540
 2340.5000     0.3968    26.5070
 2341.0000     0.3878    25.5600
 2341.5000     0.3772    24.6130
 2342.0000     0.4079    23.6660
 2342.5000     0.4491    22.7189
 2343.0000     0.4692    21.7719
 2343.5000     0.4999    21.5925
 2344.0000     0.5200    21.7084
 2344.5000     0.4873    21.8243
 2345.0000     0.4228    21.9402
 2345.5000     0.3583    22.0561
 2346.0000     0.3029    22.1720
 2346.5000     0.2369    22.2878
 2347.0000     0.1755    22.4037
 2347.5000     0.1890    22.5196
 2348.0000     0.2336    22.6355
 2348.5000     0.2974    22.7514
 2349.0000     0.3578    22.8673
 2349.5000     0.4000    22.9832
 2350.0000     0.4252    23.0991
 2350.5000     0.4326    23.2150
 2351.0000     0.4327    23.3308
 2351.5000     0.4434    23.4467
 2352.0000     0.4435    23.5626
 2352.5000     0.4436    23.6785
 2353.0000     0.4437    23.7944
 2353.5000     0.4438    23.9103
 2354.0000     0.4439    24.0262
 2354.5000     0.4018    24.1421
 2355.0000     0.3597    24.2580
 2355.5000     0.3282    24.3738
 2356.0000     0.3599    24.4897
 2356.5000     0.4022    24.6056
 2357.0000     0.4234    24.7215
 2357.5000     0.4235    24.8374
 2358.0000     0.4131    24.9533
 2358.5000     0.4026    25.0692
 2359.0000     0.3922    25.1851
 2359.5000     0.3923    25.3010
 2360.0000     0.3818    25.4075
 2360.5000     0.3820    25.3826
 2361.0000     0.3926    25.3595
 2361.5000     0.4138    25.3364
 2362.0000     0.4456    25.3133
 2362.5000     0.4668    25.2902
 2363.0000     0.4985    25.2671
 2363.5000     0.5408    25.2440
 2364.0000     0.6042    25.2210
 2364.5000     0.5727    25.1979
 2365.0000     0.5306    25.1748
 2365.5000     0.5096    25.1517
 2366.0000     0.5308    25.1286
 2366.5000     0.5415    25.1055
 2367.0000     0.5627    25.0824
 2367.5000     0.6261    25.0593
 2368.0000     0.6472    25.0363
 2368.5000     0.5630    25.0132
 2369.0000     0.5209    24.9901
 2369.5000     0.4788    24.9670
 2370.0000     0.4473    24.9439
 2370.5000     0.4474    24.9208
 2371.0000     0.4369    24.8977
 2371.5000     0.4265    24.8747
 2372.0000     0.4371    24.8516
 2372.5000     0.4478    24.8285
 2373.0000     0.4479    24.8054
 2373.5000     0.4480    24.7823
 2374.0000     0.4481    24.7765
 2374.5000     0.4588    24.8294
 2375.0000     0.4800    24.8824
 2375.5000     0.5012    24.9353
 2376.0000     0.4169    24.9882
 2376.5000     0.3537    25.0412
 2377.0000     0.3116    25.0941
 2377.5000     0.2695    25.1471
 2378.0000     0.2907    25.2000
 2378.5000     0.3119    25.2529
 2379.0000     0.2804    25.3059
 2379.5000     0.2699    25.3588
 2380.0000     0.2489    25.4160
 2380.5000     0.2069    25.4158
 2381.0000     0.1858    25.4156
 2381.5000     0.2387    25.4154
 2382.0000     0.2810    25.4152
 2382.5000     0.3339    25.4150
 2383.0000     0.3867    25.4148
 2383.5000     0.4185    25.4146
 2384.0000     0.4397    25.4144
 2384.5000     0.4292    25.4141
 2385.0000     0.4188    25.4139
 2385.5000     0.4189    25.4137
 2386.0000     0.4295    25.4135
 2386.5000     0.4508    25.4133
 2387.0000     0.4931    25.4131
 2387.5000     0.5143    25.4129
 2388.0000     0.5038    25.4126
 2388.5000     0.4723    25.4124
 2389.0000     0.4407    25.4122
 2389.5000     0.4197    25.4120
 2390.0000     0.3987    25.4118
 2390.5000     0.3989    25.4116
 2391.0000     0.4095    25.4114
 2391.5000     0.4518    25.4111
 2392.0000     0.5363    25.4109
 2392.5000     0.4520    25.4107
 2393.0000     0.4099    25.4105
 2393.5000     0.3889    25.4103
 2394.0000     0.3896    25.4101
 2394.5000     0.3970    25.4099
 2395.0000     0.4008    25.4096
 2395.5000     0.4008    25.4094
 2396.0000     0.4008    25.4092
 2396.5000     0.4008    25.4090
 2397.0000     0.4008    25.4088
 2397.5000     0.4008    25.4086
 2398.0000     0.4008    25.4084
 2398.5000     0.4008    25.4082
 2399.0000     0.3903    25.4079
 2399.5000     0.3797    25.4077
 2400.0000     0.3692    25.3743
 2400.5000     0.3692    24.9589
 2401.0000     0.3692    24.5434
 2401.5000     0.3683    24.1280
 2402.0000     0.3673    23.7126
 2402.5000     0.3664    23.2972
 2403.0000     0.3654    22.8818
 2403.5000     0.3643    22.4664
 2404.0000     0.3741    22.0510
 2404.5000     0.3945    21.6356
 2405.0000     0.4148    21.2201
 2405.5000     0.4563    20.8047
 2406.0000     0.4873    12.1967
 2406.5000     0.4759    12.5185
 2407.0000     0.4857    12.8403
 2407.5000     0.4955    13.1621
 2408.0000     0.5264    13.4839
 2408.5000     0.5256    13.8057
 2409.0000     0.5245    14.1275
 2409.5000     0.4921    14.4494
 2410.0000     0.4805    14.7712
 2410.5000     0.4697    15.0930
 2411.0000     0.4689    15.4148
 2411.5000     0.4787    15.7366
 2412.0000     0.4810    16.0584
 2412.5000     0.5111    16.3802
 2413.0000     0.5346    16.7020
 2413.5000     0.5812    17.0238
 2414.0000     0.6521    17.3457
 2414.5000     0.6960    17.6675
 2415.0000     0.6448    17.9893
 2415.5000     0.6098    18.3111
 2416.0000     0.6672    18.6329
 2416.5000     0.7341    18.9547
 2417.0000     0.7840    19.2765
 2417.5000     0.8666    19.5983
 2418.0000     0.9178    19.9201
 2418.5000     0.8266    20.2420
 2419.0000     0.7572    20.5638
 2419.5000     0.7163    20.8856
 2420.0000     0.7106    21.1808
 2420.5000     0.7169    20.8372
 2421.0000     0.7232    20.5198
 2421.5000     0.7302    20.2024
 2422.0000     0.7389    19.8849
 2422.5000     0.7197    19.5675
 2423.0000     0.6785    19.2501
 2423.5000     0.6535    18.9327
 2424.0000     0.6589    18.6153
 2424.5000     0.6803    18.2978
 2425.0000     0.7082    17.9804
 2425.5000     0.7477    17.6630
 2426.0000     0.7609    17.3456
 2426.5000     0.7229    17.0281
 2427.0000     0.6663    16.7107
 2427.5000     0.6228    16.3933
 2428.0000     0.5793    16.0759
 2428.5000     0.5357    15.7584
 2429.0000     0.4713    15.4410
 2429.5000     0.4065    15.1236
 2430.0000     0.3916    14.8062
 2430.5000     0.4260    14.4888
 2431.0000     0.4860    14.1713
 2431.5000     0.5183    13.8539
 2432.0000     0.5155    13.5365
 2432.5000     0.4767    13.2191
 2433.0000     0.4080    12.9016
 2433.5000     0.3617    12.5842
 2434.0000     0.3597    12.2668
 2434.5000     0.3781    11.9494
 2435.0000     0.4076    11.6319
 2435.5000     0.4231    11.3145
 2436.0000     0.4250    10.9971
 2436.5000     0.3929    10.6797
 2437.0000     0.3504    10.3623
 2437.5000     0.3501    10.0448
 2438.0000     0.3816     9.7274
 2438.5000     0.3919     9.4100
 2439.0000     0.4233     9.0926
 2439.5000     0.4337     8.7751
 2440.0000     0.4440     8.4663
 2440.5000     0.4375     8.2546
 2441.0000     0.4324     8.0430
 2441.5000     0.4319     7.8313
 2442.0000     0.4313     7.6197
 2442.5000     0.4307     7.4080
 2443.0000     0.4345     7.1963
 2443.5000     0.4637     6.9847
 2444.0000     0.5028     6.7730
 2444.5000     0.4967     6.5614
 2445.0000     0.4691     6.3497
 2445.5000     0.4402     6.1381
 2446.0000     0.4271     5.9264
 2446.5000     0.4266     5.7147
 2447.0000     0.4260     5.5031
 2447.5000     0.4255     5.2914
 2448.0000     0.4248     5.0798
 2448.5000     0.4243     4.8681
 2449.0000     0.4450     4.6565
 2449.5000     0.4762     4.4448
 2450.0000     0.5074     4.2331
 2450.5000     0.5492     4.0215
 2451.0000     0.5710     3.8098
 2451.5000     0.6034     3.5982
 2452.0000     0.6322     3.3865
 2452.5000     0.6267     3.1748
 2453.0000     0.5911     2.9632
 2453.5000     0.5342     2.7515
 2454.0000     0.4579     2.5399
 2454.5000     0.4497     2.3282
 2455.0000     0.4492     2.1166
 2455.5000     0.4487     1.9049
 2456.0000     0.4528     1.6932
 2456.5000     0.4583     1.4816
 2457.0000     0.4577     1.2699
 2457.5000     0.4455     1.0583
 2458.0000     0.4230     0.8466
