~VERSION INFORMATION
 VERS.                2.0:   CWLS LOG ASCII STANDARD - VERSION 2.0
 WRAP.                 NO:   ONE LINE PER DEPTH STEP
~WELL INFORMATION
#MNEM.UNIT      DATA TYPE    INFORMATION
#----------   ------------   ------------------------------
 STRT.F            0.0000:   START DEPTH
 STOP.F          883.0000:   STOP DEPTH
 STEP.F            0.5000:   STEP LENGTH
 NULL.          -999.2500:   NO VALUE
 COMP.       F D SERV INC:   COMPANY
 WELL. N P R 3 SX-35 #26-1-35:   WELL
 FLD .             TEAPOT:   FIELD
 LOC .      S35 T39N R78W:   LOCATION
 CNTY.            NATRONA:   COUNTY
 STAT.            WYOMING:   STATE
 CTRY. UNITED STATES OF AMERICA:   COUNTRY
 SRVC.     Atlas Wireline:   SERVICE COMPANY
 DATE.        21-NOV-1991:   LOGDATE
 API .       490252247800:   API NUMBER
~CURVE INFORMATION
#MNEM.UNIT       API CODE    CURVE DESCRIPTION
#----------   ------------   ------------------------------
 DEPT.F                  :   
 GRR .GAPI   07 310 01 00:   GAMMA RAY
 RILD.OHMM   07 120 46 00:   INDUCTION LOG DEEP RESISTIVITY
 RILM.OHMM   07 120 44 00:   INDUCTION LOG MEDIUM RESISTIVITY
 SPR .MV     07 010 01 00:   SPONTANEOUS POTENTIAL
 RFOC.OHMM   07 270 04 00:   RESISTIVITY FOCUSED LOG
~PARAMETER INFORMATION
#MNEM.UNIT          VALUE    DESCRIPTION
#----------   ------------   ------------------------------
 PD  .                 GL:   PERMANENT DATUM
 EPD .F              5098:   ELEVATION PERMANENT DATUM
 LMF .                 KB:   LOG MEASURED FROM
 DAPD.F                10:   FEET ABOVE PERMANENT DATUM
 DMF .                 KB:   DRILLING MEASURED FROM
 EKB .F              5108:   KELLING BUSHING
 EGL .F              5098:   GROUND LEVEL
 DATE.        21-NOV-1991:   RUN DATE
 RUN .                  1:   RUN NUMBER
 DD  .F               939:   DEPTH DRILLER
 DL  .F               887:   DEPTH LOGGER
 BLI .F               884:   BOTTOM LOG INTERVAL
 CS  .IN            9.625:   CASING SIZE
 CBD .F                40:   CASING BOTTOM DRILLER
 CBL .F                47:   CASING BOTTOM LOGGER
 BS  .IN             8.75:   BIT SIZE
 BSD .F               939:   BIT SIZE AT DEPTH
 DFT .               LSND:   DRILLING FLUID TYPE
 MSS .            MUDTANK:   MUD SAMPLE SOURCE
 RMS .OHMM           0.32:   RESISTIVITY MUD SAMPLE
 MST .F                90:   MUD SAMPLE TEMPERATURE
 RMB .OHMM           0.27:   RESISTIVITY MUD AT BHT
 BHT .F               103:   BOTTOM HOLE TEMPERATURE
 TCS .HRS               2:   TIME CURCULATED STOPPED
 MRT .F               103:   MAXIMUM RECORDED TEMPERATURE
 LUN .            HL 6307:   LOGGING UNIT NUMBER
 LUL .             CASPER:   LOGGING UNIT LOCATION
 ENGI.            WADDELL:   RECORDING ENGINEER
 WITN.             STRONG:   WITNESSED BY
 CLNT.            A2DTECH:   CLIENT CODE
 ORIG.           5" PRINT:   ORIGIN OF DATA
 UWI .       490252247800:   UNIQUE WELL ID
 DICO. A2D Technologies, Inc.:   DIGITIZING COMPANY
~OTHER INFORMATION
~A    DEPT      GRR      RILD       RILM        SPR       RFOC   
# ...
  793.0000    84.9529     9.0436     7.7477   -47.9125     9.6771
  793.5000    84.2884     8.9770     7.7451   -47.6223     9.5375
  794.0000    87.9025     8.9649     7.7424   -47.4841     9.2696
  794.5000    88.1135     8.7828     7.8487   -47.3454     9.2000
  795.0000    86.0372     8.7181     7.9010   -47.2070     9.1309
  795.5000    86.4703     8.7151     7.8983   -47.3754     9.1258
  796.0000    85.5377     8.7110     7.8956   -47.6922     9.1197
  796.5000    82.5565     8.7078     7.9482   -48.0090     9.2443
  797.0000    82.3067     8.7041     7.9455   -48.3773     9.4337
  797.5000    84.1958     8.7619     7.9984   -48.7943     9.4960
  798.0000    87.7196     8.7973     7.9951   -49.1111     9.4895
  798.5000    86.5594     8.8474     8.0490   -49.4325     9.4187
  799.0000    86.0819     8.8736     8.0456   -49.6125     9.3476
  799.5000    88.7912     8.8698     7.9869   -49.7625     9.2774
  800.0000    89.4574     8.9285     7.9286   -49.6197     9.2078
  800.5000    84.6497     8.9245     7.8160   -49.4797     9.1965
  801.0000    83.2619     8.9207     7.7590   -49.1880     9.1325
  801.5000    84.6054     8.8546     7.7563   -49.0481     9.1275
  802.0000    88.5159     8.7894     7.7536   -48.9081     9.1225
  802.5000    90.2459     8.7247     7.6965   -48.6191     9.0540
  803.0000    90.2238     8.7211     7.6939   -48.3277     8.9873
  803.5000    91.5673     8.7175     7.5846   -48.1878     9.0880
  804.0000    92.9108     8.7139     7.5292   -48.0479     9.1080
  804.5000    91.0677     8.7095     7.4743   -47.9109     9.0401
  805.0000    89.6854     8.7060     7.5241   -47.9227     9.0349
  805.5000    92.1615     8.6419     7.4692   -48.0862     9.0940
  806.0000    93.5053     8.6383     7.3119   -48.4015     9.0897
  806.5000    89.8040     8.6348     7.1579   -49.3238     9.0854
  807.0000    86.5585     8.5712     7.1056   -50.0943     8.9550
  807.5000    84.3283     8.4489     7.3038   -50.8701     8.8266
  808.0000    81.8023     8.4454     7.4046   -51.5286     8.8223
  808.5000    80.8752     8.3579     7.1475   -52.1054     9.1947
  809.0000    82.8960     8.2407     6.9970   -52.1172    10.3497
  809.5000    84.2396     8.1235     7.2431   -51.8255    11.0163
  810.0000    86.9542     8.0853     7.7103   -51.6826    10.6330
  810.5000    89.8715     8.0258     7.9261   -51.3939    10.0501
  811.0000    92.0667     8.0787     7.9233   -50.9504     9.5658
  811.5000    93.4125     8.0184     7.7001   -50.5070     9.4285
  812.0000    91.5723     8.0053     7.4204   -50.0476     9.2284
  812.5000    89.7360     7.9562     7.0779   -49.4436     9.2231
  813.0000    91.5415     7.8976     6.9773   -48.7244     9.2187
  813.5000    92.2128     7.9085     6.9206   -48.4298     9.1507
  814.0000    91.2831     7.9466     6.9078   -48.2899     9.1458
  814.5000    92.4058     7.9433     6.8936   -48.6081     9.0779
  815.0000    93.3008     7.9399     6.8424   -49.0751     9.1372
  815.5000    92.3711     7.9924     6.8393   -49.5422     9.1328
  816.0000    90.0795     7.9884     6.8359   -50.0092     9.1284
  816.5000    90.9746     7.9855     6.7851   -50.4876     9.1882
  817.0000    95.2839     7.9822     6.7811   -51.0980     9.1188
  817.5000    95.9552     7.9788     6.7779   -51.5650     9.1795
  818.0000    93.6598     7.9755     6.8226   -51.8803     9.1741
  818.5000    89.2937     7.9722     6.8189   -51.7374     9.1697
  819.0000    87.2518     7.9134     6.8157   -51.4458     9.1015
  819.5000    86.5536     7.9095     6.8602   -51.1541     9.0972
  820.0000    87.4486     7.8512     6.8810   -51.0167     9.0926
  820.5000    89.7094     7.7934     6.9366   -50.8771     9.1520
  821.0000    92.1978     7.7361     6.9509   -50.5855     9.0832
  821.5000    91.2719     7.6584     6.9919   -50.6002     9.0789
  822.0000    91.7177     7.6227     7.0135   -50.4573     9.1393
  822.5000    92.8344     7.6195     7.0345   -50.4721     9.1339
  823.0000    92.5914     7.6163     7.0304   -50.3308     9.1296
  823.5000    94.6207     7.6125     7.0271   -50.3439     9.1253
  824.0000    97.3367     7.6628     6.9748   -50.3558     9.1849
  824.5000    98.4632     7.7141     6.9707   -50.3676     9.1156
  825.0000    98.4440     7.7645     6.9674   -50.5311     9.0478
  825.5000    96.6076     7.7828     6.9646   -50.8639     8.9805
  826.0000    93.8361     7.8123     6.9612   -51.3164     8.9138
  826.5000    94.7520     7.8651     6.9576   -51.6317     8.9096
  827.0000    98.1509     7.9156     6.9543   -51.9470     9.0953
  827.5000   104.0535     7.8566     6.9510   -52.2623     9.2176
  828.0000   103.3553     7.8539     6.9964   -52.5776     9.2779
  828.5000    99.2427     7.8503     6.9922   -52.5894     9.2724
  829.0000    97.8616     7.8471     6.9889   -52.6012     9.1393
  829.5000    97.3907     7.7893     6.9856   -52.6131     9.0082
  830.0000    97.1441     7.7320     6.9826   -52.6252     8.8790
  830.5000    96.6735     7.6750     6.9792   -52.6396     8.7516
  831.0000    96.4304     7.7257     6.9272   -52.6514     8.6865
  831.5000    95.7322     7.6680     6.9239   -52.5085     8.6814
  832.0000    95.0339     7.6911     6.9198   -52.3685     8.7392
  832.5000    93.6528     7.7163     6.9165   -52.2315     8.7340
  833.0000    92.2627     7.7124     6.8174   -52.0886     8.7299
  833.5000    91.5734     7.7640     6.7668   -51.7999     8.7880
  834.0000    94.5132     7.7061     6.6996   -52.1214     8.7828
  834.5000    96.5464     7.6493     6.6004   -52.5185     8.7175
  835.0000    95.3929     7.6455     6.5253   -53.0522     8.6526
  835.5000    91.7356     7.5892     6.3307   -53.6710     8.5873
  836.0000    91.2675     7.5338     5.9113   -53.9863     8.5833
  836.5000    94.8901     7.4779     5.6661   -54.4534     8.5792
  837.0000    96.4680     7.4228     5.4310   -54.9204     8.6353
  837.5000    97.1355     7.3169     5.7403   -55.0840     8.6927
  838.0000    96.8679     7.3652     6.2828   -55.2475     8.8099
  838.5000    94.8246     7.4138     7.0714   -55.2595     8.8674
  839.0000    93.8988     7.5142     7.5265   -55.0936     8.8631
  839.5000    93.6557     7.8326     6.6800   -54.6789     8.9212
  840.0000    93.6403     8.3372     7.4142   -54.0837     9.0424
  840.5000    92.2592     8.9992     8.8241   -53.3368     9.4241
  841.0000    89.0572     9.5124    10.5023   -52.7416     9.7545
  841.5000    84.0158     9.9848    10.3517   -51.6912    10.1674
  842.0000    77.6058    10.4807     9.9223   -50.9453    11.3648
  842.5000    72.8463    10.8562     9.5773   -49.5914    12.0126
  843.0000    75.1070    11.3072     9.1629   -48.3892    11.9219
  843.5000    77.5954    11.4627     8.7981   -47.4905    11.4269
  844.0000    79.1733    11.4569     8.4331   -46.5919    10.8763
  844.5000    79.8408    11.2148     8.4291   -46.0485    10.3521
  845.0000    79.5977    10.9779     8.4251   -45.9023     9.9919
  845.5000    80.7671    10.6711     8.3626   -45.7579     9.7800
  846.0000    81.8431    10.3730     8.3004   -45.7672     9.7073
  846.5000    81.3686    10.0050     8.2926   -45.7746     9.5679
  847.0000    80.6704     9.7323     8.1197   -45.7820     9.6306
  847.5000    77.9235     9.5934     7.8923   -45.9411     9.6935
  848.0000    76.7739     9.5895     7.6713   -45.9485     9.7568
  848.5000    78.8032     9.4527     7.4565   -45.9560     9.8206
  849.0000    80.3946     9.2530     7.3496   -45.9636     9.8148
  849.5000    81.7276     9.1209     7.3461   -45.9726     9.8102
  850.0000    82.3989     8.9908     7.3941   -46.1317     9.8055
  850.5000    81.6967     8.9870     7.4945   -46.1391     9.8007
  851.0000    81.9128     8.9826     7.5963   -46.1465     9.7268
  851.5000    83.0316     9.0428     7.5918   -46.1539     9.7222
  852.0000    85.5200     9.1024     7.4309   -46.1613     9.7176
  852.5000    87.5607     9.1616     7.4795   -46.1687     9.7130
  853.0000    89.1654     9.2229     7.5811   -46.3279     9.7087
  853.5000    88.6566     9.2830     7.7379   -46.4871     9.6363
