~VERSION INFORMATION
 VERS.                2.0:   CWLS LOG ASCII STANDARD - VERSION 2.0
 WRAP.                 NO:   ONE LINE PER DEPTH STEP
~WELL INFORMATION
#MNEM.UNIT      DATA TYPE    INFORMATION
#----------   ------------   ------------------------------
 STRT.F           16.0000:   START DEPTH
 STOP.F          716.0000:   STOP DEPTH
 STEP.F            0.5000:   STEP LENGTH
 NULL.          -999.2500:   NO VALUE
 COMP. BROWN JOHN E&C INC:   COMPANY
 WELL.   STX 10 #24-51-10:   WELL
 FLD .             NPR #3:   FIELD
 LOC .      S10 T38N R78W:   LOCATION
 CNTY.            NATRONA:   COUNTY
 STAT.            WYOMING:   STATE
 CTRY. UNITED STATES OF AMERICA:   COUNTRY
 SRVC.           Gearhart:   SERVICE COMPANY
 DATE.        01-JUL-1986:   LOGDATE
 API .       490251107800:   API NUMBER
~CURVE INFORMATION
#MNEM.UNIT       API CODE    CURVE DESCRIPTION
#----------   ------------   ------------------------------
 DEPT.F                  :   
 GRR .GAPI   07 310 01 00:   GAMMA RAY
 RILD.OHMM   07 120 46 00:   INDUCTION LOG DEEP RESISTIVITY
 RILM.OHMM   07 120 44 00:   INDUCTION LOG MEDIUM RESISTIVITY
~PARAMETER INFORMATION
#MNEM.UNIT          VALUE    DESCRIPTION
#----------   ------------   ------------------------------
 PD  .                 GL:   PERMANENT DATUM
 EPD .F              5235:   ELEVATION PERMANENT DATUM
 LMF .                 KB:   LOG MEASURED FROM
 DAPD.F               5.0:   FEET ABOVE PERMANENT DATUM
 DMF .                 KB:   DRILLING MEASURED FROM
 EKB .F              5240:   KELLING BUSHING
 EGL .F              5235:   GROUND LEVEL
 DATE.        01-JUL-1986:   RUN DATE
 RUN .                  1:   RUN NUMBER
 DD  .F               728:   DEPTH DRILLER
 DL  .F               726:   DEPTH LOGGER
 BLI .F               716:   BOTTOM LOG INTERVAL
 TLI .F                15:   TOP LOG INTERVAL
 CS  .IN            8.625:   CASING SIZE
 CBD .F                47:   CASING BOTTOM DRILLER
 CBL .F                47:   CASING BOTTOM LOGGER
 BS  .IN            7.875:   BIT SIZE
 BSD .F               728:   BIT SIZE AT DEPTH
 DFT .               FOAM:   DRILLING FLUID TYPE
 TCS .HRS            0800:   TIME CURCULATED STOPPED
 TLAB.HRS            0930:   TIME LOGGER AT BOTTOM
 MRT .F                85:   MAXIMUM RECORDED TEMPERATURE
 LUN .               7609:   LOGGING UNIT NUMBER
 LUL .           GILLETTE:   LOGGING UNIT LOCATION
 ENGI.              BAUER:   RECORDING ENGINEER
 WITN.              FIVAS:   WITNESSED BY
 CLNT.            A2DTECH:   CLIENT CODE
 ORIG.           5" PRINT:   ORIGIN OF DATA
 UWI .       490251107800:   UNIQUE WELL ID
 DICO. A2D Technologies, Inc.:   DIGITIZING COMPANY
~OTHER INFORMATION
~A   DEPT       GRR      RILD       RILM   
# ...
  380.0000   119.3903     6.4978     6.8904
  380.5000   119.6982     6.2328     6.6098
  381.0000   119.7012     5.8953     6.3401
  381.5000   120.6271     5.5762     5.9546
  382.0000   122.1708     5.3488     5.6717
  382.5000   125.0149     5.2031     5.4402
  383.0000   128.0589     5.0260     5.2182
  383.5000   129.7780     4.8890     5.0759
  384.0000   129.4762     4.8569     5.0425
  384.5000   128.2596     4.8250     5.0446
  385.0000   123.9944     4.9296     5.0823
  385.5000   119.4242     5.0743     5.2303
  386.0000   114.8540     5.3368     5.4613
  386.5000   112.7221     5.6866     5.7817
  387.0000   113.9454     5.9723     6.1209
  387.5000   117.3021     6.2768     6.4800
  388.0000   119.7441     6.6343     6.8413
  388.5000   122.1861     6.8738     7.0885
  389.0000   123.1038     7.0722     7.2933
  389.5000   125.8507     7.3275     7.5039
  390.0000   128.2927     7.4864     7.6131
  390.5000   127.9909     7.6487     7.7783
  391.0000   125.5184     7.7057     7.7815
  391.5000   123.7286     7.8177     7.8396
  392.0000   125.7399     7.9314     7.8428
  392.5000   130.7476     7.9347     7.8461
  393.0000   132.2749     7.8817     7.7937
  393.5000   128.3145     7.8308     7.7978
  394.0000   121.9151     7.7785     7.7457
  394.5000   115.8206     7.7274     7.6956
  395.0000   112.7748     7.7314     7.6988
  395.5000   113.6924     7.7347     7.7020
  396.0000   117.6589     7.7379     7.7052
  396.5000   119.4911     7.7411     7.7084
  397.0000   121.3234     7.7443     7.7659
  397.5000   124.0703     7.7476     7.7692
  398.0000   124.6831     7.7508     7.7724
  398.5000   122.5519     7.7540     7.7757
  399.0000   119.8111     7.7573     7.7789
  399.5000   117.9848     7.7605     7.7822
  400.0000   118.9024     7.7095     7.8402
  400.5000   121.7514     7.5343     7.7313
  401.0000   123.7763     7.3457     7.6224
  401.5000   125.9208     7.2454     7.5271
  402.0000   127.7196     7.1973     7.3734
  402.5000   127.7134     7.0995     7.2738
  403.0000   128.6465     7.0032     7.1747
  403.5000   130.1970     6.8125     6.9798
  404.0000   132.6057     6.6265     6.9332
  404.5000   134.1282     6.3114     6.7917
  405.0000   135.0002     6.0962     6.6072
  405.5000   134.0345     5.8063     6.3376
  406.0000   132.8049     5.6083     5.9942
  406.5000   132.9004     5.3792     5.6299
  407.0000   134.4798     5.1957     5.3249
  407.5000   136.7976     5.1612     5.2893
  408.0000   134.9622     5.1994     5.2545
  408.5000   131.6025     5.2378     5.2943
  409.0000   128.2427     5.3509     5.4473
  409.5000   127.6284     5.5437     5.5921
  410.0000   128.5370     5.7839     5.8009
  410.5000   126.3952     6.0344     6.0096
  411.0000   124.2550     6.3401     6.2784
  411.5000   123.6392     6.5227     6.5053
  412.0000   125.1575     6.6636     6.6932
  412.5000   125.4578     6.6194     6.8384
  413.0000   122.7063     6.4380     6.8413
  413.5000   119.6515     6.1745     6.6083
  414.0000   118.1210     5.9200     6.2943
  414.5000   119.0295     5.6814     5.9533
  415.0000   122.6820     5.5237     5.6704
  415.5000   130.9077     5.3723     5.4390
  416.0000   133.9503     5.2285     5.3274
  416.5000   132.1150     5.1938     5.2924
  417.0000   126.0114     5.2322     5.3324
  417.5000   120.8224     5.3503     5.4100
  418.0000   120.5129     5.5379     5.5663
  418.5000   122.3346     5.7102     5.7674
  419.0000   122.6349     5.9587     6.0179
  419.5000   122.9337     6.1664     6.3234
  420.0000   124.4505     6.5163     6.5061
  420.5000   126.8835     6.7510     6.7411
  421.0000   126.5725     6.9943     6.9359
  421.5000   124.7372     7.1957     7.1865
  422.0000   122.5969     7.4549     7.4461
  422.5000   122.2860     7.6160     7.6612
  423.0000   122.2799     7.7262     7.7184
  423.5000   121.0543     7.8380     7.8308
  424.0000   119.8287     7.9515     7.9447
  424.5000   118.9080     8.0102     7.9481
  425.0000   118.5971     8.0694     7.9514
  425.5000   118.5910     8.0722     8.0107
  426.0000   117.9752     8.0750     8.0705
  426.5000   117.6642     8.0778     8.1307
  427.0000   117.9645     8.0806     8.1342
  427.5000   118.8715     8.0835     8.1948
  428.0000   120.3899     8.0863     8.1983
  428.5000   122.5179     8.0891     8.2595
  429.0000   124.9509     8.1489     8.2629
  429.5000   125.5561     8.2090     8.3832
  430.0000   126.1582     8.2697     8.4458
  430.5000   127.9814     8.3308     8.5687
  431.0000   128.5854     8.3923     8.6934
  431.5000   123.7010     8.2776     8.8199
  432.0000   116.0730     8.0523     8.8857
  432.5000   109.3596     7.8875     8.7656
  433.0000   103.8657     7.6185     8.5267
  433.5000   101.7254     7.3073     8.0084
  434.0000   102.9389     7.0088     7.5215
  434.5000   109.3352     6.8174     7.1641
  435.0000   117.2560     6.6312     6.9201
  435.5000   125.7865     6.4955     6.6844
  436.0000   130.6585     6.4518     6.6398
  436.5000   128.2134     6.5918     6.6900
  437.0000   122.4146     6.8773     6.7874
  437.5000   119.3598     7.2257     7.2328
  438.0000   117.5244     7.6452     7.7616
  438.5000   117.8232     8.0889     8.2709
  439.0000   117.8048     8.4987     8.8136
  439.5000   116.5750     8.8668     9.3919
  440.0000   115.0407     9.3815     9.8687
  440.5000   114.4451     9.7879    10.0123
  441.0000   114.7440    10.0697    10.1581
  441.5000   114.1280    10.0732    10.3785
  442.0000   112.8657    10.3633    10.7534
  442.5000   110.3761    10.9648    11.1420
  443.0000   107.2688    11.3599    11.7077
  443.5000   101.2142    11.7692    12.3020
  444.0000    92.0106    12.4524    13.1092
  444.5000    82.8999    13.1752    14.0677
  445.0000    77.4988    13.8426    14.5760
  445.5000    75.0537    14.3414    15.3161
  446.0000    72.6086    14.9626    15.8694
  446.5000    70.4684    15.5017    16.3279
  447.0000    68.6330    16.1732    16.4497
  447.5000    67.4074    16.4072    16.5725
  448.0000    68.3160    16.4130    16.6961
  448.5000    69.8343    16.5342    16.7031
  449.0000    72.5721    16.5400    16.7102
  449.5000    75.3099    16.4302    16.6003
  450.0000    77.9286    16.4359    16.4912
  450.5000    79.9204    16.0097    16.4441
  451.0000    82.6281    15.8800    16.3970
  451.5000    80.5636    15.9986    16.2650
  452.0000    70.7204    16.0042    16.2662
  452.5000    57.0280    15.8977    16.1533
  453.0000    49.7140    15.7922    16.0415
  453.5000    46.6682    15.5778    15.9305
  454.0000    46.6712    15.4744    15.9318
  454.5000    48.1986    15.5887    16.0451
  455.0000    50.9455    15.7039    16.1592
  455.5000    53.6925    15.8198    16.1603
  456.0000    56.7443    15.9368    16.2752
  456.5000    62.2351    15.9633    16.2763
  457.0000    66.8113    16.1742    16.3920
  457.5000    70.1679    16.2936    16.5086
  458.0000    73.5246    16.1840    16.6259
  458.5000    77.7959    16.3049    16.7441
  459.0000    80.5429    16.3106    16.7658
  459.5000    80.2409    16.4310    16.9833
  460.0000    80.5489    16.4367    17.2245
  460.5000    81.4665    16.6745    17.3469
  461.0000    81.7887    16.9158    17.4702
  461.5000    79.6433    16.9217    17.5944
  462.0000    76.8782    17.1665    17.7195
  462.5000    74.4410    17.2933    17.7208
  463.0000    75.1566    17.4209    17.8467
  463.5000    77.2682    17.5496    17.8480
  464.0000    79.0494    17.5557    17.9749
  464.5000    79.6621    17.5617    17.9761
  465.0000    81.1896    17.4449    17.8517
  465.5000    83.6316    17.4512    17.8529
  466.0000    83.3297    17.4572    17.7293
  466.5000    79.6742    17.4633    17.7306
  467.0000    74.7992    17.4694    17.6079
  467.5000    73.2770    17.4755    17.6091
  468.0000    74.5003    17.4817    17.3650
  468.5000    76.0277    17.2267    17.3590
  469.0000    78.4698    17.0100    17.2460
  469.5000    81.2167    16.8970    17.2287
  470.0000    83.0490    16.6676    17.0081
  470.5000    82.1366    16.5569    16.7726
