~VERSION INFORMATION
 VERS.                2.0:   CWLS LOG ASCII STANDARD - VERSION 2.0
 WRAP.                 NO:   ONE LINE PER DEPTH STEP
~WELL INFORMATION
#MNEM.UNIT      DATA TYPE    INFORMATION
#----------   ------------   ------------------------------
 STRT.F           90.0000:   START DEPTH
 STOP.F         1312.0000:   STOP DEPTH
 STEP.F            0.5000:   STEP LENGTH
 NULL.          -999.2500:   NO VALUE
 COMP. US NAVY/ INTEX OIL CO:   COMPANY
 WELL. RES 3 TEAPOT DOME NPR "S' #42-2:   WELL
 FLD .             TEAPOT:   FIELD
 LOC .       S2 T38N R78W:   LOCATION
 CNTY.            NATRONA:   COUNTY
 STAT.            WYOMING:   STATE
 CTRY. UNITED STATES OF AMERICA:   COUNTRY
 SRVC. Schlumberger Well Surveying Corp:   SERVICE COMPANY
 DATE.        17-JUL-1964:   LOGDATE
 API .       490250646400:   API NUMBER
~CURVE INFORMATION
#MNEM.UNIT       API CODE    CURVE DESCRIPTION
#----------   ------------   ------------------------------
 DEPT.F                  :   
 GR  .GAPI   30 310 01 00:   GAMMA RAY
 CALS.IN     60 280 50 00:   CALIPER FROM SONIC LOG
 DT  .US/F   60 520 32 00:   INTERVAL TRANSIT TIME
 SPR .MV     05 010 01 00:   SPONTANEOUS POTENTIAL FROM RES.
 CILD.MMHO   05 110 46 00:   CONDUCTIVITY INDUCTION LOG DEEP
 ILD .OHMM   05 120 46 00:   INDUCTION LOG DEEP
 ASN .OHMM   05 040 16 00:   AMPLIFIED SHORT NORMAL 16"
~PARAMETER INFORMATION
#MNEM.UNIT          VALUE    DESCRIPTION
#----------   ------------   ------------------------------
 PD  .                 GL:   PERMANENT DATUM
 EPD .F              5142:   ELEVATION PERMANENT DATUM
 LMF .                 KB:   LOG MEASURED FROM
 DAPD.F                 8:   FEET ABOVE PERMANENT DATUM
 DMF .                 KB:   DRILLING MEASURED FROM
 EKB .F              5150:   KELLING BUSHING
 EGL .F              5142:   GROUND LEVEL
 DATE.          7-17-1964:   RUN DATE
 RUN .                  1:   RUN NUMBER
 DD  .F              1300:   DEPTH DRILLER
 DL  .F              1310:   DEPTH LOGGER
 BLI .F              1309:   BOTTOM LOG INTERVAL
 TLI .F               107:   TOP LOG INTERVAL
 CS  .IN            12.25:   CASING SIZE
 CBD .F                10:   CASING BOTTOM DRILLER
 BS  .IN               11:   BIT SIZE
 BSD .F              1300:   BIT SIZE AT DEPTH
 DFT .            GEL-OIL:   DRILLING FLUID TYPE
 DFD .                9.6:   DRILLING FLUID DENSITY
 DFV .                 63:   DRILLING FLUID VISCOSITY
 DFPH.                  8:   DRILLING FLUID PH
 DFL .                9.6:   DRILLING FLUID LOSS
 MSS .           FLOWLINE:   MUD SAMPLE SOURCE
 RMS .OHMM           2.07:   RESISTIVITY MUD SAMPLE
 MST .F                92:   MUD SAMPLE TEMPERATURE
 RMF .OHMM           1.42:   RESISTIVITY MUD FILTRATE SAMPLE
 MFST.F                92:   MUD FILTRATE SAMPLE TEMPERATURE
 RMC .OHMM           2.33:   RESISTIVITY MUD CAKE
 MCST.F                92:   MUD CAKE SAMPLE TEMPERATURE
 MFSS.                 FP:   MUD FILTRATE SAMPLE SOURCE
 MCSS.                 FP:   MUD CAKE SAMPLE SOURCE
 TCS .HRS               1:   TIME CURCULATED STOPPED
 LUN .               4507:   LOGGING UNIT NUMBER
 LUL .              CSPR.:   LOGGING UNIT LOCATION
 ENGI.             DANNER:   RECORDING ENGINEER
 WITN.          JORGENSEN:   WITNESSED BY
 CLNT.            A2DTECH:   CLIENT CODE
 ORIG.        2" 5" PRINT:   ORIGIN OF DATA
 UWI .       490250646400:   UNIQUE WELL ID
 DICO. A2D Technologies, Inc.:   DIGITIZING COMPANY
~OTHER INFORMATION
~A   DEPT       GR       CALS         DT        SPR        CILD         ILD        ASN 
# ...
  226.5000  -999.2500  -999.2500  -999.2500   -50.8327   169.6997     6.8567     6.5761
  227.0000  -999.2500  -999.2500  -999.2500   -50.7523   171.7117     6.8558     6.5320
  227.5000  -999.2500  -999.2500  -999.2500   -50.6710   173.6737     6.8565     6.5180
  228.0000  -999.2500  -999.2500  -999.2500   -50.5916   172.8055     6.8565     6.5675
  228.5000  -999.2500  -999.2500  -999.2500   -50.5087   171.1593     6.8567     6.6173
  229.0000  -999.2500  -999.2500  -999.2500   -50.4322   169.5132     6.8574     6.6689
  229.5000  -999.2500  -999.2500  -999.2500   -50.3421   167.8670     6.8565     6.7182
  230.0000  -999.2500  -999.2500  -999.2500   -50.3081   166.2208     6.8586     6.7715
  230.5000  -999.2500  -999.2500  -999.2500   -50.3463   164.6647     6.8548     6.8075
  231.0000  -999.2500  -999.2500  -999.2500   -50.3737   168.2015     6.8625     6.7442
  231.5000  -999.2500  -999.2500  -999.2500   -50.4068   171.5549     6.8013     6.6722
  232.0000  -999.2500  -999.2500  -999.2500   -50.4367   174.9082     6.6789     6.6021
  232.5000  -999.2500  -999.2500  -999.2500   -50.4683   178.2616     6.5727     6.5310
  233.0000  -999.2500  -999.2500  -999.2500   -50.4995   179.0991     6.4550     6.4610
  233.5000  -999.2500  -999.2500  -999.2500   -50.5304   178.0931     6.3660     6.3896
  234.0000  -999.2500  -999.2500  -999.2500   -50.5624   178.8589     6.3883     6.3205
  234.5000  -999.2500  -999.2500  -999.2500   -50.5919   180.8709     6.4212     6.2530
  235.0000  -999.2500  -999.2500  -999.2500   -50.6257   182.8829     6.4509     6.2440
  235.5000  -999.2500  -999.2500  -999.2500   -50.6516   184.6847     6.4838     6.3332
  236.0000  -999.2500  -999.2500  -999.2500   -50.6931   185.0551     6.5120     6.4227
  236.5000  -999.2500  -999.2500  -999.2500   -50.6451   185.3904     6.5486     6.4624
  237.0000  -999.2500  -999.2500  -999.2500   -50.4815   185.7216     6.5267     6.4436
  237.5000  -999.2500  -999.2500  -999.2500   -50.3416   187.7289     6.4618     6.3410
  238.0000  -999.2500  -999.2500  -999.2500   -50.1731   188.3679     6.4071     6.2338
  238.5000  -999.2500  -999.2500  -999.2500   -50.1052   188.9352     6.3488     6.1309
  239.0000  -999.2500  -999.2500  -999.2500   -50.1464   189.5029     6.2905     6.0233
  239.5000  -999.2500  -999.2500  -999.2500   -50.1706   189.2755     6.2357     5.9390
  240.0000  -999.2500  -999.2500  -999.2500   -50.2035   188.6038     6.1726     5.9422
  240.5000  -999.2500  -999.2500  -999.2500   -50.2317   187.9264     6.1982     6.0054
  241.0000  -999.2500  -999.2500  -999.2500   -50.2626   187.2473     6.2977     6.0651
  241.5000  -999.2500  -999.2500  -999.2500   -50.2923   186.6867     6.3364     6.1281
  242.0000  -999.2500  -999.2500  -999.2500   -50.3225   189.8098     6.2076     6.1743
  242.5000  -999.2500  -999.2500  -999.2500   -50.3526   193.8157     6.0762     6.1756
  243.0000  -999.2500  -999.2500  -999.2500   -50.3823   198.4685     5.9478     6.1366
  243.5000  -999.2500  -999.2500  -999.2500   -50.4126   203.1212     5.8169     5.9761
  244.0000  -999.2500  -999.2500  -999.2500   -50.4418   207.7740     5.6896     5.8218
  244.5000  -999.2500  -999.2500  -999.2500   -50.4736   212.4268     5.5554     5.6672
  245.0000  -999.2500  -999.2500  -999.2500   -50.4924   217.0971     5.4587     5.5144
  245.5000  -999.2500  -999.2500  -999.2500   -50.3996   221.7661     5.4549     5.3617
  246.0000  -999.2500  -999.2500  -999.2500   -50.2898   226.4347     5.4546     5.2979
  246.5000  -999.2500  -999.2500  -999.2500   -50.1821   228.5020     5.4551     5.2809
  247.0000  -999.2500  -999.2500  -999.2500   -50.0761   227.7073     5.4549     5.2814
  247.5000  -999.2500  -999.2500  -999.2500   -49.9647   226.1922     5.4551     5.2987
  248.0000  -999.2500  -999.2500  -999.2500   -49.8642   224.6734     5.4551     5.3108
  248.5000  -999.2500  -999.2500  -999.2500   -49.7415   223.1548     5.4553     5.3246
  249.0000  -999.2500  -999.2500  -999.2500   -49.7486   221.6116     5.4551     5.3391
  249.5000  -999.2500  -999.2500  -999.2500   -49.8880   220.1026     5.4554     5.3741
  250.0000  -999.2500  -999.2500  -999.2500   -50.0045   219.1191     5.4559     5.4055
  250.5000  -999.2500  -999.2500  -999.2500   -50.1335   218.3143     5.4829     5.4365
  251.0000  -999.2500  -999.2500  -999.2500   -50.2541   217.5095     5.5229     5.4712
  251.5000  -999.2500  -999.2500  -999.2500   -50.3827   216.7047     5.5605     5.4717
  252.0000  -999.2500  -999.2500  -999.2500   -50.4872   215.8999     5.5992     5.4655
  252.5000  -999.2500  -999.2500  -999.2500   -50.4310   215.0951     5.6373     5.4580
  253.0000  -999.2500  -999.2500  -999.2500   -50.3552   214.2903     5.6758     5.4654
  253.5000  -999.2500  -999.2500  -999.2500   -50.2818   213.1431     5.7140     5.5029
  254.0000  -999.2500  -999.2500  -999.2500   -50.2099   211.1311     5.7525     5.5388
  254.5000  -999.2500  -999.2500  -999.2500   -50.1326   209.1191     5.7904     5.5763
  255.0000  -999.2500  -999.2500  -999.2500   -50.0970   206.6567     5.8305     5.6126
  255.5000  -999.2500  -999.2500  -999.2500   -50.1017   203.1356     5.8786     5.6512
  256.0000  -999.2500  -999.2500  -999.2500   -50.0993   199.6146     5.9428     5.6967
  256.5000  -999.2500  -999.2500  -999.2500   -50.1008   196.0936     6.0109     5.7546
  257.0000  -999.2500  -999.2500  -999.2500   -50.0991   192.6046     6.0779     5.8398
  257.5000  -999.2500  -999.2500  -999.2500   -50.0896   189.1842     6.1454     5.9512
  258.0000  -999.2500  -999.2500  -999.2500   -50.0787   185.7638     6.2125     6.0860
  258.5000  -999.2500  -999.2500  -999.2500   -50.0683   182.3433     6.2804     6.1724
  259.0000  -999.2500  -999.2500  -999.2500   -50.0577   178.9229     6.3496     6.1912
  259.5000  -999.2500  -999.2500  -999.2500   -50.0471   176.6767     6.3522     6.2000
  260.0000  -999.2500  -999.2500  -999.2500   -50.0365   179.1291     6.1892     6.1940
  260.5000  -999.2500  -999.2500  -999.2500   -50.0259   186.1712     5.9889     6.1606
  261.0000  -999.2500  -999.2500  -999.2500   -50.0153   192.4925     5.7738     6.1077
  261.5000  -999.2500  -999.2500  -999.2500   -50.0047   197.5225     5.5797     6.0617
  262.0000  -999.2500  -999.2500  -999.2500   -49.9941   205.3674     5.3698     5.9389
  262.5000  -999.2500  -999.2500  -999.2500   -49.9835   218.0430     5.2337     5.8315
  263.0000  -999.2500  -999.2500  -999.2500   -49.9729   230.7187     5.1055     5.4409
  263.5000  -999.2500  -999.2500  -999.2500   -49.9623   243.3944     4.9088     5.0514
  264.0000  -999.2500  -999.2500  -999.2500   -49.9518   256.0701     4.7368     4.9257
  264.5000  -999.2500  -999.2500  -999.2500   -49.9412   265.8884     4.5468     4.7941
  265.0000  -999.2500  -999.2500  -999.2500   -49.9308   270.4111     4.3760     4.6722
  265.5000  -999.2500  -999.2500  -999.2500   -49.9198   273.0757     4.3391     4.5397
  266.0000  -999.2500  -999.2500  -999.2500   -49.9102   270.5853     4.4488     4.5130
  266.5000  -999.2500  -999.2500  -999.2500   -49.8957   264.4562     4.7020     4.5306
  267.0000  -999.2500  -999.2500  -999.2500   -49.8488   253.5311     4.9435     4.5375
  267.5000  -999.2500  -999.2500  -999.2500   -49.8009   242.6214     5.1936     4.5683
  268.0000  -999.2500  -999.2500  -999.2500   -49.7537   231.6877     5.4384     4.7908
  268.5000  -999.2500  -999.2500  -999.2500   -49.7058   220.8228     5.5701     5.0593
  269.0000  -999.2500  -999.2500  -999.2500   -49.6591   209.9580     5.6879     5.3184
  269.5000  -999.2500  -999.2500  -999.2500   -49.6102   199.0931     5.8101     5.5848
  270.0000  -999.2500  -999.2500  -999.2500   -49.5653   187.6877     5.9302     5.7621
  270.5000  -999.2500  -999.2500  -999.2500   -49.5132   181.4740     6.0533     5.9461
  271.0000  -999.2500  -999.2500  -999.2500   -49.5171   174.6747     6.1645     6.0830
  271.5000  -999.2500  -999.2500  -999.2500   -49.5640   170.4888     6.2774     6.1604
