~VERSION INFORMATION
 VERS.                2.0:   CWLS LOG ASCII STANDARD - VERSION 2.0
 WRAP.                 NO:   ONE LINE PER DEPTH STEP
~WELL INFORMATION
#MNEM.UNIT      DATA TYPE    INFORMATION
#----------   ------------   ------------------------------
 STRT.F           98.5000:   START DEPTH
 STOP.F          716.5000:   STOP DEPTH
 STEP.F            0.5000:   STEP LENGTH
 NULL.          -999.2500:   NO VALUE
 COMP. U S NAVY-INTEX OIL:   COMPANY
 WELL. RES 3 TEAPOT DOM #32S-11:   WELL
 FLD .             TEAPOT:   FIELD
 LOC .      S11 T38N R78W:   LOCATION
 CNTY.            NATRONA:   COUNTY
 STAT.            WYOMING:   STATE
 CTRY. UNITED STATES OF AMERICA:   COUNTRY
 SRVC.       Schlumberger:   SERVICE COMPANY
 DATE.        13-JUL-1962:   LOGDATE
 API .       490250636500:   API NUMBER
~CURVE INFORMATION
#MNEM.UNIT       API CODE    CURVE DESCRIPTION
#----------   ------------   ------------------------------
 DEPT.F                  :   
 SPR .MV     05 010 01 00:   SPONTANEOUS POTENTIAL FROM RES.
 CILD.MMHO   05 110 46 00:   CONDUCTIVITY INDUCTION LOG DEEP
 ASN .OHMM   05 040 16 00:   AMPLIFIED SHORT NORMAL 16"
 ILD .OHMM   05 120 46 00:   INDUCTION LOG DEEP
 GR  .GAPI   30 310 01 00:   GAMMA RAY
~PARAMETER INFORMATION
#MNEM.UNIT          VALUE    DESCRIPTION
#----------   ------------   ------------------------------
 PD  .                 GL:   PERMANENT DATUM
 EPD .F              5161:   ELEVATION PERMANENT DATUM
 LMF .                 KB:   LOG MEASURED FROM
 DAPD.F                 5:   FEET ABOVE PERMANENT DATUM
 DMF .                 KB:   DRILLING MEASURED FROM
 EKB .F              5166:   KELLING BUSHING
 EGL .F              5161:   GROUND LEVEL
 DATE.            7-13-62:   RUN DATE
 RUN .                  1:   RUN NUMBER
 DD  .F               716:   DEPTH DRILLER
 DL  .F               717:   DEPTH LOGGER
 BLI .F               716:   BOTTOM LOG INTERVAL
 TLI .F               100:   TOP LOG INTERVAL
 CBD .F                10:   CASING BOTTOM DRILLER
 BS  .IN             6.75:   BIT SIZE
 BSD .F               716:   BIT SIZE AT DEPTH
 DFT .           OIL EMUL:   DRILLING FLUID TYPE
 DFD .               10.2:   DRILLING FLUID DENSITY
 DFV .                 43:   DRILLING FLUID VISCOSITY
 RMS .OHMM              5:   RESISTIVITY MUD SAMPLE
 MST .F                70:   MUD SAMPLE TEMPERATURE
 RMF .OHMM            5.5:   RESISTIVITY MUD FILTRATE SAMPLE
 MFST.F                70:   MUD FILTRATE SAMPLE TEMPERATURE
 RMC .OHMM              6:   RESISTIVITY MUD CAKE
 MCST.F                70:   MUD CAKE SAMPLE TEMPERATURE
 TCS .HRS              .5:   TIME CURCULATED STOPPED
 LUN .               2503:   LOGGING UNIT NUMBER
 LUL .               CSPR:   LOGGING UNIT LOCATION
 ENGI.           ELLERMAN:   RECORDING ENGINEER
 WITN.          JORGENSON:   WITNESSED BY
 CLNT.            A2DTECH:   CLIENT CODE
 ORIG.       2", 5" PRINT:   ORIGIN OF DATA
 UWI .       490250636500:   UNIQUE WELL ID
 DICO. A2D Technologies, Inc.:   DIGITIZING COMPANY
~OTHER INFORMATION
~A   DEPT      SPR       CILD        ASN        ILD         GR   
# ...
  586.5000   -57.4456    54.0776    18.9267    16.1730    41.1054
  587.0000   -56.0958    55.6006    18.5384    15.7275    53.4378
  587.5000   -55.4766    55.9476    18.2204    15.5080    53.9650
  588.0000   -54.8097    55.9476    18.0333    15.4417    54.3231
  588.5000   -54.9374    53.8699    17.9070    15.8106    41.8115
  589.0000   -55.2157    52.2209    18.2401    16.4008    30.4849
  589.5000   -55.2076    50.5719    18.5147    16.9508    33.8716
  590.0000   -54.3729    48.8911    18.7910    17.5104    31.6305
  590.5000   -53.4393    46.9708    18.9257    18.0557    28.3776
  591.0000   -52.7866    45.8669    18.9710    18.4000    40.4315
  591.5000   -52.5378    45.1783    19.0145    18.7325    29.1872
  592.0000   -53.0411    44.3750    19.0595    19.0444    27.0257
  592.5000   -54.6221    44.1089    19.0963    18.9486    33.5060
  593.0000   -55.9791    45.7798    18.8368    18.7521    46.2686
  593.5000   -56.9404    47.4508    18.5570    18.0233    42.4337
  594.0000   -56.7162    49.1218    18.2921    17.3374    34.3799
  594.5000   -55.8646    50.7927    18.1109    16.7387    43.9300
  595.0000   -55.2510    52.1295    17.9367    16.5186    55.8686
  595.5000   -55.3607    52.7823    17.7628    16.2953    43.5732
  596.0000   -55.9499    53.4350    17.5887    16.0734    39.6008
  596.5000   -56.0996    54.0877    17.4146    15.9188    46.3241
  597.0000   -55.8109    54.7404    17.2406    15.7920    52.4151
  597.5000   -55.5895    55.2851    17.0665    15.6674    47.1309
  598.0000   -55.7642    55.7831    16.8924    15.5433    43.6665
  598.5000   -56.1659    56.2791    16.7179    15.4406    37.9851
  599.0000   -56.5603    56.7793    16.5626    15.3784    30.7103
  599.5000   -56.3300    57.3559    16.4115    15.2749    32.9753
  600.0000   -55.0274    57.9804    16.2605    15.1702    18.1608
  600.5000   -53.9065    58.6049    16.1094    15.0658    18.2652
  601.0000   -54.0240    59.2294    15.9582    14.9605    14.7511
  601.5000   -54.1294    59.8539    15.8071    14.8574    11.1749
  602.0000   -53.7247    60.4785    15.6560    14.6573    19.2580
  602.5000   -53.2375    61.1030    15.5049    14.3805    25.7895
  603.0000   -52.6621    61.7254    15.3537    14.0928    34.5546
  603.5000   -52.3898    62.1191    15.2025    13.9832    34.1484
  604.0000   -52.1090    62.3259    15.0520    13.8963    49.7563
  604.5000   -52.5849    62.5359    14.9759    13.8557    52.1766
  605.0000   -53.1467    62.7460    14.9905    13.9657    44.6836
  605.5000   -53.7259    62.9561    15.0045    14.0706    54.5442
  606.0000   -54.5597    62.6836    15.0189    14.1756    59.1603
  606.5000   -55.4238    62.2703    15.0331    14.2801    53.8560
  607.0000   -55.5484    61.8551    15.0475    14.3362    30.6357
  607.5000   -55.5747    61.4402    15.0609    14.3360    33.8962
  608.0000   -55.0433    61.0252    15.0360    14.3361    23.2728
  608.5000   -54.4261    60.6102    14.9354    14.3361    31.1153
  609.0000   -53.8008    60.1963    14.8359    14.3363    37.5707
  609.5000   -53.1962    60.2309    14.7362    14.3357    31.4250
  610.0000   -52.6945    60.7561    14.6366    14.2967    40.3497
  610.5000   -52.0951    61.2812    14.5370    14.1705    38.5362
  611.0000   -51.5246    61.8064    14.4374    14.0458    37.0760
  611.5000   -51.5070    62.3316    14.3378    13.9209    44.1708
  612.0000   -51.5487    62.8568    14.2382    13.7961    34.5889
  612.5000   -51.8973    63.3821    14.1388    13.6713    38.1048
  613.0000   -52.2510    63.9073    14.0391    13.5465    40.1367
  613.5000   -52.4996    65.1196    13.9223    13.4236    39.8837
  614.0000   -52.7253    66.4997    13.7295    13.3184    46.7032
  614.5000   -52.9305    67.8782    13.5398    13.1000    39.0972
  615.0000   -52.9297    69.2540    13.3501    12.8825    37.6082
  615.5000   -52.8746    70.5670    13.1603    12.6667    40.5104
  616.0000   -52.5791    71.8800    12.9703    12.4771    35.6574
  616.5000   -52.1160    73.0847    12.7832    12.2935    30.0323
  617.0000   -51.2670    74.2218    12.6467    12.1089    37.3276
  617.5000   -50.4379    75.2722    12.6285    11.9278    41.6096
  618.0000   -50.0325    76.3226    12.6073    11.9202    52.1370
  618.5000   -49.9023    76.9692    12.5869    11.9213    44.4619
  619.0000   -49.7766    76.3632    12.5663    11.9215    45.8310
  619.5000   -49.7419    75.7572    12.5457    11.9216    57.0735
  620.0000   -50.0262    75.1512    12.5251    11.9215    50.0191
  620.5000   -50.2066    74.5452    12.5045    11.9218    42.1258
  621.0000   -50.3123    74.3276    12.4840    11.8974    46.6188
  621.5000   -49.9850    75.2544    12.4633    11.8603    38.9103
  622.0000   -50.0481    76.1812    12.4226    11.8228    40.3853
  622.5000   -50.3255    77.1080    12.3390    11.7855    54.0849
  623.0000   -50.6095    78.0349    12.2561    11.7480    47.6808
  623.5000   -50.7018    78.9617    12.1731    11.7026    59.8675
  624.0000   -50.5570    79.8885    12.0902    11.6222    41.0676
  624.5000   -50.2553    80.8154    12.0073    11.5101    44.6392
  625.0000   -49.9435    81.7422    11.9243    11.3912    49.1707
  625.5000   -50.1974    82.6690    11.8414    11.2719    39.3751
  626.0000   -50.5673    83.4093    11.7584    11.1521    38.1223
  626.5000   -50.9403    83.9345    11.6755    11.0711    30.1417
  627.0000   -51.2120    84.4597    11.5930    11.0054    40.6746
  627.5000   -51.4128    84.9850    11.5317    10.9400    54.8390
  628.0000   -51.4702    85.3091    11.5058    10.8744    52.5779
  628.5000   -50.5799    85.5101    11.4794    10.8091    61.6367
  629.0000   -49.4260    85.7119    11.4532    10.7431    50.1802
  629.5000   -48.3899    85.9138    11.4270    10.7487    38.9334
  630.0000   -47.9550    86.1159    11.4007    10.8089    45.6629
  630.5000   -47.9980    85.6627    11.3744    10.8699    56.1217
  631.0000   -48.2607    84.8334    11.3470    10.9309    47.2625
  631.5000   -48.4972    84.0041    11.3780    10.9919    43.6111
  632.0000   -48.7392    83.1749    11.4487    11.0529    41.9240
  632.5000   -49.1852    82.3456    11.5198    11.1139    41.6835
  633.0000   -49.9069    81.5163    11.5908    11.1746    44.8556
  633.5000   -50.6251    80.6871    11.6620    11.2182    42.2431
  634.0000   -51.3582    80.2792    11.7331    11.2176    49.8451
  634.5000   -51.7837    80.6832    11.8027    11.2163    49.7051
  635.0000   -51.9780    81.0872    11.7938    11.1572    47.4469
  635.5000   -52.0992    82.5512    11.6703    11.0153    41.6877
  636.0000   -51.3365    84.1950    11.5481    10.8956    43.8221
  636.5000   -50.2451    85.8472    11.4253    10.8445    41.9621
  637.0000   -49.1316    87.4983    11.3027    10.6800    38.6076
  637.5000   -48.0982    89.1489    11.1796    10.6112    54.6447
  638.0000   -48.2070    90.7995    11.0953    10.5352    66.5916
  638.5000   -48.3628    92.2379    11.0298    10.4602    57.8747
  639.0000   -48.4966    94.2540    10.9640    10.3850    47.1101
  639.5000   -48.2825    95.2621    10.8984    10.3136    40.1086
  640.0000   -48.0198    96.2702    10.8364    10.3114    41.4179
  640.5000   -47.7558    96.2702    10.9119    10.3118    39.4361
  641.0000   -47.4927    96.2702    11.0211    10.3119    44.9169
  641.5000   -47.2735    95.2856    11.1298    10.3104    41.7701
  642.0000   -47.3557    93.5350    11.2518    10.3049    47.5433
  642.5000   -47.4461    91.2298    11.6735    10.5000    51.0726
  643.0000   -47.9023    86.6441    12.1272    10.6826    49.3655
  643.5000   -48.7641    82.1573    12.7593    11.3153    60.5895
  644.0000   -49.7912    77.1371    13.4040    11.9586    32.1707
  644.5000   -51.1042    71.3491    14.0535    12.7624    27.9615
  645.0000   -51.8285    65.2218    14.6596    13.8121    35.7094
  645.5000   -52.4405    59.0944    15.9541    14.8733    29.1824
  646.0000   -53.4455    52.9671    17.3137    16.3528    25.2029
  646.5000   -54.7731    46.8750    18.8365    18.0028    12.9461
  647.0000   -55.5405    42.5532    21.0585    19.6574    21.8185
