~VERSION INFORMATION
 VERS.                2.0:   CWLS LOG ASCII STANDARD - VERSION 2.0
 WRAP.                 NO:   ONE LINE PER DEPTH STEP
~WELL INFORMATION
#MNEM.UNIT      DATA TYPE    INFORMATION
#----------   ------------   ------------------------------
 STRT.F           36.0000:   START DEPTH
 STOP.F          557.0000:   STOP DEPTH
 STEP.F            0.5000:   STEP LENGTH
 NULL.          -999.2500:   NO VALUE
 COMP. FENIX & SCISSON U.S. NAVY:   COMPANY
 WELL.        NPR #62-S-3:   WELL
 FLD .             TEAPOT:   FIELD
 LOC .       S3 T38N R78W:   LOCATION
 CNTY.            NATRONA:   COUNTY
 STAT.            WYOMING:   STATE
 CTRY. UNITED STATES OF AMERICA:   COUNTRY
 SRVC.              Welex:   SERVICE COMPANY
 DATE.        07-MAY-1977:   LOGDATE
 API .       490251035000:   API NUMBER
~CURVE INFORMATION
#MNEM.UNIT       API CODE    CURVE DESCRIPTION
#----------   ------------   ------------------------------
 DEPT.F                  :   
 SPR .MV     07 010 01 00:   SPONTANEOUS POTENTIAL
 ILD .OHMM   07 120 46 00:   INDUCTION LOG DEEP
 ILM .OHMM   07 120 44 00:   INDUCTION LOG MEDIUM
 SGRD.OHMM   07 221 05 00:   SHALLOW SHORT GUARD RESISTIVITY
 GRD .GAPI   45 310 01 00:   GAMMA RAY FROM DENSITY LOG
 CALD.IN     45 280 60 00:   CALIPER FROM DENSITY LOG
 CORR.G/C3   45 356 01 00:   DENSITY CORRECTION
 RHOB.G/C3   45 350 01 00:   BULK DENSITY
 DPHI.DEC    45 890 12 00:   DENSITY POROSITY SANDSTONE
 NEUT.NAPI   35 330 01 00:   NEUTRON
~PARAMETER INFORMATION
#MNEM.UNIT          VALUE    DESCRIPTION
#----------   ------------   ------------------------------
 PD  .                 GL:   PERMANENT DATUM
 EPD .F              5136:   ELEVATION PERMANENT DATUM
 LMF .                 GL:   LOG MEASURED FROM
 DMF .                 GL:   DRILLING MEASURED FROM
 EGL .F              5136:   GROUND LEVEL
 DATE.        07-MAY-1977:   RUN DATE
 RUN .                  1:   RUN NUMBER
 DD  .F               560:   DEPTH DRILLER
 DL  .F               560:   DEPTH LOGGER
 BLI .F               558:   BOTTOM LOG INTERVAL
 TLI .F                35:   TOP LOG INTERVAL
 CS  .IN            8.625:   CASING SIZE
 CBD .F                40:   CASING BOTTOM DRILLER
 CBL .F                42:   CASING BOTTOM LOGGER
 BS  .IN            7.875:   BIT SIZE
 BSD .F               560:   BIT SIZE AT DEPTH
 DFT .             KCLMUD:   DRILLING FLUID TYPE
 DFD .                8.8:   DRILLING FLUID DENSITY
 MSS .           FLOWLINE:   MUD SAMPLE SOURCE
 RMS .OHMM           0.24:   RESISTIVITY MUD SAMPLE
 MST .F                60:   MUD SAMPLE TEMPERATURE
 RMF .OHMM           0.20:   RESISTIVITY MUD FILTRATE SAMPLE
 MFST.F                60:   MUD FILTRATE SAMPLE TEMPERATURE
 RMC .OHMM           0.29:   RESISTIVITY MUD CAKE
 MCST.F                60:   MUD CAKE SAMPLE TEMPERATURE
 MFSS.               MEAS:   MUD FILTRATE SAMPLE SOURCE
 MCSS.               MEAS:   MUD CAKE SAMPLE SOURCE
 RMB .OHMM             17:   RESISTIVITY MUD AT BHT
 BHT .F                71:   BOTTOM HOLE TEMPERATURE
 TCS .HRS            0230:   TIME CURCULATED STOPPED
 MRT .F                71:   MAXIMUM RECORDED TEMPERATURE
 LUN .               8611:   LOGGING UNIT NUMBER
 LUL .           GILLETTE:   LOGGING UNIT LOCATION
 ENGI.            C. DOCK:   RECORDING ENGINEER
 WITN.           ROB LYON:   WITNESSED BY
 CLNT.            A2DTECH:   CLIENT CODE
 ORIG.           5" PRINT:   ORIGIN OF DATA
 UWI .       490251035000:   UNIQUE WELL ID
 DICO. A2D Technologies, Inc.:   DIGITIZING COMPANY
~OTHER INFORMATION
~A   DEPT      SPR        ILD        ILM       SGRD        GRD       CALD       CORR       RHOB       DPHI       NEUT   
   36.0000  -999.2500  -999.2500  -999.2500  -999.2500  -999.2500  -999.2500  -999.2500  -999.2500  -999.2500  -999.2500
   36.5000  -999.2500  -999.2500  -999.2500  -999.2500    83.5852     7.9598    -0.1770     2.0851     0.2686  -999.2500
   37.0000  -999.2500  -999.2500  -999.2500  -999.2500    80.7699     7.9613    -0.1752     2.0697     0.2851  -999.2500
   37.5000  -999.2500  -999.2500  -999.2500  -999.2500    78.9953     7.9628    -0.1751     2.0303     0.2953  -999.2500
   38.0000  -999.2500  -999.2500  -999.2500  -999.2500    78.4106     7.9643    -0.1560     2.0061     0.2988  -999.2500
   38.5000  -999.2500  -999.2500  -999.2500  -999.2500    81.8639     7.9658    -0.1317     1.9827     0.3105  -999.2500
   39.0000  -999.2500  -999.2500  -999.2500  -999.2500    85.1639     7.9673    -0.1073     1.9663     0.3111  -999.2500
   39.5000  -999.2500  -999.2500  -999.2500  -999.2500    89.5087     7.9688    -0.0829     1.9731     0.3039  -999.2500
   40.0000  -999.2500  -999.2500  -999.2500  -999.2500   100.4206     7.9550    -0.0585     2.0204     0.2885  -999.2500
   40.5000  -999.2500  -999.2500  -999.2500  -999.2500   108.9445     7.9568    -0.0342     2.1515     0.2502  -999.2500
   41.0000  -999.2500  -999.2500  -999.2500  -999.2500   113.5878     7.9583    -0.0098     2.4295     0.1277  -999.2500
   41.5000  -999.2500  -999.2500  -999.2500  -999.2500   116.7386     7.9598     0.0051     2.4760     0.1207  -999.2500
   42.0000  -999.2500  -999.2500  -999.2500  -999.2500   118.6953     7.9613     0.0044     2.4731     0.1243  -999.2500
   42.5000   -13.2270     5.5652     6.4322     6.8574   119.9057     7.9475     0.0038     2.4633     0.1273  -999.2500
   43.0000   -15.6023     0.3063     4.3097     7.0059   120.3699     7.9341     0.0039     2.4559     0.1294  -999.2500
   43.5000   -17.2342     0.2620     6.1775     7.4618   116.6550     7.9206     0.0039     2.4546     0.1312  -999.2500
   44.0000   -18.5681     0.2253     6.0956     8.5774   114.4326     7.9225     0.0033     2.4561     0.1320  -999.2500
   44.5000   -19.7529     0.2479     5.8500     9.5237   112.0609     7.9240     0.0033     2.4515     0.1338  -999.2500
   45.0000   -20.7888     0.7051     6.6294     9.9345   110.2863     7.9404     0.0019     2.4464     0.1383  -999.2500
   45.5000   -21.3775     1.1267     7.4085     9.8720   110.8997     7.9568     0.0005     2.4458     0.1377  -999.2500
   46.0000   -21.5210     2.5534     7.9427    10.0161   112.5580     7.9583    -0.0002     2.4492     0.1337  -999.2500
   46.5000   -21.8116     4.1086     8.2832    10.8169   114.5147     7.9748    -0.0017     2.4505     0.1328  -999.2500
   47.0000   -21.9532     5.6296     8.5196    11.5208   113.6356     7.9912    -0.0023     2.4573     0.1268  -999.2500
   47.5000   -22.2439     6.1250     8.4066    11.2905   111.7117     7.9628    -0.0023     2.4701     0.1225  -999.2500
   48.0000   -22.5327     6.1710     8.2380    11.6962   110.8326     7.9490    -0.0022     2.4731     0.1261  -999.2500
   48.5000   -22.6743     6.3490     8.0728    11.5423   110.3971     7.9356    -0.0014     2.4597     0.1273  -999.2500
   49.0000   -22.9650     8.0557     8.0767    11.4678   111.4624     7.9221    -0.0013     2.4606     0.1266  -999.2500
   49.5000   -23.1085     9.8015     8.1367    11.4767   113.2699     7.9240    -0.0012     2.4659     0.1242  -999.2500
   50.0000   -23.2501    10.2967     8.1216    11.9041   116.4206     7.9255    -0.0011     2.4689     0.1233  -999.2500
   50.5000   -23.5408     8.8347     8.0313    12.3993   119.8699     7.9117    -0.0018     2.4667     0.1254  -999.2500
   51.0000   -23.6824     8.0714     7.8696    12.1507   122.2744     7.8983    -0.0017     2.4616     0.1289  -999.2500
   51.5000   -23.9712     7.5831     7.8737    12.8528   120.7983     7.8848    -0.0024     2.4556     0.1307  -999.2500
   52.0000   -24.2619     8.0793     8.0979    13.2217   117.5311     7.8714    -0.0039     2.4519     0.1310  -999.2500
   52.5000   -24.4054     9.8992     8.3284    12.9566   118.8908     7.8583    -0.0045     2.4550     0.1316  -999.2500
   53.0000   -24.8432    10.9219     8.3319    13.1448   117.5639     7.8598    -0.0052     2.4499     0.1376  -999.2500
   53.5000   -24.9851    11.2356     8.1071    13.6162   114.2968     7.8460    -0.0067     2.4409     0.1402  -999.2500
   54.0000   -25.4247     8.5605     7.9991    13.2491   112.0744     7.8479    -0.0088     2.4440     0.1348  -999.2500
   54.5000   -26.0134     7.6053     8.1709    14.1122   113.1356     7.8341    -0.0072     2.4590     0.1239  -999.2500
   55.0000   -26.6020     7.5551     8.3457    14.2344   114.0475     7.8206    -0.0041     2.4748     0.1176  -999.2500
   55.5000   -27.0417     7.7199     8.2916    13.6463   114.6568     7.8072    -0.0018     2.4831     0.1155  -999.2500
   56.0000   -27.4813     7.8324     8.0131    13.0973   112.3031     7.8091    -0.0001     2.4757     0.1218  -999.2500
   56.5000   -27.7740     7.8362     7.6907    12.7460   109.9177     7.8106    -0.0009     2.4623     0.1286  -999.2500
   57.0000   -28.2176     7.8400     7.3812    12.6560   109.7807     7.8121    -0.0023     2.4564     0.1319  -999.2500
   57.5000   -28.5221     7.7349     7.3147    12.7674   110.2490     7.8136    -0.0023     2.4512     0.1322  -999.2500
   58.0000   -29.1187     7.6313     7.7537    12.6730   110.8624     7.8150    -0.0029     2.4528     0.1313  -999.2500
   58.5000   -29.7153     7.4246     8.0297    12.9526   111.9236     7.8315    -0.0029     2.4573     0.1276  -999.2500
   59.0000   -29.9705     7.2234     7.9226    13.6045   111.4923     7.8330    -0.0028     2.4626     0.1255  -999.2500
   59.5000   -29.6647     7.0277     7.8170    13.4245   109.8669     7.8345    -0.0027     2.4680     0.1228  -999.2500
   60.0000   -29.6557     6.9327     8.0397    12.8845   111.3759     7.8359    -0.0019     2.4718     0.1203  -999.2500
   60.5000   -29.9483     6.8878     8.7389    12.4522   112.4330     7.8524    -0.0011     2.4733     0.1206  -999.2500
   61.0000   -30.3861     6.8920     9.3684    13.1699   110.3639     7.8688    -0.0002     2.4689     0.1239  -999.2500
   61.5000   -31.2729     6.8954     9.9741    12.5485   109.3315     7.8852     0.0014     2.4622     0.1260  -999.2500
   62.0000   -32.4596     6.8987    10.2580    13.0151   111.5908     7.8867     0.0037     2.4577     0.1238  -999.2500
   62.5000   -32.6012     6.9505     9.9823    12.7349   112.6520     7.8882     0.0068     2.4684     0.1202  -999.2500
   63.0000   -32.4429     7.0026     9.2550    12.7761   112.3699     7.8897     0.0084     2.4759     0.1196  -999.2500
   63.5000   -31.8394     7.0552     8.3467    13.1151   110.8938     7.8912     0.0069     2.4700     0.1268  -999.2500
   64.0000   -31.5339     7.0586     7.4756    12.5874   108.2236     7.8927     0.0055     2.4498     0.1393  -999.2500
   64.5000   -31.9736     7.1116     7.0274    12.4474   108.9863     7.8942     0.0033     2.4327     0.1475  -999.2500
   65.0000   -32.5642     7.2152     7.3282     8.8471   110.6445     7.8803     0.0011     2.4297     0.1455  -999.2500
   65.5000   -33.1511     7.3203     9.2103    10.6526   107.9744     7.8524    -0.0004     2.4306     0.1385  -999.2500
   66.0000   -33.5908     7.4790     9.2789    13.7120   105.7479     7.8386    -0.0026     2.4486     0.1332  -999.2500
   66.5000   -33.5834     7.6948     8.1392    12.9791   108.4550     7.8106    -0.0039     2.4554     0.1302  -999.2500
   67.0000   -33.5760     8.3719     7.3403    12.2854   110.4117     7.8270    -0.0046     2.4555     0.1320  -999.2500
   67.5000   -33.7194     9.4326     8.6751    11.7081   109.3833     7.8434    -0.0045     2.4518     0.1329  -999.2500
   68.0000   -33.7102     9.9798     9.2952    14.2273   105.2206     7.8296    -0.0052     2.4511     0.1262  -999.2500
   68.5000   -34.0009     9.7775     9.4268    16.3532   104.9345     7.8016    -0.0044     2.4664     0.1191  -999.2500
   69.0000   -33.9934     8.9328     9.0416    13.7576   106.7460     7.8031    -0.0027     2.4784     0.1136  -999.2500
