~VERSION INFORMATION
 VERS.                2.0:   CWLS LOG ASCII STANDARD - VERSION 2.0
 WRAP.                 NO:   ONE LINE PER DEPTH STEP
~WELL INFORMATION
#MNEM.UNIT      DATA TYPE    INFORMATION
#----------   ------------   ------------------------------
 STRT.F           71.5000:   START DEPTH
 STOP.F          820.0000:   STOP DEPTH
 STEP.F            0.5000:   STEP LENGTH
 NULL.          -999.2500:   NO VALUE
 COMP. U S NAVY/INTEX OIL CO:   COMPANY
 WELL. RES 3 TEAPOT DOME #72-S-34:   WELL
 FLD .             TEAPOT:   FIELD
 LOC .      S34 T39N R78W:   LOCATION
 CNTY.            NATRONA:   COUNTY
 STAT.            WYOMING:   STATE
 CTRY. UNITED STATES OF AMERICA:   COUNTRY
 SRVC.       Schlumberger:   SERVICE COMPANY
 DATE.        20-FEB-1961:   LOGDATE
 API .       490250655700:   API NUMBER
~CURVE INFORMATION
#MNEM.UNIT       API CODE    CURVE DESCRIPTION
#----------   ------------   ------------------------------
 DEPT.F                  :   
 GR  .GAPI   30 310 01 00:   GAMMA RAY
 SPR .MV     05 010 01 00:   SPONTANEOUS POTENTIAL FROM RES.
 ILD .OHMM   05 120 46 00:   INDUCTION LOG DEEP
 ASN .OHMM   05 041 16 00:   AMPLIFIED SHORT NORMAL 16"
 CILD.MMHO   05 110 46 00:   CONDUCTIVITY INDUCTION LOG DEEP
~PARAMETER INFORMATION
#MNEM.UNIT          VALUE    DESCRIPTION
#----------   ------------   ------------------------------
 LMF .                 KB:   LOG MEASURED FROM
 DMF .                 KB:   DRILLING MEASURED FROM
 EKB .F              5071:   KELLING BUSHING
 EGL .F              5057:   GROUND LEVEL
 DATE.          2-20-1961:   RUN DATE
 RUN .                  1:   RUN NUMBER
 DD  .F               820:   DEPTH DRILLER
 DL  .F               820:   DEPTH LOGGER
 BLI .F               819:   BOTTOM LOG INTERVAL
 TLI .F                80:   TOP LOG INTERVAL
 CBD .F                12:   CASING BOTTOM DRILLER
 BS  .IN            7.875:   BIT SIZE
 BSD .F               820:   BIT SIZE AT DEPTH
 DFT .       GEL-OIL EMUL:   DRILLING FLUID TYPE
 DFD .                9.3:   DRILLING FLUID DENSITY
 DFV .                 48:   DRILLING FLUID VISCOSITY
 DFPH.                8.5:   DRILLING FLUID PH
 DFL .                 16:   DRILLING FLUID LOSS
 MSS .           FLOWLINE:   MUD SAMPLE SOURCE
 RMS .OHMM            .82:   RESISTIVITY MUD SAMPLE
 MST .F                70:   MUD SAMPLE TEMPERATURE
 RMF .OHMM            .45:   RESISTIVITY MUD FILTRATE SAMPLE
 MFST.F                72:   MUD FILTRATE SAMPLE TEMPERATURE
 RMC .OHMM            1.4:   RESISTIVITY MUD CAKE
 MCST.F                78:   MUD CAKE SAMPLE TEMPERATURE
 RMB .OHMM            .73:   RESISTIVITY MUD AT BHT
 BHT .F                78:   BOTTOM HOLE TEMPERATURE
 TCS .HRS               1:   TIME CURCULATED STOPPED
 MRT .F                78:   MAXIMUM RECORDED TEMPERATURE
 LUN .               2523:   LOGGING UNIT NUMBER
 LUL .              CSPR.:   LOGGING UNIT LOCATION
 ENGI.             KNOBEL:   RECORDING ENGINEER
 WITN.          JORGENSEN:   WITNESSED BY
 CLNT.            A2DTECH:   CLIENT CODE
 ORIG.      2" & 5" PRINT:   ORIGIN OF DATA
 UWI .       490250655700:   UNIQUE WELL ID
 DICO. A2D Technologies, Inc.:   DIGITIZING COMPANY
~OTHER INFORMATION
~A   DEPT       GR        SPR          ILD      ASN       CILD   
# ...
  620.5000    61.1384   -21.8781     5.4300     7.0007   197.2112
  621.0000    64.2825   -21.8490     5.4391     6.4317   200.6972
  621.5000    65.5410   -21.8380     5.4531     6.0651   203.2184
  622.0000    61.1279   -21.8379     5.4635     6.0082   206.0197
  622.5000    57.1868   -21.8379     5.4776     5.8662   208.8210
  623.0000    54.1022   -21.8379     5.4881     5.8887   208.2918
  623.5000    55.1732   -21.8379     5.5018     6.5746   203.7268
  624.0000    56.9943   -21.8380     5.5125     6.8342   198.7052
  624.5000    57.1150   -21.8380     5.5258     6.8820   198.7052
  625.0000    56.9276   -21.8381     5.4832     6.8439   208.2918
  625.5000    58.3981   -21.8380     5.4199     6.4867   217.0070
  626.0000    57.5754   -21.8381     5.3546     6.0078   226.5936
  626.5000    57.8711   -21.8379     5.2911     5.6012   225.3486
  627.0000    57.9239   -21.8381     5.2260     5.3694   222.6096
  627.5000    57.0480   -21.8379     5.1625     5.3963   221.6136
  628.0000    58.8680   -21.8380     5.2758     5.5582   220.6175
  628.5000    60.8589   -21.8600     5.5693     5.8567   215.1394
  629.0000    58.6627   -21.8825     5.8614     6.4667   207.1713
  629.5000    60.4881   -21.9047     6.1257     6.9869   192.2311
  630.0000    62.3964   -21.9273     6.6180     7.2735   177.2908
  630.5000    66.5291   -21.9495     7.0217     7.4448   160.8566
  631.0000    65.0370   -21.9722     7.1212     7.5368   156.3745
  631.5000    64.8884   -21.9943     7.1214     7.5693   152.8884
  632.0000    63.0883   -22.0170     7.0094     7.6035   161.1056
  632.5000    65.9933   -22.0353     6.6359     7.5692   170.2357
  633.0000    67.6465   -21.9951     6.2631     7.4704   179.3574
  633.5000    65.1723   -21.9602     5.8891     7.3284   188.5009
  634.0000    63.8349   -21.9259     5.6287     6.9501   197.2043
  634.5000    60.5023   -21.8911     5.6276     6.4763   199.7018
  635.0000    61.0664   -21.8567     5.6288     6.1161   198.3270
  635.5000    61.4698   -21.8219     5.6275     6.0854   197.0849
  636.0000    59.6957   -21.7875     5.6967     6.1460   195.8393
  636.5000    58.6046   -21.7528     5.9218     6.7340   194.7172
  637.0000    58.6293   -21.7183     6.1267     7.2702   184.1977
  637.5000    59.5537   -21.6836     6.6732     7.8582   172.5018
  638.0000    58.1358   -21.6492     7.1222     8.0790   160.8147
  638.5000    57.4792   -21.6403     7.6192     8.3228   149.1178
  639.0000    56.2870   -21.6404     8.1176     8.5211   139.9433
  639.5000    54.7107   -21.6403     8.1732     8.6985   135.6777
  640.0000    54.5226   -21.6404     8.2356     8.8945   132.9722
  640.5000    56.6501   -21.6404     8.2977     8.9838   131.9722
  641.0000    55.1932   -21.6404     8.3160     9.0738   131.7231
  641.5000    56.7282   -21.6404     8.3160     9.0731   131.3674
  642.0000    59.2400   -21.6404     8.3155     9.0900   131.0117
  642.5000    62.2157   -21.6299     8.3158     9.1353   130.6559
  643.0000    62.6221   -21.6102     8.3152     9.2098   130.3002
  643.5000    57.3015   -21.5905     8.3153     9.2447   129.9801
  644.0000    53.3335   -21.5708     8.3153     9.2626   130.4519
  644.5000    50.6393   -21.5511     8.3153     9.2716   132.0245
  645.0000    51.9630   -21.5314     8.3157     9.2169   133.5972
  645.5000    53.5231   -21.5116     8.3154     9.1378   135.1698
  646.0000    54.1509   -21.4919     8.3163     9.0601   135.9562
  646.5000    57.8653   -21.4722     8.3489     8.9804   134.1214
  647.0000    62.1806   -21.4525     8.4614     8.8958   131.5003
  647.5000    64.3531   -21.4590     8.5704     8.8736   128.8792
  648.0000    61.3539   -21.4909     8.6835     9.0701   125.9960
  648.5000    59.1112   -21.5226     8.6095     9.2825   126.4940
  649.0000    61.0438   -21.5546     8.2641     9.4985   132.9681
  649.5000    63.4734   -21.5862     7.8409     9.6906   146.4284
  650.0000    59.7252   -21.6183     7.2584     9.5425   158.6650
  650.5000    55.7681   -21.6498     6.6683     9.2125   170.9016
  651.0000    51.7728   -21.6820     6.0303     8.4220   183.1382
  651.5000    50.4159   -21.7134     6.0260     7.5420   187.7490
  652.0000    52.3739   -21.7457     6.0307     6.5853   186.6185
  652.5000    50.3434   -21.7770     6.0855     6.6485   185.3710
  653.0000    56.6585   -21.8094     6.1733     6.7647   184.1235
  653.5000    59.7741   -21.8374     6.2265     7.6343   179.7809
  654.0000    62.2147   -21.7511     6.8119     8.8443   172.8088
  654.5000    59.5584   -21.6715     8.1189    10.2086   148.9471
  655.0000    56.3355   -21.5931     9.1035    10.7064   127.5612
  655.5000    53.7764   -21.5135     9.8724    11.0945   112.0518
  656.0000    55.9603   -21.4430    10.0992    11.3736   103.0876
  656.5000    56.3901   -21.4424    10.0706    11.3169   103.8043
  657.0000    52.0460   -21.4430    10.0463    11.0060   105.1584
  657.5000    48.4757   -21.4425    10.0182    11.1395   106.0786
  658.0000    45.4873   -21.4429    10.4114    11.5449   106.0731
  658.5000    47.0261   -21.4426    10.9563    11.9504   101.9813
  659.0000    48.8115   -21.4429    11.5035    12.3008    96.1557
  659.5000    46.9024   -21.4427    12.0491    13.2599    90.1452
  660.0000    41.2413   -21.4429    12.9733    14.1044    84.5236
  660.5000    35.7955   -21.4428    14.2198    15.1162    78.5408
  661.0000    31.9523   -21.4429    15.2875    16.2702    72.5488
  661.5000    34.1849   -21.4428    16.6478    17.4241    66.5659
  662.0000    36.8939   -21.4428    17.8369    18.4451    60.5732
  662.5000    35.3024   -21.4427    18.5262    19.2163    54.2899
  663.0000    32.7920   -21.4426    18.8715    19.8705    53.2888
  663.5000    30.3595   -21.4425    18.9035    20.3015    53.2921
  664.0000    31.6120   -21.4424    18.9442    20.3292    53.2868
  664.5000    30.7399   -21.4423    18.9867    20.0795    53.2868
  665.0000    30.0186   -21.4422    19.0272    19.8699    53.2868
  665.5000    33.8051   -21.4420    19.0714    20.2833    52.4884
  666.0000    35.3279   -21.4420    19.3529    20.6396    51.6567
  666.5000    30.4219   -21.4650    19.6473    20.9962    50.8250
  667.0000    28.6010   -21.4979    19.9401    21.3638    49.9934
  667.5000    28.4441   -21.5309    20.0375    21.4715    49.3028
  668.0000    31.1710   -21.5638    19.9849    21.5630    49.3028
  668.5000    28.6946   -21.5968    19.9329    21.4040    50.6183
  669.0000    29.8481   -21.6296    19.8686    21.2643    51.7410
  669.5000    33.6411   -21.5768    19.5593    20.7453    52.8638
  670.0000    35.9456   -21.4867    19.0727    20.2127    53.9865
  670.5000    39.1967   -21.2570    18.9340    19.6713    55.1093
  671.0000    39.3019   -20.8493    18.7553    19.4261    56.2321
  671.5000    42.4053   -20.5164    18.5757    19.1768    57.3548
  672.0000    45.0630   -20.1455    18.4988    18.9740    58.2669
  672.5000    47.9094   -19.7758    18.4240    19.0736    56.7812
  673.0000    46.2148   -19.4048    18.4104    19.2271    55.9495
  673.5000    44.9694   -19.0722    18.5042    19.4209    55.1179
  674.0000    46.6512   -19.0714    18.5914    19.6154    54.2829
  674.5000    46.6746   -19.0721    18.6863    19.7705    54.2829
  675.0000    44.7366   -19.0714    18.7723    19.5151    54.2829
  675.5000    46.3881   -19.0722    18.6665    19.3006    55.5381
  676.0000    47.7629   -19.0714    18.5727    18.9894    57.1064
  676.5000    46.4308   -19.0722    17.8581    18.5313    58.6747
  677.0000    45.0826   -19.0715    17.3780    18.0746    60.2430
  677.5000    41.9049   -19.0722    16.9320    17.6167    61.8113
  678.0000    38.5230   -19.0714    16.5522    17.1598    63.3796
  678.5000    35.9416   -19.0720    16.1888    16.9517    65.2390
  679.0000    33.9568   -19.0712    16.3522    16.9021    64.9104
  679.5000    31.2043   -19.0718    16.5231    17.0944    64.3757
  680.0000    28.0372   -19.0709    16.6852    17.4375    63.8411
  680.5000    30.0771   -19.0716    16.8551    17.7805    63.3064
  681.0000    29.0977   -19.0707    17.0183    17.9783    62.7718
