~VERSION INFORMATION
 VERS.                2.0:   CWLS LOG ASCII STANDARD - VERSION 2.0
 WRAP.                 NO:   ONE LINE PER DEPTH STEP
~WELL INFORMATION
#MNEM.UNIT      DATA TYPE    INFORMATION
#----------   ------------   ------------------------------
 STRT.F            0.0000:   START DEPTH
 STOP.F         3030.0000:   STOP DEPTH
 STEP.F            0.5000:   STEP LENGTH
 NULL.          -999.2500:   NO VALUE
 COMP. LAWRENCE/ALLISON INC:   COMPANY
 WELL. NAVAL PETROLEUM RESERVE 3 AX-3 #36  X 34-34:   WELL
 FLD .         N. P. R #3:   FIELD
 LOC .      S34 T39N R78W:   LOCATION
 CNTY.            NATRONA:   COUNTY
 STAT.            WYOMING:   STATE
 CTRY. UNITED STATES OF AMERICA:   COUNTRY
 SRVC.      Dresser Atlas:   SERVICE COMPANY
 DATE.        29-JUN-1985:   LOGDATE
 API .       490251103200:   API NUMBER
~CURVE INFORMATION
#MNEM.UNIT       API CODE    CURVE DESCRIPTION
#----------   ------------   ------------------------------
 DEPT.F                  :   
 RFOC.OHMM   07 220 01 00:   RESISTIVITY FOCUSED LOG
 RILM.OHMM   07 120 44 00:   RESITIVITY LONG MEDIUM
 SPR .MV     07 010 01 00:   SPONTANEOUS POTENTIAL
 RILD.OHMM   07 120 46 00:   INDUCTION LOG DEEP RESITIVITY
 GRR .GAPI   07 310 01 00:   GAMMA RAY
 DT  .US/F   60 520 00 00:   INTERVAL TRANSIT TIME
 CALD.IN     45 280 60 00:   CALIPER FROM DENSITY LOG
 CORR.G/C3   45 356 01 00:   DENSITY CORRECTION
 CNC .DEC    42 890 03 00:   NEUTRON POROSITY SANDSTONE
 DEN .G/C3   45 350 01 00:   COMPENSATED BULK DENSTIY
 PORD.DEC    45 890 12 00:   POROSITY DENSITY SANDSTONE
~PARAMETER INFORMATION
#MNEM.UNIT          VALUE    DESCRIPTION
#----------   ------------   ------------------------------
 PD  .                 GL:   PERMANENT DATUM
 EPD .F              5108:   ELEVATION PERMANENT DATUM
 LMF .                 KB:   LOG MEASURED FROM
 DAPD.F                12:   FEET ABOVE PERMANENT DATUM
 DMF .                 KB:   DRILLING MEASURED FROM
 EKB .F              5120:   KELLING BUSHING
 EGL .F              5108:   GROUND LEVEL
 DATE.       29-JUNE-1985:   RUN DATE
 RUN .                  1:   RUN NUMBER
 DD  .F              3033:   DEPTH DRILLER
 DL  .F              3033:   DEPTH LOGGER
 BLI .F              3030:   BOTTOM LOG INTERVAL
 CS  .IN            8.625:   CASING SIZE
 CBD .F               601:   CASING BOTTOM DRILLER
 CBL .F               601:   CASING BOTTOM LOGGER
 BS  .IN            7.875:   BIT SIZE
 BSD .F              3033:   BIT SIZE AT DEPTH
 DFT .   FOAM & KCL WATER:   DRILLING FLUID TYPE
 MSS .           FLOWLINE:   MUD SAMPLE SOURCE
 RMS .OHMM           0.44:   RESISTIVITY MUD SAMPLE
 MST .F                82:   MUD SAMPLE TEMPERATURE
 RMF .OHMM           0.44:   RESISTIVITY MUD FILTRATE SAMPLE
 MFST.F                82:   MUD FILTRATE SAMPLE TEMPERATURE
 MFSS.               MEAS:   MUD FILTRATE SAMPLE SOURCE
 RMB .OHMM           0.31:   RESISTIVITY MUD AT BHT
 BHT .F               116:   BOTTOM HOLE TEMPERATURE
 TCS .HRS               3:   TIME CURCULATED STOPPED
 MRT .F               116:   MAXIMUM RECORDED TEMPERATURE
 LUN .               6274:   LOGGING UNIT NUMBER
 LUL .               GLTE:   LOGGING UNIT LOCATION
 ENGI.             RAUTIO:   RECORDING ENGINEER
 WITN.       MR. JENNINGS:   WITNESSED BY
 CLNT.            A2DTECH:   CLIENT CODE
 ORIG.        2" 5" PRINT:   ORIGIN OF DATA
 UWI .       490251103200:   UNIQUE WELL ID
 DICO. A2D Technologies, Inc.:   DIGITIZING COMPANY
~OTHER INFORMATION
~A    DEPT    RFOC       RILM        SPR       RILD         GRR        DT       CALD       CORR        CNC        DEN       PORD   
# ...
 2714.5000     7.0167     6.5424    48.3572     6.5754   101.6535    83.8448     7.3059     0.0029     0.2430     2.4937     0.0890
 2715.0000     7.4739     6.5930    48.3643     6.6248    98.0315    82.8606     7.3057     0.0089     0.2463     2.4893     0.0932
 2715.5000     7.7422     6.6430    48.2171     6.6747    96.2276    82.3293     7.3056     0.0105     0.2456     2.4870     0.0974
 2716.0000     7.6920     6.7874    48.2242     6.7262    95.9389    82.4014     7.3054     0.0061     0.2420     2.5036     0.0956
 2716.5000     7.6957     6.8867    47.9283     6.8714    96.8659    82.3191     7.3053    -0.0044     0.2369     2.5126     0.0853
 2717.0000     7.7000     6.9876    47.7811     6.9231    97.1832    81.8637     7.3051    -0.0209     0.2304     2.5104     0.0817
 2717.5000     7.7573     6.9926    47.7883     6.9268    97.5006    80.7299     7.2899    -0.0298     0.2277     2.5022     0.0835
 2718.0000     7.9800     7.0457    47.7940     6.9304    97.2119    79.8974     7.2898    -0.0264     0.2271     2.4992     0.0883
 2718.5000     8.4410     7.0499    47.8011     6.9835    96.3207    79.7425     7.2896    -0.0132     0.2264     2.4970     0.0904
 2719.0000     8.0441     7.0541    47.8068     6.9872    96.0320    81.2433     7.3045    -0.0101     0.2240     2.4978     0.0910
 2719.5000     7.6118     7.1583    47.8126     6.9909    95.7397    81.8414     7.3005    -0.0101     0.2218     2.5016     0.0910
 2720.0000     7.4062     7.3650    47.5152     7.0434    94.8485    81.8372     7.2891    -0.0102     0.2185     2.5061     0.0896
 2720.5000     7.4670     7.6306    47.0678     7.3070    93.6543    81.0312     7.2890    -0.0174     0.2105     2.5091     0.0861
 2721.0000     8.4624     7.8509    46.4675     7.7203    93.3620    78.2885     7.2888    -0.0219     0.1985     2.5114     0.0834
 2721.5000     9.3329     8.1352    45.7156     7.9427    89.4405    75.7993     7.2887    -0.0143     0.1975     2.5099     0.0827
 2722.0000    10.2217     8.2543    45.5697     8.0584    85.2124    75.1927     7.3036    -0.0052     0.2126     2.4972     0.0828
 2722.5000    11.0403     8.3169    45.2725     8.1190    81.5939    75.1121     7.3185    -0.0382     0.2271     2.4875     0.0918
 2723.0000    11.4379     8.1497    45.1267     8.0108    82.8203    75.1842     7.3184    -0.0562     0.2413     2.4830     0.0972
 2723.5000    10.5996     8.0339    45.1339     7.9042    88.5922    75.4801     7.3333    -0.0593     0.2404     2.4890     0.0999
 2724.0000     9.7546     7.8265    45.1396     7.8534    91.8940    76.2289     7.3331    -0.0396     0.2379     2.4943     0.0956
 2724.5000     9.0396     7.7756    45.1455     7.8040    95.5102    78.4826     7.3330    -0.0260     0.2355     2.4973     0.0902
 2725.0000     8.2622     7.7262    45.0009     7.8092    96.8182    78.7043     7.3328    -0.0199     0.2324     2.4996     0.0881
 2725.5000     7.8728     7.6749    45.0067     7.8133    90.4724    78.6247     7.3327    -0.0078     0.2297     2.5034     0.0859
 2726.0000     7.9869     7.4728    45.0124     7.6547    85.6383    78.2399     7.3325     0.0013     0.2263     2.5080     0.0832
 2726.5000     8.5072     7.3737    44.8666     7.4492    85.3460    77.4857     7.3324     0.0043     0.2262     2.5125     0.0820
 2727.0000     9.0058     7.2255    44.7208     7.1937    86.5760    76.8037     7.3322    -0.0242     0.2278     2.5065     0.0841
 2727.5000     9.3227     6.9823    44.5750     6.9076    87.8060    76.5736     7.3321    -0.0331     0.2326     2.4923     0.0943
 2728.0000     9.4578     6.6548    44.1276     6.7683    89.0324    76.9702     7.3319    -0.0286     0.2380     2.4795     0.1016
 2728.5000     9.1385     6.2541    43.5254     6.7719    93.5922    80.1032     7.3318    -0.0150     0.2513     2.4735     0.1061
 2729.0000     8.3927     5.9186    42.9283     6.7292    99.6671    82.2074     7.3316    -0.0044     0.2540     2.4819     0.1003
 2729.5000     6.7813     5.6796    42.4795     6.5935   100.5906    84.3869     7.3164     0.0017     0.2485     2.4931     0.0931
 2730.0000     6.6435     5.4454    41.8777     6.2830   100.3018    85.3616     7.3163     0.0108     0.2452     2.5022     0.0858
 2730.5000     6.5554     5.1947    41.2788     5.9845    99.7101    85.2810     7.3161    -0.0102     0.2478     2.5082     0.0840
 2731.0000     6.5129     5.0199    40.9829     5.6269   100.0310    85.2014     7.3160    -0.0192     0.2515     2.5090     0.0852
 2731.5000     6.4265     4.8848    40.8357     5.3247   102.8028    85.1972     7.3158    -0.0176     0.2605     2.5060     0.0873
 2732.0000     6.3406     4.8184    40.3883     5.0387   110.0632    85.3425     7.3157    -0.0085     0.2744     2.5008     0.0900
 2732.5000     6.1693     4.3754    39.9395     4.6480   112.1988    85.4899     7.3306    -0.0040     0.2883     2.4978     0.0948
 2733.0000     5.9610     3.8620    39.6422     4.0365   115.2434    85.7858     7.3304     0.0021     0.2985     2.4932     0.1011
 2733.5000     5.5633     3.3383    39.1948     3.4890   117.3789    86.3087     7.3406     0.0142     0.3063     2.4799     0.1141
 2734.0000     5.2278     2.7292    38.8975     3.0156   128.0029    88.4871     7.3602     0.0398     0.3238     2.4634     0.1310
 2734.5000     4.6789     2.2007    38.6000     2.5708   137.4111    93.7540     7.3618     0.0609     0.3537     2.4288     0.1545
 2735.0000     3.9333     1.8630    38.4544     2.0581   158.3345    95.9293     7.3785     0.0279     0.3812     2.3877     0.2047
 2735.5000     3.4656     1.5992    38.4615     1.6477   185.3185    97.6605     7.3899     0.0174     0.3815     2.3190     0.2696
 2736.0000     2.9856     1.4115    38.7702     1.4747   192.5835   101.4213     7.4048     0.0445     0.3776     2.2103     0.3086
 2736.5000     2.4366     1.3255    39.2305     1.3750   197.4720   107.1399     7.4950     0.1182     0.4295     2.1404     0.2587
 2737.0000     2.0202     1.2821    39.6909     1.3578   196.5772   110.8997     7.6153     0.1108     0.4413     2.1705     0.2478
 2737.5000     1.9930     1.2649    40.0010     1.3587   188.1067   111.1224     7.6604     0.0642     0.4307     2.2382     0.2974
 2738.0000     2.5621     1.2658    40.4612     1.3689   182.9295   109.9876     7.6904     0.0868     0.3892     2.2239     0.3970
 2738.5000     2.9668     1.3127    40.9215     1.3990   181.4686   112.5436     7.9356     0.1200     0.3200     2.0444     0.3620
 2739.0000     2.3487     1.5513    41.3900     1.4694   176.6380   115.5504     7.5394     0.0945     0.3094     1.9978     0.3115
 2739.5000     2.1708     1.8476    41.8434     1.6096   169.0766   115.9986     7.5544    -0.0468     0.2809     2.0721     0.2322
 2740.0000     2.4450     2.2158    42.1522     1.8384   139.0909   111.0988     7.5693    -0.0316     0.2767     2.2488     0.1233
 2740.5000     3.9821     2.6389    42.3094     2.2046   102.7452    99.4981     7.5691    -0.0090     0.2724     2.4457     0.1220
 2741.0000     5.6546     3.2322    42.3152     2.6729    96.3958    88.0478     7.5690    -0.0420     0.2669     2.4480     0.1220
 2741.5000     5.8861     3.6407    42.6253     3.0411    96.1036    85.3320     7.5688    -0.0585     0.2618     2.4480     0.1217
 2742.0000     5.3426     3.8786    42.9341     3.4976    97.6366    87.5115     7.5687    -0.0464     0.2638     2.4466     0.1217
 2742.5000     5.2705     4.1900    43.2428     4.0508    98.2606    89.6157     7.5789    -0.0208     0.2771     2.4473     0.1217
 2743.0000     5.2736     4.5374    43.5516     4.4479    99.1840    90.5903     7.5834    -0.0027     0.2677     2.4481     0.1217
 2743.5000     5.2394     5.0994    44.1648     4.8950    99.1983    92.1664     7.5833     0.0034     0.2471     2.4520     0.1150
 2744.0000     5.2790     5.4326    44.6250     5.3246    99.8187    92.3895     7.5831    -0.0101     0.2175     2.4685     0.1005
 2744.5000     5.7018     5.7876    44.7416     5.7118    97.3490    92.0515     7.5980    -0.0176     0.1842     2.4843     0.0875
