~VERSION INFORMATION
 VERS.                2.0:   CWLS LOG ASCII STANDARD - VERSION 2.0
 WRAP.                 NO:   ONE LINE PER DEPTH STEP
~WELL INFORMATION
#MNEM.UNIT      DATA TYPE    INFORMATION
#----------   ------------   ------------------------------
 STRT.F           20.0000:   START DEPTH
 STOP.F          546.0000:   STOP DEPTH
 STEP.F            0.5000:   STEP LENGTH
 NULL.          -999.2500:   NO VALUE
 COMP. LAWRENCE/ALLISON INC:   COMPANY
 WELL.   83-61 STX #10-10:   WELL
 FLD .             TEAPOT:   FIELD
 LOC .      S10 T38N R78W:   LOCATION
 CNTY.            NATRONA:   COUNTY
 STAT.            WYOMING:   STATE
 CTRY. UNITED STATES OF AMERICA:   COUNTRY
 SRVC.           Gearhart:   SERVICE COMPANY
 DATE.        09-JUN-1987:   LOGDATE
 API .       490251113100:   API NUMBER
~CURVE INFORMATION
#MNEM.UNIT       API CODE    CURVE DESCRIPTION
#----------   ------------   ------------------------------
 DEPT.F                  :   
 GRR .GAPI   07 310 01 00:   GAMMA RAY FROM RES. LOG.
 RILD.OHMM   07 120 46 00:   INDUCTION LOG DEEP RESISTIVITY
 RILM.OHMM   07 120 44 00:   INDUCTION LOG MEDIUM RESISTIVITY
 RLL .OHMM   07 220 00 00:   LATEROLOG RESISTIVITY
~PARAMETER INFORMATION
#MNEM.UNIT          VALUE    DESCRIPTION
#----------   ------------   ------------------------------
 PD  .                 GL:   PERMANENT DATUM
 EPD .F              5163:   ELEVATION PERMANENT DATUM
 LMF .                 KB:   LOG MEASURED FROM
 DAPD.F                 8:   FEET ABOVE PERMANENT DATUM
 DMF .                 KB:   DRILLING MEASURED FROM
 EKB .F              5171:   KELLING BUSHING
 EDF .F              5169:   DRILLING FLOOR
 EGL .F              5163:   GROUND LEVEL
 DATE.             6-9-87:   RUN DATE
 RUN .                  1:   RUN NUMBER
 DD  .F             552.5:   DEPTH DRILLER
 DL  .F               549:   DEPTH LOGGER
 BLI .F               546:   BOTTOM LOG INTERVAL
 TLI .F                49:   TOP LOG INTERVAL
 CS  .IN             8.62:   CASING SIZE
 CBD .F                50:   CASING BOTTOM DRILLER
 CBL .F                46:   CASING BOTTOM LOGGER
 BS  .IN             7.87:   BIT SIZE
 BSD .F             552.5:   BIT SIZE AT DEPTH
 DFT .                MUD:   DRILLING FLUID TYPE
 TCS .HRS            0300:   TIME CURCULATED STOPPED
 TLAB.HRS            0400:   TIME LOGGER AT BOTTOM
 LUN .               7597:   LOGGING UNIT NUMBER
 LUL .           GILLETTE:   LOGGING UNIT LOCATION
 ENGI.           JOHNSTON:   RECORDING ENGINEER
 WITN.             STRONG:   WITNESSED BY
 CLNT.            A2DTECH:   CLIENT CODE
 ORIG.       2", 5" PRINT:   ORIGIN OF DATA
 UWI .       490251113100:   UNIQUE WELL ID
 DICO. A2D Technologies, Inc.:   DIGITIZING COMPANY
~OTHER INFORMATION
~A   DEPT       GRR      RILD       RILM        RLL   
# ...
   93.0000    92.0284     9.4055     8.4418     8.1229
   93.5000    90.9742     9.3700     8.3568     8.1719
   94.0000    89.9259     9.3346     8.5411     8.2374
   94.5000    92.3703     9.2994     8.6786     8.3034
   95.0000    95.3970     9.2642     8.8183     8.3701
   95.5000    97.0573     9.2293     8.9602     8.4374
   96.0000    97.6075     9.1945     9.0156     8.4999
   96.5000    96.8107     9.1883     8.8390     8.5168
   97.0000    96.1727     9.1883     8.7164     8.4846
   97.5000    97.3656     9.0189     8.5955     8.3502
   98.0000    98.5407     8.8217     8.4762     8.2179
   98.5000    98.0430     8.6288     8.3182     8.0877
   99.0000    95.1185     8.4406     8.1431     7.9596
   99.5000    92.2649     8.2539     7.9718     7.8370
  100.0000    92.2846     8.0570     7.8040     7.4935
  100.5000    95.3447     7.8517     7.6403     7.1765
  101.0000    98.3753     7.6531     7.4804     7.1771
  101.5000   101.2895     7.4596     7.3222     7.0661
  102.0000   102.7555     7.2715     6.7580     6.9437
  102.5000   102.2806     7.1101     5.8883     6.6832
  103.0000   100.8454     7.1102     6.1260     6.4076
  103.5000    99.0452     7.1123     6.4055     6.4076
  104.0000    96.9236     7.4406     6.6924     6.9099
  104.5000    93.9518     7.7377     6.9922     7.3176
  105.0000    90.9006     8.0463     7.3056     7.2730
  105.5000    87.9511     8.3673     7.6326     7.1961
  106.0000    87.1388     8.4364     8.0452     7.1801
  106.5000    88.3036     8.4364     8.0329     7.2485
  107.0000    89.5498     8.4074     8.0169     7.6724
  107.5000    88.8877     8.3368     8.0009     8.2949
  108.0000    86.1392     8.2668     7.9850     8.9678
  108.5000    82.7764     8.1996     7.9697     9.6952
  109.0000    83.7399     8.1492     7.9043     9.9127
  109.5000    86.5553     8.1006     7.8269     9.4055
  110.0000    89.1461     8.0523     7.7502     8.9439
  110.5000    89.5694     8.0044     7.6743     8.5049
  111.0000    89.5524     7.9567     7.5991     8.1997
  111.5000    89.5471     7.9093     7.5247     8.1223
  112.0000    89.5550     7.8945     7.4577     8.1223
  112.5000    89.9365     8.0679     7.6208     8.1223
  113.0000    90.3529     8.2303     7.7734     8.1223
  113.5000    90.7795     8.3959     7.9290     8.1223
  114.0000    91.2277     8.5648     8.0877     7.9118
  114.5000    91.2798     8.7371     8.2496     7.6278
  115.0000    89.3206     8.9129     8.4148     7.3540
  115.5000    87.3976     9.1015     8.5833     7.1123
  116.0000    85.9018     9.0156     8.7627     7.1801
  116.5000    85.0324     8.9350     8.5386     7.5173
  117.0000    84.3030     8.7156     8.3104     7.9865
  117.5000    85.7016     8.5017     8.0883     8.4851
  118.0000    87.3143     8.2928     7.8721     8.5980
  118.5000    90.1460     8.0881     7.6617     8.5497
  119.0000    92.9083     7.9697     7.4585     8.4279
  119.5000    95.5539     7.9723     7.6008     8.3568
  120.0000    98.3277     7.9846     7.7487     8.4339
  120.5000    99.3460     7.9969     7.8987     8.4890
  121.0000    98.0559     8.0092     8.0512     8.5446
  121.5000    96.5649     8.0215     8.1997     8.5980
  122.0000    95.0804     8.0340     8.1601     8.5180
  122.5000    93.6001     8.0457     8.1212     8.4419
  123.0000    92.1417     7.9536     8.0828     8.3666
  123.5000    91.5434     7.8676     8.0447     8.2919
  124.0000    92.8395     7.7826     8.0068     8.2179
  124.5000    94.3009     7.6985     7.9691     8.1443
  125.0000    94.5028     7.6153     7.9315     8.1106
  125.5000    93.9055     7.5330     7.8942     8.0937
  126.0000    93.2910     7.4516     7.8570     8.0770
  126.5000    92.8623     7.3711     7.8200     8.0602
  127.0000    94.0974     7.3134     7.7831     8.0457
  127.5000    95.2971     7.3007     7.7465     8.1080
  128.0000    96.0978     7.2880     7.7100     8.1636
  128.5000    96.4164     7.2753     7.6737     8.2196
  129.0000    96.1480     7.2627     7.6375     8.2761
  129.5000    97.6917     7.2501     7.6005     8.3326
  130.0000   100.0597     7.2375     7.6308     8.3572
  130.5000    99.3904     7.2249     7.6620     8.3084
  131.0000    97.6799     7.2123     7.6933     8.2734
  131.5000    95.9472     7.1997     7.7248     8.2386
  132.0000    94.5967     7.1869     7.7564     8.2039
  132.5000    95.9295     7.1810     7.7881     8.1694
  133.0000    97.2372     7.2794     7.8199     8.1223
  133.5000    98.5397     7.3503     7.8519     8.1469
  134.0000    99.3901     7.4220     7.8840     8.1859
  134.5000   100.1320     7.4943     7.9162     8.2292
  135.0000    98.4581     7.5674     7.9486     8.2749
  135.5000    96.6639     7.6411     7.9811     8.3209
  136.0000    95.3157     7.7156     8.0138     8.3672
  136.5000    97.4107     7.7908     8.0465     8.4137
  137.0000    99.2298     7.8668     8.0794     8.4605
  137.5000    96.4378     7.9434     8.1125     8.5075
  138.0000    93.5490     8.0209     8.1565     8.5548
  138.5000    91.7322     8.0990     8.2054     8.6023
  139.0000    92.8788     8.1997     8.2546     8.6501
  139.5000    94.7125     8.1598     8.3040     8.6982
  140.0000    96.9577     8.0847     8.3538     8.7465
  140.5000    99.3138     8.0102     8.4039     8.7952
  141.0000    95.9086     7.9364     8.4364     8.8462
  141.5000    92.6519     7.8633     8.3160     8.6258
  142.0000    91.3713     7.7909     8.2282     8.4013
  142.5000    92.9951     7.7461     8.1412     8.1826
  143.0000    93.9788     7.7731     8.0552     7.9696
  143.5000    93.3365     7.8438     7.9700     7.7621
  144.0000    92.7764     7.9150     7.8858     7.5852
  144.5000    92.5633     7.9869     7.8025     7.5101
  145.0000    92.8520     8.0595     7.7200     7.4356
  145.5000    93.9950     8.1327     7.6690     7.3619
  146.0000    95.3318     8.2066     7.6516     7.2890
  146.5000    97.6177     8.2779     7.6342     7.2485
  147.0000    99.9100     8.2946     7.6168     7.2940
  147.5000    99.1213     8.3145     7.6005     7.3340
  148.0000    97.4115     8.3344     7.8136     7.3980
  148.5000    94.0265     8.3543     8.0199     7.4577
  149.0000    90.7785     8.5666     8.2321     7.7568
  149.5000    89.5940     8.8122     8.4500     8.0457
  150.0000    89.9304     9.0657     8.6746     8.4364
  150.5000    91.6082     9.3232     9.0100     8.4170
  151.0000    92.3308     9.4566     8.9193     8.3792
  151.5000    92.8019     9.3822     8.8604     8.3407
  152.0000    93.2575     9.3284     8.8075     8.3021
  152.5000    93.4704     9.2750     8.7549     8.2779
  153.0000    92.0431     9.2212     8.7026     8.3266
  153.5000    90.6225     9.1885     8.6507     8.3629
  154.0000    89.2273     9.2514     8.5980     8.3994
  154.5000    88.6592     9.2986     8.7638     8.4360
  155.0000    89.6624     9.3456     8.9362     8.4729
  155.5000    90.6347     9.4854     9.1121     8.5084
  156.0000    91.6316     9.6895     9.2914     8.6944
  156.5000    91.3940     9.8980     9.4742     8.9172
  157.0000    89.8781    10.1110     9.6606     9.1463
  157.5000    87.7223    10.3286     9.8507     9.3281
  158.0000    85.4330    10.5508    10.0445     9.4464
  158.5000    85.4488    10.7779    10.2422     9.5662
  159.0000    86.6878    11.0237    10.4437     9.6876
  159.5000    87.9631    11.2909    10.6492     9.8868
  160.0000    89.1716    11.5646    10.8886    10.1264
  160.5000    87.3718    11.8449    11.2061    10.3710
  161.0000    85.3476    12.1320    11.5328    10.6245
  161.5000    83.3609    12.4468    11.8691    11.1408
  162.0000    81.4455    12.7107    12.2152    11.7896
  162.5000    80.2425    13.0004    12.4468    12.0976
  163.0000    83.1263    13.4280    12.3929    11.9499
  163.5000    86.0151    13.3996    12.3365    11.8413
  164.0000    87.4335    13.3493    12.2803    11.7338
  164.5000    86.1569    13.2993    12.2125    11.6472
  165.0000    84.6650    13.2494    12.2345    11.7858
  165.5000    83.1798    13.1997    12.2713    11.9279
