~VERSION INFORMATION
 VERS.                2.0:   CWLS LOG ASCII STANDARD - VERSION 2.0
 WRAP.                 NO:   ONE LINE PER DEPTH STEP
~WELL INFORMATION
#MNEM.UNIT      DATA TYPE    INFORMATION
#----------   ------------   ------------------------------
 STRT.F           85.0000:   START DEPTH
 STOP.F          780.0000:   STOP DEPTH
 STEP.F            0.5000:   STEP LENGTH
 NULL.          -999.2500:   NO VALUE
 COMP. U S NAVY-INTEX OIL:   COMPANY
 WELL.        NPR #47-S-2:   WELL
 FLD .             TEAPOT:   FIELD
 LOC .       S2 T38N R78W:   LOCATION
 CNTY.            NATRONA:   COUNTY
 STAT.            WYOMING:   STATE
 CTRY. UNITED STATES OF AMERICA:   COUNTRY
 SRVC.       Schlumberger:   SERVICE COMPANY
 DATE.        30-JUN-1962:   LOGDATE
 API .       490250640200:   API NUMBER
~CURVE INFORMATION
#MNEM.UNIT       API CODE    CURVE DESCRIPTION
#----------   ------------   ------------------------------
 DEPT.F                  :   
 SPR .MV     05 010 01 00:   SPONTANEOUS POTENTIAL FROM RES.
 ASN .OHMM   05 041 18 00:   AMPLIFIED SHORT NORMAL 18"
 ILD .OHMM   05 120 46 00:   INDUCTION LOG DEEP
 CILD.MMHO   05 110 46 00:   CONDUCTIVITY INDUCTION LOG DEEP
 CALM.IN     15 280 01 00:   CALIPER FROM MICRO LOG
 GR  .GAPI   30 310 01 00:   GAMMA RAY
~PARAMETER INFORMATION
#MNEM.UNIT          VALUE    DESCRIPTION
#----------   ------------   ------------------------------
 PD  .                 KB:   PERMANENT DATUM
 LMF .                 KB:   LOG MEASURED FROM
 DMF .                 KB:   DRILLING MEASURED FROM
 EKB .F              5175:   KELLING BUSHING
 EGL .F              5170:   GROUND LEVEL
 DATE.          6-30-1962:   RUN DATE
 RUN .                  1:   RUN NUMBER
 DD  .F               775:   DEPTH DRILLER
 DL  .F               781:   DEPTH LOGGER
 BLI .F               780:   BOTTOM LOG INTERVAL
 TLI .F                86:   TOP LOG INTERVAL
 BS  .IN             6.75:   BIT SIZE
 BSD .F               775:   BIT SIZE AT DEPTH
 DFT .            GEL-OIL:   DRILLING FLUID TYPE
 DFD .                 10:   DRILLING FLUID DENSITY
 DFV .                 50:   DRILLING FLUID VISCOSITY
 DFL .                3.6:   DRILLING FLUID LOSS
 MSS .           FLOWLINE:   MUD SAMPLE SOURCE
 RMS .OHMM           5.75:   RESISTIVITY MUD SAMPLE
 MST .F                69:   MUD SAMPLE TEMPERATURE
 RMF .OHMM           4.96:   RESISTIVITY MUD FILTRATE SAMPLE
 MFST.F                69:   MUD FILTRATE SAMPLE TEMPERATURE
 RMC .OHMM           4.80:   RESISTIVITY MUD CAKE
 MCST.F                69:   MUD CAKE SAMPLE TEMPERATURE
 RMB .OHMM           5.13:   RESISTIVITY MUD AT BHT
 BHT .F                78:   BOTTOM HOLE TEMPERATURE
 TCS .HRS               1:   TIME CURCULATED STOPPED
 MRT .F                78:   MAXIMUM RECORDED TEMPERATURE
 LUN .               2503:   LOGGING UNIT NUMBER
 LUL .              CSPR.:   LOGGING UNIT LOCATION
 ENGI.             KNOBEL:   RECORDING ENGINEER
 WITN.          JORGENSEN:   WITNESSED BY
 CLNT.            A2DTECH:   CLIENT CODE
 ORIG.      2" & 5" PRINT:   ORIGIN OF DATA
 UWI .       490250640200:   UNIQUE WELL ID
 DICO. A2D Technologies, Inc.:   DIGITIZING COMPANY
~OTHER INFORMATION
~A   DEPT      SPR        ASN        ILD         CILD     CALM         GR   
# ...
  345.0000   -26.7857     7.3089     7.1378   147.2935  -999.2500  -999.2500
  345.5000   -26.7857     7.4172     7.3584   144.2935  -999.2500  -999.2500
  346.0000   -26.6369     7.6294     7.5032   142.0451  -999.2500  -999.2500
  346.5000   -26.6369     7.8005     7.4248   139.7970  -999.2500  -999.2500
  347.0000   -26.6369     7.5608     7.3473   139.0526  -999.2500  -999.2500
  347.5000   -26.6270     7.5008     7.5679   139.8748  -999.2500  -999.2500
  348.0000   -26.4881     7.7700     7.4138   142.2749  -999.2500  -999.2500
  348.5000   -26.4881     7.6501     7.2607   146.8695  -999.2500  -999.2500
  349.0000   -26.4881     7.3955     7.1075   151.1142  -999.2500  -999.2500
  349.5000   -26.6369     7.3355     7.0291   154.8810  -999.2500  -999.2500
  350.0000   -26.7313     7.1407     6.8936   158.6478  -999.2500  -999.2500
  350.5000   -26.6369     6.9310     6.6579   161.6628  -999.2500  -999.2500
  351.0000   -26.6369     6.8710     6.5006   162.4060  -999.2500  -999.2500
  351.5000   -26.6385     6.8408     6.4999   165.4135  -999.2500  -999.2500
  352.0000   -26.7857     6.8257     6.4991   166.1654  -999.2500  -999.2500
  352.5000   -26.7882     6.8106     6.4984   163.9098  -999.2500  -999.2500
  353.0000   -27.0833     6.7955     6.5726   160.9023  -999.2500  -999.2500
  353.5000   -27.3810     6.9151     6.6466   157.8947  -999.2500  -999.2500
  354.0000   -27.6786     7.0197     6.7205   155.6391  -999.2500  -999.2500
  354.5000   -27.8274     7.1393     6.8691   152.6316  -999.2500  -999.2500
  355.0000   -27.8274     7.2889     7.0178   149.6241  -999.2500  -999.2500
  355.5000   -27.8274     7.4235     7.1665   146.6165  -999.2500  -999.2500
  356.0000   -27.6786     7.5581     7.3155   142.8571  -999.2500  -999.2500
  356.5000   -27.6722     7.6926     7.4642   139.8496  -999.2500  -999.2500
  357.0000   -27.5229     7.8122     7.6129   139.0977  -999.2500  -999.2500
  357.5000   -27.3735     7.8869     7.6120   142.1053  -999.2500  -999.2500
  358.0000   -27.0833     7.9767     7.4618   145.8647  -999.2500  -999.2500
  358.5000   -27.0748     7.7220     7.3863   149.6241  -999.2500  -999.2500
  359.0000   -26.9345     7.4973     7.3108   153.3835  -999.2500  -999.2500
  359.5000   -26.7857     7.3325     7.1606   157.8947  -999.2500  -999.2500
  360.0000   -26.6369     7.0928     7.0104   160.1504  -999.2500  -999.2500
  360.5000   -26.4881     6.9579     6.7854   162.4060  -999.2500  -999.2500
  361.0000   -26.6369     6.8979     6.6352   163.9098  -999.2500  -999.2500
  361.5000   -26.7857     6.8528     6.4849   164.6617  -999.2500  -999.2500
  362.0000   -27.0833     6.7928     6.4842   164.6617  -999.2500  -999.2500
  362.5000   -27.2321     6.7777     6.5584   163.1579  -999.2500  -999.2500
  363.0000   -27.2321     6.8224     6.6324   160.9023  -999.2500  -999.2500
  363.5000   -27.2187     6.9121     6.7811   157.1429  -999.2500  -999.2500
  364.0000   -27.0833     7.0167     6.9298   154.1353  -999.2500  -999.2500
  364.5000   -26.9345     7.1962     7.0784   151.1278  -999.2500  -999.2500
  365.0000   -26.7857     7.4057     7.2273   149.6241  -999.2500  -999.2500
  365.5000   -26.6369     7.4505     7.3013   147.3684  -999.2500  -999.2500
  366.0000   -26.6369     7.4652     7.3753   145.1128  -999.2500  -999.2500
  366.5000   -26.7857     7.5998     7.4491   142.8571  -999.2500  -999.2500
  367.0000   -26.8026     7.6596     7.4483   141.3534  -999.2500  -999.2500
  367.5000   -27.0833     7.6444     7.5223   139.8496  -999.2500  -999.2500
  368.0000   -27.2500     7.6443     7.5216   138.3459  -999.2500  -999.2500
  368.5000   -27.6786     7.6890     7.5958   137.5940  -999.2500  -999.2500
  369.0000   -27.8274     7.8087     7.5948   136.0902  -999.2500  -999.2500
  369.5000   -27.9762     7.9881     7.6690   135.3383  -999.2500  -999.2500
  370.0000   -27.9762     7.9311     7.6681   135.3383  -999.2500  -999.2500
  370.5000   -27.9762     7.7604     7.6673   136.0902  -999.2500  -999.2500
  371.0000   -27.8274     7.8318     7.5918   137.5940  -999.2500  -999.2500
  371.5000   -27.8274     7.9427     7.4416   139.8496  -999.2500  -999.2500
  372.0000   -27.8056     7.8798     7.3661   142.8571  -999.2500  -999.2500
  372.5000   -27.6786     7.8049     7.2906   145.1128  -999.2500  -999.2500
  373.0000   -27.6786     7.7150     7.2152   147.3684  -999.2500  -999.2500
  373.5000   -27.6786     7.5749     7.1397   149.6241  -999.2500  -999.2500
  374.0000   -27.6786     7.4128     7.1389   151.1278  -999.2500  -999.2500
  374.5000   -27.6786     7.2805     7.0634   151.8797  -999.2500  -999.2500
  375.0000   -27.6786     7.2231     6.9879   152.6316  -999.2500  -999.2500
  375.5000   -27.6786     7.1780     6.9872   153.3835  -999.2500  -999.2500
  376.0000   -27.5298     7.2126     6.9865   154.1353  -999.2500  -999.2500
  376.5000   -27.3810     7.2526     6.9857   154.1353  -999.2500  -999.2500
  377.0000   -27.2321     7.2202     6.9850   154.1353  -999.2500  -999.2500
  377.5000   -27.2321     7.2223     6.9842   154.1353  -999.2500  -999.2500
  378.0000   -27.2321     7.2371     6.9087   153.3835  -999.2500  -999.2500
  378.5000   -27.2321     7.2541     6.9080   152.6316  -999.2500  -999.2500
  379.0000   -27.2034     7.2838     6.9822   151.8797  -999.2500  -999.2500
  379.5000   -27.0540     7.3115     6.9812   151.1278  -999.2500  -999.2500
  380.0000   -26.6369     7.3114     6.9805   149.6241  -999.2500  -999.2500
  380.5000   -26.4881     7.3132     7.0545   148.8722  -999.2500  -999.2500
  381.0000   -26.3393     7.4085     7.2032   147.3684  -999.2500  -999.2500
  381.5000   -26.1905     7.6158     7.3521   146.6165  -999.2500  -999.2500
  382.0000   -26.3393     7.7485     7.3512   146.6165  -999.2500  -999.2500
  382.5000   -26.9345     7.6929     7.2010   148.1203  -999.2500  -999.2500
  383.0000   -27.6786     7.3619     7.1255   149.6241  -999.2500  -999.2500
  383.5000   -27.9762     7.5248     7.1995   150.3759  -999.2500  -999.2500
  384.0000   -27.3810     7.6844     7.1987   150.3759  -999.2500  -999.2500
  384.5000   -26.4881     7.5331     7.2729   150.3759  -999.2500  -999.2500
  385.0000   -26.4881     7.4895     7.4214   149.6241  -999.2500  -999.2500
  385.5000   -26.4881     7.5043     7.4956   148.8722  -999.2500  -999.2500
  386.0000   -26.4881     7.5505     7.5696   147.3684  -999.2500  -999.2500
  386.5000   -26.4881     7.6115     7.6436   145.1128  -999.2500  -999.2500
  387.0000   -26.4881     7.6998     7.7176   142.8571  -999.2500  -999.2500
  387.5000   -26.4881     7.7744     7.7916   140.6015  -999.2500  -999.2500
  388.0000   -26.4881     7.8180     7.8656   138.3459  -999.2500  -999.2500
  388.5000   -26.4881     7.8639     7.9396   136.0902  -999.2500  -999.2500
  389.0000   -26.4881     7.9546     8.0136   134.5865  -999.2500  -999.2500
  389.5000   -26.6369     8.0591     8.0126   133.0827  -999.2500  -999.2500
  390.0000   -26.6369     8.1786     8.0119   131.5789  -999.2500  -999.2500
  390.5000   -26.6369     8.3281     8.0111   130.8271  -999.2500  -999.2500
  391.0000   -26.6369     8.4317     8.0853   130.0752  -999.2500  -999.2500
  391.5000   -26.6369     8.4606     8.0844   130.0752  -999.2500  -999.2500
  392.0000   -26.6369     8.4297     8.0859   130.8271  -999.2500  -999.2500
  392.5000   -26.6369     8.4005     8.0997   131.5789  -999.2500  -999.2500
  393.0000   -26.6369     8.4003     8.1135   130.8271  -999.2500  -999.2500
  393.5000   -26.6369     8.4307     8.1273   130.0752  -999.2500  -999.2500
  394.0000   -26.6369     8.4761     8.1411   128.5714  -999.2500  -999.2500
  394.5000   -26.7857     8.5806     8.2212   126.3158  -999.2500  -999.2500
  395.0000   -26.9345     8.6856     8.4454   124.8120  -999.2500  -999.2500
  395.5000   -26.9345     8.8510     8.5949   122.5564  -999.2500  -999.2500
  396.0000   -26.9345     9.1196     8.7444   120.3008  -999.2500  -999.2500
  396.5000   -27.0833     9.3281     8.8939   118.7970  -999.2500  -999.2500
