~VERSION INFORMATION
 VERS.                2.0:   CWLS LOG ASCII STANDARD - VERSION 2.0
 WRAP.                 NO:   ONE LINE PER DEPTH STEP
~WELL INFORMATION
#MNEM.UNIT      DATA TYPE    INFORMATION
#----------   ------------   ------------------------------
 STRT.F           14.0000:   START DEPTH
 STOP.F          692.5000:   STOP DEPTH
 STEP.F            0.5000:   STEP LENGTH
 NULL.          -999.2500:   NO VALUE
 COMP. FENIX & SCISSON INC:   COMPANY
 WELL. NPR #3 #27-51 SX 11 WP:   WELL
 FLD .        TEAPOT DOME:   FIELD
 LOC .      S11 T38N R78W:   LOCATION
 CNTY.            NATRONA:   COUNTY
 STAT.            WYOMING:   STATE
 CTRY. UNITED STATES OF AMERICA:   COUNTRY
 SRVC.      Dresser Atlas:   SERVICE COMPANY
 DATE.        16-AUG-1980:   LOGDATE
 API .       490251083900:   API NUMBER
~CURVE INFORMATION
#MNEM.UNIT       API CODE    CURVE DESCRIPTION
#----------   ------------   ------------------------------
 DEPT.F                  :   
 RHOB.G/C3   45 350 01 00:   BULK DENSITY
 CORR.G/C3   45 356 01 00:   DENSITY CORRECTION
 GRD .GAPI   45 310 01 00:   GAMMA RAY FROM DENSITY LOG
 CALD.IN     45 280 60 00:   CALIPER
 NPOR.DEC    42 890 03 00:   NEUTRON POROSITY SANDSTONE
 DPOR.DEC    45 890 12 00:   DENSITY POROSITY SANDSTONE
 SPR .MV     07 010 01 00:   SPONTANEOUS POTENTIAL
 SFL .OHMM   07 220 01 00:   SHALLOW FOCUSED LOG RESISTIVITY
 ILM .OHMM   07 120 44 00:   INDUCTION LOG MEDIUM
 ILD .OHMM   07 120 46 00:   INDUCTION LOG DEEP
~PARAMETER INFORMATION
#MNEM.UNIT          VALUE    DESCRIPTION
#----------   ------------   ------------------------------
 PD  .                 GL:   PERMANENT DATUM
 EPD .F              5194:   ELEVATION PERMANENT DATUM
 LMF .                 KB:   LOG MEASURED FROM
 DAPD.F                 5:   FEET ABOVE PERMANENT DATUM
 DMF .                 KB:   DRILLING MEASURED FROM
 EKB .F              5199:   KELLING BUSHING
 EGL .F              5194:   GROUND LEVEL
 DATE.            8-16-80:   RUN DATE
 RUN .                  1:   RUN NUMBER
 DD  .F               685:   DEPTH DRILLER
 DL  .F               693:   DEPTH LOGGER
 BLI .F               692:   BOTTOM LOG INTERVAL
 TLI .F                25:   TOP LOG INTERVAL
 BS  .IN            7.875:   BIT SIZE
 BSD .F               685:   BIT SIZE AT DEPTH
 DFT .                KCL:   DRILLING FLUID TYPE
 DFD .                9.4:   DRILLING FLUID DENSITY
 DFV .                 45:   DRILLING FLUID VISCOSITY
 DFPH.                 11:   DRILLING FLUID PH
 DFL .                7.2:   DRILLING FLUID LOSS
 MSS .           FLOWLINE:   MUD SAMPLE SOURCE
 RMS .OHMM            .74:   RESISTIVITY MUD SAMPLE
 MST .F                60:   MUD SAMPLE TEMPERATURE
 RMF .OHMM            .44:   RESISTIVITY MUD FILTRATE SAMPLE
 MFST.F                60:   MUD FILTRATE SAMPLE TEMPERATURE
 RMC .OHMM           1.35:   RESISTIVITY MUD CAKE
 MCST.F                60:   MUD CAKE SAMPLE TEMPERATURE
 MFSS.               MEAS:   MUD FILTRATE SAMPLE SOURCE
 MCSS.               MEAS:   MUD CAKE SAMPLE SOURCE
 TCS .HRS               1:   TIME CURCULATED STOPPED
 LUN .               6180:   LOGGING UNIT NUMBER
 LUL .               CODY:   LOGGING UNIT LOCATION
 ENGI.              HOYER:   RECORDING ENGINEER
 WITN.           MCINTYRE:   WITNESSED BY
 CLNT.            A2DTECH:   CLIENT CODE
 ORIG.      2" 2.5" PRINT:   ORIGIN OF DATA
 UWI .       490251083900:   UNIQUE WELL ID
 DICO. A2D Technologies, Inc.:   DIGITIZING COMPANY
~OTHER INFORMATION
~A   DEPT     RHOB       CORR        GRD       CALD       NPOR       DPOR        SPR        SFL         ILM       ILD   
# ...
  148.0000     2.4836     0.0300   110.8452     8.1455     0.2802     0.1168   -88.0685     6.5838     6.1178     6.3464
  148.5000     2.4857     0.0346   112.1076     8.1478     0.2746     0.1138   -87.9921     6.4564     6.0893     6.2518
  149.0000     2.4888     0.0345   111.3542     8.1502     0.2699     0.1120   -87.9221     6.3201     6.0639     6.1683
  149.5000     2.4858     0.0308   111.7438     8.1527     0.2721     0.1162   -87.9240     6.1739     6.0394     6.0858
  150.0000     2.4813     0.0275   112.8309     8.1548     0.2749     0.1184   -87.9241     6.1739     6.0089     6.0616
  150.5000     2.4773     0.0243   112.4650     8.1567     0.2776     0.1201   -87.9244     6.3233     6.0688     6.1788
  151.0000     2.4731     0.0242   112.0952     8.1482     0.2804     0.1216   -87.7653     6.4422     6.1392     6.2707
  151.5000     2.4759     0.0241   113.4467     8.1396     0.2832     0.1177   -87.4517     6.5248     6.2103     6.3639
  152.0000     2.4782     0.0229   115.2393     8.1305     0.2852     0.1204   -87.1443     6.6318     6.2821     6.4584
  152.5000     2.4673     0.0183   115.8691     8.1216     0.2826     0.1248   -87.0143     6.7864     6.3474     6.5236
  153.0000     2.4562     0.0137   115.8278     8.1128     0.2774     0.1292   -87.3233     6.9567     6.3473     6.4798
  153.5000     2.4505     0.0092   116.4335     8.1039     0.2722     0.1312   -87.6235     6.9567     6.2445     6.3969
  154.0000     2.4571     0.0044   115.4270     8.0948     0.2667     0.1312   -87.9199     6.7226     6.1686     6.3147
  154.5000     2.4509     0.0044   114.7196     8.0864     0.2704     0.1332   -88.0683     6.4792     6.0936     6.2337
  155.0000     2.4375     0.0090   119.1081     8.0773     0.2769     0.1366   -87.8801     6.2309     6.0196     6.1538
  155.5000     2.4384     0.0134   117.4761     8.0807     0.2834     0.1393   -87.6984     6.1841     5.9464     6.0749
  156.0000     2.4553     0.0186   116.1756     8.0847     0.2898     0.1356   -87.5147     6.1347     5.8741     5.9970
  156.5000     2.4664     0.0158   117.0338     8.0893     0.2972     0.1305   -87.3317     6.0857     5.8027     5.9200
  157.0000     2.4447     0.0066   117.2653     8.0936     0.2972     0.1380   -87.3233     6.0371     5.7322     5.8441
  157.5000     2.4333    -0.0022   116.0611     8.0979     0.2941     0.1441   -87.4072     6.0062     5.6625     5.7692
  158.0000     2.4391    -0.0025   118.3699     8.1023     0.2916     0.1392   -87.9614     6.0252     5.6319     5.7363
  158.5000     2.4472     0.0018   118.5988     8.1066     0.2932     0.1339   -88.5026     6.0451     5.6325     5.7368
  159.0000     2.4565     0.0061   116.9798     8.1110     0.2964     0.1285   -88.5240     6.0616     5.6038     5.7365
  159.5000     2.4619     0.0103   116.9092     8.1153     0.2972     0.1273   -88.3554     6.0456     5.5670     5.6812
  160.0000     2.4578     0.0146   118.8691     8.1197     0.2965     0.1293   -87.8963     6.0178     5.5305     5.6244
  160.5000     2.4593     0.0188   118.8022     8.1240     0.2953     0.1284   -87.5574     5.9901     5.4942     5.5683
  161.0000     2.4683     0.0230   120.5896     8.1284     0.2940     0.1233   -87.8203     5.9625     5.4581     5.5128
  161.5000     2.4783     0.0273   125.0617     8.1327     0.2931     0.1184   -88.0773     5.9068     5.4291     5.4792
  162.0000     2.4767     0.0314   125.3133     8.1370     0.2921     0.1194   -88.0965     5.8313     5.4291     5.4933
  162.5000     2.4718     0.0360   123.8937     8.1415     0.2972     0.1192   -87.9407     5.7567     5.4869     5.5661
  163.0000     2.4807     0.0347   123.0025     8.1457     0.2999     0.1159   -87.7844     5.6842     5.5602     5.6399
  163.5000     2.4871     0.0314   118.7750     8.1501     0.3019     0.1136   -87.7265     5.6842     5.6346     5.7146
  164.0000     2.4783     0.0281   114.7188     8.1549     0.3000     0.1197   -87.7320     5.7903     5.7099     5.7897
  164.5000     2.4687     0.0251   113.1553     8.1551     0.2973     0.1240   -87.4282     6.3215     5.7863     5.8868
  165.0000     2.4649     0.0217   113.3922     8.1474     0.2947     0.1260   -87.0596     6.7698     5.8636     5.9845
  165.5000     2.4607     0.0187   115.0839     8.1403     0.2928     0.1291   -86.9403     6.4577     5.9420     6.0839
  166.0000     2.4495     0.0165   116.5648     8.1328     0.2986     0.1353   -87.2657     6.1660     6.0215     6.1849
  166.5000     2.4539     0.0222   117.3996     8.1258     0.2954     0.1327   -87.6048     6.0616     6.1020     6.2875
  167.0000     2.4691     0.0271   116.9258     8.1176     0.2900     0.1224   -87.7188     6.0616     6.1836     6.3464
  167.5000     2.4826     0.0322   115.6365     8.1170     0.2824     0.1160   -87.5074     6.1175     6.2663     6.4049
  168.0000     2.4831     0.0358   114.8655     8.1168     0.2754     0.1160   -87.0052     6.3383     6.3464     6.4603
  168.5000     2.4810     0.0255   116.4025     8.1170     0.2699     0.1211   -86.7440     6.6035     6.3464     6.5236
  169.0000     2.4542     0.0159   115.2845     8.1169     0.2716     0.1280   -86.7900     6.6445     6.3464     6.5237
  169.5000     2.4625     0.0196   113.3244     8.1169     0.2812     0.1297   -86.8328     6.6445     6.3464     6.4912
  170.0000     2.4821     0.0283   113.5918     8.1169     0.2890     0.1136   -86.8752     6.6179     6.3224     6.4601
  170.5000     2.4921     0.0326   114.1336     8.1169     0.2941     0.1124   -86.9099     6.5602     6.2860     6.4294
  171.0000     2.4903     0.0312   113.8097     8.1169     0.2980     0.1112   -87.3100     6.5024     6.2499     6.3988
  171.5000     2.4847     0.0297   113.3910     8.1169     0.2980     0.1147   -87.7354     6.4450     6.2140     6.3684
  172.0000     2.4777     0.0282   112.8051     8.1169     0.2980     0.1192   -87.9126     6.4027     6.1783     6.3464
  172.5000     2.4812     0.0268   111.2315     8.1169     0.2904     0.1192   -87.6695     6.5738     6.1739     6.3464
  173.0000     2.4793     0.0253   111.8030     8.1169     0.2812     0.1176   -87.4292     6.8312     6.2788     6.3464
  173.5000     2.4741     0.0240   113.2618     8.1169     0.2851     0.1193   -87.1874     7.0209     6.2884     6.3457
  174.0000     2.4689     0.0209   114.8829     8.1169     0.2924     0.1223   -86.9372     7.0209     6.2884     6.3451
  174.5000     2.4639     0.0164   116.4448     8.1169     0.2964     0.1248   -87.4328     6.6557     6.3431     6.4211
  175.0000     2.4588     0.0115   115.4003     8.1169     0.3252     0.1273   -87.6053     6.5838     6.4049     6.5331
  175.5000     2.4530     0.0084   114.6120     8.1169     0.3200     0.1293   -87.3697     6.5838     6.4669     6.6459
  176.0000     2.4514     0.0123   115.9962     8.1169     0.3115     0.1305   -87.1353     6.6822     6.5374     6.7607
  176.5000     2.4645     0.0155   116.3439     8.1169     0.3055     0.1260   -86.9198     6.8066     6.6620     6.8774
  177.0000     2.4768     0.0189   114.8723     8.1176     0.3009     0.1190   -86.9256     6.8931     6.7899     6.9962
  177.5000     2.4858     0.0224   113.3172     8.1193     0.2964     0.1140   -86.9645     6.8931     6.9200     7.1170
  178.0000     2.4943     0.0240   110.5834     8.1209     0.2924     0.1099   -87.0942     7.3205     6.9567     7.1511
  178.5000     2.4966     0.0197   109.5711     8.1226     0.2818     0.1080   -87.2163     8.3592     6.8931     7.0473
  179.0000     2.4740     0.0157   110.4185     8.1242     0.2724     0.1173   -87.3402     7.7577     6.8171     6.9563
  179.5000     2.4537     0.0116   106.2935     8.1259     0.2627     0.1272   -87.4810     6.9567     6.7361     6.8665
  180.0000     2.4425     0.0084   109.3847     8.1275     0.2689     0.1357   -87.3094     6.8931     6.6561     6.7778
  180.5000     2.4389     0.0120   111.7719     8.1292     0.2753     0.1401   -87.2042     6.8105     6.5770     6.6902
  181.0000     2.4462     0.0151   112.9910     8.1308     0.2816     0.1381   -86.8353     6.7006     6.4989     6.6038
