~VERSION INFORMATION
 VERS.                2.0:   CWLS LOG ASCII STANDARD - VERSION 2.0
 WRAP.                 NO:   ONE LINE PER DEPTH STEP
~WELL INFORMATION
#MNEM.UNIT      DATA TYPE    INFORMATION
#----------   ------------   ------------------------------
 STRT.F            0.0000:   START DEPTH
 STOP.F          400.0000:   STOP DEPTH
 STEP.F            0.5000:   STEP LENGTH
 NULL.          -999.2500:   NO VALUE
 COMP. DEPARTMENT OF ENERGY:   COMPANY
 WELL. NPR 3 #55-56 SX 3 C5:   WELL
 FLD .        TEAPOT EAST:   FIELD
 LOC .       S3 T38N R78W:   LOCATION
 CNTY.            NATRONA:   COUNTY
 STAT.            WYOMING:   STATE
 CTRY. UNITED STATES OF AMERICA:   COUNTRY
 SRVC.      Dresser Atlas:   SERVICE COMPANY
 DATE.        03-JUL-1985:   LOGDATE
 API .       490251134300:   API NUMBER
~CURVE INFORMATION
#MNEM.UNIT       API CODE    CURVE DESCRIPTION
#----------   ------------   ------------------------------
 DEPT.F                  :   
 GRR .GAPI   07 310 01 00:   GAMMA RAY
 RILD.OHMM   07 120 46 00:   INDUCTION LOG DEEP RESISTIVITY
 RILM.OHMM   07 120 44 00:   INDUCTION LOG DEEP RESISTIVITY
 CALD.IN     45 280 60 00:   CALIPER FROM DENSITY LOG
 CORR.G/C3   45 356 01 00:   DENSITY CORRECTION
 DEN .G/C3   45 350 01 00:   COMPENSATED BULK DENSTIY
 NPOR.DEC    42 890 03 00:   NEUTRON POROSITY SANDSTONE
 PORD.DEC    45 890 12 00:   POROSITY DENSITY SANDSTONE
~PARAMETER INFORMATION
#MNEM.UNIT          VALUE    DESCRIPTION
#----------   ------------   ------------------------------
 PD  .                 GL:   PERMANENT DATUM
 EPD .F              5168:   ELEVATION PERMANENT DATUM
 LMF .                 GL:   LOG MEASURED FROM
 DMF .                 GL:   DRILLING MEASURED FROM
 EGL .F              5168:   GROUND LEVEL
 DATE.        03-JUL-1985:   RUN DATE
 RUN .                  1:   RUN NUMBER
 DD  .F               402:   DEPTH DRILLER
 DL  .F               402:   DEPTH LOGGER
 BLI .F               394:   BOTTOM LOG INTERVAL
 CS  .IN                7:   CASING SIZE
 CBD .F                80:   CASING BOTTOM DRILLER
 CBL .F                84:   CASING BOTTOM LOGGER
 BS  .IN            4.875:   BIT SIZE
 BSD .F               402:   BIT SIZE AT DEPTH
 DFT .                OIL:   DRILLING FLUID TYPE
 TCS .HRS               3:   TIME CURCULATED STOPPED
 MRT .F               148:   MAXIMUM RECORDED TEMPERATURE
 LUN .               6274:   LOGGING UNIT NUMBER
 LUL .               GLTE:   LOGGING UNIT LOCATION
 ENGI.             RAUTIO:   RECORDING ENGINEER
 WITN.             GROOMS:   WITNESSED BY
 CLNT.            A2DTECH:   CLIENT CODE
 ORIG.           5" PRINT:   ORIGIN OF DATA
 UWI .       490251134300:   UNIQUE WELL ID
 DICO. A2D Technologies, Inc.:   DIGITIZING COMPANY
~OTHER INFORMATION
~A    DEPT      GRR      RILD       RILM       CALD       CORR        DEN       NPOR       PORD   
# ...
  202.5000   134.9799     6.5407     5.9573     6.6569     0.0087     2.4503     0.2882     0.1200
  203.0000   134.3686     6.3605     5.7930     6.6718     0.0281     2.4503     0.2918     0.1191
  203.5000   134.0523     6.1852     5.6331     6.6716     0.0355     2.4510     0.2903     0.1191
  204.0000   133.7385     5.9732     5.5160     6.6715     0.0295     2.4518     0.2875     0.1197
  204.5000   133.1226     5.6496     5.3267     6.6713     0.0249     2.4509     0.2864     0.1206
  205.0000   132.2046     5.3067     5.0377     6.6712     0.0219     2.4457     0.2876     0.1227
  205.5000   130.9844     4.8729     4.7644     6.6710     0.0368     2.4322     0.2912     0.1288
  206.0000   130.0664     4.4291     4.3518     6.6708     0.0337     2.4134     0.2942     0.1396
  206.5000   134.9880     4.2477     4.1126     6.6858     0.0217     2.4081     0.2972     0.1435
  207.0000   136.6895     4.1307     3.9744     6.6856     0.0336     2.4186     0.3003     0.1450
  207.5000   131.5390     4.0448     3.9189     6.6854     0.0698     2.4366     0.3025     0.1293
  208.0000   122.7660     4.0160     3.9733     6.6853     0.1101     2.4291     0.3054     0.1232
  208.5000   117.3680     4.0432     4.1421     6.6851     0.1921     2.3851     0.3030     0.1555
  209.0000   116.1507     4.2474     4.3180     6.6850     0.2759     2.3424     0.2978     0.1769
  209.5000   117.6524     4.6106     4.5645     6.6848     0.2923     2.3644     0.2873     0.1911
  210.0000   126.7069     4.8055     4.8296     6.6847     0.2458     2.4282     0.2809     0.1491
  210.5000   133.1430     5.1496     5.1004     6.6845     0.1110     2.4447     0.2764     0.1186
  211.0000   136.7090     5.4423     5.3171     6.7144     0.0481     2.4409     0.2746     0.1277
  211.5000   137.8586     5.6724     5.5045     6.7293     0.0091     2.4214     0.2797     0.1352
  212.0000   137.2432     5.8713     5.6591     6.7441    -0.0091     2.4184     0.2836     0.1388
  212.5000   138.1407     5.9522     5.7777     6.7440    -0.0197     2.4161     0.2857     0.1403
  213.0000   139.3403     5.9979     5.8578     6.7343    -0.0240     2.4138     0.2875     0.1424
  213.5000   138.1229     6.0749     5.9391     6.6986    -0.0121     2.4085     0.2887     0.1445
  214.0000   134.4887     6.0733     5.9382     6.7135     0.0148     2.4063     0.2900     0.1466
  214.5000   134.7819     6.0721     5.9373     6.7284     0.0252     2.4100     0.2887     0.1475
  215.0000   135.3776     6.1134     5.9365     6.7282     0.0132     2.4152     0.2863     0.1436
  215.5000   134.1599     6.0225     5.8537     6.7431     0.0056     2.4182     0.2851     0.1405
  216.0000   133.2447     5.9155     5.7720     6.7580     0.0040     2.4204     0.2845     0.1378
  216.5000   132.3293     5.9147     5.6915     6.7428     0.0161     2.4212     0.2854     0.1369
  217.0000   133.8812     5.8730     5.6121     6.7577     0.0069     2.4121     0.2869     0.1396
  217.5000   135.6328     5.8316     5.4910     6.7575    -0.0425     2.4016     0.2890     0.1440
  218.0000   137.1345     5.7097     5.3811     6.7574    -0.0546     2.4061     0.2905     0.1473
  218.5000   138.3341     5.5924     5.3060     6.7422    -0.0187     2.4098     0.2915     0.1458
  219.0000   139.2315     5.5144     5.2685     6.7420     0.0022     2.4106     0.2905     0.1452
  219.5000   138.3163     5.4756     5.0738     6.7419     0.0201     2.4169     0.2890     0.1451
  220.0000   136.7968     5.4370     5.1085     6.7417     0.0440     2.4360     0.2878     0.1358
  220.5000   136.4858     5.3987     5.1431     6.7416     0.0679     2.4420     0.2869     0.1280
  221.0000   136.7795     5.3606     5.1418     6.7414     0.0862     2.4397     0.2905     0.1265
  221.5000   136.1660     5.3599     5.0697     6.7563     0.0977     2.4427     0.2959     0.1271
  222.0000   137.0634     5.3221     5.0687     6.7562     0.0857     2.4592     0.3005     0.1198
  222.5000   138.2630     5.2118     5.0325     6.7560     0.0796     2.4735     0.3014     0.1071
  223.0000   137.9517     5.0335     4.9275     6.7559     0.0886     2.4809     0.3026     0.1011
  223.5000   137.0346     4.6597     4.3987     6.7557     0.1005     2.4772     0.2990     0.1026
  224.0000   136.7236     4.4064     3.9338     6.7555     0.0944     2.4719     0.2959     0.1077
  224.5000   136.7147     4.2304     3.7282     6.7554     0.0734     2.4726     0.2944     0.1071
  225.0000   138.8206     4.1141     3.6504     6.7703     0.0644     2.4741     0.2935     0.1065
  225.5000   144.8540     4.0569     3.6754     6.7760     0.0610     2.4748     0.2938     0.1062
  226.0000   149.0748     4.0004     3.7001     6.7850     0.0448     2.4478     0.2983     0.1179
  226.5000   150.2766     3.9175     3.6993     6.7999     0.0642     2.3336     0.3131     0.1400
  227.0000   147.5465     3.7835     3.7246     6.8147     0.1135     2.2075     0.3146     0.2106
  227.5000   145.1207     3.5541     3.5714     6.8145     0.1374     2.1879     0.3152     0.2749
  228.0000   141.7885     3.2926     3.2393     6.8294     0.0910     2.2575     0.3107     0.2683
  228.5000   138.6827     2.8657     2.8575     6.8293     0.0265     2.4446     0.3080     0.1940
  229.0000   136.9366     2.5615     2.4323     6.8442     0.0220     2.4717     0.3065     0.1089
  229.5000   139.3427     2.4909     2.2529     6.8440     0.0189     2.4754     0.3065     0.1052
  230.0000   141.7508     2.4591     2.1924     6.8438     0.0189     2.4776     0.3158     0.1031
  230.5000   142.6505     2.4249     2.3172     6.8437     0.0248     2.4784     0.3291     0.1064
  231.0000   141.1288     2.3912     2.3988     6.8451     0.0517     2.3492     0.3366     0.1387
  231.5000   137.4946     2.4075     2.4320     6.9034     0.1010     2.1938     0.3409     0.1874
  232.0000   134.4645     2.5269     2.4484     6.9633     0.2507     2.0008     0.3071     0.3123
  232.5000   133.2472     2.6707     2.5522     7.0083     0.2760     2.0008     0.3049     0.4515
  233.0000   132.6341     2.8621     2.8323     6.9630     0.0934     2.0143     0.3049     0.4336
  233.5000   132.9275     3.0250     3.0569     6.8878     0.0274     2.2170     0.3028     0.3167
  234.0000   133.2205     3.1534     3.2538     6.8426     0.0153     2.4301     0.3003     0.2006
  234.5000   132.9094     3.2414     3.3682     6.8425     0.0061     2.4474     0.2965     0.1236
  235.0000   131.6415     3.2408     3.4147     6.8433    -0.0012     2.4489     0.2953     0.1197
  235.5000   130.1705     3.0655     3.2156     6.8722     0.0421     2.4398     0.2947     0.1227
  236.0000   129.5574     2.8203     2.8683     6.8744     0.0331     2.4397     0.2943     0.1263
  236.5000   129.2464     2.4718     2.5657     6.8870     0.0181     2.4413     0.2931     0.1269
  237.0000   129.2376     2.1966     2.2476     6.8868     0.0090     2.4381     0.2922     0.1257
  237.5000   130.4371     2.0069     1.9965     6.8866     0.0030     2.4282     0.2910     0.1329
  238.0000   132.5431     1.8983     1.8235     6.8865    -0.0001     2.4217     0.2901     0.1368
  238.5000   134.3469     1.8590     1.7731     6.8713    -0.0002     2.4194     0.2992     0.1380
  239.0000   136.4528     1.8079     1.7361     6.8712    -0.0002     2.3969     0.3164     0.1504
  239.5000   138.5587     1.7827     1.7357     6.8710     0.0372     2.3285     0.3179     0.1794
  240.0000   139.1541     1.7702     1.8347     6.8708     0.2003     2.1956     0.3155     0.2373
  240.5000   136.6777     1.8071     1.9808     6.8557     0.2272     2.0980     0.3082     0.3382
  241.0000   135.1581     1.9099     2.0962     6.8405     0.1657     2.0893     0.2991     0.3457
  241.5000   132.7808     2.0468     2.2278     6.8404     0.1103     2.2602     0.2981     0.2436
  242.0000   130.9593     2.1784     2.3061     6.8402     0.0728     2.4313     0.2922     0.1540
  242.5000   129.4398     2.2864     2.3709     6.8251     0.0832     2.4545     0.2868     0.1174
