~VERSION INFORMATION
 VERS.                2.0:   CWLS LOG ASCII STANDARD - VERSION 2.0
 WRAP.                 NO:   ONE LINE PER DEPTH STEP
~WELL INFORMATION
#MNEM.UNIT      DATA TYPE    INFORMATION
#----------   ------------   ------------------------------
 STRT.F           20.5000:   START DEPTH
 STOP.F          544.0000:   STOP DEPTH
 STEP.F            0.5000:   STEP LENGTH
 NULL.          -999.2500:   NO VALUE
 COMP. LAWRENCE/ALLISON INC:   COMPANY
 WELL.    45-65 SX #10-10:   WELL
 FLD .             TEAPOT:   FIELD
 LOC .      S10 T38N R78W:   LOCATION
 CNTY.            NATRONA:   COUNTY
 STAT.            WYOMING:   STATE
 CTRY. UNITED STATES OF AMERICA:   COUNTRY
 SRVC.            Unknown:   SERVICE COMPANY
 DATE.        01-SEP-1984:   LOGDATE
 API .       490251098400:   API NUMBER
~CURVE INFORMATION
#MNEM.UNIT       API CODE    CURVE DESCRIPTION
#----------   ------------   ------------------------------
 DEPT.F                  :   
 GRD .GAPI   45 310 01 00:   GAMMA RAY FROM DENSITY LOG
 CALD.IN     45 280 60 00:   CALIPER
 DEN .G/C3   45 350 01 00:   COMPENSATED BULK DENSTIY
 CORR.G/C3   45 356 01 00:   DENSITY CORRECTION
 CNC .DEC    42 890 03 00:   NEUTRON POROSITY SANDSTONE
 PORD.DEC    45 890 12 00:   POROSITY DENSITY SANDSTONE
 AC  .US/F   60 520 00 00:   ACOUSTIC SONIC
 SPR .MV     07 010 01 00:   SPONTANEOUS POTENTIAL
 RILD.OHMM   07 120 46 00:   INDUCTION LOG DEEP RESISTIVITY
 RILM.OHMM   07 120 44 00:   INDUCTION LOG MEDIUM RESISTIVITY
 RFOC.OHMM   07 220 04 00:   RESISTIVITY FOCUSED LOG
~PARAMETER INFORMATION
#MNEM.UNIT          VALUE    DESCRIPTION
#----------   ------------   ------------------------------
 PD  .                 GL:   PERMANENT DATUM
 EPD .F              5208:   ELEVATION PERMANENT DATUM
 LMF .                 KB:   LOG MEASURED FROM
 DAPD.F                12:   FEET ABOVE PERMANENT DATUM
 DMF .                 KB:   DRILLING MEASURED FROM
 EKB .F              5220:   KELLING BUSHING
 EGL .F              5208:   GROUND LEVEL
 DATE.        1-SEPT-1984:   RUN DATE
 RUN .                  1:   RUN NUMBER
 DD  .F               550:   DEPTH DRILLER
 DL  .F               544:   DEPTH LOGGER
 BLI .F               544:   BOTTOM LOG INTERVAL
 TLI .F                30:   TOP LOG INTERVAL
 CBL .F                44:   CASING BOTTOM LOGGER
 BS  .IN            7.875:   BIT SIZE
 BSD .F               550:   BIT SIZE AT DEPTH
 DFT .          KCL WATER:   DRILLING FLUID TYPE
 MSS .               TANK:   MUD SAMPLE SOURCE
 RMS .OHMM           .236:   RESISTIVITY MUD SAMPLE
 MST .F                75:   MUD SAMPLE TEMPERATURE
 TCS .HRS               3:   TIME CURCULATED STOPPED
 MRT .F               100:   MAXIMUM RECORDED TEMPERATURE
 LUN .               4082:   LOGGING UNIT NUMBER
 LUL .               ROOS:   LOGGING UNIT LOCATION
 ENGI.             MILLER:   RECORDING ENGINEER
 WITN.            JOHNSON:   WITNESSED BY
 CLNT.            A2DTECH:   CLIENT CODE
 ORIG.       2", 5" PRINT:   ORIGIN OF DATA
 UWI .       490251098400:   UNIQUE WELL ID
 DICO. A2D Technologies, Inc.:   DIGITIZING COMPANY
~OTHER INFORMATION
~A   DEPT      GRD       CALD        DEN       CORR          CNC     PORD         AC        SPR       RILD       RILM       RFOC   
# ...
  508.5000   113.7487     7.6124     2.4902     0.0360     0.2527     0.1190   105.6843   -65.4100     6.1754     6.4411     7.9919
  509.0000   116.5993     7.6143     2.4820     0.0157     0.2236     0.1256   107.6823   -65.5252     6.0266     6.2497     7.2520
  509.5000   118.6749     7.6161     2.4728    -0.0034     0.2761     0.1327   108.4815   -66.0275     6.1119     6.3365     6.5807
  510.0000   119.6000     7.6180     2.4634    -0.0060     0.2620     0.1331   108.3816   -66.5364     6.1749     6.4465     6.1951
  510.5000   121.9402     7.6200     2.4542     0.0125     0.2552     0.1243   106.5660   -66.5897     6.2385     6.5596     7.0854
  511.0000   124.1612     7.6135     2.4599     0.0313     0.2601     0.1144   104.7266   -66.4732     6.3921     6.7649     7.8104
  511.5000   123.9183     7.6045     2.4771     0.0267     0.2558     0.1044   102.8871   -66.3553     6.6380     7.0436     8.6095
  512.0000   120.8963     7.5954     2.4943     0.0381     0.2478     0.0946   101.8838   -66.2381     6.8934     7.3338     8.9006
  512.5000   117.0371     7.5865     2.5116     0.0536     0.2335     0.0894   100.8804   -66.1211     7.1587     7.6360     9.0489
  513.0000   113.6684     7.5811     2.5265     0.0574     0.2497     0.0900   100.0472   -66.0042     7.4316     7.9506     9.1989
  513.5000   114.7273     7.5833     2.5316     0.0435     0.2258     0.0959    99.3226   -65.8873     7.7049     8.2784     9.4778
  514.0000   115.3318     7.5854     2.5310     0.0297     0.2132     0.1018    98.5961   -65.7703     7.9882     8.6193     9.7659
  514.5000   110.2458     7.5875     2.5211     0.0279     0.2166     0.1062    97.8919   -65.6532     8.2820     8.9744    10.0609
  515.0000   104.9845     7.5896     2.5103     0.0279     0.2306     0.1068    97.6899   -65.5364     8.5865     9.1519    10.1789
  515.5000   104.5689     7.5916     2.5007     0.0280     0.2449     0.1032    97.7412   -65.4361     8.9488     9.2138    10.1781
  516.0000   112.2147     7.5937     2.4987     0.0332     0.2407     0.0990    97.9502   -65.4003     8.9786     9.2757    10.1769
  516.5000   113.9802     7.5958     2.5050     0.0441     0.2385     0.0967    98.1592   -65.3637     9.0497     9.3381    10.1769
  517.0000   112.8807     7.5979     2.5111     0.0558     0.2411     0.0950    98.3683   -65.3268     9.1214     9.4010    10.1774
  517.5000   109.2820     7.6000     2.5171     0.0514     0.2457     0.0966    98.5773   -65.2890     9.1939     9.4643    10.1758
  518.0000   106.2404     7.5977     2.5227     0.0388     0.2462     0.0986    98.4778   -65.2467     9.2668     9.5280    10.3524
  518.5000   106.5130     7.5941     2.5192     0.0270     0.2469     0.0986    97.6923   -65.4731     9.3405     9.5922    10.4768
  519.0000   106.7340     7.5905     2.5146     0.0184     0.2420     0.0991    96.8277   -65.7404     9.4147     9.6568    10.6023
  519.5000   106.5459     7.5870     2.5129     0.0249     0.2389     0.1006    96.0125   -66.0091     9.5427     9.7218    10.7293
  520.0000   104.2721     7.5834     2.5140     0.0562     0.2359     0.1033    95.1973   -66.2783     9.5124     9.8095    10.8578
  520.5000   102.0553     7.5804     2.5134     0.0517     0.2401     0.1075    95.0949   -66.5338     9.4604     9.7636    10.9535
  521.0000   100.8170     7.5805     2.5103     0.0384     0.2331     0.1118    95.9061   -66.8459     9.4107     9.6945    10.8605
  521.5000   103.2739     7.5805     2.5040     0.0210     0.2301     0.1096    96.5934   -66.6951     9.3615     9.6259    10.7874
  522.0000   105.1807     7.5805     2.4971     0.0034     0.2353     0.1070    97.9290   -66.5000     9.3125     9.5579    10.7148
  522.5000   103.6276     7.5805     2.4907    -0.0035     0.2337     0.1053    98.3156   -66.3011     9.2638     9.4902    10.6427
  523.0000   102.4158     7.5805     2.4941     0.0128     0.2497     0.1036    98.5664   -66.1022     9.2154     9.4230    10.5711
  523.5000   105.3268     7.5805     2.4980     0.0304     0.2519     0.1019    98.8198   -65.9031     9.1672     9.3562    10.4999
  524.0000   108.6458     7.5805     2.5018     0.0402     0.2545     0.1009    99.0672   -65.7030     9.1141     9.2832    10.4292
  524.5000   110.8153     7.5805     2.5057     0.0356     0.2570     0.1006    99.3186   -65.5157     9.1297     9.3018    10.3658
  525.0000   114.1356     7.5805     2.5094     0.0300     0.2593     0.0962    99.5698   -65.2014     9.1473     9.3286    10.2040
  525.5000   118.9158     7.5805     2.5122     0.0244     0.2549     0.0930    99.8901   -65.0769     9.1649     9.3556    10.0562
  526.0000   119.9024     7.5805     2.5101     0.0192     0.2593     0.1001   100.8924   -64.9439     9.1825     9.4487     9.8981
  526.5000   115.4971     7.5805     2.5148     0.0182     0.2477     0.1126   101.7882   -64.8173     9.2832     9.6085     9.9428
  527.0000   113.4290     7.5805     2.5234     0.0542     0.2541     0.1093   102.0437   -64.7064     9.3814     9.7714    10.0814
  527.5000   111.9541     7.5805     2.5241     0.0937     0.2541     0.1047   101.4077   -64.8422     9.4902     9.9366    10.3125
  528.0000   112.5558     7.5805     2.5027     0.1318     0.2497     0.1034   100.1055   -65.1987     9.6004    10.0838    10.7540
  528.5000   114.4659     7.5805     2.4904     0.1073     0.2510     0.0975    98.8029   -65.4922     9.7198    10.0838    11.0515
  529.0000   117.2537     7.5793     2.4947     0.0664     0.2501     0.0917    97.5785   -65.6247     9.7375    10.0838    10.9593
  529.5000   117.9127     7.5774     2.5017     0.0332     0.2492     0.0914    97.4942   -65.7612     9.7618    10.0869    10.8533
  530.0000   114.1152     7.5755     2.5087     0.0163     0.2460     0.0940    97.8747   -65.8987     9.7862    10.1102    10.9888
  530.5000   113.4649     7.5736     2.5157     0.0349     0.2518     0.1006    98.2804   -66.0377     9.8106    10.1336    11.1567
  531.0000   114.4112     7.5717     2.5228     0.0567     0.2559     0.1073    98.6913   -66.0000     9.8351    10.1570    10.7519
  531.5000   114.2530     7.5698     2.5278     0.0640     0.2594     0.1130    98.5914   -65.6295     9.8597    10.1773    10.7509
  532.0000   111.4859     7.5679     2.5260     0.0469     0.2453     0.1112    97.5627   -64.9925     9.8843    10.1770    11.0473
  532.5000   111.3714     7.5659     2.5156     0.0207     0.2506     0.1094    96.5065   -64.3061    10.0838    10.1769    11.2515
  533.0000   112.4910     7.5640     2.5055     0.0002     0.2576     0.1120    95.4488   -63.6199    10.0725    10.1769    11.4687
  533.5000   114.0251     7.5621     2.4956    -0.0001     0.2641     0.1142    94.4861   -62.9335    10.0523    10.1769    11.2900
  534.0000   113.1447     7.5602     2.4896     0.0302     0.2608     0.1151    94.7762   -62.2417    10.0321    10.1770    11.1076
  534.5000   108.3712     7.5585     2.4937     0.0404     0.2556     0.1100    96.2366   -61.5204    10.0120    10.1777    10.9282
  535.0000   105.9238     7.5568     2.4966     0.0495     0.2481     0.1009    97.6939   -61.3638     9.9916    10.1705    10.8533
  535.5000   103.9368     7.5551     2.4915     0.0635     0.2585     0.0903    99.1511   -61.1694     9.9914    10.2819    10.8533
  536.0000  -999.2500     7.5534     2.4851     0.0823     0.2454     0.0858   100.5894   -61.1035     9.9915    10.3222    10.8533
  536.5000  -999.2500     7.5517     2.4865     0.1010     0.2430     0.0878  -999.2500   -61.1365     9.9916    10.3583    10.8385
  537.0000  -999.2500     7.5499     2.4983     0.1025     0.2405     0.0902  -999.2500   -61.1707     9.9916    10.3950    10.7619
  537.5000  -999.2500     7.5482     2.5108     0.1029     0.2375     0.0926  -999.2500   -61.2051     9.9916    10.4319    10.6858
  538.0000  -999.2500     7.5465     2.5235     0.1033     0.2340     0.0950  -999.2500   -61.2397     9.9916    10.4615    10.5581
  538.5000  -999.2500     7.5448     2.5359     0.0961     0.2313     0.0963  -999.2500   -61.2723     9.9916    10.4722    10.9968
