~VERSION INFORMATION
 VERS.                2.0:   CWLS LOG ASCII STANDARD - VERSION 2.0
 WRAP.                 NO:   ONE LINE PER DEPTH STEP
~WELL INFORMATION
#MNEM.UNIT      DATA TYPE    INFORMATION
#----------   ------------   ------------------------------
 STRT.F            0.0000:   START DEPTH
 STOP.F          469.0000:   STOP DEPTH
 STEP.F            0.5000:   STEP LENGTH
 NULL.          -999.2500:   NO VALUE
 COMP. BROWN JOHN E&C INC:   COMPANY
 WELL. NPR 3 SX-10 4 #54-10:   WELL
 FLD .             TEAPOT:   FIELD
 LOC .      S10 T38N R78W:   LOCATION
 CNTY.            NATRONA:   COUNTY
 STAT.            WYOMING:   STATE
 CTRY. UNITED STATES OF AMERICA:   COUNTRY
 SRVC.     Atlas Wireline:   SERVICE COMPANY
 DATE.        25-APR-1991:   LOGDATE
 API .       490251133500:   API NUMBER
~CURVE INFORMATION
#MNEM.UNIT       API CODE    CURVE DESCRIPTION
#----------   ------------   ------------------------------
 DEPT.F                  :   
 RILD.OHMM   07 120 46 00:   INDUCTION LOG DEEP RESISTIVITY
 RILM.OHMM   07 120 44 00:   INDUCTION LOG MEDIUM RESISTIVITY
 GRD .GAPI   45 310 01 00:   GAMMA RAY FROM DENSITY LOG
 CALD.IN     45 280 60 00:   CALIPER FROM DENSITY LOG
 CORR.G/C3   45 356 01 00:   DENSITY CORRECTION
 PORD.DEC    45 890 12 00:   POROSITY DENSITY SANDSTONE
 DEN .G/C3   45 350 01 00:   COMPENSATED BULK DENSTIY
~PARAMETER INFORMATION
#MNEM.UNIT          VALUE    DESCRIPTION
#----------   ------------   ------------------------------
 PD  .                 GL:   PERMANENT DATUM
 EPD .F              5182:   ELEVATION PERMANENT DATUM
 LMF .                 KB:   LOG MEASURED FROM
 DAPD.F                10:   FEET ABOVE PERMANENT DATUM
 DMF .                 KB:   DRILLING MEASURED FROM
 EKB .F              5172:   KELLING BUSHING
 EGL .F              5182:   GROUND LEVEL
 DATE.        25-APR-1991:   RUN DATE
 RUN .                  1:   RUN NUMBER
 DD  .F               471:   DEPTH DRILLER
 DL  .F               471:   DEPTH LOGGER
 BLI .F               469:   BOTTOM LOG INTERVAL
 CS  .IN            8.625:   CASING SIZE
 CBD .F                44:   CASING BOTTOM DRILLER
 CBL .F                44:   CASING BOTTOM LOGGER
 BS  .IN            7.875:   BIT SIZE
 BSD .F               471:   BIT SIZE AT DEPTH
 DFT .                AIR:   DRILLING FLUID TYPE
 LUN .           HL- 6307:   LOGGING UNIT NUMBER
 LUL .             CASPER:   LOGGING UNIT LOCATION
 ENGI.    KINNETT/ ZIEGER:   RECORDING ENGINEER
 WITN.             STRONG:   WITNESSED BY
 CLNT.            A2DTECH:   CLIENT CODE
 ORIG.        2" 5" PRINT:   ORIGIN OF DATA
 UWI .       490251133500:   UNIQUE WELL ID
 DICO. A2D Technologies, Inc.:   DIGITIZING COMPANY
~OTHER INFORMATION
~A    DEPT    RILD       RILM         GRD      CALD       CORR       PORD        DEN   
# ...
  227.5000     6.5464     6.2394   159.7371     8.5293    -0.0117     0.1577     2.3784
  228.0000     6.5906     6.7315   164.2595     8.5291     0.0124     0.2059     2.3054
  228.5000     6.6348     7.3128   162.9084     8.5139     0.0440     0.2275     2.2768
  229.0000     6.7728     7.7273   150.4030     8.4838     0.0651     0.2022     2.2971
  229.5000     7.0590     8.2792   141.1674     8.5287     0.0169     0.1613     2.3739
  230.0000     7.8307     9.2642   132.1997     8.5285     0.0049     0.1055     2.4771
  230.5000     8.8081     9.8383   135.8185     8.5434     0.0019     0.0938     2.4959
  231.0000    10.0907    10.2529   137.1782     8.5432     0.0004     0.0929     2.5012
  231.5000    10.6158    10.6113   137.1826     8.5431     0.0034     0.0932     2.5012
  232.0000    10.9125    10.8312   136.2833     8.5429     0.0049     0.0950     2.4982
  232.5000    10.9098    10.8283   135.3841     8.5578     0.0094     0.0986     2.4922
  233.0000    10.8323    10.8254   132.5689     8.5577     0.0049     0.1022     2.4854
  233.5000    10.9100    10.8971   127.0354     8.5425     0.0019     0.1043     2.4809
  234.0000    11.2092    10.8942   125.4574     8.5423    -0.0011     0.1049     2.4757
  234.5000    11.7932    11.2750   129.7550     8.5422     0.0049     0.1022     2.4791
  235.0000    13.1408    12.2488   133.3738     8.5420     0.0109     0.0977     2.4870
  235.5000    14.3768    13.2148   134.5077     8.5419     0.0154     0.0953     2.4930
  236.0000    15.6204    14.7177   132.4248     8.5417     0.0154     0.0962     2.4930
  236.5000    17.2085    17.0639   122.7705     8.5416     0.0034     0.1091     2.4772
  237.0000    18.6971    18.6664   110.1242     8.5414    -0.0011     0.1210     2.4388
  237.5000    20.5970    20.4194    97.7039     8.5413     0.0094     0.1441     2.4102
  238.0000    23.6544    22.0298    92.0606     8.5261     0.0169     0.1630     2.3703
  238.5000    26.2406    24.2661    89.8059     8.5260     0.0154     0.1829     2.3289
  239.0000    27.5394    24.2581    86.8735     8.5409     0.0109     0.2203     2.2852
  239.5000    27.7256    24.2516    80.1992     8.5407     0.0305     0.2546     2.2284
  240.0000    27.7198    23.5828    73.3291     8.5405     0.0455     0.2890     2.1730
  240.5000    27.7130    22.7742    74.2371     8.5404     0.0229     0.2769     2.1618
  241.0000    27.7075    22.4550    80.1149     8.5402     0.0034     0.2540     2.2363
  241.5000    27.5107    22.6050    84.6373     8.5401     0.0004     0.2302     2.2725
  242.0000    26.9393    22.9142    92.0965     8.5850    -0.0071     0.2166     2.2936
  242.5000    26.3797    22.9066    94.5858     8.6299    -0.0087     0.2178     2.2907
  243.0000    26.5847    22.9005    91.2027     8.5997    -0.0087     0.2293     2.2582
  243.5000    26.9232    22.8944    86.9149     8.5694    -0.0056     0.2612     2.2281
  244.0000    27.6731    23.6947    84.8861     8.5393     0.0049     0.2717     2.2077
  244.5000    28.4453    24.7093    84.6635     8.5241     0.0290     0.2796     2.1867
  245.0000    29.2390    25.7325    90.0906     8.4940     0.0214     0.2684     2.2040
  245.5000    29.4460    26.0862    90.3313     8.5239    -0.0147     0.2648     2.2160
  246.0000    30.2564    25.8976    88.3979     8.5388    -0.0207     0.2750     2.1980
  246.5000    30.8859    25.7120    82.8758     8.5536     0.0094     0.2883     2.1739
  247.0000    31.5285    25.7052    81.2977     8.5697     0.0169     0.2714     2.1859
  247.5000    31.9622    25.6982    83.1104     8.5984     0.0109     0.2410     2.2341
  248.0000    31.9558    25.6899    87.6328     8.5381     0.0049     0.2262     2.2695
  248.5000    31.9493    25.6831    87.6372     8.5080    -0.0011     0.2237     2.2793
  249.0000    31.7209    25.8564    86.4880     8.5379    -0.0071     0.2358     2.2553
  249.5000    31.7146    26.0291    83.8066     8.5377     0.0019     0.2490     2.2319
  250.0000    32.1525    26.3828    83.1322     8.4775     0.0175     0.2620     2.2139
  250.5000    32.8193    26.9295    83.1325     8.5130     0.0230     0.2515     2.2312
  251.0000    33.5021    28.0803    82.9066     8.5372     0.0049     0.2301     2.2688
  251.5000    33.9630    28.6462    83.1325     8.5371    -0.0056     0.2204     2.2853
  252.0000    34.6696    28.6367    82.4548     8.5369    -0.0071     0.2277     2.2786
  252.5000    35.3892    28.6291    81.3253     8.5518     0.0035     0.2446     2.2548
  253.0000    35.8778    28.6215    81.0994     8.5516     0.0140     0.2545     2.2311
  253.5000    36.6225    28.6140    82.7369     8.5515     0.0170     0.2557     2.2281
  254.0000    36.6152    28.6061    88.7801     8.5363     0.0155     0.2358     2.2544
  254.5000    36.8625    28.5969    90.3614     8.5362     0.0110     0.2265     2.2762
  255.0000    36.5989    28.3921    87.6506     8.5210     0.0096     0.2262     2.2792
  255.5000    35.8387    28.3846    84.0361     8.5058     0.0051     0.2274     2.2762
  256.0000    35.0943    28.1812    82.4548     8.5057     0.0081     0.2271     2.2754
  256.5000    34.1281    27.7682    88.7801     8.5056     0.0141     0.2157     2.2912
  257.0000    33.3991    26.8317    95.2867     8.5039     0.0141     0.2060     2.3085
  257.5000    32.4975    26.0918    98.2681     8.4902     0.0141     0.2012     2.3183
  258.0000    31.3845    25.5485    97.3645     8.4901     0.0157     0.1988     2.3236
  258.5000    30.5204    24.8440    95.5572     8.4899     0.0172     0.1988     2.3213
  259.0000    29.6800    24.1588    94.2018     8.4898     0.0157     0.1997     2.3213
  259.5000    28.6496    22.8493    92.8464     8.4746     0.0157     0.2000     2.3229
  260.0000    27.4893    22.0658    92.1687     8.4745     0.0217     0.1970     2.3265
  260.5000    26.3644    21.6069    94.4054     8.4593     0.0235     0.1964     2.3287
  261.0000    25.6385    20.4218   100.5271     8.4742     0.0278     0.1949     2.3325
  261.5000    24.9326    20.0101   103.0120     8.4891     0.0158     0.1901     2.3370
  262.0000    24.0608    20.0049   103.2380     8.4889     0.0128     0.1804     2.3475
  262.5000    22.9328    19.8615   103.0120     8.4887     0.0113     0.1750     2.3603
  263.0000    22.6126    19.8563   104.1416     8.4886     0.0173     0.1723     2.3666
  263.5000    22.4520    19.7085   103.6560     8.4734     0.0156     0.1735     2.3648
  264.0000    22.2925    19.4364   100.0753     8.4732     0.0053     0.1747     2.3633
  264.5000    22.4431    19.4313    99.1717     8.4882     0.0053     0.1750     2.3625
  265.0000    22.4376    19.5612   102.1084     8.4880     0.0053     0.1741     2.3640
  265.5000    22.5903    19.6932   105.7229     8.4878     0.0054     0.1723     2.3662
  266.0000    22.7428    19.8235   107.7560     8.4877     0.0054     0.1714     2.3692
  266.5000    22.7372    19.9559   107.3042     8.4875     0.0054     0.1747     2.3632
  267.0000    22.8908    19.9493   104.7966     8.4874     0.0146     0.1774     2.3594
  267.5000    23.0454    19.9441   103.6898     8.4722     0.0220     0.1789     2.3534
  268.0000    23.2011    19.9388   103.9157     8.4720     0.0235     0.1786     2.3541
  268.5000    23.3578    20.0721   104.8193     8.4269     0.0220     0.1786     2.3564
  269.0000    23.3520    19.9281   106.4006     8.4267     0.0190     0.1807     2.3533
  269.5000    23.3474    20.0614   107.3042     8.4266     0.0175     0.1819     2.3502
  270.0000    23.3416    19.9164   106.8524     8.4264     0.0070     0.1834     2.3473
  270.5000    23.0158    19.9111   105.5872     8.4263     0.0055     0.1855     2.3450
  271.0000    22.6945    19.9058   101.2048     8.4712     0.0055     0.1870     2.3420
  271.5000    22.6900    19.6268    99.1717     8.5010     0.0055     0.1880     2.3390
  272.0000    22.3732    19.4849   101.8825     8.5310     0.0101     0.1876     2.3412
  272.5000    22.2132    19.4798   108.2078     8.4857     0.0116     0.1855     2.3427
