~VERSION INFORMATION
 VERS.                2.0:   CWLS LOG ASCII STANDARD - VERSION 2.0
 WRAP.                 NO:   ONE LINE PER DEPTH STEP
~WELL INFORMATION
#MNEM.UNIT      DATA TYPE    INFORMATION
#----------   ------------   ------------------------------
 STRT.F           36.0000:   START DEPTH
 STOP.F          557.0000:   STOP DEPTH
 STEP.F            0.5000:   STEP LENGTH
 NULL.          -999.2500:   NO VALUE
 COMP. FENIX & SCISSON U.S. NAVY:   COMPANY
 WELL.        NPR #62-S-3:   WELL
 FLD .             TEAPOT:   FIELD
 LOC .       S3 T38N R78W:   LOCATION
 CNTY.            NATRONA:   COUNTY
 STAT.            WYOMING:   STATE
 CTRY. UNITED STATES OF AMERICA:   COUNTRY
 SRVC.              Welex:   SERVICE COMPANY
 DATE.        07-MAY-1977:   LOGDATE
 API .       490251035000:   API NUMBER
~CURVE INFORMATION
#MNEM.UNIT       API CODE    CURVE DESCRIPTION
#----------   ------------   ------------------------------
 DEPT.F                  :   
 SPR .MV     07 010 01 00:   SPONTANEOUS POTENTIAL
 ILD .OHMM   07 120 46 00:   INDUCTION LOG DEEP
 ILM .OHMM   07 120 44 00:   INDUCTION LOG MEDIUM
 SGRD.OHMM   07 221 05 00:   SHALLOW SHORT GUARD RESISTIVITY
 GRD .GAPI   45 310 01 00:   GAMMA RAY FROM DENSITY LOG
 CALD.IN     45 280 60 00:   CALIPER FROM DENSITY LOG
 CORR.G/C3   45 356 01 00:   DENSITY CORRECTION
 RHOB.G/C3   45 350 01 00:   BULK DENSITY
 DPHI.DEC    45 890 12 00:   DENSITY POROSITY SANDSTONE
 NEUT.NAPI   35 330 01 00:   NEUTRON
~PARAMETER INFORMATION
#MNEM.UNIT          VALUE    DESCRIPTION
#----------   ------------   ------------------------------
 PD  .                 GL:   PERMANENT DATUM
 EPD .F              5136:   ELEVATION PERMANENT DATUM
 LMF .                 GL:   LOG MEASURED FROM
 DMF .                 GL:   DRILLING MEASURED FROM
 EGL .F              5136:   GROUND LEVEL
 DATE.        07-MAY-1977:   RUN DATE
 RUN .                  1:   RUN NUMBER
 DD  .F               560:   DEPTH DRILLER
 DL  .F               560:   DEPTH LOGGER
 BLI .F               558:   BOTTOM LOG INTERVAL
 TLI .F                35:   TOP LOG INTERVAL
 CS  .IN            8.625:   CASING SIZE
 CBD .F                40:   CASING BOTTOM DRILLER
 CBL .F                42:   CASING BOTTOM LOGGER
 BS  .IN            7.875:   BIT SIZE
 BSD .F               560:   BIT SIZE AT DEPTH
 DFT .             KCLMUD:   DRILLING FLUID TYPE
 DFD .                8.8:   DRILLING FLUID DENSITY
 MSS .           FLOWLINE:   MUD SAMPLE SOURCE
 RMS .OHMM           0.24:   RESISTIVITY MUD SAMPLE
 MST .F                60:   MUD SAMPLE TEMPERATURE
 RMF .OHMM           0.20:   RESISTIVITY MUD FILTRATE SAMPLE
 MFST.F                60:   MUD FILTRATE SAMPLE TEMPERATURE
 RMC .OHMM           0.29:   RESISTIVITY MUD CAKE
 MCST.F                60:   MUD CAKE SAMPLE TEMPERATURE
 MFSS.               MEAS:   MUD FILTRATE SAMPLE SOURCE
 MCSS.               MEAS:   MUD CAKE SAMPLE SOURCE
 RMB .OHMM             17:   RESISTIVITY MUD AT BHT
 BHT .F                71:   BOTTOM HOLE TEMPERATURE
 TCS .HRS            0230:   TIME CURCULATED STOPPED
 MRT .F                71:   MAXIMUM RECORDED TEMPERATURE
 LUN .               8611:   LOGGING UNIT NUMBER
 LUL .           GILLETTE:   LOGGING UNIT LOCATION
 ENGI.            C. DOCK:   RECORDING ENGINEER
 WITN.           ROB LYON:   WITNESSED BY
 CLNT.            A2DTECH:   CLIENT CODE
 ORIG.           5" PRINT:   ORIGIN OF DATA
 UWI .       490251035000:   UNIQUE WELL ID
 DICO. A2D Technologies, Inc.:   DIGITIZING COMPANY
~OTHER INFORMATION
~A   DEPT      SPR        ILD        ILM       SGRD        GRD       CALD       CORR       RHOB       DPHI       NEUT   
# ...
  404.5000   -28.0617    16.9023    19.0154    23.6516    88.3836     7.8168     0.0125     2.4065     0.1590   379.9315
  405.0000   -28.1988    16.7942    28.9652    23.3291    89.2719     7.8180     0.0148     2.4081     0.1592   378.6333
  405.5000   -28.3329    16.6867    38.5213    23.6583    89.5868     7.8042     0.0170     2.3977     0.1714   384.0999
  406.0000   -28.3210    16.5800    41.1791    23.9921    89.1513     7.7756     0.0149     2.3813     0.1798   392.2541
  406.5000   -28.4611    16.5883    13.4772    23.5013    90.0672     7.7618     0.0112     2.3768     0.1783   400.4082
  407.0000   -28.5953    16.3685    14.9556    22.3907    91.2776     7.7481     0.0067     2.3814     0.1735   401.8107
  407.5000   -28.7354    16.3766    13.8670    22.2390    87.4133     7.7194     0.0038     2.3889     0.1707   400.4995
  408.0000   -28.8725    16.2643    16.2673    22.3970    83.8476     7.7206     0.0016     2.3875     0.1677   396.5132
  408.5000   -29.1557    16.0508    17.6832    22.0384    81.9236     7.7367     0.0001     2.3965     0.1656   391.0258
  409.0000   -29.4448    15.6230    17.9360    21.7500    82.9847     7.7528    -0.0020     2.4041     0.1618   384.4779
  409.5000   -29.4299    14.9980    17.6983    21.3440    83.7473     7.7690    -0.0027     2.4071     0.1585   381.8164
  410.0000   -29.5700    14.2005    17.9556    21.1994    83.1666     7.7851    -0.0026     2.4169     0.1539   377.8305
  410.5000   -29.7071    13.9161    18.7253    20.6230    81.6904     7.8012    -0.0026     2.4222     0.1533   375.1690
  411.0000   -29.8442    14.0194    19.2599    19.9229    81.2549     7.8024    -0.0025     2.4140     0.1544   372.5335
  411.5000   -29.9784    14.3197    18.3587    18.9814    83.2156     7.8193    -0.0016     2.4164     0.1562   371.2348
  412.0000   -29.9665    14.4260    17.4998    18.0844    89.3514     7.8346    -0.0008     2.4089     0.1568   369.9371
  412.5000   -29.9545    14.5329    18.2500    18.9867    86.3826     7.8358     0.0000     2.4165     0.1537   371.3526
  413.0000   -30.0946    14.4400    19.0323    19.1208    83.2606     7.8222     0.0008     2.4210     0.1510   374.1054
  413.5000   -30.2318    14.1508    18.5221    19.3912    86.8631     7.8083     0.0017     2.4233     0.1488   379.5589
  414.0000   -30.3689    13.9633    19.3161    20.0783    89.2675     7.8095     0.0033     2.4212     0.1509   386.3628
  414.5000   -30.5060    13.7785    19.8675    19.9423    90.7763     7.7958     0.0018     2.4205     0.1524   395.8673
  415.0000   -30.6401    13.5961    18.2944    18.4800    91.5389     7.7671     0.0011     2.4190     0.1502   405.3718
  415.5000   -30.9263    13.5091    17.8018    18.4826    92.1523     7.7507     0.0004     2.4251     0.1451   416.5258
  416.0000   -31.0664    13.5159    18.3122    19.0051    91.8660     7.7396    -0.0002     2.4364     0.1412   427.0945
  416.5000   -31.2035    13.5225    18.8349    19.1401    91.1402     7.7259    -0.0009     2.4417     0.1363   423.0956
  417.0000   -31.4897    13.5290    18.8440    18.8790    90.1118     7.7274    -0.0008     2.4477     0.1327   412.3451
  417.5000   -31.7728    13.4409    18.5943    17.9869    89.2326     7.7286    -0.0007     2.4545     0.1302   402.9449
  418.0000   -32.2080    13.3565    17.8473    17.0184    88.2041     7.7145    -0.0007     2.4568     0.1293   396.2453
  418.5000   -32.1961    13.2694    17.1303    16.9026    87.4742     7.7310    -0.0014     2.4576     0.1326   390.8961
  419.0000   -32.6313    13.0938    17.2576    17.5021    87.0428     7.7321    -0.0020     2.4487     0.1371   385.3951
  419.5000   -32.7714    12.9221    17.8733    17.9969    87.0591     7.7483    -0.0027     2.4413     0.1394   380.2107
  420.0000   -32.9085    12.7510    18.7688    18.6345    87.5232     7.7644    -0.0034     2.4369     0.1412   378.3643
  420.5000   -33.3413    12.5807    18.9083    18.8974    87.8380     7.7656    -0.0048     2.4399     0.1376   374.9006
  421.0000   -33.7759    12.2455    18.9175    18.9001    88.4514     7.7817    -0.0055     2.4490     0.1330   374.9658
  421.5000   -34.0620    11.9177    18.2835    18.2584    88.9155     7.7829    -0.0054     2.4565     0.1276   375.0180
  422.0000   -34.3487    11.7585    17.9146    17.8849    89.2303     7.7990    -0.0046     2.4641     0.1206   376.4205
  422.5000   -34.4858    11.6029    17.9255    18.0119    89.6944     7.8002    -0.0030     2.4761     0.1179   379.3325
  423.0000   -34.6230    11.5287    18.1840    18.2660    90.3078     7.8014    -0.0014     2.4732     0.1218   383.2895
  423.5000   -34.6105    11.6156    18.4462    18.5486    90.9211     7.8175     0.0002     2.4695     0.1250   387.3926
  424.0000   -34.5986    11.8645    18.7363    18.9153    91.6837     7.8187     0.0010     2.4695     0.1271   394.1965
  424.5000   -34.5867    12.2026    18.9800    19.0496    92.4464     7.8199     0.0018     2.4621     0.1268   398.2996
  425.0000   -34.4257    12.4640    18.8152    18.6384    93.6567     7.8210     0.0026     2.4667     0.1264   401.0524
  425.5000   -34.1158    12.7311    17.9574    18.0069    94.7239     7.8222     0.0027     2.4600     0.1285   402.4549
  426.0000   -33.8058    12.9144    17.4938    17.5355    95.3312     7.8234     0.0028     2.4526     0.1336   403.8589
  426.5000   -33.4958    13.1003    17.7752    17.6938    92.4402     7.8246     0.0029     2.4496     0.1369   406.6233
  427.0000   -33.1858    13.2889    18.5070    18.5576    89.2090     7.8109     0.0029     2.4482     0.1383   406.6754
  427.5000   -33.1739    13.3875    19.0352    19.0654    87.0971     7.8121     0.0030     2.4400     0.1458   402.6765
  428.0000   -33.0130    13.3018    19.0445    19.4690    85.2473     7.7980     0.0031     2.4273     0.1476   400.0280
  428.5000   -32.8520    13.0339    19.0537    19.6072    86.9686     7.7843     0.0024     2.4319     0.1424   398.7277
  429.0000   -32.6911    12.6865    19.0629    19.5982    89.1074     7.7706     0.0025     2.4432     0.1379   400.1323
  429.5000   -32.9772    12.4325    18.9385    19.0760    90.3709     7.7870     0.0018     2.4552     0.1343   400.1860
  430.0000   -33.1144    12.1835    18.5608    18.5481    88.3018     7.8031     0.0019     2.4590     0.1306   401.5999
  430.5000   -33.1024    11.8574    18.0632    18.0444    86.6722     7.8192     0.0012     2.4613     0.1291   403.0024
  431.0000   -33.5376    11.6991    17.5790    17.5543    87.4389     7.8204     0.0013     2.4621     0.1278   403.0546
  431.5000   -33.6751    11.4662    16.9899    17.0819    89.6941     7.8365     0.0014     2.4622     0.1248   403.1067
  432.0000   -34.1099    11.2366    16.5345    16.7294    91.8000     7.8377     0.0007     2.4668     0.1209   404.5092
  432.5000   -34.3964    11.0879    16.2029    16.5043    93.4581     7.8389     0.0008     2.4751     0.1163   404.5614
  433.0000   -34.8313    10.9411    16.2108    16.5066    90.7878     7.8550     0.0008     2.4826     0.1136   404.6151
  433.5000   -34.8193    10.7950    16.3312    16.6237    87.6699     7.8562     0.0009     2.4849     0.1121   403.3153
  434.0000   -34.8074    10.6521    16.5667    16.8583    86.7866     7.8574     0.0010     2.4835     0.1141   402.0171
  434.5000   -34.6465    10.4981    16.6897    17.0961    87.8518     7.8586     0.0011     2.4828     0.1162   396.6809
  435.0000   -34.3365    10.3603    17.1661    17.2175    89.9577     7.8448     0.0013     2.4806     0.1153   387.2807
  435.5000   -34.0265    10.3989    17.5345    17.4604    92.8098     7.8460     0.0020     2.4837     0.1131   380.5812
  436.0000   -33.5675    10.8314    17.9107    17.7068    91.6321     7.8472     0.0028     2.4845     0.1170   376.5821
  436.5000   -32.8105    11.2937    18.1689    18.2074    89.7082     7.8334     0.0036     2.4747     0.1209   375.2841
  437.0000   -31.7553    11.7839    18.6876    18.5927    88.6797     7.8347     0.0052     2.4711     0.1212   382.1010
  437.5000   -30.7002    12.4562    19.0885    18.9863    87.5020     7.8358     0.0068     2.4749     0.1226   392.9558
