~VERSION INFORMATION
 VERS.                2.0:   CWLS LOG ASCII STANDARD - VERSION 2.0
 WRAP.                 NO:   ONE LINE PER DEPTH STEP
~WELL INFORMATION
#MNEM.UNIT      DATA TYPE    INFORMATION
#----------   ------------   ------------------------------
 STRT.F           38.0000:   START DEPTH
 STOP.F          637.0000:   STOP DEPTH
 STEP.F            0.5000:   STEP LENGTH
 NULL.          -999.2500:   NO VALUE
 COMP. FENIX & SCISSON INC:   COMPANY
 WELL.    NPR ##3 57-S-34:   WELL
 FLD .             TEAPOT:   FIELD
 LOC .      S34 T39N R78W:   LOCATION
 CNTY.            NATRONA:   COUNTY
 STAT.            WYOMING:   STATE
 CTRY. UNITED STATES OF AMERICA:   COUNTRY
 SRVC.              Welex:   SERVICE COMPANY
 DATE.        12-MAR-1977:   LOGDATE
 API .       490251030600:   API NUMBER
~CURVE INFORMATION
#MNEM.UNIT       API CODE    CURVE DESCRIPTION
#----------   ------------   ------------------------------
 DEPT.F                  :   
 SPR .MV     07 010 01 00:   SPONTANEOUS POTENTIAL
 ILM .OHMM   07 120 44 00:   INDUCTION LOG MEDIUM
 ILD .OHMM   07 120 46 00:   INDUCTION LOG DEEP
 SGRD.OHMM   07 221 05 00:   SHALLOW SHORT GUARD RESISTIVITY
 CALD.IN     45 280 60 00:   CALIPER FROM DENSITY LOG
 GRD .GAPI   45 310 01 00:   GAMMA RAY FROM DENSITY LOG
 CORR.G/C3   45 356 01 00:   DENSITY CORRECTION
 DPHI.DEC    45 890 12 00:   DENSITY POROSITY SANDSTONE
 RHOB.G/C3   45 350 01 00:   BULK DENSITY
~PARAMETER INFORMATION
#MNEM.UNIT          VALUE    DESCRIPTION
#----------   ------------   ------------------------------
 PD  .                 GL:   PERMANENT DATUM
 EPD .F              5107:   ELEVATION PERMANENT DATUM
 LMF .                 GL:   LOG MEASURED FROM
 DMF .                 GL:   DRILLING MEASURED FROM
 EGL .F              5107:   GROUND LEVEL
 DATE.          3-12-1977:   RUN DATE
 RUN .                  1:   RUN NUMBER
 DD  .F               650:   DEPTH DRILLER
 DL  .F               637:   DEPTH LOGGER
 BLI .F               636:   BOTTOM LOG INTERVAL
 TLI .F                46:   TOP LOG INTERVAL
 CS  .IN            8.625:   CASING SIZE
 CBD .F                45:   CASING BOTTOM DRILLER
 CBL .F                46:   CASING BOTTOM LOGGER
 BS  .IN            7.875:   BIT SIZE
 BSD .F               650:   BIT SIZE AT DEPTH
 DFT .            KCL MUD:   DRILLING FLUID TYPE
 DFD .                8.9:   DRILLING FLUID DENSITY
 DFV .                 35:   DRILLING FLUID VISCOSITY
 MSS .            MUD PIT:   MUD SAMPLE SOURCE
 RMS .OHMM            .53:   RESISTIVITY MUD SAMPLE
 MST .F                68:   MUD SAMPLE TEMPERATURE
 RMF .OHMM            .41:   RESISTIVITY MUD FILTRATE SAMPLE
 MFST.F                69:   MUD FILTRATE SAMPLE TEMPERATURE
 RMC .OHMM            .62:   RESISTIVITY MUD CAKE
 MCST.F                65:   MUD CAKE SAMPLE TEMPERATURE
 MFSS.           MEASURED:   MUD FILTRATE SAMPLE SOURCE
 MCSS.           MEASURED:   MUD CAKE SAMPLE SOURCE
 RMB .OHMM            .60:   RESISTIVITY MUD AT BHT
 BHT .F                60:   BOTTOM HOLE TEMPERATURE
 TCS .HRS               1:   TIME CURCULATED STOPPED
 MRT .F                60:   MAXIMUM RECORDED TEMPERATURE
 LUN .               0716:   LOGGING UNIT NUMBER
 LUL .             VERNAL:   LOGGING UNIT LOCATION
 ENGI.        E. CALLAHAN:   RECORDING ENGINEER
 WITN.         STUEBUNGER:   WITNESSED BY
 CLNT.            A2DTECH:   CLIENT CODE
 ORIG.           5" PRINT:   ORIGIN OF DATA
 UWI .       490251030600:   UNIQUE WELL ID
 DICO. A2D Technologies, Inc.:   DIGITIZING COMPANY
~OTHER INFORMATION
~A   DEPT      SPR        ILM        ILD       SGRD       CALD        GRD       CORR       DPHI       RHOB   
# ...
  549.0000   -19.7423    18.7275    13.8117    22.0358     7.7183    75.2424     0.0836     0.1524     2.3885
  549.5000   -20.9505    18.3427    13.8117    27.0246     7.7647    74.4568     0.0851     0.1516     2.3924
  550.0000   -21.4066    16.9983    13.9077    31.2514     7.8576    74.1483     0.0898     0.1411     2.4048
  550.5000   -22.4906    16.7647    13.5269    21.3590     7.9044    75.3916     0.0852     0.1395     2.4180
  551.0000   -22.7918    16.8811    13.3401    19.3868     7.8583    75.4056     0.0914     0.1398     2.4085
  551.5000   -22.6434    16.3070    13.2472    18.9885     7.8121    75.3731     0.0914     0.1525     2.3985
  552.0000   -22.3446    15.4260    13.1550    18.9885     7.7505    74.3838     0.0832     0.1584     2.3910
  552.5000   -22.4963    15.1118    13.0634    18.9885     7.7353    70.1469     0.0776     0.1717     2.3542
  553.0000   -23.3973    15.1118    12.8830    18.9885     7.7201    71.7554     0.0791     0.1714     2.3522
  553.5000   -23.8486    15.3224    12.8819    18.9885     7.7049    75.1108     0.0807     0.1720     2.3600
  554.0000   -24.0002    15.5360    12.7922    18.7275     7.7208    84.2486     0.0761     0.1797     2.3569
  554.5000   -24.0017    15.4288    12.7032    18.3427     7.7520    85.9548     0.0730     0.1803     2.3453
  555.0000   -23.4034    14.1866    12.6147    18.4701     7.8143    85.6498     0.0793     0.1729     2.3484
  555.5000   -23.7047    14.1015    12.4405    18.5984     7.9075    87.5132     0.0824     0.1648     2.3670
  556.0000   -24.9055    14.5979    12.2653    17.1164     7.9542    89.5290     0.0778     0.1648     2.3708
  556.5000   -25.9568    15.0076    12.0991    16.6491     7.9390    88.9156     0.0778     0.1630     2.3747
  557.0000   -26.4080    14.6993    12.0148    17.4754     7.9393    89.0750     0.0840     0.1583     2.3786
  557.5000   -26.4095    14.1015    11.9312    16.7647     7.9241    89.3892     0.0887     0.1555     2.3825
  558.0000   -25.8112    13.6219    11.8481    16.0474     7.9245    92.6446     0.0934     0.1546     2.3902
  558.5000   -25.2126    14.1015    11.7657    15.4288     7.9263    92.0300     0.1042     0.1484     2.4111
  559.0000   -24.6147    14.9041    11.6837    16.1946     7.9096    89.7126     0.1167     0.1385     2.4173
  559.5000   -24.3163    14.5979    11.5222    17.7189     7.8635    88.7884     0.1151     0.1363     2.4197
  560.0000   -23.7184    14.1015    11.2847    17.2352     7.8019    88.0179     0.1167     0.1369     2.4274
  560.5000   -22.9702    14.1015    11.1289    18.2385     7.7397    90.0360     0.1338     0.1208     2.4437
  561.0000   -21.9222    14.1994    11.0514    16.5343     7.6941    90.9694     0.1292     0.1112     2.4607
  561.5000   -23.2729    13.8117    10.8988    14.8013     7.6944    92.6768     0.0982     0.0997     2.4839
  562.0000   -23.4243    13.2500    10.7483    14.0042     7.8846    94.2294     0.0859     0.0996     2.4762
  562.5000   -22.0265    12.6235    10.5266    13.4347     7.9608    94.5425     0.0859     0.1136     2.4576
  563.0000   -20.7289    12.0266    10.3812    13.3420     7.9895    93.7731     0.0859     0.1192     2.4514
  563.5000   -20.4301    11.6972    10.2378    13.2500     7.9898    95.0172     0.0878     0.1195     2.4491
  564.0000   -20.4319    11.5375    10.0965    13.2500     7.9746    97.4986     0.0783     0.1163     2.4615
  564.5000   -19.6837    11.6176     9.9570    13.1587     7.9750    95.0265     0.0675     0.1195     2.4553
  565.0000   -20.2849    11.5375     9.8127    13.0679     7.9908    93.9475     0.0659     0.1204     2.4515
  565.5000   -21.1862    11.3789     9.6837    12.9778     7.9911    93.6424     0.0675     0.1204     2.4484
  566.0000   -21.7873    11.3789     9.6831    12.7994     7.9914    94.4211     0.0753     0.1189     2.4546
  566.5000   -22.2386    11.5418     9.6157    12.6235     7.9917    95.8189     0.0800     0.1114     2.4662
  567.0000   -22.5399    11.9437     9.6151    12.5365     7.9765    97.3715     0.0800     0.1095     2.4694
  567.5000   -21.7917    11.6983     9.5481    12.3642     7.9768    96.5406     0.0784     0.1027     2.4786
  568.0000   -20.5937    11.3789     9.4816    12.3642     7.9616    94.7491     0.0672     0.1143     2.4560
  568.5000   -21.3451    11.2225     9.4809    12.2789     7.9464    95.0635     0.0553     0.1210     2.4499
  569.0000   -21.9463    11.3789     9.4802    12.2829     7.9157    95.2229     0.0664     0.1207     2.4451
  569.5000   -22.3975    11.4579     9.5456    12.3642     7.9006    95.7445     0.0580     0.1263     2.4375
  570.0000   -22.8487    11.1451     9.5448    12.3642     7.8854    96.3167     0.0740     0.1216     2.4562
  570.5000   -23.2999    10.9920     9.5442    12.3642     7.8858    96.7857     0.0740     0.1157     2.4608
  571.0000   -23.7511    10.9920     9.4777    12.3642     7.9016    97.2547     0.0756     0.1144     2.4647
  571.5000   -24.0775    11.1451     9.4769    12.4500     7.9174    98.8073     0.0787     0.1120     2.4732
  572.0000   -24.6539    11.2225     9.4763    12.5365     7.9331    97.2639     0.0819     0.1051     2.4849
  572.5000   -24.9552    11.2225     9.4757    12.6235     7.9489    96.9578     0.0680     0.1154     2.4578
  573.0000   -25.2565    11.2225     9.4750    12.7112     7.9647    98.9760     0.0649     0.1219     2.4415
  573.5000   -25.7077    11.2225     9.4744    12.7112     7.9650    99.7546     0.0758     0.1240     2.4454
  574.0000   -26.1589    11.2225     9.5396    12.7112     7.9653   100.0688     0.0804     0.1194     2.4501
  574.5000   -26.3106    11.1451     9.6050    12.7112     7.9502   100.2270     0.0851     0.1200     2.4470
  575.0000   -26.4620    11.0683     9.6044    12.6235     7.9505    98.9944     0.0975     0.1206     2.4447
  575.5000   -27.0631    11.2225     9.6037    12.4500     7.9513    98.6882     0.1053     0.1203     2.4447
  576.0000   -27.0646    11.3005     9.6031    12.1942     7.9666    98.8488     0.1347     0.1082     2.4764
  576.5000   -26.7662    11.3005     9.6025    12.1101     7.9669    99.3178     0.1394     0.1032     2.4811
  577.0000   -26.0180    11.3005     9.6017    12.1101     7.9672   100.4060     0.0946     0.1048     2.4609
  577.5000   -25.5700    11.2225     9.5348    12.1942     7.9675   101.0298     0.0853     0.1100     2.4524
  578.0000   -25.5715    11.1420     9.4684    12.3642     7.9679   100.5700     0.0915     0.1051     2.4764
  578.5000   -24.6733    10.9920     9.3377    12.3642     7.9682    99.4910     0.0792     0.1007     2.4803
  579.0000   -22.7258    10.9162     9.2727    12.2789     7.9685    99.4957     0.0730     0.1013     2.4765
  579.5000   -20.7782    10.9162     9.2081    12.1101     7.9532    99.5003     0.0792     0.0989     2.4827
  580.0000   -18.0810    11.2225     9.0808    12.1101     7.9536   106.7804     0.0870     0.0908     2.4927
  580.5000   -19.3319    11.3789     9.0802    12.2035     7.9384   105.0822     0.0855     0.0883     2.5036
  581.0000   -24.3810    11.3789     9.0796    12.3642     7.9232   102.6101     0.0700     0.0905     2.5005
  581.5000   -26.4814    11.0683     9.0164    12.2789     7.9080   100.1379     0.0670     0.0933     2.4912
  582.0000   -26.7827    10.4722     9.0158    12.0266     7.8929    99.5232     0.0778     0.0960     2.4788
  582.5000   -25.8846    10.1863     9.0152    11.8613     7.8932    99.3731     0.0670     0.1056     2.4773
  583.0000   -24.6867    10.3283     8.9523    11.7795     7.8780    99.5325     0.0593     0.1128     2.4734
  583.5000   -22.8894    10.4722     8.9517    11.7795     7.8784   100.4736     0.0563     0.1171     2.4579
  584.0000   -20.7918    10.5449     8.9511    11.8613     7.8787   103.1022     0.0579     0.1193     2.4533
  584.5000   -18.2446    10.6919     8.9505    12.0266     7.8790   102.3112     0.0627     0.1143     2.4659
  585.0000   -16.8963    10.7661     8.9499    12.0266     7.8637   100.1082     0.0704     0.1134     2.4673
