~VERSION INFORMATION
 VERS.                2.0:   CWLS LOG ASCII STANDARD - VERSION 2.0
 WRAP.                 NO:   ONE LINE PER DEPTH STEP
~WELL INFORMATION
#MNEM.UNIT      DATA TYPE    INFORMATION
#----------   ------------   ------------------------------
 STRT.F           11.0000:   START DEPTH
 STOP.F          807.0000:   STOP DEPTH
 STEP.F            0.5000:   STEP LENGTH
 NULL.          -999.2500:   NO VALUE
 COMP. BROWN JOHN E&C INC:   COMPANY
 WELL. NPR 3 SHX-34 #77-1-34:   WELL
 FLD .             TEAPOT:   FIELD
 LOC .      S34 T39N R79W:   LOCATION
 CNTY.            NATRONA:   COUNTY
 STAT.            WYOMING:   STATE
 CTRY. UNITED STATES OF AMERICA:   COUNTRY
 SRVC.     Atlas Wireline:   SERVICE COMPANY
 DATE.        07-DEC-1991:   LOGDATE
 API .       490252248000:   API NUMBER
~CURVE INFORMATION
#MNEM.UNIT       API CODE    CURVE DESCRIPTION
#----------   ------------   ------------------------------
 DEPT.F                  :   
 CALD.IN     45 280 60 00:   CALIPER FROM DENSITY LOG
 CORR.G/C3   45 356 01 00:   DENSITY CORRECTION
 DEN .G/C3   45 350 01 00:   COMPENSATED BULK DENSTIY
 GRD .GAPI   45 310 01 00:   GAMMA RAY FROM DENSITY LOG
 PORD.DEC    45 890 12 00:   POROSITY DENSITY SANDSTONE
 GRR .GAPI   07 310 01 00:   GAMMA RAY FROM RESISTIVITY
 RILD.OHMM   07 120 46 00:   RESISTIVITY INDUCTION LOG DEEP
 RILM.OHMM   07 120 44 00:   RESITIVITY INDUCTION LOG MEDIUM
~PARAMETER INFORMATION
#MNEM.UNIT          VALUE    DESCRIPTION
#----------   ------------   ------------------------------
 PD  .                 GL:   PERMANENT DATUM
 EPD .F              5098:   ELEVATION PERMANENT DATUM
 LMF .                 KB:   LOG MEASURED FROM
 DAPD.F                10:   FEET ABOVE PERMANENT DATUM
 DMF .                 KB:   DRILLING MEASURED FROM
 EKB .F              5108:   KELLING BUSHING
 EDF .F              5107:   DRILLING FLOOR
 EGL .F              5098:   GROUND LEVEL
 DATE.        07-DEC-1991:   RUN DATE
 RUN .                  1:   RUN NUMBER
 DD  .F               810:   DEPTH DRILLER
 DL  .F               810:   DEPTH LOGGER
 BLI .F               808:   BOTTOM LOG INTERVAL
 CS  .IN            9.625:   CASING SIZE
 CBD .F                85:   CASING BOTTOM DRILLER
 CBL .F                97:   CASING BOTTOM LOGGER
 BS  .IN             8.75:   BIT SIZE
 BSD .F               810:   BIT SIZE AT DEPTH
 DFT .                AIR:   DRILLING FLUID TYPE
 BHT .F                90:   BOTTOM HOLE TEMPERATURE
 MRT .F                90:   MAXIMUM RECORDED TEMPERATURE
 LUN .            HL 6274:   LOGGING UNIT NUMBER
 LUL .             CASPER:   LOGGING UNIT LOCATION
 ENGI.       P. RASMUSSEN:   RECORDING ENGINEER
 WITN.        GARY STRONG:   WITNESSED BY
 CLNT.            A2DTECH:   CLIENT CODE
 ORIG.           5" PRINT:   ORIGIN OF DATA
 UWI .       490252248000:   UNIQUE WELL ID
 DICO. A2D Technologies, Inc.:   DIGITIZING COMPANY
~OTHER INFORMATION
~A   DEPT     CALD       CORR        DEN        GRD       PORD         GRR      RILD       RILM   
# ...
  213.5000     9.5710     0.0345     2.3097   107.0457     0.2093    88.1854    16.5676    16.7306
  214.0000     9.5706     0.0299     2.3150   108.5400     0.2019    85.7654    16.5665    16.4977
  214.5000     9.5701     0.0192     2.3194   111.5373     0.1924    80.3424    16.5652    16.3732
  215.0000     9.5697     0.0117     2.3340   115.2153     0.1867    81.5295    16.4501    16.2640
  215.5000     9.5692     0.0056     2.3547   121.1341     0.1789    87.5215    16.3359    16.1487
  216.0000     9.5688     0.0010     2.3562   125.3340     0.1786    89.3092    16.1108    16.0710
  216.5000     9.5684    -0.0021     2.3125   119.3209     0.1907    87.1895    15.9312    16.1427
  217.0000     9.5679    -0.0037     2.2914   115.7116     0.2109    83.8722    15.6698    16.0274
  217.5000     9.5674    -0.0038     2.2790   115.1053     0.2208    82.5017    15.5607    15.8040
  218.0000     9.5670    -0.0026     2.2725   119.0021     0.2263    82.6912    15.3462    15.6919
  218.5000     9.5666    -0.0041     2.2702   125.3027     0.2281    80.2917    15.3452    15.5806
  219.0000     9.5661    -0.0056     2.2687   128.9006     0.2302    79.6934    15.5575    15.5774
  219.5000     9.5657    -0.0071     2.2664   130.4004     0.2317    83.3007    15.5565    15.3603
  220.0000     9.5652    -0.0071     2.2649   124.6835     0.2330    85.1055    15.3421    15.1462
  220.5000     9.5648     0.0019     2.2641   122.2754     0.2339    86.9102    14.9232    14.9352
  221.0000     9.5643     0.0019     2.2640   123.4709     0.2348    88.4147    14.7175    14.7270
  221.5000     9.5639     0.0004     2.2640   126.4682     0.2366    88.7180    14.5147    14.5218
  222.0000     9.5633     0.0004     2.2609   128.2803     0.2402    87.5190    14.4138    14.3194
  222.5000     9.5629     0.0049     2.2549   127.6566     0.2415    86.3215    14.4129    14.2112
  223.0000     9.5625     0.0109     2.2496   125.8491     0.2418    87.2254    14.4119    14.1169
  223.5000     9.5621     0.0184     2.2631   126.4440     0.2337    91.1322    14.2133    13.9999
  224.0000     9.5616     0.0229     2.2766   126.4665     0.2252    91.7358    13.9171    13.5370
  224.5000     9.5612     0.0199     2.2850   123.0210     0.2210    89.3364    13.1533    12.8059
  225.0000     9.5607     0.0109     2.2863   120.4195     0.2183    87.5375    12.2504    11.7026
  225.5000     9.5603     0.0019     2.2863   119.8146     0.2180    88.1692    10.9301    10.6207
  226.0000     9.5598     0.0019     2.2870   120.7084     0.2180    92.5724     9.5857     9.4409
  226.5000     9.5594     0.0049     2.2892   122.8048     0.2144    99.7268     8.5826     8.2769
  227.0000     9.5589     0.0109     2.3117   127.6024     0.2018   105.5476     7.8996     7.6691
  227.5000     9.5585     0.0171     2.3410   134.8039     0.1891   111.5771     7.3721     7.1059
  228.0000     9.5580     0.0229     2.3643   136.6001     0.1672   113.9825     7.0238     6.6758
  228.5000     9.5576     0.0109     2.3839   136.8961     0.1614   115.4870     6.7850     6.4477
  229.0000     9.5571     0.0004     2.3899   135.6757     0.1584   117.5921     6.5998     6.2705
  229.5000     9.5567    -0.0011     2.3928   135.9823     0.1563   123.3007     6.4640     6.2260
  230.0000     9.5562     0.0004     2.3943   137.1764     0.1548   127.8082     6.4191     6.2247
  230.5000     9.5558     0.0019     2.3942   139.8734     0.1542   123.6070     6.3745     6.3101
  231.0000     9.5553     0.0034     2.3942   142.5706     0.1536   119.4057     6.4183     6.3967
  231.5000     9.5548     0.0049     2.3950   140.0981     0.1531   115.8051     6.4178     6.4844
  232.0000     9.5544     0.0079     2.3971   137.1522     0.1519   112.2045     6.4618     6.4831
  232.5000     9.5540     0.0199     2.3986   136.8476     0.1500   109.2044     6.5062     6.4817
  233.0000     9.5535     0.0290     2.4008   138.0417     0.1483   105.9041     6.5057     6.4357
  233.5000     9.5531     0.0229     2.4023   139.5375     0.1489   105.6060     6.5052     6.3898
  234.0000     9.5526     0.0154     2.3970   140.7330     0.1513   105.6097     6.4155     6.3885
  234.5000     9.5522     0.0079     2.3864   140.4256     0.1567   105.3123     6.3709     6.3432
  235.0000     9.5517     0.0019     2.3811   141.3208     0.1622   105.6157     6.3267     6.2982
  235.5000     9.5513     0.0019     2.3758   145.2189     0.1646   108.0210     6.4142     6.2969
  236.0000     9.5508     0.0019     2.3689   146.1142     0.1679   111.6517     6.4582     6.3833
  236.5000     9.5503     0.0065     2.3667   141.9028     0.1695   113.1321     6.5026     6.4708
  237.0000     9.5499     0.0139     2.3742   140.9976     0.1646   112.4985     6.5926     6.5596
  237.5000     9.5494     0.0169     2.3772   142.1917     0.1635   110.9359     6.6837     6.6496
  238.0000     9.5490     0.0139     2.3749   141.8857     0.1656   108.6372     6.6832     6.7411
  238.5000     9.5485     0.0079     2.3710   140.0220     0.1668   107.4382     6.7291     6.8336
  239.0000     9.5481     0.0034     2.3680   141.8729     0.1677   105.3399     6.6823     6.7848
  239.5000     9.5477     0.0019     2.3695   144.8702     0.1683   101.4389     6.6818     6.7367
  240.0000     9.5472     0.0064     2.3740   144.2639     0.1668    99.6401     6.5898     6.6428
  240.5000     9.5467     0.0154     2.3815   142.4405     0.1611    99.9434     6.5381     6.5502
  241.0000     9.5462     0.0169     2.3904   143.0513     0.1572   102.0484     6.4537     6.4589
  241.5000     9.5459     0.0094     2.3859   143.0442     0.1563   106.5559     6.4089     6.4131
  242.0000     9.5454     0.0049     2.3806   141.8372     0.1605   110.4628     6.3643     6.3676
  242.5000     9.5450     0.0054     2.3828   140.0297     0.1615   112.5678     6.3201     6.3660
  243.0000     9.5445     0.0079     2.3858   141.2333     0.1600   111.6699     6.3635     6.3211
  243.5000     9.5441     0.0109     2.3872   144.8217     0.1581   109.5708     6.4072     6.3637
  244.0000     9.5436     0.0169     2.3842   148.4196     0.1600   108.0722     6.4959     6.4510
  244.5000     9.5432     0.0199     2.3804   145.4109     0.1624   109.2764     6.5856     6.5395
  245.0000     9.5427     0.0260     2.3766   144.2040     0.1639   111.3815     6.6309     6.6292
  245.5000     9.5423     0.0290     2.3736   147.3215     0.1649   112.8859     6.6764     6.7201
  246.0000     9.5418     0.0245     2.3773   151.6987     0.1640   112.9129     6.7687     6.8120
  246.5000     9.5414     0.0169     2.3810   144.4858     0.1603   112.8919     6.7682     6.8106
  247.0000     9.5409     0.0079     2.3840   139.3750     0.1583   113.7958     6.7678     6.8568
  247.5000     9.5404     0.0019     2.3847   139.0490     0.1577   112.8378     6.8142     6.9029
  248.0000     9.5399     0.0019     2.3808   140.6527     0.1601   110.4545     6.8609     6.9012
  248.5000     9.5396     0.0019     2.3763   141.1597     0.1613   112.3039     6.9080     6.9958
  249.0000     9.5391     0.0019     2.3778   139.9513     0.1607   114.7093     6.9554     7.0918
  249.5000     9.5387     0.0019     2.3853   135.7414     0.1574   114.4119     7.0515     7.1396
  250.0000     9.5382     0.0158     2.3973   135.1351     0.1526   111.1116     7.0510     7.2877
  250.5000     9.5377     0.0203     2.3996   137.2301     0.1511   106.9104     7.1487     7.3877
  251.0000     9.5373     0.0188     2.3988   135.1223     0.1505   107.5139     7.1977     7.4890
  251.5000     9.5368     0.0173     2.3966   132.7142     0.1547   109.6190     7.3477     7.5918
  252.0000     9.5665     0.0098     2.3894   130.3061     0.1608   107.5199     7.5010     7.6955
  252.5000     9.5810     0.0038     2.3702   133.3633     0.1656   105.1197     7.6576     7.6939
  253.0000     9.5975     0.0023     2.3514   135.0995     0.1708   106.9252     7.5520     7.5867
  253.5000     9.6400     0.0159     2.2634   130.2876     0.2265   108.1294     7.3966     7.4294
