~VERSION INFORMATION
 VERS.                2.0:   CWLS LOG ASCII STANDARD - VERSION 2.0
 WRAP.                 NO:   ONE LINE PER DEPTH STEP
~WELL INFORMATION
#MNEM.UNIT      DATA TYPE    INFORMATION
#----------   ------------   ------------------------------
 STRT.F           84.0000:   START DEPTH
 STOP.F          860.0000:   STOP DEPTH
 STEP.F            0.5000:   STEP LENGTH
 NULL.          -999.2500:   NO VALUE
 COMP.               NAVY:   COMPANY
 WELL. 52-S-11  NPR #3 #52S-11:   WELL
 FLD .        TEAPOT DOME:   FIELD
 LOC .      S11 T38N R78W:   LOCATION
 CNTY.            NATRONA:   COUNTY
 STAT.            WYOMING:   STATE
 CTRY. UNITED STATES OF AMERICA:   COUNTRY
 SRVC.       Schlumberger:   SERVICE COMPANY
 DATE.        01-JUL-1962:   LOGDATE
 API .       490250637300:   API NUMBER
~CURVE INFORMATION
#MNEM.UNIT       API CODE    CURVE DESCRIPTION
#----------   ------------   ------------------------------
 DEPT.F                  :   
 ASN .OHMM   05 041 16 00:   AMPLIFIED SHORT NORMAL 16"
 CILD.MMHO   05 110 46 00:   CONDUCTIVITY INDUCTION LOG DEEP
 ILD .OHMM   05 120 46 00:   INDUCTION LOG DEEP
 SPR .MV     05 010 01 00:   SPONTANEOUS POTENTIAL FROM RES.
 GR  .GAPI   30 310 01 00:   GAMMA RAY
~PARAMETER INFORMATION
#MNEM.UNIT          VALUE    DESCRIPTION
#----------   ------------   ------------------------------
 LMF .                 KB:   LOG MEASURED FROM
 DMF .                 KB:   DRILLING MEASURED FROM
 EKB .F              5191:   KELLING BUSHING
 EGL .F              5186:   GROUND LEVEL
 DATE.           7-1-1962:   RUN DATE
 RUN .                  1:   RUN NUMBER
 DD  .F               860:   DEPTH DRILLER
 DL  .F               861:   DEPTH LOGGER
 BLI .F               860:   BOTTOM LOG INTERVAL
 TLI .F                91:   TOP LOG INTERVAL
 CBD .F                10:   CASING BOTTOM DRILLER
 BS  .IN             6.75:   BIT SIZE
 BSD .F               860:   BIT SIZE AT DEPTH
 DFT .            GEL-OIL:   DRILLING FLUID TYPE
 DFD .               10.2:   DRILLING FLUID DENSITY
 DFV .                 45:   DRILLING FLUID VISCOSITY
 DFL .                  4:   DRILLING FLUID LOSS
 MSS .           FLOWLINE:   MUD SAMPLE SOURCE
 RMS .OHMM           5.54:   RESISTIVITY MUD SAMPLE
 MST .F                75:   MUD SAMPLE TEMPERATURE
 RMB .OHMM           5.19:   RESISTIVITY MUD AT BHT
 BHT .F                80:   BOTTOM HOLE TEMPERATURE
 TCS .HRS               1:   TIME CURCULATED STOPPED
 MRT .F                80:   MAXIMUM RECORDED TEMPERATURE
 LUN .               2503:   LOGGING UNIT NUMBER
 LUL .              CSPR.:   LOGGING UNIT LOCATION
 ENGI.             KNOBEL:   RECORDING ENGINEER
 WITN.          JORGENSEN:   WITNESSED BY
 CLNT.            A2DTECH:   CLIENT CODE
 ORIG.      2" & 5" PRINT:   ORIGIN OF DATA
 UWI .       490250637300:   UNIQUE WELL ID
 DICO. A2D Technologies, Inc.:   DIGITIZING COMPANY
~OTHER INFORMATION
~A   DEPT      ASN       CILD        ILD        SPR         GR   
# ...
  206.0000     6.8697   165.9618     6.3761   -29.3590  -999.2500
  206.5000     6.6568   171.1932     6.2184   -29.3683  -999.2500
  207.0000     6.5197   173.4962     6.2124   -29.2215  -999.2500
  207.5000     6.4121   174.2887     6.2823   -29.0766  -999.2500
  208.0000     6.3818   173.5612     6.3522   -29.0860  -999.2500
  208.5000     6.4114   173.6077     6.4206   -28.9392  -999.2500
  209.0000     6.4561   173.6448     6.4906   -28.9485  -999.2500
  209.5000     6.5461   173.6820     6.4846   -28.9560  -999.2500
  210.0000     6.6363   173.7191     6.4786   -28.9635  -999.2500
  210.5000     6.6961   173.7563     6.3968   -28.8186  -999.2500
  211.0000     6.7107   173.0288     6.2391   -28.8262  -999.2500
  211.5000     6.6643   173.0753     6.2331   -28.8338  -999.2500
  212.0000     6.5727   173.1124     6.1513   -28.8415  -999.2500
  212.5000     6.4052   174.6601     6.0694   -28.8505  -999.2500
  213.0000     6.3438   175.4531     6.0635   -28.8580  -999.2500
  213.5000     6.2976   176.2462     6.0575   -28.8655  -999.2500
  214.0000     6.2666   176.2914     6.0515   -28.8730  -999.2500
  214.5000     6.2963   174.8180     6.1214   -28.8805  -999.2500
  215.0000     6.3560   173.3446     6.1153   -28.8886  -999.2500
  215.5000     6.4007   172.6171     6.1092   -28.8955  -999.2500
  216.0000     6.4151   172.6636     6.1021   -28.9030  -999.2500
  216.5000     6.4295   173.4560     6.0961   -28.7562  -999.2500
  217.0000     6.4288   175.0037     6.0901   -28.7656  -999.2500
  217.5000     6.4111   178.0620     6.0083   -28.7731  -999.2500
  218.0000     6.3362   181.8756     5.9264   -28.7806  -999.2500
  218.5000     6.1991   187.1997     5.6929   -28.6357  -999.2500
  219.0000     5.9711   191.7686     5.5352   -28.6433  -999.2500
  219.5000     5.7431   196.3375     5.4533   -28.4982  -999.2500
  220.0000     5.6060   200.1511     5.4474   -28.3533  -999.2500
  220.5000     5.4992   205.5262     5.4414   -28.3627  -999.2500
  221.0000     5.4833   209.2900     5.4354   -28.3702  -999.2500
  221.5000     5.4979   212.3564     5.4295   -28.2234  -999.2500
  222.0000     5.4969   213.1488     5.4994   -28.0784  -999.2500
  222.5000     5.5113   212.4214     5.5693   -28.0878  -999.2500
  223.0000     5.5257   209.4467     5.5618   -28.0953  -999.2500
  223.5000     5.5704   207.9732     5.5558   -28.1028  -999.2500
  224.0000     5.6463   205.7445     5.5499   -28.1103  -999.2500
  224.5000     5.7371   203.5158     5.6198   -28.1178  -999.2500
  225.0000     5.7980   201.2871     5.6138   -28.1253  -999.2500
  225.5000     5.8553   199.8136     5.6852   -28.1328  -999.2500
  226.0000     5.8847   197.5849     5.7551   -28.2928  -999.2500
  226.5000     5.9014   195.3562     5.7477   -28.3003  -999.2500
  227.0000     5.9238   193.1275     5.8191   -28.1553  -999.2500
  227.5000     5.9461   190.8988     5.8116   -28.1631  -999.2500
  228.0000     5.9685   190.9365     5.8056   -28.1722  -999.2500
  228.5000     5.9909   190.9743     5.8756   -28.1797  -999.2500
  229.0000     6.0166   191.0195     5.8695   -28.1872  -999.2500
  229.5000     5.9552   189.5368     5.8636   -28.3472  -999.2500
  230.0000     5.9243   188.0634     5.9335   -28.3547  -999.2500
  230.5000     6.0143   186.5992     5.9261   -28.3622  -999.2500
  231.0000     6.1196   186.6364     5.9201   -28.3697  -999.2500
  231.5000     6.1795   185.9090     5.9141   -28.3772  -999.2500
  232.0000     5.9212   185.1908     5.9082   -28.3847  -999.2500
  232.5000     5.8563   185.2372     5.9796   -29.0019  -999.2500
  233.0000     6.1318   183.0085     5.9721   -29.3143  -999.2500
  233.5000     6.2068   180.0245     5.9662   -29.3218  -999.2500
  234.0000     6.1303   177.0405     6.0376   -28.8720  -999.2500
  234.5000     6.1673   174.8112     6.0301   -28.4222  -999.2500
  235.0000     6.3711   173.3384     6.0241   -28.2773  -999.2500
  235.5000     6.4461   172.5704     6.0940   -28.4375  -999.2500
  236.0000     6.5059   171.1468     6.0121   -28.4466  -999.2500
  236.5000     6.5205   171.9485     6.0060   -28.4541  -999.2500
  237.0000     6.3226   175.7621     5.9241   -28.4616  -999.2500
  237.5000     5.9583   193.9261     5.5376   -28.3148  -999.2500
  238.0000     5.8060   209.0690     5.1522   -28.3241  -999.2500
  238.5000     5.8053   219.6802     4.7669   -28.3316  -999.2500
  239.0000     5.3500   226.5149     4.6092   -28.3392  -999.2500
  239.5000     5.0765   232.5943     4.5274   -28.3467  -999.2500
  240.0000     4.8333   237.1632     4.3697   -28.1998  -999.2500
  240.5000     4.6205   240.9768     4.2878   -27.7519  -999.2500
  241.0000     4.6988   241.7692     4.2060   -27.3018  -999.2500
  241.5000     5.2684   241.0511     4.2759   -27.0046  -999.2500
  242.0000     5.8756   236.5565     4.6493   -27.4695  -999.2500
  242.5000     5.9809   222.9985     5.0986   -27.7897  -999.2500
  243.0000     5.9802   204.6075     5.4735   -27.9421  -999.2500
  243.5000     6.0249   189.5392     5.7695   -28.1021  -999.2500
  244.0000     5.9635   179.3126     5.9153   -28.1112  -999.2500
  244.5000     5.8567   175.5733     5.9852   -28.1187  -999.2500
  245.0000     6.0530   174.8458     6.2053   -28.1262  -999.2500
  245.5000     6.3554   171.1158     6.3511   -28.1337  -999.2500
  246.0000     6.8242   162.0896     6.4969   -28.1412  -999.2500
  246.5000     6.8538   153.0632     6.6442   -28.1487  -999.2500
  247.0000     6.8530   149.3239     6.7141   -28.1562  -999.2500
  247.5000     6.9432   144.8294     6.7840   -28.0094  -999.2500
  248.0000     7.0493   141.8454     6.8539   -28.0188  -999.2500
  248.5000     7.1254   141.1180     6.9238   -28.0263  -999.2500
  249.0000     7.1682   141.1644     6.9163   -28.0338  -999.2500
  249.5000     7.1370   141.9568     6.9104   -27.8887  -999.2500
  250.0000     7.0556   145.0151     6.8285   -27.8963  -999.2500
  250.5000     6.9235   149.0844     6.5948   -27.9039  -999.2500
  251.0000     6.8320   154.1559     6.5896   -27.9115  -999.2500
  251.5000     6.7102   159.4801     6.4326   -27.9207  -999.2500
  252.0000     6.5430   163.2937     6.1997   -27.9282  -999.2500
  252.5000     6.3908   168.6178     6.1186   -28.2327  -999.2500
  253.0000     6.2084   175.6042     5.8099   -28.0848  -999.2500
  253.5000     6.0109   181.8354     5.5770   -28.2447  -999.2500
  254.0000     5.8133   192.9077     5.3441   -28.2507  -999.2500
  254.5000     5.5400   208.0506     5.0354   -28.1028  -999.2500
  255.0000     5.2818   234.5228     4.5749   -28.1103  -999.2500
  255.5000     5.0388   260.2397     4.1145   -28.1163  -999.2500
  256.0000     4.6897   272.3615     3.8057   -27.9684  -999.2500
  256.5000     4.4159   271.6340     3.6466   -27.5186  -999.2500
  257.0000     4.6905   270.1606     3.6435   -26.9148  -999.2500
  257.5000     4.8546   270.2070     3.7999   -26.3110  -999.2500
  258.0000     4.4256   269.4796     4.0883   -26.3171  -999.2500
  258.5000     4.3837   264.2390     4.3852   -26.7922  -999.2500
  259.0000     4.8072   246.1493     4.6834   -27.2652  -999.2500
  259.5000     5.0187   225.0384     4.9058   -27.4036  -999.2500
  260.0000     5.2151   207.7039     5.0536   -27.4096  -999.2500
  260.5000     5.3054   194.7000     5.1243   -27.4156  -999.2500
  261.0000     5.3502   187.0848     5.2695   -27.4216  -999.2500
  261.5000     5.3649   181.3803     5.2642   -27.4276  -999.2500
  262.0000     5.3795   186.7137     5.2590   -27.4336  -999.2500
  262.5000     5.3787   189.0168     5.2537   -27.4396  -999.2500
  263.0000     5.3934   189.0539     5.3257   -27.4457  -999.2500
  263.5000     5.3775   189.8463     5.2433   -27.4517  -999.2500
  264.0000     5.3466   190.6388     5.1621   -27.4577  -999.2500
  264.5000     5.2703   195.2076     5.0810   -27.4637  -999.2500
  265.0000     5.0576   210.3505     4.8482   -27.4697  -999.2500
  265.5000     4.8448   224.7381     4.5394   -27.3231  -999.2500
  266.0000     4.6473   256.4973     4.0000   -27.1768  -999.2500
  266.5000     4.3588   306.3834     3.4524   -27.0304  -999.2500
