~VERSION INFORMATION
 VERS.                2.0:   CWLS LOG ASCII STANDARD - VERSION 2.0
 WRAP.                 NO:   ONE LINE PER DEPTH STEP
~WELL INFORMATION
#MNEM.UNIT      DATA TYPE    INFORMATION
#----------   ------------   ------------------------------
 STRT.F           32.0000:   START DEPTH
 STOP.F          502.0000:   STOP DEPTH
 STEP.F            0.5000:   STEP LENGTH
 NULL.          -999.2500:   NO VALUE
 COMP.    FENIX & SCISSON:   COMPANY
 WELL. NPR # #3 65-36-SX-3-FP:   WELL
 FLD .             TEAPOT:   FIELD
 LOC .       S3 T38N R78W:   LOCATION
 CNTY.            NATRONA:   COUNTY
 STAT.            WYOMING:   STATE
 CTRY. UNITED STATES OF AMERICA:   COUNTRY
 SRVC.              Welex:   SERVICE COMPANY
 DATE.        15-JUN-1980:   LOGDATE
 API .       490251082600:   API NUMBER
~CURVE INFORMATION
#MNEM.UNIT       API CODE    CURVE DESCRIPTION
#----------   ------------   ------------------------------
 DEPT.F                  :   
 CALD.IN     45 280 60 00:   CALIPER FROM DENSITY LOG
 CORR.G/C3   45 356 01 00:   DENSITY CORRECTION
 DPHI.DEC    45 890 12 00:   DENSITY POROSITY SANDSTONE
 GRD .GAPI   45 310 01 00:   GAMMA RAY FROM DENSITY LOG
 RHOB.G/C3   45 350 01 00:   BULK DENSITY
 NPHI.DEC    42 890 03 00:   NEUTRON POROSITY SANDSTONE
 ILD .OHMM   07 120 46 00:   INDUCTION LOG DEEP
 ILM .OHMM   07 120 44 00:   INDUCTION LOG MEDIUM
 SGRD.OHMM   07 220 05 00:   SHALLOW GUARD RESISTIVITY
 SPR .MV     07 010 01 00:   SPONTANEOUS POTENTIAL FROM RES.
~PARAMETER INFORMATION
#MNEM.UNIT          VALUE    DESCRIPTION
#----------   ------------   ------------------------------
 PD  .                 GL:   PERMANENT DATUM
 EPD .F              5159:   ELEVATION PERMANENT DATUM
 LMF .                 KB:   LOG MEASURED FROM
 DAPD.F                 5:   FEET ABOVE PERMANENT DATUM
 DMF .                 KB:   DRILLING MEASURED FROM
 EKB .F              5164:   KELLING BUSHING
 EGL .F              5159:   GROUND LEVEL
 DATE.            6-15-80:   RUN DATE
 RUN .                  1:   RUN NUMBER
 DD  .F               505:   DEPTH DRILLER
 DL  .F               504:   DEPTH LOGGER
 BLI .F               502:   BOTTOM LOG INTERVAL
 TLI .F                30:   TOP LOG INTERVAL
 BS  .IN            9.875:   BIT SIZE
 BSD .F               505:   BIT SIZE AT DEPTH
 DFT .             2% KCL:   DRILLING FLUID TYPE
 DFD .                9.4:   DRILLING FLUID DENSITY
 DFV .                 51:   DRILLING FLUID VISCOSITY
 DFPH.                 12:   DRILLING FLUID PH
 DFL .                5.6:   DRILLING FLUID LOSS
 MSS .           FLOWLINE:   MUD SAMPLE SOURCE
 RMS .OHMM            .36:   RESISTIVITY MUD SAMPLE
 MST .F                65:   MUD SAMPLE TEMPERATURE
 RMF .OHMM            .29:   RESISTIVITY MUD FILTRATE SAMPLE
 MFST.F                65:   MUD FILTRATE SAMPLE TEMPERATURE
 RMC .OHMM            .42:   RESISTIVITY MUD CAKE
 MCST.F                65:   MUD CAKE SAMPLE TEMPERATURE
 MFSS.           MEASURED:   MUD FILTRATE SAMPLE SOURCE
 MCSS.           MEASURED:   MUD CAKE SAMPLE SOURCE
 RMB .OHMM            .32:   RESISTIVITY MUD AT BHT
 BHT .F                74:   BOTTOM HOLE TEMPERATURE
 TCS .HRS               2:   TIME CURCULATED STOPPED
 MRT .F                74:   MAXIMUM RECORDED TEMPERATURE
 LUN .               1892:   LOGGING UNIT NUMBER
 LUL .             CASPER:   LOGGING UNIT LOCATION
 ENGI.               REIN:   RECORDING ENGINEER
 WITN.              AMEND:   WITNESSED BY
 CLNT.            A2DTECH:   CLIENT CODE
 ORIG.       2", 5" PRINT:   ORIGIN OF DATA
 UWI .       490251082600:   UNIQUE WELL ID
 DICO. A2D Technologies, Inc.:   DIGITIZING COMPANY
~OTHER INFORMATION
~A   DEPT     CALD       CORR       DPHI        GRD       RHOB       NPHI         ILD         ILM       SGRD      SPR   
# ...
  199.5000    10.5121     0.0633     0.1060   103.2662     2.4850     0.3087     7.9421     5.2594     4.9366   -56.4470
  200.0000    10.5280     0.0680     0.1096   104.1406     2.4777     0.3042     7.5934     5.4343     5.2141   -56.4470
  200.5000    10.5311     0.0648     0.1118   103.2847     2.4679     0.3056     7.3587     5.6633     5.4709   -56.4470
  201.0000    10.5401     0.0621     0.1158   102.1152     2.4686     0.3110     7.2565     5.6624     5.4698   -56.4470
  201.5000    10.5460     0.0531     0.1211   102.5680     2.4537     0.3133     7.1554     5.6228     5.4685   -56.4470
  202.0000    10.5470     0.0412     0.1253   103.7583     2.4388     0.3118     7.1049     5.5068     5.3926   -56.4470
  202.5000    10.5481     0.0367     0.1228   103.7687     2.4411     0.3087     7.1035     5.4307     5.3177   -57.1633
  203.0000    10.5509     0.0474     0.1192   103.7791     2.4450     0.3086     7.1021     5.2460     5.0627   -57.7364
  203.5000    10.5647     0.0414     0.1272   103.7894     2.4442     0.3116     6.9073     4.9980     4.7932   -58.1671
  204.0000    10.5512     0.0430     0.1299   103.6519     2.4255     0.3148     6.5354     4.8951     4.6619   -58.7393
  204.5000    10.5522     0.0507     0.1268   103.6627     2.4348     0.3220     5.6926     4.8275     4.5031   -58.8825
  205.0000    10.5532     0.0674     0.1312   103.8206     2.4361     0.3243     5.2756     4.8268     4.3796   -58.8825
  205.5000    10.5543     0.0811     0.1333   103.8310     2.4256     0.3281     5.2023     4.8261     4.2304   -58.8825
  206.0000    10.5552     0.0842     0.1332   103.5463     2.4227     0.3326     5.3100     4.9604     4.0582   -58.8825
  206.5000    10.5562     0.0813     0.1326   100.7544     2.4205     0.3319     5.4600     5.3505     3.9470   -58.7393
  207.0000    10.5574     0.0783     0.1217    99.1423     2.4213     0.3271     6.0090     5.9360     3.9461   -58.4508
  207.5000    10.5584     0.0905     0.1097    96.4978     2.4438     0.3258     6.4366     6.7618     3.9453   -57.5931
  208.0000    10.5445     0.0936     0.1054    96.9507     2.4872     0.3261     6.8473     7.2936     3.9445   -56.8768
  208.5000    10.5308     0.0872     0.1072    97.1086     2.4731     0.3248     7.3342     7.8131     3.9983   -56.4470
  209.0000    10.5321     0.0707     0.1065    96.9688     2.4724     0.3212     7.9105     8.5443     4.0533   -55.8739
  209.5000    10.5284     0.0546     0.1005    98.1618     2.4829     0.3184     8.4152     9.0276     4.1656   -55.7307
  210.0000    10.5177     0.0804     0.0920    99.9420     2.5084     0.3165     8.8296     9.2151     4.2812   -55.5874
  210.5000    10.5055     0.0880     0.0848   102.3123     2.5159     0.3138     9.2002     9.3418     4.5229   -55.5874
  211.0000    10.5065     0.0715     0.0892   104.5351     2.5145     0.3113     9.5869     9.3403     4.9802   -55.5874
  211.5000    10.5075     0.0595     0.0925   102.0381     2.5040     0.3059     9.6519     9.3391     5.3346   -55.8739
  212.0000    10.5086     0.0629     0.0921   101.1635     2.5063     0.3043     9.6495     9.2738     5.6464   -56.4470
  212.5000    10.5096     0.0521     0.0995   100.7314     2.4891     0.3034     9.5809     9.2723     5.9542   -56.7335
  213.0000    10.5106     0.0492     0.0995    99.8568     2.4847     0.3021     9.5791     9.2711     6.1197   -56.7335
  213.5000    10.5117     0.0674     0.0982    98.6872     2.4922     0.3027     9.5114     9.2062     6.2032   -56.5373
  214.0000    10.5127     0.0660     0.0985    98.1050     2.4945     0.3041     9.4438     9.0773     6.2446   -56.4470
  214.5000    10.5137     0.0661     0.0984   101.5104     2.4946     0.3046     9.3771     8.8917     6.2434   -56.3037
  215.0000    10.5148     0.0646     0.0981   102.9957     2.4939     0.3094     9.3753     8.8295     6.1996   -57.0201
  215.5000    10.5158     0.0663     0.0959   103.0060     2.4947     0.3111     9.2379     8.6476     6.1981   -57.6566
  216.0000    10.5021     0.0739     0.0932   102.8663     2.4999     0.3159     9.1163     8.3533     6.1118   -58.3095
  216.5000    10.5031     0.0891     0.0901   102.8793     2.5097     0.3206     9.0519     8.2378     6.0269   -58.7393
  217.0000    10.5042     0.1103     0.0865   102.8897     2.5195     0.3209     8.8040     8.1240     5.9844   -58.5960
  217.5000    10.5199     0.1165     0.0840   102.1626     2.5255     0.3208     8.4453     8.0653     5.8202   -58.0922
  218.0000    10.5209     0.1057     0.0876   101.4329     2.5136     0.3228     7.9357     7.8464     5.4690   -57.3066
  218.5000    10.5220     0.0885     0.0983   102.0358     2.5032     0.3255     7.4568     7.6848     5.2464   -56.7335
  219.0000    10.5230     0.0726     0.1096   102.9312     2.4680     0.3281     7.0456     7.4749     4.9571   -56.5903
  219.5000    10.5242     0.0685     0.1126   103.8265     2.4673     0.3337     6.7213     7.0240     4.6321   -56.5903
  220.0000    10.5251     0.0671     0.1203   105.7517     2.4539     0.3361     6.4923     6.8794     4.5052   -57.0201
  220.5000    10.5263     0.0566     0.1308   103.9395     2.4345     0.3349     6.3145     6.7377     4.4427   -57.8797
  221.0000    10.5271     0.0506     0.1346   103.5601     2.4181     0.3298     6.2265     6.6905     4.3208   -58.1662
  221.5000    10.5283     0.0507     0.1397   103.9071     2.4031     0.3269     6.2253     6.7826     4.2608   -58.1662
  222.0000    10.5292     0.0538     0.1405   105.1268     2.3994     0.3265     6.4424     6.9711     4.2600   -57.9542
  222.5000    10.5302     0.0841     0.1264   106.5561     2.4294     0.3207     6.9648     7.2645     4.2616   -57.5931
  223.0000    10.5313     0.0752     0.1269   106.8584     2.4377     0.3192     7.9740     7.8356     4.3175   -57.1633
  223.5000    10.5323     0.0632     0.1199   107.7773     2.4362     0.3193     8.3091     8.4518     4.3766   -56.4470
  224.0000    10.5335     0.0572     0.1061   108.4896     2.4752     0.3198     8.5989     8.9917     4.5290   -56.0172
  224.5000    10.5344     0.0739     0.0977   107.4617     2.4865     0.3194     8.7765     9.0349     4.9867   -56.4470
  225.0000    10.5355     0.0695     0.0982   106.0030     2.4933     0.3184     8.8359     9.0517     5.3415   -56.7335
  225.5000    10.5217     0.0665     0.0994   104.9809     2.4873     0.3153     8.8953     9.1759     5.6824   -57.0201
  226.0000    10.5078     0.0682     0.0990   103.9587     2.4896     0.3137     8.8931     9.2381     5.9266   -57.3066
  226.5000    10.4872     0.0637     0.0989   105.5916     2.4904     0.3132     9.0428     9.2366     6.1698   -57.5931
  227.0000    10.4804     0.0563     0.0992   104.4220     2.4875     0.3141     9.1378     9.2355     6.2545   -57.7364
  227.5000    10.4816     0.0548     0.0985   102.6625     2.4890     0.3152     9.1361     9.2342     6.3398   -57.5931
  228.0000    10.4826     0.0549     0.0949   100.6080     2.4928     0.3157     9.1342     9.1694     6.3383   -57.2989
  228.5000    10.4836     0.0585     0.0903   100.7659     2.5101     0.3098     9.1321     9.1682     6.3371   -56.5903
  229.0000    10.4848     0.0687     0.0849   101.8087     2.5176     0.3062     9.1303     9.1670     6.3358   -55.8739
  229.5000    10.4857     0.0581     0.0863   102.4090     2.5124     0.3050     9.1285     9.1655     6.3346   -55.5874
  230.0000    10.4868     0.0538     0.0905   102.2714     2.5042     0.3053     9.1264     9.1643     6.3331   -55.5731
  230.5000    10.4878     0.0554     0.0916   101.9873     2.5035     0.3049     9.1246     9.1002     6.3319   -55.4441
  231.0000    10.4888     0.0645     0.0904   101.1127     2.5050     0.3042     9.0602     9.0923     6.3306   -55.4441
  231.5000    10.4898     0.0707     0.0933   100.8255     2.5081     0.3006     8.9961     8.9114     6.3291   -55.5874
  232.0000    10.4909     0.0768     0.0944   102.7559     2.5025     0.3010     8.9942     8.7882     6.3279   -55.8739
  232.5000    10.4919     0.0829     0.0893   102.6162     2.5014     0.3033     8.9077     8.6667     6.3267   -56.4470
