~VERSION INFORMATION
 VERS.                2.0:   CWLS LOG ASCII STANDARD - VERSION 2.0
 WRAP.                 NO:   ONE LINE PER DEPTH STEP
~WELL INFORMATION
#MNEM.UNIT      DATA TYPE    INFORMATION
#----------   ------------   ------------------------------
 STRT.F            2.0000:   START DEPTH
 STOP.F          518.0000:   STOP DEPTH
 STEP.F            0.5000:   STEP LENGTH
 NULL.          -999.2500:   NO VALUE
 COMP. LAWRENCE/ALLISON INC:   COMPANY
 WELL.    54-51 SX #10-10:   WELL
 FLD .             TEAPOT:   FIELD
 LOC .      S10 T38N R78W:   LOCATION
 CNTY.            NATRONA:   COUNTY
 STAT.            WYOMING:   STATE
 CTRY. UNITED STATES OF AMERICA:   COUNTRY
 SRVC.            Unknown:   SERVICE COMPANY
 DATE.        14-AUG-1984:   LOGDATE
 API .       490251098800:   API NUMBER
~CURVE INFORMATION
#MNEM.UNIT       API CODE    CURVE DESCRIPTION
#----------   ------------   ------------------------------
 DEPT.F                  :   
 CALD.IN     45 280 60 00:   CALIPER
 DEN .G/C3   45 350 01 00:   COMPENSATED BULK DENSTIY
 CORR.G/C3   45 356 01 00:   DENSITY CORRECTION
 CNC .DEC    42 890 03 00:   NEUTRON POROSITY SANDSTONE
 PORD.DEC    45 890 12 00:   POROSITY DENSITY SANDSTONE
 GRR .GAPI   07 310 01 00:   GAMMA RAY FROM RES. LOG.
 RFOC.OHMM   07 220 04 00:   RESISTIVITY FOCUSED LOG
 RILD.OHMM   07 120 46 00:   INDUCTION LOG DEEP RESISTIVITY
 RILM.OHMM   07 120 44 00:   INDUCTION LOG MEDIUM RESISTIVITY
 AC  .US/F   60 520 00 00:   ACOUSTIC SONIC
 SPR .MV     07 010 01 00:   SPONTANEOUS POTENTIAL
~PARAMETER INFORMATION
#MNEM.UNIT          VALUE    DESCRIPTION
#----------   ------------   ------------------------------
 PD  .                 GL:   PERMANENT DATUM
 EPD .F              5197:   ELEVATION PERMANENT DATUM
 LMF .                 GL:   LOG MEASURED FROM
 DMF .                 GL:   DRILLING MEASURED FROM
 EGL .F              5197:   GROUND LEVEL
 DATE.        14-AUG-1984:   RUN DATE
 RUN .                  1:   RUN NUMBER
 DD  .F               530:   DEPTH DRILLER
 DL  .F               520:   DEPTH LOGGER
 BLI .F               518:   BOTTOM LOG INTERVAL
 CS  .IN            9.625:   CASING SIZE
 CBD .F                40:   CASING BOTTOM DRILLER
 CBL .F                42:   CASING BOTTOM LOGGER
 BS  .IN            7.875:   BIT SIZE
 BSD .F               530:   BIT SIZE AT DEPTH
 DFT .          KCL WATER:   DRILLING FLUID TYPE
 MSS .           FLOWLINE:   MUD SAMPLE SOURCE
 RMS .OHMM            .19:   RESISTIVITY MUD SAMPLE
 MST .F                80:   MUD SAMPLE TEMPERATURE
 RMB .OHMM            .17:   RESISTIVITY MUD AT BHT
 BHT .F                90:   BOTTOM HOLE TEMPERATURE
 TCS .HRS               4:   TIME CURCULATED STOPPED
 MRT .F                90:   MAXIMUM RECORDED TEMPERATURE
 LUN .               6274:   LOGGING UNIT NUMBER
 LUL .               GLTE:   LOGGING UNIT LOCATION
 ENGI.             RAUTIO:   RECORDING ENGINEER
 WITN.              FIVAS:   WITNESSED BY
 CLNT.            A2DTECH:   CLIENT CODE
 ORIG.       2", 5" PRINT:   ORIGIN OF DATA
 UWI .       490251098800:   UNIQUE WELL ID
 DICO. A2D Technologies, Inc.:   DIGITIZING COMPANY
~OTHER INFORMATION
~A    DEPT    CALD        DEN       CORR        CNC       PORD         GRR      RFOC       RILD       RILM         AC        SPR   
# ...
   32.5000  -999.2500  -999.2500  -999.2500     0.0414  -999.2500    86.2642  -999.2500  -999.2500  -999.2500  -999.2500  -999.2500
   33.0000  -999.2500  -999.2500  -999.2500     0.0414  -999.2500    85.9798  -999.2500  -999.2500  -999.2500  -999.2500  -999.2500
   33.5000  -999.2500  -999.2500  -999.2500     0.0414  -999.2500    83.8138  -999.2500  -999.2500  -999.2500  -999.2500  -999.2500
   34.0000  -999.2500  -999.2500  -999.2500     0.0414  -999.2500    81.6914  -999.2500  -999.2500  -999.2500  -999.2500  -999.2500
   34.5000  -999.2500  -999.2500  -999.2500     0.0410  -999.2500    80.1208  -999.2500  -999.2500  -999.2500  -999.2500  -999.2500
   35.0000  -999.2500  -999.2500  -999.2500     0.0407  -999.2500    78.4797  -999.2500  -999.2500  -999.2500  -999.2500  -999.2500
   35.5000  -999.2500  -999.2500  -999.2500     0.0401  -999.2500    79.5418  -999.2500  -999.2500  -999.2500  -999.2500  -999.2500
   36.0000  -999.2500  -999.2500  -999.2500     0.0394  -999.2500    80.9821  -999.2500  -999.2500  -999.2500  -999.2500  -999.2500
   36.5000  -999.2500  -999.2500  -999.2500     0.0394  -999.2500    81.7988  -999.2500  -999.2500  -999.2500  -999.2500  -999.2500
   37.0000  -999.2500  -999.2500  -999.2500     0.0403  -999.2500    82.1306  -999.2500  -999.2500  -999.2500  -999.2500  -999.2500
   37.5000  -999.2500  -999.2500  -999.2500     0.0409  -999.2500    82.5927  -999.2500  -999.2500  -999.2500  -999.2500  -999.2500
   38.0000  -999.2500  -999.2500  -999.2500     0.0416  -999.2500    83.7224  -999.2500  -999.2500  -999.2500  -999.2500  -999.2500
   38.5000  -999.2500  -999.2500  -999.2500     0.0422  -999.2500    84.8570  -999.2500  -999.2500  -999.2500  -999.2500  -999.2500
   39.0000  -999.2500  -999.2500  -999.2500     0.0406  -999.2500    86.0084  -999.2500  -999.2500  -999.2500  -999.2500  -999.2500
   39.5000  -999.2500  -999.2500  -999.2500     0.0391  -999.2500    87.5222  -999.2500  -999.2500  -999.2500  -999.2500  -999.2500
   40.0000  -999.2500  -999.2500  -999.2500     0.0376  -999.2500    90.5294  -999.2500  -999.2500  -999.2500  -999.2500  -999.2500
   40.5000  -999.2500  -999.2500  -999.2500     0.0485  -999.2500    95.3168  -999.2500  -999.2500  -999.2500  -999.2500  -999.2500
   41.0000  -999.2500  -999.2500  -999.2500     0.0611  -999.2500   100.0946  -999.2500  -999.2500  -999.2500  -999.2500  -999.2500
   41.5000  -999.2500  -999.2500  -999.2500     0.0717  -999.2500   104.8900  -999.2500  -999.2500  -999.2500  -999.2500  -999.2500
   42.0000     8.3909     2.3648     0.0130     0.0689     0.2123   109.7318  -999.2500     3.6246     5.1855  -999.2500   -82.7763
   42.5000     8.3909     2.3648     0.0130     0.0626     0.1780   114.6565  -999.2500     4.1420     5.1855  -999.2500   -82.8733
   43.0000     8.3886     2.4177     0.0130     0.0600     0.1565   116.5001  -999.2500    34.6439     5.1855  -999.2500   -82.7535
   43.5000     8.3868     2.4414    -0.0015     0.0604     0.1407   116.4325  -999.2500   304.3488     5.1855  -999.2500   -82.1174
   44.0000     8.3847     2.4371    -0.0136     0.0608     0.1449   118.2148  -999.2500   144.4731     6.0062  -999.2500   -81.3154
   44.5000     8.3825     2.4314    -0.0258     0.0604     0.1496   119.5966  -999.2500    16.7595     7.8803  -999.2500   -80.5094
   45.0000     8.3804     2.4251    -0.0282     0.0596     0.1505   119.5514  -999.2500     7.2170     8.4073  -999.2500   -79.6943
   45.5000     8.3782     2.4279    -0.0204     0.0589     0.1507   118.2735  -999.2500     6.0062     8.0635  -999.2500   -78.8040
   46.0000     8.3760     2.4335    -0.0126     0.0608     0.1463   117.5949  -999.2500     5.8564     7.7672  -999.2500   -77.6065
   46.5000     8.3739     2.4371    -0.0084     0.0632     0.1438   117.7838  -999.2500     5.7202     8.6397  -999.2500   -76.5884
   47.0000     8.3717     2.4342    -0.0150     0.0639     0.1456   119.3519  -999.2500     5.5808     9.1632  -999.2500   -76.9526
   47.5000     8.3696     2.4316    -0.0212     0.0634     0.1474   120.7291  -999.2500     5.4792     9.5060  -999.2500   -77.3684
   48.0000     8.3674     2.4291    -0.0252     0.0629     0.1492   120.0928  -999.2500     6.0755     8.9552  -999.2500   -77.4789
   48.5000     8.3652     2.4305    -0.0080     0.0627     0.1492   117.5941  -999.2500     7.0435     8.2959  -999.2500   -76.5997
   49.0000     8.3631     2.4372     0.0202     0.0634     0.1450   115.4018  -999.2500     7.9363     7.6851  -999.2500   -74.1538
   49.5000     8.3609     2.4473     0.0484     0.0641     0.1407   113.4279  -999.2500     7.9938     7.4331  -999.2500   -71.3460
   50.0000     8.3588     2.4574     0.0617     0.0648     0.1324   111.6654  -999.2500     8.0518     7.2853  -999.2500   -68.6524
   50.5000     8.3566     2.4678     0.0476     0.0655     0.1247   111.6604  -999.2500     8.1102     7.4939  -999.2500   -65.8094
   51.0000     8.3544     2.4746     0.0325     0.0658     0.1227   112.1511  -999.2500     8.1690     7.8104  -999.2500   -62.9794
   51.5000     8.3523     2.4766     0.0229     0.0659     0.1213   114.0660  -999.2500     8.2282     8.1393  -999.2500   -60.0509
   52.0000     8.3526     2.4777     0.0242     0.0660     0.1209   115.9330  -999.2500     8.2828     8.4812  -999.2500   -48.6847
   52.5000     8.3554     2.4781     0.0245     0.0661     0.1206   117.4899  -999.2500     8.3015     8.6720  -999.2500   -40.2763
   53.0000     8.3582     2.4760     0.0142     0.0665     0.1203   115.4686  -999.2500     8.3188     8.6720  -999.2500   -36.1565
   53.5000     8.3611     2.4745     0.0076     0.0671     0.1215   113.4604  -999.2500     8.3361     8.6720  -999.2500   -33.8671
   54.0000     8.3639     2.4736     0.0119     0.0677     0.1225   111.5119  -999.2500     8.3534     8.6720  -999.2500   -32.5387
   54.5000     8.3667     2.4716     0.0206     0.0649     0.1235   112.3102  -999.2500     8.4151     8.7510  -999.2500   -32.0693
   55.0000     8.3696     2.4701     0.0139     0.0624     0.1246   112.0341  -999.2500     8.5362     8.8429  -999.2500   -31.5636
   55.5000     8.3724     2.4693     0.0070     0.0621     0.1255   111.4164  -999.2500     8.6595     8.9359  -999.2500   -30.3824
   56.0000     8.3752     2.4684     0.0018     0.0643     0.1264   111.0353  -999.2500     8.7626     9.0297  -999.2500   -28.9902
   56.5000     8.3780     2.4675     0.0179     0.0662     0.1272   113.1520  -999.2500     8.8027     9.1246  -999.2500   -27.6004
   57.0000     8.3809     2.4653     0.0342     0.0670     0.1280   114.7227  -999.2500     8.8428     9.2205  -999.2500   -26.2102
   57.5000     8.3837     2.4632     0.0441     0.0677     0.1289   113.7381  -999.2500     8.8831     9.3325  -999.2500   -24.9247
   58.0000     8.3865     2.4603     0.0286     0.0696     0.1304   112.6509  -999.2500     8.9148     9.2589  -999.2500   -24.0232
   58.5000     8.3894     2.4554     0.0095     0.0703     0.1339   111.6579  -999.2500     8.8192     9.1697  -999.2500   -23.9421
   59.0000     8.3922     2.4478     0.0094     0.0698     0.1374   111.3052  -999.2500     8.7287     9.0815  -999.2500   -23.8775
   59.5000     8.3950     2.4432     0.0129     0.0694     0.1407   110.9811  -999.2500     8.6391     8.9944  -999.2500   -23.7794
   60.0000     8.3979     2.4423     0.0164     0.0686     0.1427   112.0459  -999.2500     8.5502     8.9082  -999.2500   -22.8629
   60.5000     8.4007     2.4402     0.0097     0.0678     0.1440   115.1708  -999.2500     8.4623     8.8228  -999.2500   -21.9506
   61.0000     8.4035     2.4338    -0.0066     0.0670     0.1472   118.2662  -999.2500     8.3589     8.7383  -999.2500   -21.0409
   61.5000     8.4063     2.4276    -0.0229     0.0656     0.1505   119.8915  -999.2500     8.4178     8.6727  -999.2500   -20.1194
   62.0000     8.4092     2.4256    -0.0173     0.0641     0.1514   116.7562  -999.2500     8.5635     8.8700  -999.2500   -19.3573
   62.5000     8.4109     2.4298    -0.0090     0.0629     0.1489   113.0836  -999.2500     8.7118     9.0386  -999.2500   -21.3886
