~VERSION INFORMATION
 VERS.                2.0:   CWLS LOG ASCII STANDARD - VERSION 2.0
 WRAP.                 NO:   ONE LINE PER DEPTH STEP
~WELL INFORMATION
#MNEM.UNIT      DATA TYPE    INFORMATION
#----------   ------------   ------------------------------
 STRT.F            0.0000:   START DEPTH
 STOP.F          533.0000:   STOP DEPTH
 STEP.F            0.5000:   STEP LENGTH
 NULL.          -999.2500:   NO VALUE
 COMP. LAWRENCE/ALLISON INC:   COMPANY
 WELL. NAVAL PETROLEUM RESERVE 3 SX-1 #56-66-SX-10:   WELL
 FLD .             TEAPOT:   FIELD
 LOC .      S10 T38N R78W:   LOCATION
 CNTY.            NATRONA:   COUNTY
 STAT.            WYOMING:   STATE
 CTRY. UNITED STATES OF AMERICA:   COUNTRY
 SRVC.           Gearhart:   SERVICE COMPANY
 DATE.        28-JUN-1987:   LOGDATE
 API .       490251114300:   API NUMBER
~CURVE INFORMATION
#MNEM.UNIT       API CODE    CURVE DESCRIPTION
#----------   ------------   ------------------------------
 DEPT.F                  :   
 RLL .OHMM   07 220 00 00:   LATEROLOG RESISTIVITY
 RILM.OHMM   07 120 44 00:   INDUCTION LOG MEDIUM RESISTIVITY
 RILD.OHMM   07 120 46 00:   INDUCTION LOG DEEP RESISTIVITY
 GRR .GAPI   07 310 01 00:   GAMMA RAY FROM RES. LOG.
 SPR .MV     07 010 01 00:   SPONTANEOUS POTENTIAL
~PARAMETER INFORMATION
#MNEM.UNIT          VALUE    DESCRIPTION
#----------   ------------   ------------------------------
 PD  .                 GL:   PERMANENT DATUM
 EPD .F              5198:   ELEVATION PERMANENT DATUM
 LMF .                 KB:   LOG MEASURED FROM
 DAPD.F                 8:   FEET ABOVE PERMANENT DATUM
 DMF .                 KB:   DRILLING MEASURED FROM
 EKB .F              5206:   KELLING BUSHING
 EDF .F              5204:   DRILLING FLOOR
 EGL .F              5198:   GROUND LEVEL
 DATE.            6-28-87:   RUN DATE
 RUN .                  1:   RUN NUMBER
 DD  .F               535:   DEPTH DRILLER
 DL  .F               536:   DEPTH LOGGER
 BLI .F               533:   BOTTOM LOG INTERVAL
 BS  .IN             7.87:   BIT SIZE
 BSD .F               535:   BIT SIZE AT DEPTH
 DFT .                MUD:   DRILLING FLUID TYPE
 RMS .OHMM            .84:   RESISTIVITY MUD SAMPLE
 MST .F                57:   MUD SAMPLE TEMPERATURE
 RMF .OHMM            .63:   RESISTIVITY MUD FILTRATE SAMPLE
 MFST.F                57:   MUD FILTRATE SAMPLE TEMPERATURE
 RMC .OHMM           1.05:   RESISTIVITY MUD CAKE
 MCST.F                57:   MUD CAKE SAMPLE TEMPERATURE
 MFSS.               CALC:   MUD FILTRATE SAMPLE SOURCE
 MCSS.               CALC:   MUD CAKE SAMPLE SOURCE
 RMB .OHMM            .59:   RESISTIVITY MUD AT BHT
 BHT .F                80:   BOTTOM HOLE TEMPERATURE
 TCS .HRS            1200:   TIME CURCULATED STOPPED
 TLAB.HRS            1322:   TIME LOGGER AT BOTTOM
 MRT .F                80:   MAXIMUM RECORDED TEMPERATURE
 LUN .               7650:   LOGGING UNIT NUMBER
 LUL .           GILLETTE:   LOGGING UNIT LOCATION
 ENGI. JOHNSTON/HUCKFELDT:   RECORDING ENGINEER
 WITN.             STRONG:   WITNESSED BY
 CLNT.            A2DTECH:   CLIENT CODE
 ORIG.       2", 5" PRINT:   ORIGIN OF DATA
 UWI .       490251114300:   UNIQUE WELL ID
 DICO. A2D Technologies, Inc.:   DIGITIZING COMPANY
~OTHER INFORMATION
~A    DEPT     RLL         RILM       RILD       GRR       SPR   
# ...
  427.0000    11.2141    12.7422    13.2651    81.8327   -25.5017
  427.5000    11.2360    12.7091    13.1314    83.1845   -23.4052
  428.0000    11.2599    12.6761    12.9869    84.0861   -19.3465
  428.5000    11.2839    12.5827    12.8441    84.9945   -17.9476
  429.0000    11.3192    12.4362    12.7028    85.9048   -22.8378
  429.5000    11.2090    12.2914    12.5631    86.0261   -23.2648
  430.0000    11.0054    12.1483    12.4249    85.8316   -22.6381
  430.5000    10.8055    12.0069    12.2882    85.6349   -22.1630
  431.0000    10.6092    11.8671    12.1531    85.4359   -30.9177
  431.5000    10.4074    11.7289    12.0194    85.2633   -23.2937
  432.0000    10.3476    11.5923    11.8872    84.3030   -24.3282
  432.5000    10.2404    11.4574    11.7564    83.3085   -21.2132
  433.0000    10.2150    11.3240    11.6273    82.2730   -24.9032
  433.5000    10.1879    11.2141    11.4997    81.2386   -27.4725
  434.0000    10.1201    10.9438    11.3727    83.1487   -25.6217
  434.5000    10.2150    10.5837    11.1020    85.3659   -29.8100
  435.0000     9.8737    10.2354    10.7311    87.5840   -30.1763
  435.5000     9.4822     9.8986    10.3729    89.7904   -33.3817
  436.0000     9.1063     9.5729    10.0269    91.7574   -31.1683
  436.5000     8.7452     9.2578     9.6925    91.7220   -29.7943
  437.0000     8.3985     8.8506     9.3705    91.0972   -30.6266
  437.5000     8.0655     8.3930     8.9082    90.2844   -26.6814
  438.0000     7.7457     7.9570     8.4348    89.4606   -30.3865
  438.5000     7.4386     7.3530     7.9860    88.6175   -30.4144
  439.0000     7.1436     6.6751     7.5612    88.8364   -33.7607
  439.5000     6.7505     6.0614     7.1591    91.5798   -28.0759
  440.0000     6.1148     5.5694     6.7783    98.2614   -30.7509
  440.5000     5.7775     5.5177     6.5881   105.0117   -31.7452
  441.0000     5.8916     5.6744     6.6499   105.8468   -27.9602
  441.5000     6.7791     6.1981     7.1234    96.6753   -29.2882
  442.0000     7.7841     6.7540     7.4685    90.0429   -29.5358
  442.5000     8.8807     7.3599     7.8708    84.3804   -26.7001
  443.0000     9.2037     7.8671     8.2948    84.6673   -26.2915
  443.5000     9.5253     8.2047     8.7416    86.1738   -32.3284
  444.0000     9.8407     8.5580     9.2125    87.6342   -32.9781
  444.5000    10.1201     8.9265     9.6156    88.5065   -33.3969
  445.0000    10.2150     9.2184     9.9206    87.3670   -33.7733
  445.5000    10.1940     9.3049    10.2353    86.2839   -30.6427
  446.0000    10.1147     9.4047    10.5600    85.1965   -29.3634
  446.5000    10.0361     9.4996    10.8953    85.6780   -30.9061
  447.0000     9.9580     9.5690    11.2407    87.5731   -27.9611
  447.5000     9.8806    10.0636    11.4267    89.4816   -25.0461
  448.0000     9.8407    10.5462    11.5906    90.0663   -24.1207
  448.5000    10.3194    11.0520    11.7457    89.6295   -22.6172
  449.0000    10.6556    11.5324    11.9030    88.6728   -27.3276
  449.5000    11.0026    11.5622    12.0624    87.7252   -26.9526
  450.0000    11.2141    11.6226    12.2238    87.2441   -27.7738
  450.5000    11.1523    11.7399    12.3875    88.3621   -31.0772
  451.0000    11.1099    11.9392    12.5533    90.5776   -31.8880
  451.5000    11.2301    12.1418    12.7214    92.8211   -31.9709
  452.0000    11.4643    12.3479    12.8917    91.2075   -31.2027
  452.5000    11.7054    12.5575    13.0633    87.9837   -26.7621
  453.0000    11.8624    12.7791    13.1594    84.7016   -27.5245
  453.5000    11.9722    12.7930    13.2036    84.0705   -29.4307
  454.0000    11.8517    12.8176    13.2492    86.9417   -33.3211
  454.5000    11.6966    12.8423    13.2949    89.3620   -33.8517
  455.0000    11.5410    12.8670    13.3408    88.4175   -33.8488
  455.5000    11.3238    12.8918    13.3869    87.6281   -33.8107
  456.0000    11.4606    12.9166    13.4332    86.8150   -32.9550
  456.5000    11.6024    12.9415    13.4796    84.3760   -32.7402
  457.0000    11.7459    12.9664    13.5150    81.8639   -33.2480
  457.5000    11.8912    12.9913    13.4744    79.8167   -32.8104
  458.0000    11.9721    13.0166    13.4354    79.7670   -28.7076
  458.5000    11.8855    13.0204    13.3964    80.7048   -25.4264
  459.0000    11.7872    12.9838    13.3576    81.6758   -29.9527
  459.5000    11.6896    12.9553    13.3189    83.9260   -28.5634
  460.0000    11.6406    12.9270    13.2804    86.1230   -31.2222
  460.5000    11.7185    12.8987    13.2419    88.1509   -31.0365
  461.0000    11.9756    12.8704    13.2036    86.2335   -25.3255
  461.5000    12.3144    12.8421    13.1653    83.7076   -29.7485
  462.0000    12.2525    12.8141    13.1272    81.9348   -33.2753
  462.5000    12.0833    12.7861    13.0892    82.9726   -29.8736
  463.0000    11.9157    12.6343    13.0513    84.2872   -29.8948
  463.5000    11.7505    12.4444    12.9867    85.5949   -28.8390
  464.0000    11.5876    12.2573    12.7911    86.4185   -26.7848
  464.5000    11.4253    12.0730    12.5984    86.9637   -26.2903
  465.0000    11.1842    11.8915    12.4087    87.1892   -29.4933
  465.5000    10.8871    11.7128    12.2218    88.4976   -31.7254
  466.0000    10.5970    11.5367    12.0377    90.5338   -33.4127
  466.5000    10.3199    11.3632    11.8564    92.5814   -33.4340
  467.0000    10.1201    11.1924    11.6778    92.0593   -33.2570
  467.5000    10.1201    11.0242    11.5019    89.9806   -33.1356
  468.0000    10.1201    10.8584    11.3287    87.9513   -29.7773
  468.5000    10.1202    10.7121    11.1581    87.2412   -27.2128
  469.0000    10.1189    10.5763    10.9900    87.2374   -29.8543
  469.5000    10.1141    10.4422    10.8647    88.8647   -30.3083
  470.0000    10.1293    10.3097    10.7272    92.2379   -25.0148
  470.5000     9.8676    10.1790    10.5914    95.5082   -28.5392
  471.0000     9.7255    10.0499    10.4574    98.9434   -31.2898
  471.5000     9.5939     9.9224    10.3250    99.3556   -25.5738
  472.0000     9.3981     9.7966    10.1944    96.3610   -31.4201
  472.5000     9.2063     9.6724    10.0653    92.9312   -33.8685
  473.0000     9.0480     9.5690     9.9330    93.4042   -29.7358
  473.5000     9.0480     9.6380     9.9585    94.3396   -27.9099
  474.0000     9.3672     9.7293     9.9921    94.2806   -26.3309
  474.5000     9.6079     9.8214    10.0258    94.0085   -30.7513
  475.0000     9.6587     9.9330    10.0596    95.7842   -29.9377
  475.5000     9.4231     9.8617    10.0935    97.5299   -28.1621
  476.0000     9.2308     9.7736    10.1201    99.2544   -30.8065
  476.5000     8.9639     9.6862    10.0114   100.7517   -33.7623
  477.0000     9.0480     9.5997     9.8396    99.6902   -33.9064
  477.5000     9.2184     9.4554     9.6707    97.6760   -32.1356
  478.0000     8.8641     9.2815     9.5047    95.6483   -29.8846
  478.5000     8.6731     9.1108     9.3416    94.7558   -24.3634
  479.0000     8.5808     8.9431     9.1813    94.1099   -26.6327
  479.5000     8.4893     8.7786     9.0237    92.2630   -29.3145
  480.0000     8.3989     8.6181     8.8688    90.4922   -31.4472
  480.5000     8.3094     8.4641     8.7166    88.8368   -31.2707
  481.0000     8.2209     8.3574     8.5553    91.6465   -30.1748
  481.5000     8.1333     8.2521     8.4741    94.7237   -29.0142
  482.0000     8.0467     8.1480     8.3630    97.7627   -31.0182
  482.5000     7.9610     8.0453     8.2534    99.9479   -28.4710
  483.0000     7.7611     7.9399     8.1452   100.7583   -27.6842
  483.5000     7.4740     7.6852     8.0143   101.6109   -24.1381
  484.0000     7.2325     7.3687     8.0271   102.4615   -25.4743
  484.5000     7.0988     7.3003     8.0494   102.0875   -25.2992
  485.0000     7.0516     7.2970     8.0717   100.6386   -26.6220
  485.5000     7.0328     7.4800     8.0895    99.1995   -29.7566
  486.0000     7.6331     7.9366     8.4364    97.7584   -27.3242
  486.5000     8.2086     8.4245     8.7946    96.3100   -24.7588
  487.0000     8.7982     8.9411     9.1680    94.9547   -25.1706
  487.5000     9.0311     9.2400     9.3505    94.4818   -27.1501
