~VERSION INFORMATION
 VERS.                2.0:   CWLS LOG ASCII STANDARD - VERSION 2.0
 WRAP.                 NO:   ONE LINE PER DEPTH STEP
~WELL INFORMATION
#MNEM.UNIT      DATA TYPE    INFORMATION
#----------   ------------   ------------------------------
 STRT.F           14.0000:   START DEPTH
 STOP.F          632.0000:   STOP DEPTH
 STEP.F            0.5000:   STEP LENGTH
 NULL.          -999.2500:   NO VALUE
 COMP. LAWRENCE/ALLISON INC:   COMPANY
 WELL.    17-61 SX #11-11:   WELL
 FLD .             TEAPOT:   FIELD
 LOC .      S11 T38N R78W:   LOCATION
 CNTY.            NATRONA:   COUNTY
 STAT.            WYOMING:   STATE
 CTRY. UNITED STATES OF AMERICA:   COUNTRY
 SRVC.           Gearhart:   SERVICE COMPANY
 DATE.        12-JUN-1986:   LOGDATE
 API .       490251109800:   API NUMBER
~CURVE INFORMATION
#MNEM.UNIT       API CODE    CURVE DESCRIPTION
#----------   ------------   ------------------------------
 DEPT.F                  :   
 GRR .GAPI   07 310 01 00:   GAMMA RAY FROM RES. LOG.
 ILM .OHMM   07 120 44 00:   INDUCTION LOG MEDIUM
 ILD .OHMM   07 120 46 00:   INDUCTION LOG DEEP
~PARAMETER INFORMATION
#MNEM.UNIT          VALUE    DESCRIPTION
#----------   ------------   ------------------------------
 PD  .                 GL:   PERMANENT DATUM
 EPD .F              5193:   ELEVATION PERMANENT DATUM
 LMF .                 KB:   LOG MEASURED FROM
 DAPD.F                 5:   FEET ABOVE PERMANENT DATUM
 DMF .                 KB:   DRILLING MEASURED FROM
 EKB .F              5198:   KELLING BUSHING
 EGL .F              5193:   GROUND LEVEL
 DATE.            6-12-86:   RUN DATE
 RUN .                  1:   RUN NUMBER
 DD  .F               648:   DEPTH DRILLER
 DL  .F               639:   DEPTH LOGGER
 BLI .F               632:   BOTTOM LOG INTERVAL
 TLI .F                15:   TOP LOG INTERVAL
 CS  .IN            8.625:   CASING SIZE
 CBD .F                42:   CASING BOTTOM DRILLER
 CBL .F                42:   CASING BOTTOM LOGGER
 BS  .IN             7.87:   BIT SIZE
 BSD .F               648:   BIT SIZE AT DEPTH
 DFT .               FOAM:   DRILLING FLUID TYPE
 MSS .               TANK:   MUD SAMPLE SOURCE
 RMS .OHMM           2.02:   RESISTIVITY MUD SAMPLE
 MST .F                65:   MUD SAMPLE TEMPERATURE
 RMB .OHMM           1.84:   RESISTIVITY MUD AT BHT
 BHT .F                72:   BOTTOM HOLE TEMPERATURE
 TCS .HRS            0830:   TIME CURCULATED STOPPED
 TLAB.HRS            1000:   TIME LOGGER AT BOTTOM
 MRT .F                72:   MAXIMUM RECORDED TEMPERATURE
 LUN .               7609:   LOGGING UNIT NUMBER
 LUL .           GILLETTE:   LOGGING UNIT LOCATION
 ENGI.              BAUER:   RECORDING ENGINEER
 WITN.             STRONG:   WITNESSED BY
 CLNT.            A2DTECH:   CLIENT CODE
 ORIG.       2", 5" PRINT:   ORIGIN OF DATA
 UWI .       490251109800:   UNIQUE WELL ID
 DICO. A2D Technologies, Inc.:   DIGITIZING COMPANY
~OTHER INFORMATION
~A   DEPT       GRR       ILM        ILD   
# ...
  105.0000   106.8830     7.9307     8.0988
  105.5000   107.0951     8.1983     8.3908
  106.0000   107.6910     8.4748     8.6933
  106.5000   107.6700     8.7499     8.8483
  107.0000   106.4400     8.7755     8.9167
  107.5000   105.2949     8.8003     8.7816
  108.0000   105.1231     8.8320     8.6313
  108.5000   104.9782     8.7144     8.4827
  109.0000   104.9246     8.4962     8.3369
  109.5000   106.4766     8.2833     8.1937
  110.0000   109.6314     8.0758     8.0529
  110.5000   112.8421     7.8735     7.9144
  111.0000   114.1852     7.6763     7.7788
  111.5000   113.3758     7.4840     7.6433
  112.0000   112.0024     7.3957     7.6059
  112.5000   110.8197     7.4266     7.6059
  113.0000   110.3042     7.4691     7.6238
  113.5000   109.7864     7.5119     7.6726
  114.0000   109.3137     7.5548     7.7218
  114.5000   110.1246     7.5981     7.7713
  115.0000   111.6311     7.6415     7.8211
  115.5000   113.1465     7.6852     7.8712
  116.0000   114.6552     7.7292     7.9217
  116.5000   115.7242     7.7793     7.9725
  117.0000   113.8093     7.8348     8.0236
  117.5000   110.0781     7.8906     8.0750
  118.0000   108.2247     7.9468     8.1267
  118.5000   107.9695     8.0034     8.1788
  119.0000   108.4871     8.0604     8.2313
  119.5000   108.9032     8.1179     8.2840
  120.0000   108.5870     8.1757     8.3371
  120.5000   108.2775     8.2339     8.3907
  121.0000   107.4308     8.2926     8.4444
  121.5000   105.7569     8.3506     8.5081
  122.0000   104.5043     8.2416     8.4164
  122.5000   105.9127     8.1110     8.3064
  123.0000   107.6150     7.9825     8.1975
  123.5000   107.1393     7.8560     8.0901
  124.0000   106.5568     7.7494     7.9842
  124.5000   108.6281     7.7623     7.8796
  125.0000   110.8936     7.6961     7.7762
  125.5000   111.9512     7.6321     7.6774
  126.0000   110.6962     7.5685     7.6773
  126.5000   109.4646     7.5352     7.6861
  127.0000   109.9637     7.5564     7.6945
  127.5000   114.2183     7.5713     7.7028
  128.0000   118.5344     7.5859     7.7112
  128.5000   118.2463     7.6006     7.7196
  129.0000   112.6645     7.6154     7.7281
  129.5000   107.0091     7.6301     7.7365
  130.0000   103.8232     7.6449     7.7449
  130.5000   107.1546     7.6597     7.7533
  131.0000   111.6381     7.6746     7.7618
  131.5000   116.1512     7.6894     7.7703
  132.0000   117.0434     7.7043     7.7787
  132.5000   114.2284     7.7193     7.7872
  133.0000   110.2213     7.7342     7.7957
  133.5000   107.0097     7.7492     7.8043
  134.0000   106.0914     7.7642     7.8127
  134.5000   106.0740     7.7793     7.8195
  135.0000   106.0594     7.7944     7.8955
  135.5000   106.8537     7.8095     7.9782
  136.0000   108.2746     7.8359     8.0617
  136.5000   111.0042     7.9187     8.1461
  137.0000   113.9397     8.0025     8.2213
  137.5000   117.0283     8.0871     8.2825
  138.0000   116.0265     8.1726     8.3442
  138.5000   113.4438     8.2591     8.4064
  139.0000   112.9325     8.3464     8.4691
  139.5000   114.8807     8.4342     8.5322
  140.0000   116.9442     8.5081     8.5958
  140.5000   115.5972     8.5668     8.6598
  141.0000   114.1284     8.6271     8.7243
  141.5000   113.8109     8.6878     8.7894
  142.0000   115.4321     8.7490     8.8549
  142.5000   117.2189     8.8105     8.9208
  143.0000   118.7298     8.8725     8.9873
  143.5000   118.8732     8.9350     9.0543
  144.0000   119.0752     8.9986     9.1657
  144.5000   117.7685     9.1924     9.3880
  145.0000   116.6114     9.3928     9.6156
  145.5000   116.6343     9.5975     9.8488
  146.0000   117.0996     9.7878    10.0876
  146.5000   117.6257     9.8784    10.1889
  147.0000   117.8572     9.9623    10.2296
  147.5000   116.2522    10.0469    10.2841
  148.0000   113.0608    10.1323    10.3633
  148.5000   109.8675    10.2184    10.4431
  149.0000   106.9853    10.3050    10.5235
  149.5000   107.7712    10.3520    10.6045
  150.0000   111.5511    10.3207    10.6462
  150.5000   116.4129    10.2994    10.6026
  151.0000   115.6262    10.2780    10.5690
  151.5000   111.6796    10.2568    10.5354
  152.0000   107.7649    10.2355    10.5020
  152.5000   103.9221    10.2143    10.4687
  153.0000   101.1668    10.1932    10.4355
  153.5000   103.3678    10.1721    10.4024
  154.0000   107.0042    10.1510    10.3694
  154.5000   109.5137    10.1300    10.3365
  155.0000   112.3892    10.1091    10.3037
  155.5000   116.6731    10.0881    10.2710
  156.0000   119.3620    10.0673    10.2384
  156.5000   118.0555    10.0464    10.2059
  157.0000   115.3677    10.0256    10.1735
  157.5000   113.2515    10.0049    10.1413
  158.0000   113.3797     9.9842    10.1091
  158.5000   115.0715     9.9479    10.0771
  159.0000   116.6981     9.8919    10.0617
  159.5000   118.2222     9.8359    10.0552
  160.0000   117.6300     9.7803    10.0486
  160.5000   114.6557     9.7249    10.0420
  161.0000   112.0851     9.6699    10.0355
  161.5000   114.2213     9.6150    10.0290
  162.0000   117.8955     9.6067    10.0224
  162.5000   120.6652     9.6066    10.0159
  163.0000   119.7807     9.6066    10.0094
  163.5000   117.5913     9.6064    10.0029
  164.0000   115.4817     9.6071     9.9964
  164.5000   114.3930     9.5606     9.9899
  165.0000   115.5768     9.5147     9.9836
  165.5000   115.5830     9.4691     9.9766
  166.0000   114.1580     9.4288     9.9337
  166.5000   112.6131     9.3846     9.8113
  167.0000   113.8188     9.3244     9.6904
  167.5000   115.3870     9.2647     9.5711
  168.0000   115.8270     9.1681     9.4532
  168.5000   114.6459     9.0647     9.3367
  169.0000   116.4894     8.9625     9.2217
  169.5000   120.4735     8.7935     9.0138
  170.0000   124.5838     8.5694     8.8117
  170.5000   128.6899     8.3509     8.6140
  171.0000   127.8787     8.1380     8.4209
  171.5000   123.9667     7.9306     8.2320
  172.0000   121.1823     7.7494     8.0474
  172.5000   120.8418     7.7494     7.8669
  173.0000   121.2380     7.7494     7.8221
  173.5000   121.6318     7.7884     7.9522
  174.0000   122.1579     7.8892     8.0882
  174.5000   122.9867     7.9913     8.2266
  175.0000   123.8118     8.1211     8.3673
  175.5000   124.6356     8.2816     8.5104
  176.0000   125.4323     8.4454     8.6559
  176.5000   126.4836     8.6124     8.8040
  177.0000   127.5438     8.7830     8.9546
  177.5000   128.6502     8.9565     9.1077
  178.0000   127.5738     9.0830     9.2635
  178.5000   124.6216     9.0091     9.3412
  179.0000   119.7379     8.9520     9.2430
  179.5000   116.3690     8.8952     9.1563
  180.0000   116.6796     8.8387     9.0703
  180.5000   115.7480     8.7826     8.9852
  181.0000   112.3728     8.7269     8.9008
  181.5000   106.4982     8.6715     8.8173
  182.0000   101.8013     8.6165     8.7345
  182.5000    99.9652     8.5618     8.6525
  183.0000    99.5717     8.5081     8.5880
  183.5000   100.3424     8.5944     8.6978
  184.0000   101.7262     8.6805     8.7899
  184.5000   105.9021     8.7675     8.8832
  185.0000   112.1154     8.8554     8.9774
  185.5000   114.9054     8.9441     9.0730
  186.0000   116.8999     8.9986     9.1683
  186.5000   118.8323     8.9712     9.1507
  187.0000   122.5407     8.9516     9.1223
  187.5000   126.9305     8.9320     9.0940
  188.0000   128.8213     8.9124     9.0658
  188.5000   123.3991     8.8929     9.0376
  189.0000   117.2066     8.8735     9.0095
  189.5000   116.5574     8.8541     8.9816
  190.0000   115.3836     8.8317     8.9537
  190.5000   113.7433     8.8399     8.9259
  191.0000   111.3028     8.8554     8.8982
  191.5000   111.1271     8.8712     8.8705
  192.0000   115.5054     8.8870     8.8430
  192.5000   119.9513     8.9029     8.8321
  193.0000   120.9605     8.9152     8.8320
  193.5000   119.6106     8.9149     8.8320
  194.0000   118.1930     8.9149     8.8322
  194.5000   116.7770     8.9136     8.8150
  195.0000   117.0330     8.9169     8.7646
  195.5000   118.4948     8.9049     8.7144
