~VERSION INFORMATION
 VERS.                2.0:   CWLS LOG ASCII STANDARD - VERSION 2.0
 WRAP.                 NO:   ONE LINE PER DEPTH STEP
~WELL INFORMATION
#MNEM.UNIT      DATA TYPE    INFORMATION
#----------   ------------   ------------------------------
 STRT.F           35.0000:   START DEPTH
 STOP.F          736.0000:   STOP DEPTH
 STEP.F            0.5000:   STEP LENGTH
 NULL.          -999.2500:   NO VALUE
 COMP. US DEPTMNT OF ENRGY:   COMPANY
 WELL.       NPR 3 #73-15:   WELL
 FLD .   TEAPOT NAVAL RES:   FIELD
 LOC .      S15 T38N R78W:   LOCATION
 CNTY.            NATRONA:   COUNTY
 STAT.            WYOMING:   STATE
 CTRY. UNITED STATES OF AMERICA:   COUNTRY
 SRVC.           Gearhart:   SERVICE COMPANY
 DATE.        02-SEP-1987:   LOGDATE
 API .       490251122300:   API NUMBER
~CURVE INFORMATION
#MNEM.UNIT       API CODE    CURVE DESCRIPTION
#----------   ------------   ------------------------------
 DEPT.F                  :   
 GRR .GAPI   07 310 01 00:   GAMMA RAY
 RILD.OHMM   07 120 46 00:   INDUCTION LOG DEEP RESISTIVITY
 RILM.OHMM   07 120 44 00:   INDUCTION LOG MEDIUM RESISTIVITY
~PARAMETER INFORMATION
#MNEM.UNIT          VALUE    DESCRIPTION
#----------   ------------   ------------------------------
 PD  .                 GL:   PERMANENT DATUM
 LMF .                 KB:   LOG MEASURED FROM
 DAPD.F              10.5:   FEET ABOVE PERMANENT DATUM
 DMF .                 KB:   DRILLING MEASURED FROM
 DATE.        02-SEP-1987:   RUN DATE
 RUN .                  1:   RUN NUMBER
 DD  .F               740:   DEPTH DRILLER
 DL  .F               743:   DEPTH LOGGER
 BLI .F               735:   BOTTOM LOG INTERVAL
 TLI .F                30:   TOP LOG INTERVAL
 CS  .IN            9.625:   CASING SIZE
 CBD .F               740:   CASING BOTTOM DRILLER
 CBL .F                40:   CASING BOTTOM LOGGER
 BS  .IN             8.75:   BIT SIZE
 BSD .F               740:   BIT SIZE AT DEPTH
 DFT .                AIR:   DRILLING FLUID TYPE
 TCS .HRS            0230:   TIME CURCULATED STOPPED
 TLAB.HRS            0447:   TIME LOGGER AT BOTTOM
 MRT .F                80:   MAXIMUM RECORDED TEMPERATURE
 LUN .               7697:   LOGGING UNIT NUMBER
 LUL .           GILLETTE:   LOGGING UNIT LOCATION
 ENGI.         WEATHERMON:   RECORDING ENGINEER
 WITN.             STRONG:   WITNESSED BY
 CLNT.            A2DTECH:   CLIENT CODE
 ORIG.           5" PRINT:   ORIGIN OF DATA
 UWI .       490251122300:   UNIQUE WELL ID
 DICO. A2D Technologies, Inc.:   DIGITIZING COMPANY
~OTHER INFORMATION
~A   DEPT       GRR      RILD       RILM   
# ...
  217.0000   120.1692     7.5336     6.9626
  217.5000   117.9767     7.5368     6.9167
  218.0000   116.1938     7.5399     6.9223
  218.5000   116.5257     7.5454     6.9763
  219.0000   116.8575     7.5988     7.1196
  219.5000   115.8580     7.6556     7.2721
  220.0000   112.3927     7.7122     7.4279
  220.5000   111.2065     7.7691     7.5870
  221.0000   110.3299     7.8811     7.6959
  221.5000   110.3671     8.0505     7.8063
  222.0000   110.6989     8.1665     8.0291
  222.5000   111.3329     8.2269     8.2011
  223.0000   112.5711     8.2877     8.2611
  223.5000   113.1976     8.4071     8.2640
  224.0000   112.0264     8.4692     8.2668
  224.5000   112.3582     8.5318     8.2123
  225.0000   113.2943     8.5948     8.2724
  225.5000   115.1367     8.5984     8.4497
  226.0000   117.5834     8.6620     8.5116
  226.5000   116.7068     8.5467     8.5745
  227.0000   116.1067     8.4909     8.5181
  227.5000   115.4683     8.4356     8.4033
  228.0000   112.8759     8.3797     8.2901
  228.5000   111.9919     8.2683     8.2348
  229.0000   112.0291     8.2143     8.1239
  229.5000   112.3609     8.1034     8.0145
  230.0000   112.9949     7.9956     7.9072
  230.5000   113.6289     7.9435     7.8000
  231.0000   114.5650     7.9468     7.6417
  231.5000   115.8032     7.9500     7.5919
  232.0000   117.3435     8.0088     7.4897
  232.5000   119.4880     8.0121     7.3889
  233.0000   120.4241     8.0714     7.3402
  233.5000   119.2447     8.0754     7.3940
  234.0000   117.1603     8.0787     7.3971
  234.5000   114.7623     8.0820     7.4512
  235.0000   113.2628     8.0853     7.4538
  235.5000   111.4119     8.0886     7.5083
  236.0000   110.6328     8.0919     7.5109
  236.5000   110.9720     8.0952     7.5135
  237.0000   111.6060     8.0985     7.5685
  237.5000   112.5421     8.1019     7.6239
  238.0000   113.7803     8.1617     7.6797
  238.5000   115.0185     8.2220     7.7359
  239.0000   116.2567     8.2254     7.8468
  239.5000   118.4012     8.2289     7.9043
  240.0000   119.0278     8.2330     7.8522
  240.5000   118.4533     8.2938     7.8549
  241.0000   120.0010     8.3551     7.8577
  241.5000   121.5414     8.4168     7.8609
  242.0000   124.5922     8.5977     7.8636
  242.5000   124.6220     8.6612     7.9212
  243.0000   122.7715     8.7860     7.9792
  243.5000   120.9506     8.8510     8.0936
  244.0000   119.5827     8.8546     8.1529
  244.5000   118.1019     8.9200     8.3275
  245.0000   117.2253     8.9859     8.4470
  245.5000   116.9454     8.9900     8.6280
  246.0000   118.7953     9.0561     8.8128
  246.5000   120.9398     9.1230     8.9392
  247.0000   121.8685     9.2553     9.0046
  247.5000   120.3951     9.3888     9.0077
  248.0000   120.1153     9.5241     8.8864
  248.5000   120.7567     9.6614     8.8279
  249.0000   121.6928     9.8007     8.8316
  249.5000   123.2331     9.8047     8.8963
  250.0000   128.0992     9.7397     9.0240
  250.5000   129.6394     9.8127     9.4122
  251.0000   128.4605     9.8852     9.7490
  251.5000   126.0733     9.9582    10.0280
  252.0000   118.5500    10.1055    10.2435
  252.5000   114.6072    10.3297    10.2476
  253.0000   111.8872    10.6891    10.1808
  253.5000   111.0861    10.9950    10.1849
  254.0000   112.6337    11.2313    10.1892
  254.5000   116.5884    11.3931    10.1934
  255.0000   116.9202    11.4773    10.2696
  255.5000   113.9287    11.4819    10.4903
  256.0000   113.6315    11.5667    10.8657
  256.5000   114.5922    11.5715    11.2546
  257.0000   114.9239    11.5762    11.5766
  257.5000   112.7492    11.5810    11.7435
  258.0000   109.8473    11.8309    11.7483
  258.5000   111.3949    11.6712    11.6715
  259.0000   115.3520    11.4361    11.5141
  259.5000   119.0070    11.2035    11.3526
  260.0000   120.5473    10.9779    11.0549
  260.5000   120.2674    10.7557    10.8301
  261.0000   119.7002    10.6115    10.8356
  261.5000   120.0320    10.6899    10.8400
  262.0000   120.6658    10.7689    10.9201
  262.5000   120.0913    10.7733    10.9245
  263.0000   118.0061    10.8667    11.0052
  263.5000   115.5771    11.0104    11.0865
  264.0000   113.8358    11.0148    11.0142
  264.5000   114.4771    11.0193    11.0187
  265.0000   114.2046    11.0238    11.0233
  265.5000   112.7237    11.0283    11.0288
  266.0000   104.5962    10.9553    11.0333
  266.5000   103.4100    10.8094    10.9602
  267.0000   104.0513    10.5907    10.8144
  267.5000   107.4042    10.4488    10.6684
  268.0000   112.5698    10.3702    10.5264
  268.5000   116.5269    10.2425    10.3134
  269.0000   118.9735    10.2467    10.1047
  269.5000   119.3052    10.1788    10.0387
  270.0000   119.6375    10.0434    10.0429
  270.5000   119.9698     9.9775    10.0471
  271.0000   120.3079     9.8441     9.9814
  271.5000   120.6397     9.8482     9.9865
  272.0000   121.8778     9.8522     9.9900
  272.5000   124.0222     9.8562     9.9947
  273.0000   125.5624     9.8603     9.9285
  273.5000   127.1026     9.7969     9.9335
  274.0000   129.5492     9.5321     9.6651
  274.5000   128.0683     9.3382     9.4694
  275.0000   125.6810     9.1492     9.2778
  275.5000   123.5958     8.9650     9.0271
  276.0000   125.4382     8.8439     8.7840
  276.5000   128.2448     8.7254     8.3702
  277.0000   131.1058     8.7298     8.0876
  277.5000   136.4106     8.7334     7.8690
  278.0000   138.8498     8.7370     7.8169
  278.5000   136.1678     8.8016     7.8755
  279.0000   133.7805     8.8674     7.9336
  279.5000   130.7890     8.8710     8.1041
  280.0000   126.8912     8.9365     8.3360
  280.5000   122.9933     9.0653     8.6360
  281.0000   120.3039     9.1959     8.8889
  281.5000   117.9167     9.5250     9.2644
  282.0000   116.1336     9.7297     9.5959
  282.5000   114.3506     9.8016     9.5998
  283.0000   112.8520     9.7377     9.6038
  283.5000   111.9929     9.6741     9.4750
  284.0000   111.4258     9.4793     9.4123
  284.5000   110.5491     9.4165     9.3509
  285.0000   109.9698     9.2912     9.2264
  285.5000   110.9105     9.2297     9.1663
  286.0000   112.7528     9.1695     9.1065
  286.5000   116.1057     9.1742     9.1011
  287.0000   121.8755     9.2419     9.1149
  287.5000   117.0713     9.3751     9.1186
  288.0000   115.2883     9.7107     9.1223
  288.5000   117.1306     9.8507     9.1260
  289.0000   120.7856     9.9244     9.1297
  289.5000   126.9094     9.8596     9.2613
  290.0000   124.1490     9.8636     9.3948
  290.5000   117.5587     9.8677     9.5967
  291.0000   117.8905     9.8717     9.7350
  291.5000   119.1286     9.8757     9.9498
  292.0000   120.3667     9.8797    10.0178
  292.5000   120.9931     9.8838    10.0927
  293.0000   119.5196     9.8878    10.0968
  293.5000   119.5493     9.8919    10.0299
  294.0000   119.2694     9.8960    10.0350
  294.5000   117.4938     9.9009     9.9696
  295.0000   115.7107     9.9049     9.9736
  295.5000   112.1150     9.9089     9.9777
  296.0000   110.6183     9.9130     9.9818
  296.5000   111.0060     9.9170     9.9858
  297.0000   113.4198     9.9211     9.9900
  297.5000   116.4706     9.9251     9.9950
  298.0000   124.0531     9.9291     9.9991
  298.5000   123.1764    10.0025    10.0729
  299.0000   120.7891    10.0765    10.0770
  299.5000   118.4018    10.0815    10.1515
  300.0000   117.8198     9.9459     9.9873
  300.5000   118.4611     9.9486     9.8747
  301.0000   118.7928     9.8817     9.6583
  301.5000   120.0308     9.8851     9.2881
  302.0000   123.0816     9.8878     8.8500
  302.5000   126.1323     9.8905     8.6703
  303.0000   124.6022     9.8247     8.4935
  303.5000   123.4799     9.8275     8.5564
  304.0000   123.8116     9.8993     8.8007
  304.5000   126.5602     9.8327     9.1150
  305.0000   124.4750     9.8361     9.4406
  305.5000   121.4834     9.7699     9.7778
  306.0000   117.5855     9.7049     9.9181
  306.5000   116.3993     9.8441     9.9907
  307.0000   116.4363     9.9155    10.0025
  307.5000   117.6743     9.9874     9.9975
