~VERSION INFORMATION
 VERS.                2.0:   CWLS LOG ASCII STANDARD - VERSION 2.0
 WRAP.                 NO:   ONE LINE PER DEPTH STEP
~WELL INFORMATION
#MNEM.UNIT      DATA TYPE    INFORMATION
#----------   ------------   ------------------------------
 STRT.F           30.0000:   START DEPTH
 STOP.F         2423.0000:   STOP DEPTH
 STEP.F            0.5000:   STEP LENGTH
 NULL.          -999.2500:   NO VALUE
 COMP. DEPARTMENT OF ENERGY:   COMPANY
 WELL.   NPR-3 #35-1 X 10:   WELL
 FLD .        TEAPOT DOME:   FIELD
 LOC .      S10 T38N R78W:   LOCATION
 CNTY.            NATRONA:   COUNTY
 STAT.            WYOMING:   STATE
 CTRY. UNITED STATES OF AMERICA:   COUNTRY
 SRVC.       Schlumberger:   SERVICE COMPANY
 DATE.        15-JAN-1999:   LOGDATE
 API .       490252282200:   API NUMBER
~CURVE INFORMATION
#MNEM.UNIT       API CODE    CURVE DESCRIPTION
#----------   ------------   ------------------------------
 DEPT.F                  :   
 GRR .GAPI   06 310 01 00:   GAMMA RAY FROM RESISTIVITY
 SPR .MV     06 010 01 00:   SPONTANEOUS POTENTIAL FROM RES.
 HD  .IN     06 280 01 00:   HOLE DIAMETER
 AT90.OHMM   06 120 90 00:   90-IN. RESISTIVITY, 2-FT RESOLUTION
 AT30.OHMM   06 120 30 00:   30-IN. RESISTIVITY, 2-FT RESOLUTION
 AT10.OHMM   06 120 10 00:   10-IN. RESISTIVITY, 2-FT RESOLUTION
~PARAMETER INFORMATION
#MNEM.UNIT          VALUE    DESCRIPTION
#----------   ------------   ------------------------------
 PD  .                 GL:   PERMANENT DATUM
 EPD .F              5228:   ELEVATION PERMANENT DATUM
 LMF .                 KB:   LOG MEASURED FROM
 DAPD.F                10:   FEET ABOVE PERMANENT DATUM
 DMF .                 KB:   DRILLING MEASURED FROM
 EKB .F              5238:   KELLING BUSHING
 EDF .F              5237:   DRILLING FLOOR
 EGL .F              5228:   GROUND LEVEL
 DATE.        15-JAN-1999:   RUN DATE
 RUN .                  1:   RUN NUMBER
 DD  .F              2400:   DEPTH DRILLER
 DL  .F              2421:   DEPTH LOGGER
 BLI .F              2393:   BOTTOM LOG INTERVAL
 TLI .F                30:   TOP LOG INTERVAL
 CS  .IN            9.625:   CASING SIZE
 CBD .F               778:   CASING BOTTOM DRILLER
 CBL .F               773:   CASING BOTTOM LOGGER
 BS  .IN              8.5:   BIT SIZE
 BSD .F              2400:   BIT SIZE AT DEPTH
 DFT .            GEL/KCL:   DRILLING FLUID TYPE
 DFD .                8.9:   DRILLING FLUID DENSITY
 DFV .                 39:   DRILLING FLUID VISCOSITY
 DFPH.                  9:   DRILLING FLUID PH
 DFL .                8.8:   DRILLING FLUID LOSS
 MSS .            MUD PIT:   MUD SAMPLE SOURCE
 RMS .OHMM            .29:   RESISTIVITY MUD SAMPLE
 MST .F                65:   MUD SAMPLE TEMPERATURE
 RMF .OHMM            .22:   RESISTIVITY MUD FILTRATE SAMPLE
 MFST.F                65:   MUD FILTRATE SAMPLE TEMPERATURE
 RMC .OHMM            .43:   RESISTIVITY MUD CAKE
 MCST.F                65:   MUD CAKE SAMPLE TEMPERATURE
 MFSS.          MUD PRESS:   MUD FILTRATE SAMPLE SOURCE
 MCSS.         CALCULATED:   MUD CAKE SAMPLE SOURCE
 RMB .OHMM           .195:   RESISTIVITY MUD AT BHT
 BHT .F               100:   BOTTOM HOLE TEMPERATURE
 TCS .HRS            2015:   TIME CURCULATED STOPPED
 TLAB.HRS            2315:   TIME LOGGER AT BOTTOM
 MRT .F               100:   MAXIMUM RECORDED TEMPERATURE
 LUN .               2102:   LOGGING UNIT NUMBER
 LUL .             CASPER:   LOGGING UNIT LOCATION
 ENGI.    TISOVEC/PIERSON:   RECORDING ENGINEER
 WITN.           ESMERSON:   WITNESSED BY
 CLNT.            A2DTECH:   CLIENT CODE
 ORIG.       2", 5" PRINT:   ORIGIN OF DATA
 UWI .       490252282200:   UNIQUE WELL ID
 DICO. A2D Technologies, Inc.:   DIGITIZING COMPANY
~OTHER INFORMATION
~A   DEPT       GRR       SPR         HD       AT90       AT30       AT10   
# ...
 1174.0000   124.7419     0.2005     8.8514     7.8721     7.3326     4.6681
 1174.5000   120.7225     0.1776     8.8551     7.2099     6.8196     5.7406
 1175.0000   116.7472     0.1528     8.8582     9.5230     8.3633     7.0169
 1175.5000   116.7676     0.1290     8.8570     9.0366     8.2056     6.9250
 1176.0000   117.9345     0.1018     8.8553     8.3764     7.7376     6.8387
 1176.5000   119.2204     0.0620     8.8536     7.7645     7.2963     6.9301
 1177.0000   121.5108     0.0160     8.8520     7.0120     6.8196     5.5965
 1177.5000   124.3007    -0.0290     8.8503     7.5133     6.8832     5.9471
 1178.0000   126.5261    -0.0744     8.8486     9.8830     8.5993     6.9903
 1178.5000   125.0908    -0.1196     8.8469     9.0823     8.2371     8.0326
 1179.0000   120.1690    -0.1650     8.8452     7.7507     7.2571     6.1491
 1179.5000   113.3791    -0.2104     8.8436     7.2099     6.5712     5.1283
 1180.0000   109.3836    -0.2550     8.8417     8.6795     7.1732     6.6678
 1180.5000   112.1302    -0.3113     8.8404     8.4372     7.7652     7.4133
 1181.0000   117.4923    -0.4781     8.8387     7.9527     7.4367     6.4551
 1181.5000   121.1936    -0.6581     8.8539     7.4824     7.0120     5.6649
 1182.0000   121.9487    -0.8429     8.8713     7.9843     7.1440     6.7345
 1182.5000   122.0207    -1.0144     8.8979     7.6781     7.3449     7.2099
 1183.0000   121.7319    -1.2185     8.9328     7.0026     6.8408     6.5489
 1183.5000   120.2038    -1.3062     8.9626     6.4504     6.0450     6.0570
 1184.0000   115.5489    -1.1139     8.9958     6.3319     6.1535     5.6649
 1184.5000   111.8768    -0.9541     8.9799     6.5151     6.3385     6.0555
 1185.0000   112.5187    -0.7802     8.9522     6.7629     6.9541     6.4193
 1185.5000   116.8353    -0.6133     8.9260     7.1433     7.8843     6.6325
 1186.0000   123.0674    -0.4484     8.8997     8.6795     8.3428     6.4504
 1186.5000   125.8803    -0.2524     8.8898     8.5160     7.8549     6.9473
 1187.0000   125.3937     0.3189     8.8824     8.0196     7.4297     6.4440
 1187.5000   122.9348     0.8181     8.8764     7.5521     7.0237     5.6126
 1188.0000   120.3245     1.3991     8.8918     7.2099     6.4504     5.4082
 1188.5000   117.0077     1.8224     8.9450     7.3616     6.5099     5.9891
 1189.0000   112.9714     2.0189     9.1068     7.4875     6.7414     5.8820
 1189.5000   109.0024     2.2738     9.5460     7.6225     6.9473     3.8780
 1190.0000   108.1008     2.5050    10.0781     7.1202     5.1631     1.7605
 1190.5000   113.0275     2.7199     9.9326     6.6325     5.4990     3.2763
 1191.0000   118.1740     2.7167     9.7035     7.8460     6.4335     6.7566
 1191.5000   119.6482     2.5685     9.4842    14.7265     8.1338     7.2099
 1192.0000   115.4385     2.4181    10.2449     9.7013     7.0989     5.7236
 1192.5000   111.3013     2.2676    11.1417     9.9473     5.4156     3.6261
 1193.0000   110.8032     2.1189    11.4838    10.5459     4.5887     2.0998
 1193.5000   112.2940     1.9708    11.3469     8.2861     5.4262     2.1194
 1194.0000   112.1607     1.8864    10.3109     9.7013     7.2308     4.4753
 1194.5000   110.1723     1.8260     9.3662    18.5697    10.4483     9.8830
 1195.0000   108.2892     1.7615     9.5574    13.6353     9.0470     7.8707
 1195.5000   108.3919     1.6987     9.8869     8.7603     6.5001     5.0854
 1196.0000   110.9951     1.6358     9.7530     8.8391     6.5175     3.8729
 1196.5000   112.9464     1.5712     9.4270     7.2572     6.7666    11.3582
 1197.0000   113.3102     1.5187     9.1657     7.3180     6.9519     9.5690
 1197.5000   113.7272     1.5137     9.2277     7.5588     6.8265     5.2112
 1198.0000   113.9846     1.5130     9.3382     7.5399     6.5649     5.4129
 1198.5000   114.4510     1.4564     9.2632     7.4859     6.6921     6.4504
 1199.0000   112.9502     1.3829     8.9913     7.4461     7.0162     6.3868
 1199.5000   110.3987     1.3010     8.8033     7.3998     6.8751     6.2734
 1200.0000   105.7852     1.2411     8.8189     8.4739     6.8832     6.9789
 1200.5000   104.3761     1.1339     8.8220     9.7013     7.5951     7.6225
 1201.0000   106.3996     1.2837     8.8175     8.6700     8.0587     5.7193
 1201.5000   108.9053     1.8391     8.8167     8.1338     7.2099     6.1562
 1202.0000   112.0109     2.3605     8.8184     8.9768     7.5597     7.3449
 1202.5000   113.2603     2.9125     8.8178     9.4351     8.0587     7.4824
 1203.0000   113.5930     3.4378     8.8184     7.9356     7.2855     4.7939
 1203.5000   111.9264     3.9395     8.8190     6.9473     6.4187     5.1722
 1204.0000   108.1194     3.7000     8.8288     7.1433     6.8289     6.1075
 1204.5000   105.7180     3.1071     8.8338     9.9750     7.7478     7.5521
 1205.0000   106.4826     2.5568     8.7685     9.7666     7.7344     7.1832
 1205.5000   108.1567     1.9897     8.6895     9.4853     7.8110     6.5106
 1206.0000   109.7790     1.3945     8.6113     9.2617     7.8931     7.1354
 1206.5000   110.0704     1.2485     8.5407     9.7972     8.5344     7.8463
 1207.0000   109.3053     0.7154     8.5315    10.0680     9.5664     8.6281
 1207.5000   108.9713     0.0923     8.5285    10.8717    10.1165     9.7917
 1208.0000   109.3149    -0.1392     8.5246    11.8974    10.7608     9.2035
 1208.5000   107.2693    -0.1404     8.5210     9.5879     8.4254     7.6112
 1209.0000   104.2358    -0.1782     8.5170     8.0587     7.5669     6.4504
 1209.5000   102.4226    -0.1975     8.5148     8.5237     7.9753     7.1384
 1210.0000   100.4302    -0.2269     8.5152     9.1966     8.5593     7.9569
 1210.5000    99.7300    -0.2514     8.5151    10.0680     9.1817     8.6795
 1211.0000   100.5273    -0.2766     8.5152    10.0680     9.6936     8.5993
 1211.5000   103.5090    -0.3119     8.5151    10.0680     9.6172     8.9243
 1212.0000   106.7514    -0.4507     8.5152    10.0680     9.5489     8.7626
 1212.5000   107.8779    -0.5884     8.5151    10.0680     9.4351     8.1338
 1213.0000   106.2525    -0.7375     8.5152    10.0680     9.5062     8.5779
 1213.5000   103.3667    -0.8583     8.5152    10.0680     9.7347     9.7013
 1214.0000   101.3785    -1.0414     8.5152    10.7434    10.0680     9.1592
 1214.5000   101.4631    -1.3169     8.5152    10.5479     9.9642     8.0587
 1215.0000   102.9641    -1.5677     8.5152    10.1618     9.7917     8.8724
 1215.5000   104.6949    -1.8355     8.5152    10.4486    10.0585     9.4187
 1216.0000   102.6300    -2.0870     8.5152    10.4000    10.0419     8.1660
 1216.5000    97.5326    -2.1980     8.5152    10.1618     9.8781     8.5270
 1217.0000    95.3796    -2.3132     8.5152    10.3663     9.9257     9.6411
 1217.5000    94.9000    -2.3702     8.5152    10.6766     9.9804     9.2864
 1218.0000    95.5121    -2.4629     8.5152    10.5423    10.0642     8.9171
 1218.5000    98.0844    -2.4832     8.5152    10.2786    10.0060     9.0096
 1219.0000   102.9927    -2.1830     8.5152     9.9750     9.8343     8.8638
 1219.5000   106.3935    -1.9286     8.5152     9.9750     9.7013     8.4413
 1220.0000   109.4213    -1.6875     8.5152    10.2328     9.9264     8.6233
 1220.5000   111.9206    -1.4273     8.5152    10.9445    10.1489     9.1762
 1221.0000   114.5658    -1.2900     8.5152    10.8473    10.3521     9.0763
 1221.5000   117.0474    -1.2708     8.5152    10.4486    10.0680     8.8420
 1222.0000   119.3443    -1.2273     8.5152    10.6458    10.2133     9.0077
 1222.5000   117.8774    -1.1958     8.5152    10.9188    10.4863     9.6117
 1223.0000   112.9361    -1.1582     8.5152    11.2663    10.7667     9.6117
 1223.5000   108.5317    -1.1234     8.5152    11.2392    11.0465     9.3356
 1224.0000   108.2877    -1.0875     8.5152    11.2739    11.0465     9.1075
 1224.5000   110.3984    -1.0514     8.5151    11.7506    11.0465     9.7745
 1225.0000   110.5372    -1.0164     8.5152    12.6675    11.9954    11.5775
 1225.5000   108.4163    -0.9794     8.5151    13.9303    13.4220    11.4942
