~VERSION INFORMATION
 VERS.                2.0:   CWLS LOG ASCII STANDARD - VERSION 2.0
 WRAP.                 NO:   ONE LINE PER DEPTH STEP
~WELL INFORMATION
#MNEM.UNIT      DATA TYPE    INFORMATION
#----------   ------------   ------------------------------
 STRT.F           10.0000:   START DEPTH
 STOP.F         2599.5000:   STOP DEPTH
 STEP.F            0.5000:   STEP LENGTH
 NULL.          -999.2500:   NO VALUE
 COMP. FENIX & SCISSON INC:   COMPANY
 WELL.   34-SHX-33 #34-33:   WELL
 FLD .             TEAPOT:   FIELD
 LOC .      S33 T39N R78W:   LOCATION
 CNTY.            NATRONA:   COUNTY
 STAT.            WYOMING:   STATE
 CTRY. UNITED STATES OF AMERICA:   COUNTRY
 SRVC.           BIRDWELL:   SERVICE COMPANY
 DATE.        20-FEB-1978:   LOGDATE
 API .       490251058400:   API NUMBER
~CURVE INFORMATION
#MNEM.UNIT       API CODE    CURVE DESCRIPTION
#----------   ------------   ------------------------------
 DEPT.F                  :   
 GR  .GAPI   30 310 01 00:   GAMMA RAY
 CALI.IN     70 280 01 00:   CALIPER
~PARAMETER INFORMATION
#MNEM.UNIT          VALUE    DESCRIPTION
#----------   ------------   ------------------------------
 PD  .                 GL:   PERMANENT DATUM
 EPD .F              5174:   ELEVATION PERMANENT DATUM
 LMF .                 KB:   LOG MEASURED FROM
 DAPD.F                10:   FEET ABOVE PERMANENT DATUM
 DMF .                 KB:   DRILLING MEASURED FROM
 EKB .F              5184:   KELLING BUSHING
 EGL .F              5174:   GROUND LEVEL
 DATE.            2-20-78:   RUN DATE
 RUN .                  1:   RUN NUMBER
 DD  .F              2590:   DEPTH DRILLER
 DL  .F              2600:   DEPTH LOGGER
 BLI .F              2600:   BOTTOM LOG INTERVAL
 CS  .IN            8.625:   CASING SIZE
 CBD .F               737:   CASING BOTTOM DRILLER
 BS  .IN            8.625:   BIT SIZE
 BSD .F              2590:   BIT SIZE AT DEPTH
 TCS .HRS               2:   TIME CURCULATED STOPPED
 LUL .             CASPER:   LOGGING UNIT LOCATION
 ENGI.             MILLER:   RECORDING ENGINEER
 WITN.           MCGINLEY:   WITNESSED BY
 CLNT.            A2DTECH:   CLIENT CODE
 ORIG.           5" PRINT:   ORIGIN OF DATA
 UWI .       490251058400:   UNIQUE WELL ID
 DICO. A2D Technologies, Inc.:   DIGITIZING COMPANY
~OTHER INFORMATION
~A   DEPT        GR      CALI   
# ...
  131.5000    84.6702  -999.2500
  132.0000    86.2473  -999.2500
  132.5000    89.0423  -999.2500
  133.0000    91.5731  -999.2500
  133.5000    89.9505  -999.2500
  134.0000    87.8193  -999.2500
  134.5000    86.0876  -999.2500
  135.0000    86.1594  -999.2500
  135.5000    87.9105  -999.2500
  136.0000    92.5360  -999.2500
  136.5000    94.9646  -999.2500
  137.0000    91.8612  -999.2500
  137.5000    86.3919  -999.2500
  138.0000    80.2362  -999.2500
  138.5000    74.8537  -999.2500
  139.0000    77.5143  -999.2500
  139.5000    82.9082  -999.2500
  140.0000    87.6442  -999.2500
  140.5000    86.8048  -999.2500
  141.0000    87.0813  -999.2500
  141.5000    88.1687  -999.2500
  142.0000    87.5713  -999.2500
  142.5000    83.6061  -999.2500
  143.0000    80.9755  -999.2500
  143.5000    80.7777  -999.2500
  144.0000    80.5540  -999.2500
  144.5000    83.1625  -999.2500
  145.0000    85.3523  -999.2500
  145.5000    83.3819  -999.2500
  146.0000    82.5338  -999.2500
  146.5000    83.5395  -999.2500
  147.0000    84.5123  -999.2500
  147.5000    85.5108  -999.2500
  148.0000    85.2752  -999.2500
  148.5000    84.5485  -999.2500
  149.0000    83.8823  -999.2500
  149.5000    83.0945  -999.2500
  150.0000    80.8010  -999.2500
  150.5000    80.2835  -999.2500
  151.0000    81.7953  -999.2500
  151.5000    84.5798  -999.2500
  152.0000    88.5164  -999.2500
  152.5000    88.1204  -999.2500
  153.0000    84.5948  -999.2500
  153.5000    83.7620  -999.2500
  154.0000    85.5206  -999.2500
  154.5000    87.0402  -999.2500
  155.0000    86.5284  -999.2500
  155.5000    84.5743  -999.2500
  156.0000    82.6075  -999.2500
  156.5000    81.7906  -999.2500
  157.0000    81.7937  -999.2500
  157.5000    82.5018  -999.2500
  158.0000    84.6232  -999.2500
  158.5000    86.7241  -999.2500
  159.0000    87.9448  -999.2500
  159.5000    88.3848  -999.2500
  160.0000    88.8256  -999.2500
  160.5000    89.2538  -999.2500
  161.0000    89.4434  -999.2500
  161.5000    89.6379  -999.2500
  162.0000    89.8317  -999.2500
  162.5000    90.0439  -999.2500
  163.0000    89.5504  -999.2500
  163.5000    88.7634  -999.2500
  164.0000    92.5130  -999.2500
  164.5000    96.8458  -999.2500
  165.0000    96.9164  -999.2500
  165.5000    95.0980  -999.2500
  166.0000    91.5687  -999.2500
  166.5000    90.1081  -999.2500
  167.0000    90.0882  -999.2500
  167.5000    88.3953  -999.2500
  168.0000    84.6447  -999.2500
  168.5000    84.1981  -999.2500
  169.0000    85.6227  -999.2500
  169.5000    87.0313  -999.2500
  170.0000    87.6863  -999.2500
  170.5000    85.2213  -999.2500
  171.0000    82.2085  -999.2500
  171.5000    80.2383  -999.2500
  172.0000    79.8116  -999.2500
  172.5000    80.8150  -999.2500
  173.0000    81.9929  -999.2500
  173.5000    81.9394  -999.2500
  174.0000    81.5812  -999.2500
  174.5000    81.2233  -999.2500
  175.0000    81.7260  -999.2500
  175.5000    83.5815  -999.2500
  176.0000    85.3986  -999.2500
  176.5000    86.9838  -999.2500
  177.0000    86.9604  -999.2500
  177.5000    85.8107  -999.2500
  178.0000    84.5961  -999.2500
  178.5000    84.1639  -999.2500
  179.0000    84.1818  -999.2500
  179.5000    85.9320  -999.2500
  180.0000    89.3062  -999.2500
  180.5000    92.6865  -999.2500
  181.0000    94.4579  -999.2500
  181.5000    94.3624  -999.2500
  182.0000    92.1497  -999.2500
  182.5000    89.1608  -999.2500
  183.0000    86.2171  -999.2500
  183.5000    83.2613  -999.2500
  184.0000    81.6971  -999.2500
  184.5000    81.9215  -999.2500
  185.0000    83.2371  -999.2500
  185.5000    83.4463  -999.2500
  186.0000    82.9879  -999.2500
  186.5000    83.5455  -999.2500
  187.0000    87.0380  -999.2500
  187.5000    89.7460  -999.2500
  188.0000    90.8491  -999.2500
  188.5000    90.3667  -999.2500
  189.0000    86.3647  -999.2500
  189.5000    82.3372  -999.2500
  190.0000    78.3160  -999.2500
  190.5000    74.2555  -999.2500
  191.0000    73.4594  -999.2500
  191.5000    75.8348  -999.2500
  192.0000    79.8889  -999.2500
  192.5000    83.6786  -999.2500
  193.0000    82.5365  -999.2500
  193.5000    81.5387  -999.2500
  194.0000    80.6318  -999.2500
  194.5000    80.9855  -999.2500
  195.0000    80.4472  -999.2500
  195.5000    79.8262  -999.2500
  196.0000    80.5289  -999.2500
  196.5000    87.0387  -999.2500
  197.0000    93.5636  -999.2500
  197.5000    95.9712  -999.2500
  198.0000    96.0312  -999.2500
  198.5000    96.0302  -999.2500
  199.0000    96.0118  -999.2500
  199.5000    92.7612  -999.2500
  200.0000    86.4889  -999.2500
  200.5000    80.0278  -999.2500
  201.0000    77.8415  -999.2500
  201.5000    79.1523  -999.2500
  202.0000    81.1351  -999.2500
  202.5000    79.4377  -999.2500
  203.0000    76.5291  -999.2500
  203.5000    73.6133  -999.2500
  204.0000    71.8919  -999.2500
  204.5000    71.8881  -999.2500
  205.0000    71.9045  -999.2500
  205.5000    71.9089  -999.2500
  206.0000    75.7786  -999.2500
  206.5000    82.2224  -999.2500
  207.0000    88.7095  -999.2500
  207.5000    95.1923  -999.2500
  208.0000   100.6042  -999.2500
  208.5000    98.2146  -999.2500
  209.0000    93.4458  -999.2500
  209.5000    88.6819  -999.2500
  210.0000    84.2768  -999.2500
  210.5000    80.4614  -999.2500
  211.0000    77.9584  -999.2500
  211.5000    75.8120  -999.2500
  212.0000    74.9288  -999.2500
  212.5000    75.4256  -999.2500
  213.0000    74.9907  -999.2500
  213.5000    76.5812  -999.2500
  214.0000    78.3675  -999.2500
  214.5000    79.8200  -999.2500
  215.0000    78.6431  -999.2500
  215.5000    77.3634  -999.2500
  216.0000    76.1076  -999.2500
  216.5000    75.0067  -999.2500
  217.0000    74.8141  -999.2500
  217.5000    74.5685  -999.2500
  218.0000    74.2500  -999.2500
  218.5000    76.5842  -999.2500
  219.0000    79.7809  -999.2500
  219.5000    80.7916  -999.2500
  220.0000    81.1224  -999.2500
  220.5000    81.3725  -999.2500
  221.0000    81.0554  -999.2500
  221.5000    80.7464  -999.2500
  222.0000    80.4154  -999.2500
  222.5000    79.4194  -999.2500
  223.0000    76.0120  -999.2500
  223.5000    72.6526  -999.2500
  224.0000    69.2700  -999.2500
  224.5000    69.3314  -999.2500
  225.0000    70.0348  -999.2500
  225.5000    74.1034  -999.2500
  226.0000    80.3366  -999.2500
  226.5000    82.3629  -999.2500
  227.0000    78.4262  -999.2500
  227.5000    75.4589  -999.2500
  228.0000    73.6006  -999.2500
  228.5000    74.8096  -999.2500
  229.0000    75.8331  -999.2500
  229.5000    75.3894  -999.2500
  230.0000    74.8719  -999.2500
  230.5000    74.8219  -999.2500
  231.0000    78.8870  -999.2500
  231.5000    83.0025  -999.2500
  232.0000    84.0863  -999.2500
  232.5000    83.0144  -999.2500
  233.0000    81.9014  -999.2500
  233.5000    80.7986  -999.2500
  234.0000    79.6938  -999.2500
  234.5000    78.6002  -999.2500
  235.0000    79.9966  -999.2500
  235.5000    81.4064  -999.2500
  236.0000    80.5674  -999.2500
  236.5000    81.0255  -999.2500
  237.0000    83.3078  -999.2500
  237.5000    85.6167  -999.2500
  238.0000    86.1656  -999.2500
  238.5000    84.6834  -999.2500
  239.0000    82.7324  -999.2500
  239.5000    81.1938  -999.2500
  240.0000    82.8230  -999.2500
  240.5000    84.4977  -999.2500
  241.0000    87.1039  -999.2500
  241.5000    90.7334  -999.2500
  242.0000    94.3649  -999.2500
  242.5000    93.4561  -999.2500
  243.0000    91.3493  -999.2500
  243.5000    89.2910  -999.2500
  244.0000    91.0764  -999.2500
  244.5000    93.2348  -999.2500
  245.0000    93.9891  -999.2500
  245.5000    91.8664  -999.2500
  246.0000    89.6536  -999.2500
  246.5000    87.4438  -999.2500
  247.0000    86.6254  -999.2500
  247.5000    87.1146  -999.2500
  248.0000    88.4799  -999.2500
  248.5000    90.5527  -999.2500
  249.0000    92.6179  -999.2500
  249.5000    94.0899  -999.2500
  250.0000    94.0622  -999.2500
  250.5000    94.0540  -999.2500
  251.0000    93.2316  -999.2500
  251.5000    92.2943  -999.2500
  252.0000    91.3623  -999.2500
  252.5000    90.4221  -999.2500
