~VERSION INFORMATION
 VERS.                2.0:   CWLS LOG ASCII STANDARD - VERSION 2.0
 WRAP.                 NO:   ONE LINE PER DEPTH STEP
~WELL INFORMATION
#MNEM.UNIT      DATA TYPE    INFORMATION
#----------   ------------   ------------------------------
 STRT.F            0.0000:   START DEPTH
 STOP.F         1027.0000:   STOP DEPTH
 STEP.F            0.1000:   STEP LENGTH
 NULL.          -999.2500:   NO VALUE
 COMP.       F D SERV INC:   COMPANY
 WELL.   77-1 X 27 #77-27:   WELL
 FLD .             TEAPOT:   FIELD
 LOC .      S27 T39N R78W:   LOCATION
 CNTY.            NATRONA:   COUNTY
 STAT.            WYOMING:   STATE
 CTRY. UNITED STATES OF AMERICA:   COUNTRY
 SRVC.      Western Atlas:   SERVICE COMPANY
 DATE.        04-NOV-1991:   LOGDATE
 API .       490252248600:   API NUMBER
~CURVE INFORMATION
#MNEM.UNIT       API CODE    CURVE DESCRIPTION
#----------   ------------   ------------------------------
 DEPT.F                  :   
 GRR .GAPI   07 310 01 00:   GAMMA RAY
 RILD.OHMM   07 120 46 00:   INDUCTION LOG DEEP RESISTIVITY
 RFOC.OHMM   07 220 04 00:   RESISTIVITY FOCUSED LOG
 RILM.OHMM   07 120 44 00:   INDUCTION LOG MEDIUM RESISTIVITY
 SPR .MV     07 010 01 00:   SPONTANEOUS POTENTIAL
~PARAMETER INFORMATION
#MNEM.UNIT          VALUE    DESCRIPTION
#----------   ------------   ------------------------------
 PD  .                 GL:   PERMANENT DATUM
 EPD .F              5077:   ELEVATION PERMANENT DATUM
 LMF .                 KB:   LOG MEASURED FROM
 DAPD.F                10:   FEET ABOVE PERMANENT DATUM
 DMF .                 KB:   DRILLING MEASURED FROM
 EKB .F              5087:   KELLING BUSHING
 EDF .F              5086:   DRILLING FLOOR
 EGL .F              5077:   GROUND LEVEL
 DATE.        04-NOV-1991:   RUN DATE
 RUN .                  1:   RUN NUMBER
 DD  .F              1030:   DEPTH DRILLER
 DL  .F              1030:   DEPTH LOGGER
 BLI .F              1027:   BOTTOM LOG INTERVAL
 CS  .IN            9.625:   CASING SIZE
 CBD .F                50:   CASING BOTTOM DRILLER
 CBL .F                52:   CASING BOTTOM LOGGER
 BS  .IN             8.75:   BIT SIZE
 BSD .F              1030:   BIT SIZE AT DEPTH
 DFT .          KCL WATER:   DRILLING FLUID TYPE
 MSS .           FLOWLINE:   MUD SAMPLE SOURCE
 RMS .OHMM            .24:   RESISTIVITY MUD SAMPLE
 MST .F                72:   MUD SAMPLE TEMPERATURE
 RMB .OHMM            .19:   RESISTIVITY MUD AT BHT
 BHT .F                90:   BOTTOM HOLE TEMPERATURE
 TCS .HRS               2:   TIME CURCULATED STOPPED
 MRT .F                90:   MAXIMUM RECORDED TEMPERATURE
 LUN .            HL-6274:   LOGGING UNIT NUMBER
 LUL .             CASPER:   LOGGING UNIT LOCATION
 ENGI.             RAUTIO:   RECORDING ENGINEER
 WITN.             STRONG:   WITNESSED BY
 CLNT.            A2DTECH:   CLIENT CODE
 ORIG.           5" PRINT:   ORIGIN OF DATA
 UWI .       490252248600:   UNIQUE WELL ID
 DICO. A2D Technologies, Inc.:   DIGITIZING COMPANY
~OTHER INFORMATION
~A    DEPT      GRR      RILD       RFOC       RILM        SPR   
# ...
  695.4000   105.9206     5.2512     6.2374     5.0998   -35.0575
  695.5000   105.3929     5.2511     6.3773     5.1444   -35.0569
  695.6000   104.9912     5.2875     6.5241     5.1941   -35.0562
  695.7000   104.8271     5.3360     6.6946     5.2264   -34.9492
  695.8000   104.7710     5.3663     6.8503     5.2941   -34.9054
  695.9000   104.8159     5.3982     6.9249     5.3469   -34.9048
  696.0000   104.9102     5.4276     6.9695     5.4081   -34.9042
  696.1000   105.0022     5.4585     6.9695     5.4700   -34.9036
  696.2000   105.0049     5.5060     6.9438     5.5325   -34.9030
  696.3000   105.0067     5.5494     6.9045     5.5963   -34.8073
  696.4000   105.0090     5.5550     6.8734     5.6599   -34.7521
  696.5000   105.0112     5.6266     6.8734     5.7248   -34.7515
  696.6000   105.0135     5.6546     6.8350     5.7903   -34.7509
  696.7000   105.0159     5.6868     6.8162     5.8454   -34.7502
  696.8000   105.1887     5.7191     6.8036     5.8788   -34.7497
  696.9000   105.2448     5.7517     6.7910     5.9159   -34.7491
  697.0000   105.3369     5.7843     6.7783     5.9461   -34.7485
  697.1000   105.4738     5.8173     6.7657     5.9800   -34.7479
  697.2000   105.4761     5.8504     6.7531     6.0299   -34.7473
  697.3000   105.4787     5.8837     6.7404     6.0906   -34.7466
  697.4000   105.4805     5.9172     6.7368     6.1253   -34.7461
  697.5000   105.5951     5.9557     6.7561     6.1603   -34.7455
  697.6000   105.8533     6.0288     6.7833     6.2237   -34.7449
  697.7000   106.2238     6.0606     6.7861     6.2742   -34.7443
  697.8000   106.6124     6.0951     6.8301     6.3100   -34.7437
  697.9000   106.7897     6.1126     6.8299     6.3410   -34.7431
  698.0000   107.1108     6.1220     6.8297     6.3410   -34.7425
  698.1000   107.2927     6.1568     6.8295     6.3410   -34.7419
  698.2000   107.2949     6.1974     6.8294     6.3410   -34.7413
  698.3000   107.2972     6.1972     6.8292     6.3410   -34.7407
  698.4000   107.2997     6.2193     6.8290     6.3410   -34.7400
  698.5000   107.1444     6.2400     6.8288     6.3410   -34.7395
  698.6000   106.9625     6.2467     6.8511     6.3410   -34.7389
  698.7000   106.7042     6.2831     6.8759     6.3410   -34.6887
  698.8000   106.3742     6.2829     6.8757     6.3410   -34.5652
  698.9000   106.1879     6.2828     6.8755     6.3410   -34.4377
  699.0000   105.8307     6.2826     6.8754     6.3410   -34.4371
  699.1000   105.4647     6.2824     6.8752     6.3410   -34.4365
  699.2000   104.9998     6.2822     6.8948     6.3410   -34.3708
  699.3000   104.5081     6.2820     6.9226     6.3410   -34.2856
  699.4000   104.1420     6.2819     6.9253     6.3410   -34.2737
  699.5000   103.7316     6.2817     6.9704     6.3410   -34.1347
  699.6000   103.4102     6.2815     6.9702     6.3410   -34.1341
  699.7000   103.0442     6.2814     6.9700     6.3410   -34.0530
  699.8000   102.7590     6.2812     6.9698     6.3410   -33.9295
  699.9000   102.5771     6.2810     6.9696     6.3410   -33.8329
  700.0000   102.3952     6.2808     6.9695     6.3410   -33.8323
  700.1000   102.2867     6.2754     6.9693     6.3171   -33.8311
  700.2000   102.1782     6.2662     6.9691     6.1888   -33.8299
  700.3000   102.0697     6.2571     6.9689     6.0824   -33.8287
  700.4000   101.9570     6.2480     6.9687     6.0824   -33.8275
  700.5000   101.7815     6.2389     6.9685     6.1158   -33.8263
  700.6000   101.5989     6.2364     6.9683     6.1248   -33.8251
  700.7000   101.5159     6.2362     6.9681     6.1248   -33.8240
  700.8000   101.5186     6.2249     6.9679     6.1248   -33.8226
  700.9000   101.5000     6.1892     6.9677     6.1248   -33.8216
  701.0000   101.2997     6.1498     6.9675     6.1248   -33.8204
  701.1000   101.1347     6.1496     6.9673     6.1248   -33.8192
  701.2000   100.8239     6.1259     6.9671     6.1248   -33.8180
  701.3000   100.5449     6.0908     6.9669     6.1083   -33.8168
  701.4000   100.3624     6.0644     6.9667     6.0824   -33.8154
  701.5000   100.1900     6.0642     6.9497     6.0824   -33.8144
  701.6000   100.1932     6.0640     6.9099     6.0824   -33.8132
  701.7000   100.1955     6.0356     6.8702     6.0535   -33.8120
  701.8000   100.3155     6.0011     6.8700     6.0190   -33.8108
  701.9000   100.5036     5.9667     6.8089     5.9846   -33.8095
  702.0000   100.7305     5.9325     6.7531     5.9505   -33.8084
  702.1000   101.1045     5.8973     6.7011     5.9159   -33.8072
  702.2000   101.6621     5.8648     6.6248     5.8827   -33.8060
  702.3000   102.5122     5.8312     6.5435     5.8492   -33.8048
  702.4000   103.5481     5.7978     6.5090     5.8158   -33.8036
  702.5000   104.5282     5.7646     6.4718     5.7826   -33.8023
  702.6000   105.2161     5.7316     6.4347     5.7496   -33.8012
  702.7000   105.6118     5.6954     6.3979     5.7141   -33.8000
  702.8000   105.9628     5.6662     6.3613     5.6841   -33.7988
  702.9000   106.4712     5.6337     6.3194     5.6290   -33.7976
  703.0000   106.8383     5.6015     6.3193     5.5806   -33.7964
  703.1000   107.0263     5.5694     6.3191     5.5487   -33.7950
  703.2000   107.2143     5.5375     6.3189     5.5149   -33.7940
  703.3000   107.4246     5.5003     6.3188     5.4431   -33.7928
  703.4000   107.4269     5.4485     6.3186     5.3902   -33.7916
  703.5000   107.4296     5.3864     6.2828     5.3288   -33.7904
  703.6000   107.4323     5.3251     6.2746     5.2811   -33.7892
  703.7000   107.4350     5.2644     6.2744     5.2444   -33.7880
  703.8000   107.4311     5.2028     6.2742     5.1847   -33.6940
  703.9000   107.2163     5.1451     6.2693     5.1257   -33.6359
  704.0000   107.2186     5.0865     6.2305     5.0446   -33.6347
  704.1000   107.3346     5.0286     6.2303     4.9751   -33.6335
  704.2000   107.4485     4.9619     6.2052     4.9185   -33.6322
  704.3000   107.4862     4.8773     6.1869     4.8624   -33.6311
  704.4000   107.6785     4.7865     6.1771     4.8038   -33.5461
  704.5000   107.8623     4.7371     6.1417     4.7524   -33.4790
  704.6000   107.9084     4.6832     6.1012     4.6789   -33.4469
  704.7000   108.1164     4.6173     6.0717     4.6127   -33.3224
  704.8000   108.4896     4.5386     6.0369     4.5602   -33.1758
  704.9000   108.8147     4.4625     6.0024     4.5036   -33.0736
  705.0000   108.8176     4.4035     5.9680     4.3894   -32.9491
  705.1000   108.8201     4.3615     5.9334     4.3238   -32.8731
  705.2000   108.6916     4.3272     5.8668     4.2503   -32.8499
  705.3000   108.4169     4.3024     5.8256     4.1672   -32.7209
  705.4000   108.0489     4.2730     5.7557     4.0783   -32.6010
  705.5000   107.6403     4.2235     5.6468     4.0100   -32.4766
  705.6000   106.5884     4.2233     5.5150     3.9829   -32.3521
  705.7000   105.7927     4.2047     5.3463     3.9829   -32.2276
  705.8000   104.8687     4.1806     5.1820     3.9829   -32.1032
  705.9000   104.1882     4.1648     4.9880     3.9829   -31.9651
  706.0000   103.8622     4.1647     4.7667     3.9870   -31.8543
  706.1000   103.6823     4.1646     4.5612     4.0107   -31.7298
  706.2000   103.6856     4.1645     4.4565     4.0107   -31.6053
  706.3000   103.5388     4.1644     4.3113     4.0455   -31.4809
  706.4000   103.4659     4.1759     4.2294     4.0793   -31.3605
  706.5000   103.4686     4.1931     4.1633     4.1027   -31.3591
  706.6000   103.5024     4.1945     4.1255     4.1290   -31.2573
  706.7000   103.6986     4.2220     4.1066     4.1812   -31.1328
  706.8000   103.8785     4.2219     4.1638     4.2247   -31.0563
  706.9000   103.9284     4.2372     4.2108     4.2734   -31.0336
  707.0000   104.0300     4.2613     4.2969     4.3226   -30.9041
  707.1000   104.2180     4.2806     4.4103     4.3723   -30.7848
  707.2000   104.4061     4.2804     4.5287     4.4212   -30.6603
  707.3000   104.6132     4.3047     4.6433     4.4507   -30.5358
  707.4000   104.7820     4.3293     4.8493     4.4938   -30.4503
  707.5000   105.0973     4.3540     5.0566     4.5455   -30.4366
