~VERSION INFORMATION
 VERS.                2.0:   CWLS LOG ASCII STANDARD - VERSION 2.0
 WRAP.                 NO:   ONE LINE PER DEPTH STEP
~WELL INFORMATION
#MNEM.UNIT      DATA TYPE    INFORMATION
#----------   ------------   ------------------------------
 STRT.F          100.0000:   START DEPTH
 STOP.F          872.0000:   STOP DEPTH
 STEP.F            0.5000:   STEP LENGTH
 NULL.          -999.2500:   NO VALUE
 COMP. U S NAVY/INTEX OIL CO:   COMPANY
 WELL. 53 S 11 #N P R 3-11:   WELL
 FLD .             TEAPOT:   FIELD
 LOC .      S11 T38N R78W:   LOCATION
 CNTY.            NATRONA:   COUNTY
 STAT.            WYOMING:   STATE
 CTRY. UNITED STATES OF AMERICA:   COUNTRY
 SRVC.       Schlumberger:   SERVICE COMPANY
 DATE.        07-AUG-1961:   LOGDATE
 API .       490250635800:   API NUMBER
~CURVE INFORMATION
#MNEM.UNIT       API CODE    CURVE DESCRIPTION
#----------   ------------   ------------------------------
 DEPT.F                  :   
 CILD.MMHO   05 110 46 00:   CONDUCTIVITY INDUCTION LOG DEEP
 ILD .OHMM   05 120 46 00:   INDUCTION LOG DEEP
 SPR .MV     05 010 01 00:   SPONTANEOUS POTENTIAL FROM RES.
 ASN .OHMM   05 041 16 00:   AMPLIFIED SHORT NORMAL 16"
~PARAMETER INFORMATION
#MNEM.UNIT          VALUE    DESCRIPTION
#----------   ------------   ------------------------------
 PD  .                 GL:   PERMANENT DATUM
 EPD .F              5192:   ELEVATION PERMANENT DATUM
 LMF .                 KB:   LOG MEASURED FROM
 DAPD.F                 6:   FEET ABOVE PERMANENT DATUM
 DMF .                 KB:   DRILLING MEASURED FROM
 EKB .F              5198:   KELLING BUSHING
 EGL .F              5192:   GROUND LEVEL
 DATE.             8-7-61:   RUN DATE
 RUN .                  1:   RUN NUMBER
 DD  .F               870:   DEPTH DRILLER
 DL  .F               873:   DEPTH LOGGER
 BLI .F               872:   BOTTOM LOG INTERVAL
 TLI .F               100:   TOP LOG INTERVAL
 BS  .IN            7.875:   BIT SIZE
 BSD .F               870:   BIT SIZE AT DEPTH
 DFT .            GEL/OIL:   DRILLING FLUID TYPE
 DFD .               10.4:   DRILLING FLUID DENSITY
 DFV .                 43:   DRILLING FLUID VISCOSITY
 RMS .OHMM            .02:   RESISTIVITY MUD SAMPLE
 MST .F                70:   MUD SAMPLE TEMPERATURE
 TCS .HRS               1:   TIME CURCULATED STOPPED
 LUN .               2544:   LOGGING UNIT NUMBER
 LUL .                 NC:   LOGGING UNIT LOCATION
 ENGI.             QUINCY:   RECORDING ENGINEER
 WITN.          JORGENSON:   WITNESSED BY
 CLNT.            A2DTECH:   CLIENT CODE
 ORIG.       2", 5" PRINT:   ORIGIN OF DATA
 UWI .       490250635800:   UNIQUE WELL ID
 DICO. A2D Technologies, Inc.:   DIGITIZING COMPANY
~OTHER INFORMATION
~A   DEPT      CILD         ILD      SPR          ASN 
# ...
  465.0000   104.9026     8.4318   -23.6934    10.0267
  465.5000   105.2004     8.4194   -23.5202    10.0261
  466.0000   105.5276     8.3441   -23.3491     9.9572
  466.5000   108.2789     8.1641   -23.3277     9.7755
  467.0000   111.3317     7.9930   -23.3399     9.6132
  467.5000   114.3844     7.8033   -23.4461     9.4257
  468.0000   117.4377     7.5319   -23.5754     9.2777
  468.5000   120.4955     7.2415   -23.7016     8.9656
  469.0000   123.5504     6.9405   -23.8260     9.0429
  469.5000   126.5982     6.7100   -23.9575     9.2544
  470.0000   129.6387     6.5557   -24.0729     8.9540
  470.5000   132.6754     6.4007   -24.2004     8.7331
  471.0000   135.6428     6.4215   -24.3449     8.5019
  471.5000   135.6394     6.5008   -24.2025     8.4697
  472.0000   132.7224     6.5551   -24.0690     8.4975
  472.5000   129.9162     6.7005   -23.9506     8.6816
  473.0000   127.1075     6.9033   -23.9190     8.8646
  473.5000   124.2905     7.0617   -23.6998     9.0475
  474.0000   121.4663     7.2158   -23.4771     9.2364
  474.5000   118.6406     7.3721   -23.2491     9.3846
  475.0000   117.5608     7.4967   -23.0323     9.3705
  475.5000   117.5674     7.5047   -22.7971     9.3446
  476.0000   117.5879     7.5032   -22.7456     9.3402
  476.5000   118.5226     7.5058   -23.0176     9.4009
  477.0000   119.3367     7.4911   -23.2647     9.3989
  477.5000   120.1507     7.3834   -23.5202     9.3572
  478.0000   120.9648     7.2812   -23.7715     9.3289
  478.5000   121.7789     7.1790   -24.0234     9.2845
  479.0000   122.5930     7.0748   -24.2724     9.2805
  479.5000   123.4070     6.9975   -24.3565     9.2922
  480.0000   124.2211     7.0262   -24.2925     9.2797
  480.5000   125.0352     7.0795   -24.0754     9.2268
  481.0000   125.3397     7.1183   -23.9161     9.1697
  481.5000   124.2779     7.1753   -24.0229     9.1139
  482.0000   123.2161     7.1954   -24.1572     9.1781
  482.5000   122.1543     7.2628   -24.0829     9.2611
  483.0000   121.0924     7.4693   -23.9111     9.3353
  483.5000   120.0302     7.6834   -23.7368     9.4575
  484.0000   118.9659     7.7928   -23.5497     9.5794
  484.5000   117.9042     7.8950   -23.5754     9.7048
  485.0000   116.8466     7.8967   -23.7124     9.7347
  485.5000   115.7910     7.8584   -23.8370     9.7426
  486.0000   114.7349     7.8266   -23.9691     9.7044
  486.5000   113.5826     7.7910   -24.0964     9.6380
  487.0000   114.5971     7.7579   -24.2294     9.5717
  487.5000   115.7053     7.7223   -24.3540     9.5073
  488.0000   116.8143     7.6960   -24.4937     9.4346
  488.5000   117.9255     7.6304   -24.6039     9.4344
  489.0000   119.0383     7.5392   -24.7916     9.4852
  489.5000   119.6152     7.5004   -24.9622     9.5359
  490.0000   119.6134     7.4898   -24.9567     9.5414
  490.5000   119.6101     7.4540   -24.8353     9.4941
  491.0000   119.6051     7.4250   -24.5467     9.4562
  491.5000   119.5980     7.3922   -24.2955     9.4169
  492.0000   119.5980     7.3618   -24.0240     9.4064
  492.5000   119.5980     7.3293   -23.7652     9.3895
  493.0000   119.5980     7.3031   -23.4970     9.3246
  493.5000   119.5980     7.2996   -23.2393     9.2534
  494.0000   119.5980     7.2881   -22.9929     9.2012
  494.5000   119.5980     7.2762   -23.2178     9.2231
  495.0000   119.5980     7.2640   -23.5013     9.2881
  495.5000   120.1097     7.2527   -23.7746     9.3610
  496.0000   120.9224     7.2396   -24.0417     9.4066
  496.5000   121.7352     7.2298   -24.3324     9.3541
  497.0000   122.5479     7.2142   -24.5240     9.2987
  497.5000   123.3607     7.2095   -24.5994     9.2520
  498.0000   124.1734     7.1286   -24.7549     9.2065
  498.5000   124.9861     7.0519   -24.6629     9.2007
  499.0000   125.7989     6.9853   -24.6002     9.2200
  499.5000   126.6116     6.9146   -24.5521     9.2275
  500.0000   127.4243     6.8474   -24.4898     9.2591
  500.5000   128.2371     6.7168   -24.2666     9.2354
  501.0000   129.0498     6.6916   -24.0479     9.1690
  501.5000   129.6482     6.7148   -23.8218     9.1173
  502.0000   129.6482     6.7333   -23.6013     9.0469
  502.5000   129.6482     6.7604   -23.3602     9.0251
  503.0000   127.6678     6.7759   -23.3308     9.0848
  503.5000   125.1161     6.8775   -23.4642     9.1385
  504.0000   122.5644     7.0113   -23.6375     9.1957
  504.5000   120.0127     7.1497   -23.8060     9.2767
  505.0000   117.4610     7.2944   -23.9776     9.3375
  505.5000   114.9093     7.4338   -24.1468     9.4252
  506.0000   112.3576     7.5901   -24.3243     9.5293
  506.5000   109.8059     7.6683   -24.8598     9.6185
  507.0000   107.2542     7.7575   -24.8206     9.6778
  507.5000   122.6825     7.8103   -24.7813     9.6774
  508.0000   123.2296     7.7458   -24.7421     9.6788
  508.5000   123.7767     7.7289   -24.6976     9.7686
  509.0000   124.3238     7.7119   -24.5374     9.7686
  509.5000   124.7899     7.7182   -24.5057     9.7918
  510.0000   125.1445     7.6829   -24.1765     9.6991
  510.5000   125.7003     7.5648   -23.5157     9.5971
  511.0000   126.2626     7.4520   -23.5548     9.5276
  511.5000   126.8249     7.3388   -23.6110     9.4675
  512.0000   127.3821     7.2261   -23.6566     9.4593
  512.5000   129.4246     7.1130   -23.8061     9.4538
  513.0000   131.4489     7.0000   -24.0166     9.4361
  513.5000   133.4731     6.8871   -24.2299     9.3305
  514.0000   135.4062     6.7735   -24.4846     9.2089
  514.5000   136.6883     6.6616   -24.7075     9.0637
  515.0000   137.9151     6.5467   -24.9516     8.9226
  515.5000   139.1419     6.4369   -25.2344     8.7740
  516.0000   140.3688     6.3198   -25.4394     8.6995
  516.5000   141.5956     6.3046   -24.9227     8.6321
  517.0000   142.8224     6.3841   -24.6328     8.5598
  517.5000   142.8903     6.4549   -24.5630     8.5087
  518.0000   141.7253     6.5311   -24.4579     8.5706
  518.5000   140.5582     6.6042   -24.3727     8.6273
  519.0000   139.3921     6.6791   -24.2716     8.7278
  519.5000   138.2296     6.7529   -24.1920     8.8622
  520.0000   137.0705     6.8276   -24.0380     9.0044
  520.5000   135.9126     6.9012   -23.5450     8.9972
  521.0000   134.8359     6.9834   -23.6096     9.0405
  521.5000   133.8196     7.0276   -23.7468     9.1368
  522.0000   132.8075     7.0717   -23.8716     9.1466
  522.5000   131.7954     7.1168   -23.9995     9.0930
  523.0000   130.7833     7.1616   -24.1286     9.0783
  523.5000   129.7711     7.2063   -24.2531     9.1714
  524.0000   128.7590     7.2518   -24.3895     9.2614
  524.5000   127.7469     7.2897   -24.5016     9.3421
  525.0000   127.3821     7.2590   -24.6604     9.3616
  525.5000   127.3821     7.2134   -24.7262     9.3775
  526.0000   127.3821     7.1702   -25.0516     9.3842
  526.5000   127.3821     7.1261   -25.4269     9.3595
  527.0000   127.3821     7.0821   -25.0612     9.2861
  527.5000   128.4373     7.0382   -24.8350     9.2086
  528.0000   130.6061     6.9937   -24.5338     9.1827
  528.5000   132.7749     6.9506   -24.2536     9.1842
  529.0000   133.4002     6.9047   -23.9793     9.1574
  529.5000   133.0103     6.8645   -23.6841     9.1397
  530.0000   132.6613     6.8112   -23.5158     9.1270
  530.5000   132.3123     6.8058   -23.7217     9.1314
  531.0000   131.9633     6.9840   -23.9069     9.1486
  531.5000   131.6143     7.1508   -24.0996     9.1650
  532.0000   130.4136     7.3227   -24.2874     9.1829
  532.5000   127.7588     7.4896   -24.4895     9.2547
  533.0000   125.1041     7.6619   -24.7275     9.3394
  533.5000   122.4493     7.8096   -24.9799     9.4386
  534.0000   119.7946     8.0270   -25.2379     9.5504
  534.5000   117.1398     8.2676   -25.2740     9.8028
  535.0000   114.4850     8.4958   -25.1951    10.0675
  535.5000   111.8303     8.7401   -25.1421    10.0838
  536.0000   109.1755     8.9631   -25.0786    10.2165
  536.5000   106.5208     9.1461   -25.0174    10.4618
  537.0000   103.8660     9.4095   -24.9627    10.7034
  537.5000   101.2112     9.6445   -24.8773    10.9494
