~VERSION INFORMATION
 VERS.                2.0:   CWLS LOG ASCII STANDARD - VERSION 2.0
 WRAP.                 NO:   ONE LINE PER DEPTH STEP
~WELL INFORMATION
#MNEM.UNIT      DATA TYPE    INFORMATION
#----------   ------------   ------------------------------
 STRT.F           35.0000:   START DEPTH
 STOP.F          601.0000:   STOP DEPTH
 STEP.F            0.5000:   STEP LENGTH
 NULL.          -999.2500:   NO VALUE
 COMP. FENIX & SCISSON INC:   COMPANY
 WELL. NPR #3 71SX #71-15:   WELL
 FLD .             TEAPOT:   FIELD
 LOC .      S15 T38N R78W:   LOCATION
 CNTY.            NATRONA:   COUNTY
 STAT.            WYOMING:   STATE
 CTRY. UNITED STATES OF AMERICA:   COUNTRY
 SRVC.              Welex:   SERVICE COMPANY
 DATE.        10-MAR-1977:   LOGDATE
 API .       490251031200:   API NUMBER
~CURVE INFORMATION
#MNEM.UNIT       API CODE    CURVE DESCRIPTION
#----------   ------------   ------------------------------
 DEPT.F                  :   
 SPR .MV     07 010 01 00:   SPONTANEOUS POTENTIAL
 SGRD.OHMM   07 220 05 00:   SHALLOW RESISTIVITY
 DRES.OHMM   07 120 46 00:   INDUCTION LOG DEEP
 MRES.OHMM   07 120 44 00:   INDUCTION LOG MEDIUM
 GRD .GAPI   45 310 01 00:   GAMMA RAY FROM DENSITY LOG
 CALD.IN     45 280 60 00:   CALIPER
 RHOB.G/C3   45 350 01 00:   BULK DENSITY
 DPHI.DEC    45 890 12 00:   DENSITY POROSITY
 CORR.G/C3   45 356 01 00:   DENSITY CORRECTION
~PARAMETER INFORMATION
#MNEM.UNIT          VALUE    DESCRIPTION
#----------   ------------   ------------------------------
 PD  .                 GL:   PERMANENT DATUM
 EPD .F              5241:   ELEVATION PERMANENT DATUM
 LMF .                 GL:   LOG MEASURED FROM
 DMF .                 GL:   DRILLING MEASURED FROM
 EGL .F              5241:   GROUND LEVEL
 DATE.            3-10-77:   RUN DATE
 RUN .                  1:   RUN NUMBER
 DD  .F               600:   DEPTH DRILLER
 DL  .F               603:   DEPTH LOGGER
 BLI .F               601:   BOTTOM LOG INTERVAL
 TLI .F                35:   TOP LOG INTERVAL
 CS  .IN            8.625:   CASING SIZE
 CBD .F                40:   CASING BOTTOM DRILLER
 CBL .F                40:   CASING BOTTOM LOGGER
 BS  .IN            7.875:   BIT SIZE
 BSD .F               600:   BIT SIZE AT DEPTH
 DFT .            KCL MUD:   DRILLING FLUID TYPE
 DFD .                8.6:   DRILLING FLUID DENSITY
 DFV .                 10:   DRILLING FLUID VISCOSITY
 DFPH.                7.2:   DRILLING FLUID PH
 DFL .                  8:   DRILLING FLUID LOSS
 MSS .            MUD PIT:   MUD SAMPLE SOURCE
 RMS .OHMM            .36:   RESISTIVITY MUD SAMPLE
 MST .F                47:   MUD SAMPLE TEMPERATURE
 RMF .OHMM            .35:   RESISTIVITY MUD FILTRATE SAMPLE
 MFST.F                47:   MUD FILTRATE SAMPLE TEMPERATURE
 RMC .OHMM            .40:   RESISTIVITY MUD CAKE
 MCST.F                47:   MUD CAKE SAMPLE TEMPERATURE
 MFSS.           FANN KIT:   MUD FILTRATE SAMPLE SOURCE
 MCSS.           FANN KIT:   MUD CAKE SAMPLE SOURCE
 RMB .OHMM            .31:   RESISTIVITY MUD AT BHT
 BHT .F                53:   BOTTOM HOLE TEMPERATURE
 TCS .HRS             1.5:   TIME CURCULATED STOPPED
 MRT .F                53:   MAXIMUM RECORDED TEMPERATURE
 LUN .               8611:   LOGGING UNIT NUMBER
 LUL .           GILLETTE:   LOGGING UNIT LOCATION
 ENGI.               DOAK:   RECORDING ENGINEER
 WITN.         STUEBINGER:   WITNESSED BY
 CLNT.            A2DTECH:   CLIENT CODE
 ORIG.       2", 5" PRINT:   ORIGIN OF DATA
 UWI .       490251031200:   UNIQUE WELL ID
 DICO. A2D Technologies, Inc.:   DIGITIZING COMPANY
~OTHER INFORMATION
~A   DEPT      SPR       SGRD       DRES       MRES         GRD      CALD       RHOB       DPHI       CORR   
# ...
  509.5000   -27.1505    13.3593     9.9452    10.7958    88.4620     7.8663     2.4284     0.1306     0.0674
  510.0000   -27.2625    13.1974     9.8833    10.9301    88.9259     7.8663     2.4270     0.1270     0.0691
  510.5000   -27.3750    13.2368     9.8198    11.0642    90.1121     7.8663     2.4255     0.1277     0.0703
  511.0000   -27.5273    13.2875     9.8237    11.2142    91.3108     7.8663     2.4266     0.1277     0.0703
  511.5000   -27.7531    13.3385     9.8287    11.4413    92.8240     7.8663     2.4275     0.1275     0.0691
  512.0000   -27.9778    13.3896     9.8337    11.6723    94.5924     7.8663     2.4279     0.1273     0.0648
  512.5000   -28.2025    13.4409     9.8387    11.9222    96.3160     7.8663     2.4284     0.1270     0.0607
  513.0000   -28.4273    13.4924     9.8438    11.7715    95.6354     7.8663     2.4240     0.1314     0.0566
  513.5000   -28.6521    13.5442     9.8488    11.6149    94.5502     7.8663     2.4183     0.1360     0.0525
  514.0000   -28.8768    13.5961     9.8538    11.4604    94.1553     7.8663     2.4148     0.1399     0.0479
  514.5000   -29.1016    13.6482     9.8588    11.3080    94.9211     7.8663     2.4253     0.1322     0.0509
  515.0000   -29.3263    13.7005     9.8639    11.1756    90.7471     7.8663     2.4356     0.1255     0.0557
  515.5000   -29.5511    13.7530     9.8689    11.3143    86.2922     7.8663     2.4459     0.1189     0.0603
  516.0000   -29.7759    13.8058     9.8739    11.3631    80.7812     7.8663     2.4485     0.1150     0.0615
  516.5000   -30.0006    13.8587     9.8790    11.4121    82.8904     7.8663     2.4452     0.1194     0.0601
  517.0000   -30.2254    13.9118     9.8840    11.4613    87.9251     7.8663     2.4475     0.1185     0.0587
  517.5000   -30.4501    13.9496     9.8890    11.5108    90.8600     7.8663     2.4520     0.1189     0.0574
  518.0000   -30.6749    13.7531     9.8942    11.5604    93.1499     7.8663     2.4412     0.1241     0.0560
  518.5000   -30.8996    13.6030     9.8991    11.5963    92.0899     7.8663     2.4318     0.1294     0.0545
  519.0000   -31.1244    13.4544     9.9042    11.3867    92.7589     7.8663     2.4359     0.1275     0.0555
  519.5000   -31.3491    13.3075    10.0029    11.1957    93.9001     7.8663     2.4298     0.1254     0.0571
  520.0000   -31.5739    13.1622     9.8885    11.0079    95.0736     7.8663     2.4393     0.1212     0.0587
  520.5000   -31.7986    13.0185     9.6441    10.8233    96.7105     7.8663     2.4494     0.1169     0.0603
  521.0000   -32.0234    12.8763     9.4086    10.6417   100.4477     7.8663     2.4580     0.1125     0.0620
  521.5000   -32.2481    12.7357     9.1777    10.4632   102.4969     7.8663     2.4617     0.1089     0.0610
  522.0000   -32.4728    12.6017     8.9521    10.2877   101.3502     7.8663     2.4608     0.1090     0.0595
  522.5000   -32.6975    12.3380     8.7322    10.1895    99.0311     7.8663     2.4513     0.1150     0.0579
  523.0000   -32.9226    12.0888     8.5177    10.1329    97.8691     7.8663     2.4451     0.1193     0.0563
  523.5000   -33.1448    11.8446     8.3085    10.0783    99.7943     7.8663     2.4433     0.1211     0.0563
  524.0000   -33.5546    11.6054     8.1044    10.0240   101.7254     7.8663     2.4471     0.1184     0.0563
  524.5000   -34.0732    11.3710     7.9054     9.9700   101.5579     7.8663     2.4545     0.1122     0.0547
  525.0000   -34.5925    11.1139     7.7517     9.9163   101.2781     7.8663     2.4598     0.1191     0.0460
  525.5000   -35.1114    10.8450     7.1114     9.8629   102.6425     7.8663     2.4255     0.1285     0.0416
  526.0000   -35.5387    10.5834     6.4134     9.6117   105.0289     7.8663     2.4226     0.1352     0.0409
  526.5000   -35.8119    10.3267     5.7829     8.5847   107.4418     7.8663     2.4144     0.1400     0.0426
  527.0000   -36.0884    10.0694     5.3603     7.6644   110.7425     7.8663     2.4015     0.1477     0.0443
  527.5000   -36.3741     9.8112     5.0423     6.8418   117.5998     7.8663     2.3861     0.1571     0.0461
  528.0000   -36.2498     8.0375     4.7437     6.1103   122.0885     7.8663     2.3624     0.1720     0.0403
  528.5000   -36.0248     5.7398     4.5186     5.4560   124.8776     7.8663     2.3341     0.1863     0.0330
  529.0000   -35.7474     4.3155     4.3960     4.9569   119.7202     7.8663     2.3530     0.1631     0.0343
  529.5000   -35.2575     6.7167     4.7428     5.9012   110.2416     7.8663     2.4268     0.1342     0.0407
  530.0000   -34.7601     9.8581     5.1368     6.7445   106.9029     7.8663     2.4745     0.1054     0.0472
  530.5000   -34.2639    12.7186     5.5634     7.7886   106.3612     7.8663     2.4780     0.1018     0.0523
  531.0000   -33.8136    12.5992     6.0258     8.2302   106.0559     7.8663     2.4743     0.1038     0.0518
  531.5000   -33.6643    12.4858     6.5264     8.7316   106.4788     7.8663     2.4780     0.1025     0.0514
  532.0000   -33.5177    12.6492     7.0685     9.2614   106.5344     7.8663     2.4822     0.0993     0.0510
  532.5000   -33.3700    12.9699     7.6557     9.8220   106.0877     7.8663     2.4841     0.0974     0.0506
  533.0000   -33.2223    13.1974     8.2916    10.4758   103.6879     7.8663     2.4760     0.1022     0.0504
  533.5000   -33.0746    12.7919     8.7283    10.6712   101.9792     7.8663     2.4845     0.0958     0.0541
  534.0000   -32.9268    12.2572     8.9310    10.6712   102.3463     7.8663     2.4941     0.0898     0.0559
  534.5000   -32.7792    12.4811     9.1384    10.6712   100.3463     7.8663     2.4889     0.0953     0.0552
  535.0000   -32.6315    12.9519     9.3506    10.6712    99.3496     7.8663     2.4830     0.0994     0.0544
  535.5000   -32.4786    13.4405     9.5677    10.6712    99.9445     7.8663     2.4929     0.0930     0.0536
  536.0000   -32.4177    13.9476     9.7899    11.5262   100.1198     7.8663     2.5043     0.0878     0.0529
  536.5000   -32.3890    14.4747    10.0173    12.3835    98.7871     7.8663     2.5055     0.0846     0.0521
  537.0000   -32.3620    15.0219    10.2499    13.4435    97.6406     7.8663     2.5067     0.0846     0.0513
  537.5000   -32.3349    15.4707    10.3651    12.6981    98.3734     7.8663     2.5012     0.0913     0.0505
  538.0000   -32.3076    15.5745    10.4607    11.2764    97.4775     7.8663     2.5068     0.0868     0.0530
  538.5000   -32.2803    15.6788    10.5572    11.2806    95.7884     7.8663     2.5161     0.0773     0.0571
  539.0000   -32.2530    15.7845    10.6546    11.2750    94.0922     7.8663     2.5219     0.0746     0.0600
  539.5000   -32.2257    15.8912    10.7529    12.0947    94.5582     7.8663     2.5217     0.0737     0.0585
  540.0000   -32.1984    15.9990    10.8521    12.8042    96.9540     7.8663     2.5091     0.0827     0.0531
  540.5000   -32.1711    16.1074    10.9522    13.6924    99.0952     7.8663     2.4932     0.0922     0.0471
  541.0000   -32.1437    16.2808    11.0532    13.5435    97.6952     7.8663     2.4823     0.0981     0.0455
  541.5000   -32.1165    16.5500    11.1552    13.3535    96.3895     7.8663     2.4772     0.0998     0.0445
  542.0000   -32.0891    16.8236    11.2581    13.1664    98.1773     7.8663     2.4788     0.1014     0.0437
  542.5000   -32.0618    16.9361    11.3279    12.9837    97.2536     7.8663     2.4807     0.1009     0.0428
  543.0000   -32.0345    16.6123    11.3892    12.8367    96.0274     7.8663     2.4776     0.1004     0.0438
  543.5000   -32.0072    16.3453    11.4509    12.9398    96.1750     7.8663     2.4786     0.0999     0.0473
  544.0000   -31.9799    16.0229    11.5129    13.0275    96.9517     7.8663     2.4797     0.0995     0.0475
  544.5000   -31.9526    16.2513    11.5752    13.1157    98.0216     7.8663     2.4808     0.0990     0.0464
  545.0000   -31.9253    16.5525    11.6376    13.2046    99.0119     7.8663     2.4817     0.0986     0.0453
  545.5000   -31.8981    16.8606    11.7039    13.2940    99.1631     7.8663     2.4792     0.1045     0.0441
