~VERSION INFORMATION
 VERS.                2.0:   CWLS LOG ASCII STANDARD - VERSION 2.0
 WRAP.                 NO:   ONE LINE PER DEPTH STEP
~WELL INFORMATION
#MNEM.UNIT      DATA TYPE    INFORMATION
#----------   ------------   ------------------------------
 STRT.F           28.0000:   START DEPTH
 STOP.F          659.0000:   STOP DEPTH
 STEP.F            0.5000:   STEP LENGTH
 NULL.          -999.2500:   NO VALUE
 COMP. FENIX & SCISSON INC:   COMPANY
 WELL.    NPR 3 #46-SX-34:   WELL
 FLD .             TEAPOT:   FIELD
 LOC .      S34 T39N R78W:   LOCATION
 CNTY.            NATRONA:   COUNTY
 STAT.            WYOMING:   STATE
 CTRY. UNITED STATES OF AMERICA:   COUNTRY
 SRVC.              Welex:   SERVICE COMPANY
 DATE.        01-MAY-1977:   LOGDATE
 API .       490251035600:   API NUMBER
~CURVE INFORMATION
#MNEM.UNIT       API CODE    CURVE DESCRIPTION
#----------   ------------   ------------------------------
 DEPT.F                  :   
 CALD.IN     45 280 60 00:   CALIPER FROM DENSITY
 GRD .GAPI   45 310 01 00:   GAMMA RAY FROM DENSITY LOG
 CORR.G/C3   45 356 01 00:   DENSITY CORRECTION
 DPHI.DEC    45 890 12 00:   DENSITY POROSITY SANDSTONE
 RHOB.G/C3   45 350 01 00:   BULK DENSITY
 SPR .MV     07 010 01 00:   SPONTANEOUS POTENTIAL
 ILD .OHMM   07 120 46 00:   INDUCTION LOG DEEP
 ILM .OHMM   07 120 44 00:   INDUCTION LOG MEDIUM
 SGRD.OHMM   07 221 05 00:   SHALLOW SHORT GUARD RESISTIVITY
~PARAMETER INFORMATION
#MNEM.UNIT          VALUE    DESCRIPTION
#----------   ------------   ------------------------------
 PD  .                 GL:   PERMANENT DATUM
 EPD .F              5120:   ELEVATION PERMANENT DATUM
 LMF .                 GL:   LOG MEASURED FROM
 DMF .                 GL:   DRILLING MEASURED FROM
 EGL .F              5120:   GROUND LEVEL
 DATE.        01-MAY-1977:   RUN DATE
 RUN .                  1:   RUN NUMBER
 DD  .F               660:   DEPTH DRILLER
 DL  .F               663:   DEPTH LOGGER
 BLI .F               661:   BOTTOM LOG INTERVAL
 TLI .F                28:   TOP LOG INTERVAL
 CS  .IN            8.625:   CASING SIZE
 BS  .IN               12:   BIT SIZE
 BSD .F               660:   BIT SIZE AT DEPTH
 DFT .            KCL MUD:   DRILLING FLUID TYPE
 DFD .                8.7:   DRILLING FLUID DENSITY
 TCS .HRS            0100:   TIME CURCULATED STOPPED
 MRT .F                71:   MAXIMUM RECORDED TEMPERATURE
 ENGI.          T. JOYNER:   RECORDING ENGINEER
 WITN.            R. LYON:   WITNESSED BY
 CLNT.            A2DTECH:   CLIENT CODE
 ORIG.           5" PRINT:   ORIGIN OF DATA
 UWI .       490251035600:   UNIQUE WELL ID
 DICO. A2D Technologies, Inc.:   DIGITIZING COMPANY
~OTHER INFORMATION
~A   DEPT     CALD        GRD        CORR      DPHI       RHOB        SPR        ILD        ILM       SGRD   
# ...
  247.0000     7.7630   122.8804     0.0188     0.1042     2.5027   -42.8661     8.6847    10.9033    10.9033
  247.5000     7.7474   121.0210     0.0188     0.1018     2.5034   -42.8643     8.5658    10.7540    10.6801
  248.0000     7.7618   121.2112     0.0189     0.1024     2.5034   -42.8628     8.4485    10.6067    10.5338
  248.5000     7.7612   122.0933     0.0174     0.1042     2.5019   -42.8613     8.3904    10.4615    10.3182
  249.0000     7.7606   121.7943     0.0159     0.1057     2.4995   -42.8599     8.3328    10.2473    10.2473
  249.5000     7.7600   121.0448     0.0128     0.1072     2.4950   -42.8584     8.3904    10.2473    10.2473
  250.0000     7.7594   119.5446     0.0113     0.1093     2.4913   -42.8406     8.4116    10.2574    10.2549
  250.5000     7.7586   118.0444     0.0098     0.1120     2.4876   -42.6401     8.5386    10.3181    10.3467
  251.0000     7.7579   117.5949     0.0099     0.1145     2.4846   -42.4396     8.6656    10.3787    10.4384
  251.5000     7.7570   119.6986     0.0099     0.1157     2.4808   -42.0941     8.7448    10.4394    10.5338
  252.0000     7.7412   121.0512     0.0084     0.1166     2.4785   -41.7906     8.8662    10.6067    10.6801
  252.5000     7.7405   118.6500     0.0083     0.1166     2.4800   -41.6360     8.9893    10.7540    10.9033
  253.0000     7.7397   116.0988     0.0098     0.1175     2.4830   -41.6301     9.3045    10.9787    11.0552
  253.5000     7.7390   117.6015     0.0098     0.1184     2.4777   -41.4755     9.7646    11.2081    11.2081
  254.0000     7.7382   120.3055     0.0098     0.1193     2.4747   -41.6199    10.1769    11.3637    11.2857
  254.5000     7.7376   122.1086     0.0098     0.1190     2.4747   -41.6126    10.6067    11.6012    11.4423
  255.0000     7.7353   122.4101     0.0098     0.1175     2.4756   -41.6068    11.0546    11.7623    11.6815
  255.5000     7.7211   122.7402     0.0098     0.1163     2.4808   -41.6009    11.2909    11.8436    11.9256
  256.0000     7.7353   123.4835     0.0098     0.1148     2.4859   -41.5951    11.3637    11.9256    12.1748
  256.5000     7.7346   122.6689     0.0083     0.1139     2.4859   -41.5892    11.4423    12.0081    12.4292
  257.0000     7.7338   119.7047     0.0053     0.1164     2.4836   -41.5833    11.6012    12.0911    12.6018
  257.5000     7.7481   118.0618     0.0038     0.1173     2.4813   -41.5774    11.6815    12.0911    12.6018
  258.0000     7.7624   116.5616     0.0008     0.1173     2.4798   -41.5714    11.5215    12.0081    12.6018
  258.5000     7.7466   115.0614     0.0008     0.1173     2.4798   -41.5644    11.3637    11.9256    12.6018
  259.0000     7.7458   113.8614     0.0038     0.1173     2.4805   -41.5585    11.2081    11.8436    12.5152
  259.5000     7.7450   113.1120     0.0068     0.1173     2.4828   -41.5527    11.1311    11.6815    12.5152
  260.0000     7.7443   112.0622     0.0068     0.1173     2.4850   -41.5468    10.9787    11.5215    12.4292
  260.5000     7.7435   110.4118     0.0083     0.1173     2.4820   -41.5410    10.7540    11.2857    12.4292
  261.0000     7.7580   107.5602     0.0083     0.1164     2.4835   -41.3863    10.5338    11.0546    12.2590
  261.5000     7.7722   109.5134     0.0083     0.1155     2.4857   -41.3805    10.2473    10.9033    12.2590
  262.0000     7.7865   110.8661     0.0083     0.1140     2.4880   -41.2258    10.0376    10.9033    12.2590
  262.5000     7.7856   112.3688     0.0083     0.1131     2.4895   -41.0712     9.9686    10.9787    12.3509
  263.0000     7.7699   113.7214     0.0098     0.1119     2.4917   -41.0653    10.0422    11.0546    12.5152
  263.5000     7.7541   115.5245     0.0113     0.1098     2.4940   -41.0595    10.2568    11.2081    12.5152
  264.0000     7.7684   116.2763     0.0113     0.1137     2.4833   -40.9048    10.5338    11.2857    12.5152
  264.5000     7.7677   114.6909     0.0113     0.1155     2.4834   -40.8988    10.8284    11.5215    12.4292
  265.0000     7.7669   113.7262     0.0114     0.1140     2.4850   -40.8917    11.0546    11.6815    12.5152
  265.5000     7.7661   114.9362     0.0129     0.1083     2.4985   -40.8858    11.2081    11.8436    13.0437
  266.0000     7.7503   115.4055     0.0144     0.1032     2.5052   -40.7312    11.2857    11.8436    13.5946
  266.5000     7.7345   113.8802     0.0159     0.1047     2.4961   -40.7253    11.2857    11.7623    13.9747
  267.0000     7.7338   113.5586     0.0174     0.1094     2.4916   -40.5707    11.2857    11.7623    14.1687
  267.5000     7.7330   115.2341     0.0189     0.1120     2.4886   -40.5648    11.2857    11.8436    14.3654
  268.0000     7.7323   116.8870     0.0204     0.1083     2.4976   -40.4102    11.2081    11.9256    14.3654
  268.5000     7.7465   117.1882     0.0219     0.1056     2.5028   -40.2555    11.2857    12.0081    14.2667
  269.0000     7.7458   115.5382     0.0219     0.1029     2.5028   -40.2497    11.2857    12.0911    14.0713
  269.5000     7.7450   114.1878     0.0204     0.1032     2.5073   -40.0950    11.4423    12.2590    14.0594
  270.0000     7.7595   116.7419     0.0174     0.1060     2.4990   -39.9404    11.6815    12.5152    14.3654
  270.5000     7.7585   115.6921     0.0144     0.1093     2.4937   -39.7857    12.0967    12.7767    14.7670
  271.0000     7.7578   112.6904     0.0144     0.1105     2.4930   -39.6310    12.6251    13.3163    15.0805
  271.5000     7.7570   108.9376     0.0159     0.1114     2.4930   -39.4762    13.2248    13.7887    15.6267
  272.0000     7.7564   109.9902     0.0174     0.1093     2.4944   -39.1715    13.5946    14.2905    16.2995
  272.5000     7.7556   110.1413     0.0189     0.1054     2.4974   -39.0168    13.8787    14.7858    17.1855
  273.0000     7.7549   108.8964     0.0204     0.1021     2.5019   -38.8622    13.9747    15.1799    17.7882
  273.5000     7.7541   107.7277     0.0219     0.0994     2.5059   -38.8563    14.1687    15.2849    18.2855
  274.0000     7.7534   106.8369     0.0236     0.0973     2.5142   -38.5529    14.2667    15.1799    18.4120
  274.5000     7.7526   105.9422     0.0250     0.0982     2.5147   -38.3982    14.3654    14.9721    17.7882
  275.0000     7.7518   105.0426     0.0250     0.1003     2.5064   -38.2436    14.3654    14.8692    16.9502
  275.5000     7.7511   103.5423     0.0265     0.1036     2.4974   -38.0889    14.2667    14.8692    16.4891
  276.0000     7.7503   100.9911     0.0234     0.1084     2.4921   -37.9343    14.2667    14.7670    16.0406
  276.5000     7.7496   104.2956     0.0174     0.1122     2.4913   -37.9284    14.2667    14.5648    15.7123
  277.0000     7.7488   106.3990     0.0129     0.1165     2.4860   -37.9226    14.2667    14.4648    15.6043
  277.5000     7.7480   109.1030     0.0098     0.1242     2.4717   -37.9167    14.1687    14.4648    15.6043
  278.0000     7.7473   107.3024     0.0083     0.1302     2.4619   -37.9107    13.9747    14.3654    15.4971
  278.5000     7.7465   105.8022     0.0083     0.1253     2.4679   -37.9048    13.8787    14.2667    15.3907
  279.0000     7.7610   104.6023     0.0098     0.1242     2.4717   -37.8977    13.7833    14.2667    15.3907
  279.5000     7.7600   102.8018     0.0098     0.1278     2.4641   -37.7431    13.6886    14.2667    15.2849
  280.0000     7.7444   100.2505     0.0098     0.1299     2.4626   -37.7372    13.5946    14.2667    15.2849
  280.5000     7.7587   100.5520     0.0098     0.1287     2.4671   -37.7314    13.5012    14.2667    15.2849
  281.0000     7.7579   101.1539     0.0113     0.1245     2.4731   -37.7255    13.4084    14.3654    15.1799
  281.5000     7.7571   101.9532     0.0113     0.1197     2.4754   -37.7197    13.3163    14.4648    15.1799
  282.0000     7.7564   103.2883     0.0113     0.1227     2.4678   -37.7138    13.2248    14.4648    15.2849
  282.5000     7.7707   104.3231     0.0116     0.1278     2.4663   -37.7080    13.3163    14.4648    15.2849
  283.0000     7.7699   105.3629     0.0131     0.1281     2.4663   -37.7021    13.3163    14.4648    15.2849
