~VERSION INFORMATION
 VERS.                2.0:   CWLS LOG ASCII STANDARD - VERSION 2.0
 WRAP.                 NO:   ONE LINE PER DEPTH STEP
~WELL INFORMATION
#MNEM.UNIT      DATA TYPE    INFORMATION
#----------   ------------   ------------------------------
 STRT.F           87.0000:   START DEPTH
 STOP.F          987.0000:   STOP DEPTH
 STEP.F            0.5000:   STEP LENGTH
 NULL.          -999.2500:   NO VALUE
 COMP.   FLUOR DANIEL INC:   COMPANY
 WELL. NAVAL PETROLEUM RESERVE 3 SH-2 #53-2:   WELL
 FLD .        TEAPOT DOME:   FIELD
 LOC .       S2 T38N R78W:   LOCATION
 CNTY.            NATRONA:   COUNTY
 STAT.            WYOMING:   STATE
 CTRY. UNITED STATES OF AMERICA:   COUNTRY
 SRVC. Schlumberger Well Surveying Corp:   SERVICE COMPANY
 DATE.        17-JUL-1963:   LOGDATE
 API .       490250645200:   API NUMBER
~CURVE INFORMATION
#MNEM.UNIT       API CODE    CURVE DESCRIPTION
#----------   ------------   ------------------------------
 DEPT.F                  :   
 GR  .GAPI   30 310 01 00:   GAMMA RAY
 SPR .MV     05 010 01 00:   SPONTANEOUS POTENTIAL
 CILD.MMHO   05 110 46 00:   CONDUCTIVITY INDUCTION LOG DEEP
 ILD .OHMM   05 120 46 00:   INDUCTION LOG DEEP
 ASN .OHMM   05 041 16 00:   AMPLIFIED SHORT NORMAL 16"
~PARAMETER INFORMATION
#MNEM.UNIT          VALUE    DESCRIPTION
#----------   ------------   ------------------------------
 PD  .                 GL:   PERMANENT DATUM
 EPD .F              5165:   ELEVATION PERMANENT DATUM
 LMF .                 KB:   LOG MEASURED FROM
 DAPD.F                 5:   FEET ABOVE PERMANENT DATUM
 DMF .                 KB:   DRILLING MEASURED FROM
 EKB .F              5170:   KELLING BUSHING
 EGL .F              5165:   GROUND LEVEL
 DATE.          7-17-1963:   RUN DATE
 RUN .                  1:   RUN NUMBER
 DD  .F               986:   DEPTH DRILLER
 DL  .F               987:   DEPTH LOGGER
 BLI .F               986:   BOTTOM LOG INTERVAL
 TLI .F                30:   TOP LOG INTERVAL
 CS  .IN            8.625:   CASING SIZE
 CBD .F                10:   CASING BOTTOM DRILLER
 BS  .IN            7.875:   BIT SIZE
 BSD .F               986:   BIT SIZE AT DEPTH
 DFT .            GEL-OIL:   DRILLING FLUID TYPE
 DFD .                9.4:   DRILLING FLUID DENSITY
 DFV .                 67:   DRILLING FLUID VISCOSITY
 DFPH.                8.5:   DRILLING FLUID PH
 DFL .                4.6:   DRILLING FLUID LOSS
 MSS .           FLOWLINE:   MUD SAMPLE SOURCE
 RMS .OHMM           3.37:   RESISTIVITY MUD SAMPLE
 MST .F                79:   MUD SAMPLE TEMPERATURE
 RMF .OHMM           1.49:   RESISTIVITY MUD FILTRATE SAMPLE
 MFST.F                83:   MUD FILTRATE SAMPLE TEMPERATURE
 MFSS.           MEASURED:   MUD FILTRATE SAMPLE SOURCE
 BHT .F                80:   BOTTOM HOLE TEMPERATURE
 TCS .HRS            0030:   TIME CURCULATED STOPPED
 MRT .F                80:   MAXIMUM RECORDED TEMPERATURE
 LUN .               4507:   LOGGING UNIT NUMBER
 LUL .              CSPR.:   LOGGING UNIT LOCATION
 ENGI.            WINKLER:   RECORDING ENGINEER
 WITN.          JORGENSON:   WITNESSED BY
 CLNT.            A2DTECH:   CLIENT CODE
 ORIG.      2" & 5" PRINT:   ORIGIN OF DATA
 UWI .       490250645200:   UNIQUE WELL ID
 DICO. A2D Technologies, Inc.:   DIGITIZING COMPANY
~OTHER INFORMATION
~A   DEPT       GR        SPR       CILD          ILD        ASN 
# ...
  331.0000  -999.2500   -63.2029   173.1947     5.9831     6.8768
  331.5000  -999.2500   -63.1707   176.9824     5.8609     6.6097
  332.0000  -999.2500   -62.7337   181.8107     5.7389     6.3393
  332.5000  -999.2500   -62.5139   187.2655     5.6167     6.2000
  333.0000  -999.2500   -62.4473   192.1568     5.4941     6.1213
  333.5000  -999.2500   -62.3848   195.1779     5.3794     6.0996
  334.0000  -999.2500   -62.3491   197.6192     5.3762     6.1003
  334.5000  -999.2500   -62.3494   198.1787     5.3767     6.1005
  335.0000  -999.2500   -62.3489   198.0318     5.3769     6.1058
  335.5000  -999.2500   -62.3498   196.9828     5.3767     6.1316
  336.0000  -999.2500   -62.3858   195.9353     5.3779     6.1566
  336.5000  -999.2500   -62.5470   194.8867     5.4036     6.1827
  337.0000  -999.2500   -62.5511   193.8302     5.4296     6.2392
  337.5000  -999.2500   -62.5504   192.6298     5.4555     6.2954
  338.0000  -999.2500   -62.5502   191.3387     5.4813     6.3509
  338.5000  -999.2500   -62.5502   190.0477     5.5071     6.3685
  339.0000  -999.2500   -62.5502   188.7566     5.5329     6.3376
  339.5000  -999.2500   -62.5503   187.4655     5.5588     6.3078
  340.0000  -999.2500   -62.5507   186.1745     5.5869     6.2840
  340.5000  -999.2500   -62.5474   184.8834     5.6269     6.3393
  341.0000  -999.2500   -62.4839   183.5923     5.6641     6.4194
  341.5000  -999.2500   -62.4209   181.4070     5.7855     6.4965
  342.0000  -999.2500   -62.3608   177.2257     5.9430     6.5955
  342.5000  -999.2500   -62.2331   172.8576     6.1023     6.7028
  343.0000  -999.2500   -62.0984   167.0634     6.2591     6.8110
  343.5000  -999.2500   -61.9632   163.7881     6.3639     6.9190
  344.0000  -999.2500   -61.9873   160.9039     6.4582     7.0274
  344.5000  -999.2500   -62.0329   158.0049     6.5526     7.1403
  345.0000  -999.2500   -62.0791   155.1058     6.6471     7.2835
  345.5000  -999.2500   -62.1269   152.2068     6.7414     7.3686
  346.0000  -999.2500   -62.2565   149.3078     6.8354     7.3879
  346.5000  -999.2500   -62.4835   147.2362     6.8570     7.3278
  347.0000  -999.2500   -62.5495   149.2426     6.8034     7.2436
  347.5000  -999.2500   -62.5506   153.3623     6.6205     7.1584
  348.0000  -999.2500   -62.5492   157.5653     6.3895     7.0732
  348.5000  -999.2500   -62.4898   161.9711     6.1556     6.9862
  349.0000  -999.2500   -62.3668   170.5035     5.9216     6.8523
  349.5000  -999.2500   -62.2446   180.8501     5.6879     6.6191
  350.0000  -999.2500   -62.1219   191.1967     5.4519     6.3286
  350.5000  -999.2500   -61.9993   201.5434     5.1979     6.0386
  351.0000  -999.2500   -61.8755   213.5544     4.9440     5.7484
  351.5000  -999.2500   -61.7530   227.1156     4.6893     5.4651
  352.0000  -999.2500   -61.6341   240.2429     4.4730     5.2804
  352.5000  -999.2500   -61.4313   250.8375     4.2840     5.1101
  353.0000  -999.2500   -61.2729   261.4322     4.0961     4.9837
  353.5000  -999.2500   -61.1446   269.3347     3.9045     4.7964
  354.0000  -999.2500   -61.0187   270.8543     3.8664     4.6343
  354.5000  -999.2500   -60.9852   264.1005     3.9815     4.4710
  355.0000  -999.2500   -61.0886   256.2898     4.1225     4.4609
  355.5000  -999.2500   -61.1901   248.2379     4.2644     4.9696
  356.0000  -999.2500   -61.2919   237.0251     4.4294     5.3130
  356.5000  -999.2500   -61.3456   221.1141     4.7130     5.4661
  357.0000  -999.2500   -61.3454   204.4049     5.0820     5.7009
  357.5000  -999.2500   -61.3455   187.6956     5.5322     6.1428
  358.0000  -999.2500   -61.3454   173.4702     5.9799     6.4821
  358.5000  -999.2500   -61.3454   161.7028     6.4272     6.6703
  359.0000  -999.2500   -61.3454   152.2613     6.7330     6.8231
  359.5000  -999.2500   -61.3452   148.1809     7.0007     7.0158
  360.0000  -999.2500   -61.3353   143.7739     7.2314     7.1581
  360.5000  -999.2500   -61.3075   139.4513     7.4594     7.2614
  361.0000  -999.2500   -61.2800   135.1268     7.6873     7.3855
  361.5000  -999.2500   -61.2525   130.7902     7.9153     7.6273
  362.0000  -999.2500   -61.2250   126.8514     8.1450     7.8363
  362.5000  -999.2500   -61.1973   124.1206     8.3568     8.0190
  363.0000  -999.2500   -61.1694   125.3628     8.3994     8.1178
  363.5000  -999.2500   -61.1476   128.4141     8.1208     8.1321
  364.0000  -999.2500   -61.2048   132.7401     7.7866     8.0484
  364.5000  -999.2500   -61.2619   138.7501     7.4516     7.8178
  365.0000  -999.2500   -61.3186   144.6159     7.1173     7.4910
  365.5000  -999.2500   -61.3984   150.0646     6.7829     7.1706
  366.0000  -999.2500   -61.5015   155.5133     6.4493     6.8503
  366.5000  -999.2500   -61.5019   164.9380     6.1283     6.5283
  367.0000  -999.2500   -61.4253   178.4992     5.6727     6.1964
  367.5000  -999.2500   -61.3427   193.2663     5.2172     5.9812
  368.0000  -999.2500   -61.1501   212.2300     4.7613     5.7127
  368.5000  -999.2500   -60.9516   238.6584     4.3123     5.3915
  369.0000  -999.2500   -60.7535   259.4240     4.0663     5.0714
  369.5000  -999.2500   -60.5555   262.5885     4.0710     4.7539
  370.0000  -999.2500   -60.3574   262.1206     4.0701     4.6278
  370.5000  -999.2500   -60.1585   261.6121     4.0704     4.7471
  371.0000  -999.2500   -59.9601   261.1035     4.0692     4.6748
  371.5000  -999.2500   -60.0013   258.7136     4.1150     4.5626
  372.0000  -999.2500   -60.0718   248.4985     4.2268     4.8873
  372.5000  -999.2500   -60.1426   225.1055     4.5079     5.2559
  373.0000  -999.2500   -60.2127   204.1186     4.7839     5.4592
  373.5000  -999.2500   -60.2829   190.3879     5.0593     5.5744
  374.0000  -999.2500   -60.3681   178.8169     5.3358     5.6822
  374.5000  -999.2500   -60.5292   173.0050     5.5402     5.8007
  375.0000  -999.2500   -60.6904   171.8206     5.6721     5.8665
  375.5000  -999.2500   -60.8502   173.3854     5.6663     5.8797
  376.0000  -999.2500   -60.9308   174.9501     5.6466     5.8713
  376.5000  -999.2500   -60.8578   176.5149     5.6277     5.8441
  377.0000  -999.2500   -60.7877   178.0796     5.6090     5.8175
  377.5000  -999.2500   -60.7174   179.7990     5.5885     5.7914
  378.0000  -999.2500   -60.6473   182.4121     5.4690     5.7367
  378.5000  -999.2500   -60.5770   191.6784     5.1480     5.5478
  379.0000  -999.2500   -60.4752   209.8774     4.7927     5.3506
  379.5000  -999.2500   -60.3406   239.8036     4.3631     5.1564
  380.0000  -999.2500   -60.2066   272.6633     3.9347     4.8500
  380.5000  -999.2500   -60.0727   301.6540     3.5083     4.5221
  381.0000  -999.2500   -59.9387   317.7379     3.2745     4.1955
  381.5000  -999.2500   -59.8046   320.2991     3.2998     3.9240
  382.0000  -999.2500   -59.6699   318.5103     3.3221     3.9297
  382.5000  -999.2500   -59.5411   316.6547     3.3444     4.1460
  383.0000  -999.2500   -59.5326   313.1826     3.3763     4.0054
  383.5000  -999.2500   -59.7118   303.4573     3.5375     3.9058
  384.0000  -999.2500   -59.9223   282.5909     3.7263     4.2464
  384.5000  -999.2500   -60.1335   252.5869     4.1781     4.7938
  385.0000  -999.2500   -60.3452   226.2088     4.6008     4.9687
  385.5000  -999.2500   -60.5561   206.9972     4.7189     5.0230
  386.0000  -999.2500   -60.7302   195.2534     4.8458     5.0479
  386.5000  -999.2500   -60.5566   190.4523     4.9700     5.0650
  387.0000  -999.2500   -60.3797   194.2513     4.9560     5.0835
  387.5000  -999.2500   -60.3416   199.9282     4.9349     5.1194
  388.0000  -999.2500   -60.3409   202.1077     4.9146     5.1803
  388.5000  -999.2500   -60.3413   204.2872     4.8952     5.1948
  389.0000  -999.2500   -60.3417   206.4666     4.8678     5.1072
  389.5000  -999.2500   -60.3430   208.5427     4.6845     5.0196
  390.0000  -999.2500   -60.3328   219.7739     4.5046     4.9198
  390.5000  -999.2500   -60.0998   234.4731     4.2130     4.7630
  391.0000  -999.2500   -59.9117   258.0361     3.9118     4.5992
  391.5000  -999.2500   -59.7431   285.6638     3.6098     4.3774
