~VERSION INFORMATION
 VERS.                2.0:   CWLS LOG ASCII STANDARD - VERSION 2.0
 WRAP.                 NO:   ONE LINE PER DEPTH STEP
~WELL INFORMATION
#MNEM.UNIT      DATA TYPE    INFORMATION
#----------   ------------   ------------------------------
 STRT.F           34.5000:   START DEPTH
 STOP.F          756.0000:   STOP DEPTH
 STEP.F            0.5000:   STEP LENGTH
 NULL.          -999.2500:   NO VALUE
 COMP. FENIX & SCISSON INC:   COMPANY
 WELL.    36 SX 11 #36-11:   WELL
 FLD .        TEAPOT DOME:   FIELD
 LOC .      S11 T38N R78W:   LOCATION
 CNTY.            NATRONA:   COUNTY
 STAT.            WYOMING:   STATE
 CTRY. UNITED STATES OF AMERICA:   COUNTRY
 SRVC.           BIRDWELL:   SERVICE COMPANY
 DATE.        21-FEB-1978:   LOGDATE
 API .       490251059700:   API NUMBER
~CURVE INFORMATION
#MNEM.UNIT       API CODE    CURVE DESCRIPTION
#----------   ------------   ------------------------------
 DEPT.F                  :   
 SPR .MV     05 010 01 00:   SPONTANEOUS POTENTIAL FROM RES.
 SN  .OHMM   05 040 16 00:   SHORT NORMAL 16"
 ILD .OHMM   05 120 46 00:   INDUCTION LOG DEEP
 RHOB.G/C3   45 350 01 00:   BULK DENSITY
 DPHI.DEC    45 890 12 00:   DENSITY POROSITY SANDSTONE
 GRD .GAPI   45 310 01 00:   GAMMA RAY FROM DENSITY LOG
 CALD.IN     45 280 60 00:   CALIPER
 CORR.G/C3   45 356 01 00:   DENSITY CORRECTION
~PARAMETER INFORMATION
#MNEM.UNIT          VALUE    DESCRIPTION
#----------   ------------   ------------------------------
 PD  .                 GL:   PERMANENT DATUM
 EPD .F              5175:   ELEVATION PERMANENT DATUM
 LMF .                 KB:   LOG MEASURED FROM
 DAPD.F                 4:   FEET ABOVE PERMANENT DATUM
 DMF .                 KB:   DRILLING MEASURED FROM
 EKB .F              5179:   KELLING BUSHING
 EGL .F              5175:   GROUND LEVEL
 DATE.          2-21-1978:   RUN DATE
 RUN .                  1:   RUN NUMBER
 DD  .F               765:   DEPTH DRILLER
 DL  .F               760:   DEPTH LOGGER
 BLI .F               754:   BOTTOM LOG INTERVAL
 TLI .F                40:   TOP LOG INTERVAL
 CS  .IN            8.625:   CASING SIZE
 CBD .F                39:   CASING BOTTOM DRILLER
 CBL .F                40:   CASING BOTTOM LOGGER
 BS  .IN            7.875:   BIT SIZE
 BSD .F               765:   BIT SIZE AT DEPTH
 DFT .         LIGNO/SULF:   DRILLING FLUID TYPE
 DFD .                8.6:   DRILLING FLUID DENSITY
 DFV .                 33:   DRILLING FLUID VISCOSITY
 DFPH.               10.5:   DRILLING FLUID PH
 DFL .                 84:   DRILLING FLUID LOSS
 MSS .          FLOW LINE:   MUD SAMPLE SOURCE
 RMS .OHMM            1.8:   RESISTIVITY MUD SAMPLE
 MST .F                56:   MUD SAMPLE TEMPERATURE
 RMF .OHMM            1.8:   RESISTIVITY MUD FILTRATE SAMPLE
 MFST.F                58:   MUD FILTRATE SAMPLE TEMPERATURE
 RMC .OHMM              4:   RESISTIVITY MUD CAKE
 MCST.F                62:   MUD CAKE SAMPLE TEMPERATURE
 MFSS.               MEAS:   MUD FILTRATE SAMPLE SOURCE
 RMB .OHMM           1.48:   RESISTIVITY MUD AT BHT
 BHT .F                68:   BOTTOM HOLE TEMPERATURE
 TCS .HRS               5:   TIME CURCULATED STOPPED
 MRT .F                68:   MAXIMUM RECORDED TEMPERATURE
 LUN .               2958:   LOGGING UNIT NUMBER
 LUL .               CASP:   LOGGING UNIT LOCATION
 ENGI.            POINTER:   RECORDING ENGINEER
 WITN.           MCGINLEY:   WITNESSED BY
 CLNT.            A2DTECH:   CLIENT CODE
 ORIG.       2", 5" PRINT:   ORIGIN OF DATA
 UWI .       490251059700:   UNIQUE WELL ID
 DICO. A2D Technologies, Inc.:   DIGITIZING COMPANY
~OTHER INFORMATION
~A   DEPT      SPR         SN        ILD       RHOB       DPHI         GRD      CALD       CORR   
# ...
  439.5000   -27.6053     3.9102     3.1562     2.3730     0.1501    89.9055     7.9952     0.0008
  440.0000   -27.8425     4.3223     3.8652     2.4310     0.1385    91.5759     7.9961     0.0069
  440.5000   -28.0860     4.7900     4.3417     2.4540     0.1288    95.0834     7.9970     0.0056
  441.0000   -27.9120     5.2913     4.8777     2.4660     0.1216   100.0926     7.9979     0.0042
  441.5000   -27.6416     5.5545     5.1021     2.4629     0.1191   107.3287     7.9988     0.0028
  442.0000   -27.3615     5.6703     5.1603     2.4653     0.1182   114.5292     7.9996     0.0014
  442.5000   -27.4997     5.7328     5.1603     2.4705     0.1186   119.0240     8.0005     0.0017
  443.0000   -27.7241     5.7642     5.1518     2.4685     0.1204   118.4461     8.0014     0.0031
  443.5000   -27.9507     5.7957     5.1387     2.4729     0.1220   117.6488     8.0023     0.0046
  444.0000   -28.1764     5.8195     5.1262     2.4729     0.1226   116.8504     8.0032     0.0060
  444.5000   -28.4017     5.7237     5.1119     2.4662     0.1230   116.2317     8.0041     0.0062
  445.0000   -28.5235     5.5782     4.9256     2.4608     0.1238   118.2112     8.0050     0.0028
  445.5000   -28.3742     5.3390     4.7529     2.4579     0.1321   120.2344     8.0059    -0.0004
  446.0000   -28.2243     5.0968     4.5874     2.4478     0.1477   122.5390     8.0068    -0.0082
  446.5000   -28.0749     4.8656     4.5152     2.4198     0.1633   125.2845     8.0076    -0.0165
  447.0000   -27.9257     4.6612     4.4760     2.3927     0.1686   126.1453     8.0085    -0.0183
  447.5000   -27.7763     4.6183     4.4373     2.3772     0.1617   124.0072     8.0094    -0.0155
  448.0000   -27.6275     4.6612     4.4096     2.4227     0.1518   120.6491     8.0103    -0.0131
  448.5000   -27.5159     4.6612     4.4853     2.4206     0.1353   116.2934     8.0112    -0.0148
  449.0000   -27.5866     4.8641     4.5452     2.4133     0.1382   112.0731     8.0121    -0.0186
  449.5000   -27.6625     5.1192     4.7008     2.4155     0.1408   108.5415     8.0130    -0.0190
  450.0000   -27.7386     5.3876     4.9644     2.4315     0.1378   106.5251     8.0139    -0.0184
  450.5000   -27.8144     5.6702     5.2427     2.4426     0.1317   103.6247     8.0141    -0.0177
  451.0000   -27.8901     5.9675     5.5247     2.4421     0.1277   100.2855     8.0141    -0.0170
  451.5000   -27.9660     6.2807     5.7132     2.4494     0.1260    96.9907     8.0141    -0.0150
  452.0000   -28.0420     6.6110     5.9099     2.4558     0.1242    98.8540     8.0141    -0.0129
  452.5000   -28.1176     6.9540     6.1119     2.4565     0.1211   100.9152     8.0141    -0.0108
  453.0000   -28.0990     7.1384     6.3218     2.4584     0.1190    99.9885     8.0141    -0.0087
  453.5000   -28.0617     7.1726     6.4682     2.4634     0.1191    99.2961     8.0141    -0.0069
  454.0000   -28.0242     7.1993     6.5025     2.4725     0.1205    99.0899     8.0141    -0.0073
  454.5000   -27.9865     7.2259     6.5025     2.4742     0.1225    97.7951     8.0141    -0.0077
  455.0000   -27.9491     7.2656     6.4409     2.4643     0.1249    97.4537     8.0141    -0.0082
  455.5000   -27.9376     7.2042     6.3562     2.4580     0.1266    97.0953     8.0141    -0.0086
  456.0000   -28.0780     7.0879     6.2725     2.4522     0.1270    97.4985     8.0141    -0.0091
  456.5000   -28.2196     6.9735     6.1907     2.4497     0.1243    98.4453     8.0141    -0.0034
  457.0000   -28.3609     6.8609     6.1224     2.4533     0.1218    99.3877     8.0141     0.0043
  457.5000   -28.5020     6.7501     6.0692     2.4587     0.1199    99.5310     8.0141     0.0112
  458.0000   -28.6432     6.6411     6.0159     2.4641     0.1174    98.6225     8.0141     0.0096
  458.5000   -28.7843     6.5339     5.9630     2.4688     0.1192    97.7130     8.0141     0.0077
  459.0000   -28.9256     6.4426     5.8888     2.4706     0.1225    97.5101     8.0141     0.0049
  459.5000   -29.0683     6.2690     5.7730     2.4638     0.1258    98.5112     8.0141     0.0061
  460.0000   -29.2092     6.1171     5.6595     2.4585     0.1262    99.1378     8.0141     0.0080
  460.5000   -29.2312     5.9689     5.4239     2.4585     0.1198    96.8313     8.0141     0.0098
  461.0000   -28.7094     5.7351     5.0990     2.4579     0.1289   100.0716     8.0141     0.0116
  461.5000   -28.2316     5.3501     4.7935     2.4503     0.1381   104.2434     8.0141     0.0130
  462.0000   -27.7567     4.9909     4.5055     2.4393     0.1467   105.9826     8.0141     0.0131
  462.5000   -27.3281     4.6558     4.2883     2.4274     0.1553   103.1099     8.0141     0.0130
  463.0000   -26.9566     4.5758     4.3324     2.4153     0.1664    99.5851     8.0141     0.0107
  463.5000   -27.1458     4.6817     4.4141     2.4026     0.1798    99.5708     8.0141    -0.0115
  464.0000   -27.4921     4.7755     4.4966     2.3768     0.1743    98.7454     8.0141    -0.0338
  464.5000   -27.3999     5.0066     4.5807     2.3618     0.1642    96.3526     8.0141    -0.0187
  465.0000   -27.3192     5.5139     4.8541     2.4165     0.1431    94.6216     8.0141     0.0015
  465.5000   -27.6574     6.0949     5.3064     2.4554     0.1227    93.3924     8.0141     0.0004
  466.0000   -28.0361     6.4202     5.8195     2.4635     0.1199    92.7692     8.0141    -0.0004
  466.5000   -28.4153     6.6089     5.9847     2.4730     0.1195    95.5471     8.0141    -0.0025
  467.0000   -28.7939     6.7507     6.1333     2.4762     0.1213    98.9971     8.0142    -0.0020
  467.5000   -29.1439     6.8956     6.2856     2.4731     0.1238    98.0703     8.0138    -0.0004
  468.0000   -29.2582     7.0443     6.3877     2.4561     0.1215    96.8840     8.0058     0.0013
  468.5000   -29.3036     7.2000     6.4131     2.4598     0.1194    96.7717     7.9979     0.0029
  469.0000   -28.9894     7.1982     6.4386     2.4661     0.1172    96.2980     7.9901     0.0044
  469.5000   -28.6719     7.1989     6.4642     2.4684     0.1147    94.2929     7.9824     0.0122
  470.0000   -28.3597     7.1987     6.4900     2.4713     0.1119    92.9251     7.9732     0.0224
  470.5000   -28.3489     7.1987     6.5158     2.4742     0.1091    95.3491     7.9146     0.0353
  471.0000   -28.4322     7.1987     6.5416     2.4770     0.1064    97.2077     7.8521     0.0537
  471.5000   -28.5145     7.1987     6.5629     2.4799     0.1078    97.8231     7.8188     0.0720
  472.0000   -28.5963     7.1987     6.5563     2.4806     0.1111    98.0281     7.8383     0.0848
  472.5000   -28.6781     7.1985     6.5508     2.4715     0.1159    95.0082     7.8654     0.0782
  473.0000   -28.7599     7.1983     6.5453     2.4572     0.1254    92.7554     7.9307     0.0700
  473.5000   -28.8423     7.2264     6.5398     2.4404     0.1350    95.1590     7.9950     0.0435
  474.0000   -28.9226     7.2653     6.5343     2.4239     0.1458    98.9339     8.0535     0.0206
  474.5000   -28.8564     7.2259     6.5288     2.4193     0.1429   112.8830     8.0519     0.0226
  475.0000   -28.7722     7.1328     6.5233     2.4548     0.1396   130.9272     8.0489     0.0174
  475.5000   -28.6879     7.1437     6.5178     2.4478     0.1363   129.5366     8.0462    -0.0038
  476.0000   -28.6038     7.1636     6.5123     2.4371     0.1330   121.1339     8.0435    -0.0091
  476.5000   -28.5197     7.1832     6.5069     2.4410     0.1302   112.7772     8.0408    -0.0087
  477.0000   -28.4357     7.1987     6.4898     2.4495     0.1236   107.4866     8.0381    -0.0083
  477.5000   -28.3506     7.1486     6.4250     2.4566     0.1250   114.5291     8.0354    -0.0080
  478.0000   -28.3671     7.1073     6.3615     2.4540     0.1258   118.8930     8.0327    -0.0076
  478.5000   -28.4474     7.0662     6.2779     2.4536     0.1233   119.6078     8.0300    -0.0073
  479.0000   -28.5281     7.0254     6.1663     2.4576     0.1214   112.3949     8.0273    -0.0069
  479.5000   -28.6089     6.9953     6.0567     2.4615     0.1238   106.3033     8.0246    -0.0054
