~VERSION INFORMATION
 VERS.                2.0:   CWLS LOG ASCII STANDARD - VERSION 2.0
 WRAP.                 NO:   ONE LINE PER DEPTH STEP
~WELL INFORMATION
#MNEM.UNIT      DATA TYPE    INFORMATION
#----------   ------------   ------------------------------
 STRT.F           29.0000:   START DEPTH
 STOP.F          720.0000:   STOP DEPTH
 STEP.F            0.5000:   STEP LENGTH
 NULL.          -999.2500:   NO VALUE
 COMP.    FENIX & SCISSON:   COMPANY
 WELL. RES 3 TEAPOT DOM #21-S-14:   WELL
 FLD .        TEAPOT DOME:   FIELD
 LOC .      S14 T38N R78W:   LOCATION
 CNTY.            NATRONA:   COUNTY
 STAT.            WYOMING:   STATE
 CTRY. UNITED STATES OF AMERICA:   COUNTRY
 SRVC.            Unknown:   SERVICE COMPANY
 DATE.        25-MAY-1978:   LOGDATE
 API .       490251063300:   API NUMBER
~CURVE INFORMATION
#MNEM.UNIT       API CODE    CURVE DESCRIPTION
#----------   ------------   ------------------------------
 DEPT.F                  :   
 CALD.IN     45 280 60 00:   CALIPER FROM DENSITY LOG
 CORR.G/C3   45 356 01 00:   DENSITY CORRECTION
 DPHI.DEC    45 890 12 00:   DENSITY POROSITY SANDSTONE
 GRD .GAPI   45 310 01 00:   GAMMA RAY FROM DENSITY LOG
 RHOB.G/C3   45 350 01 00:   BULK DENSITY
 ILD .OHMM   05 120 46 00:   INDUCTION LOG DEEP
 SN  .OHMM   05 040 16 00:   SHORT NORMAL 16"
 SPR .MV     05 010 01 00:   SPONTANEOUS POTENTIAL FROM RES.
~PARAMETER INFORMATION
#MNEM.UNIT          VALUE    DESCRIPTION
#----------   ------------   ------------------------------
 PD  .                 GL:   PERMANENT DATUM
 EPD .F              5232:   ELEVATION PERMANENT DATUM
 LMF .                 KB:   LOG MEASURED FROM
 DAPD.F                 4:   FEET ABOVE PERMANENT DATUM
 DMF .                 KB:   DRILLING MEASURED FROM
 EKB .F              5236:   KELLING BUSHING
 EGL .F              5232:   GROUND LEVEL
 DATE.        25-MAY-1978:   RUN DATE
 RUN .                  1:   RUN NUMBER
 DD  .F               716:   DEPTH DRILLER
 DL  .F               727:   DEPTH LOGGER
 BLI .F               720:   BOTTOM LOG INTERVAL
 TLI .F                44:   TOP LOG INTERVAL
 CS  .IN            8.625:   CASING SIZE
 CBD .F                40:   CASING BOTTOM DRILLER
 CBL .F                44:   CASING BOTTOM LOGGER
 BS  .IN            7.875:   BIT SIZE
 BSD .F               716:   BIT SIZE AT DEPTH
 DFT .                KCL:   DRILLING FLUID TYPE
 DFD .                8.6:   DRILLING FLUID DENSITY
 DFV .                 31:   DRILLING FLUID VISCOSITY
 DFPH.                9.5:   DRILLING FLUID PH
 DFL .               10.8:   DRILLING FLUID LOSS
 MSS .            MUD PIT:   MUD SAMPLE SOURCE
 RMS .OHMM           0.32:   RESISTIVITY MUD SAMPLE
 MST .F                82:   MUD SAMPLE TEMPERATURE
 RMF .OHMM           0.34:   RESISTIVITY MUD FILTRATE SAMPLE
 MFST.F                72:   MUD FILTRATE SAMPLE TEMPERATURE
 RMC .OHMM            0.8:   RESISTIVITY MUD CAKE
 MCST.F                72:   MUD CAKE SAMPLE TEMPERATURE
 MFSS.               MEAS:   MUD FILTRATE SAMPLE SOURCE
 RMB .OHMM           0.35:   RESISTIVITY MUD AT BHT
 BHT .F                74:   BOTTOM HOLE TEMPERATURE
 TCS .HRS               1:   TIME CURCULATED STOPPED
 MRT .F                74:   MAXIMUM RECORDED TEMPERATURE
 LUN .               2958:   LOGGING UNIT NUMBER
 LUL .               CASP:   LOGGING UNIT LOCATION
 ENGI.             MILLER:   RECORDING ENGINEER
 WITN.           MCGINLEY:   WITNESSED BY
 CLNT.            A2DTECH:   CLIENT CODE
 ORIG.           5" PRINT:   ORIGIN OF DATA
 UWI .       490251063300:   UNIQUE WELL ID
 DICO. A2D Technologies, Inc.:   DIGITIZING COMPANY
~OTHER INFORMATION
~A   DEPT     CALD       CORR       DPHI         GRD      RHOB        ILD         SN        SPR   
# ...
  231.5000     7.5165     0.0058     0.1203    82.9222     2.4616     7.3395     7.3103   -27.4851
  232.0000     7.5770     0.0015     0.1247    88.0143     2.4670     7.3459     7.3171   -27.6197
  232.5000     7.6086     0.0001     0.1268    88.6287     2.4648     7.4032     7.3747   -27.6017
  233.0000     7.6101     0.0034     0.1267    87.3028     2.4619     7.4098     7.3816   -27.7397
  233.5000     7.5966     0.0051     0.1264    85.3799     2.4613     7.4177     7.3886   -27.8742
  234.0000     7.5981     0.0068     0.1267    84.5018     2.4606     7.4241     7.4484   -27.8562
  234.5000     7.5995     0.0085     0.1248    82.6985     2.4615     7.4306     7.4554   -27.6931
  235.0000     7.6159     0.0117     0.1230    79.3632     2.4638     7.4370     7.4624   -27.6736
  235.5000     7.6174     0.0119     0.1256    77.9912     2.4661     7.4435     7.4693   -27.5119
  236.0000     7.6491     0.0166     0.1208    77.7057     2.4685     7.4499     7.4231   -27.4976
  236.5000     7.6466     0.0378     0.1115    80.1155     2.4746     7.3542     7.3806   -27.3344
  237.0000     7.5918     0.0335     0.1109    82.5210     2.4868     7.3100     7.3876   -27.1712
  237.5000     7.5937     0.0292     0.1300    85.8220     2.4912     7.2676     7.3435   -27.3092
  238.0000     7.6250     0.0084     0.1332    88.3767     2.4831     7.2739     7.2998   -27.4401
  238.5000     7.6265     0.0027     0.1344    80.7822     2.4510     7.2803     7.2080   -27.4256
  239.0000     7.6279     0.0092     0.1281    80.2026     2.4481     7.2866     7.2147   -27.4078
  239.5000     7.6294     0.0181     0.1244    81.4183     2.4542     7.2210     7.1701   -27.3934
  240.0000     7.6159     0.0138     0.1226    81.4357     2.4693     7.1992     7.1288   -27.3790
  240.5000     7.4828     0.0125     0.1214    81.0054     2.4710     7.2057     7.1357   -27.3647
  241.0000     7.3934     0.0202     0.1195    80.5750     2.4709     7.1621     7.0932   -27.3503
  241.5000     7.3811     0.0278     0.1171    79.9954     2.4846     7.1699     7.0510   -27.3359
  242.0000     7.3979     0.0221     0.1147    79.4158     2.4868     7.1252     7.1081   -27.3214
  242.5000     7.4442     0.0268     0.1122    79.7317     2.4839     7.1824     7.1641   -27.3036
  243.0000     7.6549     0.0285     0.1098    81.9930     2.4863     7.1886     7.1708   -27.2892
  243.5000     7.7311     0.0257     0.1089    82.1552     2.4894     7.2447     7.1775   -27.2749
  244.0000     7.7325     0.0200     0.1205    81.5793     2.4880     7.2510     7.1842   -27.2605
  244.5000     7.7340     0.0202     0.1214    80.9953     2.4769     7.2588     7.1912   -27.3986
  245.0000     7.7355     0.0294     0.1204    85.3455     2.4740     7.3154     7.2493   -27.3806
  245.5000     7.7070     0.0460     0.1171    85.9555     2.4763     7.3218     7.2560   -27.3661
  246.0000     7.6935     0.0537     0.1147    80.4549     2.4930     7.3789     7.3132   -27.3483
  246.5000     7.6804     0.0435     0.1122    79.1290     2.4907     7.3853     7.2679   -27.3339
  247.0000     7.5174     0.0332     0.1185    78.2509     2.4878     7.3917     7.2764   -27.3195
  247.5000     7.4441     0.0106     0.1256    78.7289     2.4857     7.4493     7.3337   -27.3052
  248.0000     7.4456    -0.0038     0.1300    83.8124     2.4641     7.4560     7.3408   -27.1420
  248.5000     7.4471    -0.0066     0.1339    84.4269     2.4500     7.5155     7.4514   -27.1276
  249.0000     7.4485    -0.0109     0.1369    85.0413     2.4463     7.5741     7.4584   -27.1131
  249.5000     7.4649    -0.0137     0.1392    86.8497     2.4442     7.6332     7.5171   -27.0953
  250.0000     7.5411    -0.0116     0.1398    88.3553     2.4428     7.6393     7.5809   -27.0832
  250.5000     7.5727    -0.0026     0.1334    79.8214     2.4439     7.6461     7.6203   -27.0669
  251.0000     7.5741     0.0064     0.1307    79.4346     2.4450     7.6530     7.6597   -27.0506
  251.5000     7.5457     0.0096     0.1268    79.6036     2.4491     7.6599     7.6987   -26.8841
  252.0000     7.5471     0.0128     0.1181    82.6045     2.4596     7.6670     7.7045   -26.5706
  252.5000     7.5785     0.0160     0.1145    84.1129     2.4725     7.7268     7.7649   -26.4059
  253.0000     7.5803     0.0132     0.1141    85.9197     2.4800     7.8411     7.8245   -26.3899
  253.5000     7.5817     0.0029     0.1165    86.6821     2.4883     7.9585     7.8845   -26.3740
  254.0000     7.5831    -0.0013     0.1218    86.8508     2.4765     7.9655     8.0001   -26.5069
  254.5000     7.5846     0.0004     0.1242    86.8666     2.4706     8.0832     8.0615   -26.4870
  255.0000     7.5860     0.0036     0.1229    86.8824     2.4707     8.0902     8.0675   -26.4711
  255.5000     7.5575     0.0083     0.1130    86.7450     2.4685     8.0972     8.0735   -26.6080
  256.0000     7.5590     0.0025     0.1226    86.3170     2.4739     8.1043     8.0808   -26.5881
  256.5000     7.5608    -0.0033     0.1252    86.1836     2.4702     8.1113     8.0868   -26.7249
  257.0000     7.5921    -0.0030     0.1270    85.9009     2.4658     8.1808     8.2054   -26.8542
  257.5000     7.5936     0.0062     0.1153    87.5625     2.4622     8.2972     8.2683   -26.8378
  258.0000     7.6100     0.0094     0.1107    91.0111     2.4795     8.4198     8.3318   -26.8214
  258.5000     7.6114     0.0021     0.1125    90.8737     2.4871     8.4854     8.4540   -26.8021
  259.0000     7.5979    -0.0008     0.1205    89.4009     2.4790     8.6108     8.5779   -26.7862
  259.5000     7.5695    -0.0005     0.1226    85.5362     2.4738     8.6780     8.6483   -26.7703
  260.0000     7.5410    -0.0003     0.1225    80.4577     2.4717     8.7456     8.7721   -26.7544
  260.5000     7.5279     0.0014     0.1212    81.6911     2.4718     8.8749     8.8394   -26.7384
  261.0000     7.5293     0.0106     0.1159    84.0950     2.4726     8.8902     8.9691   -26.8720
  261.5000     7.5382     0.0183     0.1075    84.5546     2.4757     9.0158     9.0379   -26.8554
  262.0000     7.5618     0.0230     0.1038    79.7983     2.4871     9.1490     9.1073   -26.8393
  262.5000     7.5483     0.0172     0.1092    79.0678     2.4957     9.1570     9.1140   -26.8229
  263.0000     7.5501     0.0085     0.1133    79.0836     2.4939     9.2284     9.1839   -26.8037
  263.5000     7.5516     0.0042     0.1127    79.1000     2.4858     9.3003     9.2546   -26.9406
  264.0000     7.5531     0.0029     0.1195    79.1192     2.4814     9.3729     9.3918   -26.9207
  264.5000     7.5548     0.0076     0.1150    80.3291     2.4785     9.4460     9.3988   -26.9047
  265.0000     7.5712     0.0123     0.1126    80.7926     2.4779     9.4545     9.4057   -26.8888
  265.5000     7.5876     0.0110     0.1173    80.6592     2.4810     9.5300     9.3478   -26.8729
  266.0000     7.6189     0.0097     0.1191    79.4810     2.4786     9.5383     9.3547   -26.8570
  266.5000     7.6204     0.0099     0.1202    76.9507     2.4737     9.5466     9.3616   -26.8408
  267.0000     7.6218     0.0116     0.1223    76.8260     2.4708     9.4892     9.3040   -26.8212
  267.5000     7.6233     0.0133     0.1238    77.8906     2.4694     9.4321     9.3110   -26.8053
  268.0000     7.6101     0.0196     0.1186    81.1900     2.4710     9.3464     9.2553   -26.7893
  268.5000     7.5963     0.0198     0.1138    85.2356     2.4741     9.1901     9.1966   -26.7734
  269.0000     7.5383     0.0169     0.1129    86.2962     2.4771     9.1272     9.1400   -26.7575
  269.5000     7.4500     0.0111     0.1170    86.4613     2.4802     9.0188     9.0838   -26.8904
  270.0000     7.4515     0.0069     0.1206    83.4129     2.4766     9.0286     8.9657   -26.8745
  270.5000     7.4679     0.0026     0.1227    82.0192     2.4715     8.9723     8.9740   -26.7097
  271.0000     7.4694    -0.0004     0.1268    82.6321     2.4656     8.9184     8.9187   -26.6935
  271.5000     7.5757    -0.0030     0.1282    85.9315     2.4612     8.9281     8.8639   -26.6739
