~VERSION INFORMATION
 VERS.                2.0:   CWLS LOG ASCII STANDARD - VERSION 2.0
 WRAP.                 NO:   ONE LINE PER DEPTH STEP
~WELL INFORMATION
#MNEM.UNIT      DATA TYPE    INFORMATION
#----------   ------------   ------------------------------
 STRT.F           32.0000:   START DEPTH
 STOP.F          812.0000:   STOP DEPTH
 STEP.F            0.5000:   STEP LENGTH
 NULL.          -999.2500:   NO VALUE
 COMP. FENIX & SCISSON INC:   COMPANY
 WELL.       75 SX #15-15:   WELL
 FLD .             TEAPOT:   FIELD
 LOC .      S15 T38N R78W:   LOCATION
 CNTY.            NATRONA:   COUNTY
 STAT.            WYOMING:   STATE
 CTRY. UNITED STATES OF AMERICA:   COUNTRY
 SRVC.              Welex:   SERVICE COMPANY
 DATE.        28-FEB-1977:   LOGDATE
 API .       490251030100:   API NUMBER
~CURVE INFORMATION
#MNEM.UNIT       API CODE    CURVE DESCRIPTION
#----------   ------------   ------------------------------
 DEPT.F                  :   
 SPR .MV     07 010 01 00:   SPONTANEOUS POTENTIAL
 ILD .OHMM   07 120 46 00:   INDUCTION LOG DEEP
 SGRD.OHMM   07 220 05 00:   SHALLOW RESISTIVITY
 ILM .OHMM   07 120 44 00:   INDUCTION LOG MEDIUM
 GRD .GAPI   45 310 01 00:   GAMMA RAY FROM DENSITY LOG
 CALD.IN     45 280 60 00:   CALIPER FROM DENSITY LOG
 RHOB.G/C3   45 350 01 00:   BULK DENSITY
 DPHI.DEC    45 890 12 00:   DENSITY POROSITY SANDSTONE
 CORR.G/C3   45 356 01 00:   DENSITY CORRECTION
~PARAMETER INFORMATION
#MNEM.UNIT          VALUE    DESCRIPTION
#----------   ------------   ------------------------------
 PD  .                 GL:   PERMANENT DATUM
 EPD .F              5264:   ELEVATION PERMANENT DATUM
 LMF .                 GL:   LOG MEASURED FROM
 DMF .                 GL:   DRILLING MEASURED FROM
 EGL .F              5264:   GROUND LEVEL
 DATE.          2-28-1977:   RUN DATE
 RUN .                  1:   RUN NUMBER
 DD  .F               830:   DEPTH DRILLER
 DL  .F               814:   DEPTH LOGGER
 BLI .F               812:   BOTTOM LOG INTERVAL
 TLI .F                42:   TOP LOG INTERVAL
 CS  .IN            8.625:   CASING SIZE
 CBD .F                40:   CASING BOTTOM DRILLER
 CBL .F                42:   CASING BOTTOM LOGGER
 BS  .IN            7.875:   BIT SIZE
 BSD .F               830:   BIT SIZE AT DEPTH
 DFT .           CHEM-GEL:   DRILLING FLUID TYPE
 DFD .                9.3:   DRILLING FLUID DENSITY
 DFV .                 38:   DRILLING FLUID VISCOSITY
 DFPH.               10.5:   DRILLING FLUID PH
 DFL .               16.2:   DRILLING FLUID LOSS
 MSS .          FLOW LINE:   MUD SAMPLE SOURCE
 RMS .OHMM           0.44:   RESISTIVITY MUD SAMPLE
 MST .F                62:   MUD SAMPLE TEMPERATURE
 RMF .OHMM            .38:   RESISTIVITY MUD FILTRATE SAMPLE
 MFST.F                62:   MUD FILTRATE SAMPLE TEMPERATURE
 RMC .OHMM           0.79:   RESISTIVITY MUD CAKE
 MCST.F                62:   MUD CAKE SAMPLE TEMPERATURE
 MFSS.           MEASURED:   MUD FILTRATE SAMPLE SOURCE
 MCSS.           MEASURED:   MUD CAKE SAMPLE SOURCE
 RMB .OHMM           .368:   RESISTIVITY MUD AT BHT
 BHT .F                74:   BOTTOM HOLE TEMPERATURE
 TCS .HRS               3:   TIME CURCULATED STOPPED
 MRT .F                74:   MAXIMUM RECORDED TEMPERATURE
 LUN .               8611:   LOGGING UNIT NUMBER
 LUL .           GILLETTE:   LOGGING UNIT LOCATION
 ENGI.               DOAK:   RECORDING ENGINEER
 WITN.               JAPP:   WITNESSED BY
 CLNT.            A2DTECH:   CLIENT CODE
 ORIG.       2", 5" PRINT:   ORIGIN OF DATA
 UWI .       490251030100:   UNIQUE WELL ID
 DICO. A2D Technologies, Inc.:   DIGITIZING COMPANY
~OTHER INFORMATION
~A   DEPT      SPR        ILD       SGRD        ILM         GRD        CALD       RHOB       DPHI      CORR  
# ...
  324.0000   -47.4054     7.8434    11.5590     6.3105   127.4859     7.7109     2.4395     0.1184     0.0196
  324.5000   -47.3734     7.9201    11.9650     6.5474   127.5534     7.7094     2.4438     0.1170     0.0179
  325.0000   -47.2274     7.9976    12.3719     6.7942   127.9767     7.7079     2.4481     0.1156     0.0166
  325.5000   -47.0864     8.0758    12.7902     7.0501   128.0397     7.7064     2.4469     0.1151     0.0158
  326.0000   -46.9453     8.1548    13.1532     7.3156   124.8439     7.7049     2.4424     0.1174     0.0150
  326.5000   -46.8042     8.2345    13.1532     7.5911   122.4600     7.7034     2.4379     0.1197     0.0142
  327.0000   -46.6631     8.3151    13.1532     7.8769   120.5229     7.7019     2.4344     0.1221     0.0134
  327.5000   -46.5220     8.4010    13.0976     8.1735   120.6559     7.7003     2.4318     0.1225     0.0126
  328.0000   -46.3809     8.5014    12.9736     8.4534   123.9514     7.7047     2.4292     0.1233     0.0117
  328.5000   -46.2398     8.6030    12.8509     8.6714   129.0913     7.7125     2.4266     0.1237     0.0109
  329.0000   -46.0988     8.7058    12.7947     8.8766   134.4770     7.7205     2.4239     0.1253     0.0101
  329.5000   -45.9577     8.8099    12.7947     9.0866   133.1332     7.7284     2.4184     0.1270     0.0093
  330.0000   -45.8166     8.9151    12.8349     9.3017   130.5826     7.7364     2.4123     0.1287     0.0104
  330.5000   -45.6752     9.0216    12.8813     9.5217   128.0649     7.7371     2.4064     0.1305     0.0128
  331.0000   -45.5336     9.1294    13.1861     9.7470   125.5537     7.7333     2.4042     0.1305     0.0153
  331.5000   -45.4049     9.2763    13.7727     9.9777   123.0428     7.7293     2.4158     0.1301     0.0177
  332.0000   -45.4084     9.4638    14.4221    10.2137   120.5293     7.7253     2.4270     0.1256     0.0204
  332.5000   -45.4409     9.6551    13.0927    10.4554   118.0236     7.7213     2.4382     0.1210     0.0235
  333.0000   -45.6415     9.8502    11.8250    10.7028   116.1758     7.7174     2.4493     0.1164     0.0265
  333.5000   -45.8398    10.0494    10.9403    10.9560   118.1923     7.7134     2.4555     0.1119     0.0295
  334.0000   -46.0383    10.2528    12.1846    11.2468   119.7446     7.7094     2.4550     0.1089     0.0326
  334.5000   -46.2368    10.4597    13.5108    11.1041   118.1103     7.7052     2.4545     0.1105     0.0319
  335.0000   -46.4188    10.6460    14.9814    10.9418   116.5487     7.7027     2.4540     0.1120     0.0307
  335.5000   -46.4649    10.6741    16.6120    11.3130   116.1871     7.6814     2.4555     0.1121     0.0296
  336.0000   -46.5154    10.7025    17.3392    11.7239   118.2886     7.6898     2.4605     0.1076     0.0285
  336.5000   -46.5660    10.7307    16.3125    11.8880   120.5050     7.6966     2.4654     0.1031     0.0273
  337.0000   -46.6167    10.7496    15.6123    11.7530   122.7157     7.7036     2.4704     0.1000     0.0262
  337.5000   -46.6673    10.7634    15.3265    11.6600   125.0079     7.7106     2.4736     0.1040     0.0251
  338.0000   -46.7180    10.7772    15.1021    11.5619   124.3381     7.7176     2.4644     0.1091     0.0239
  338.5000   -46.7686    10.7911    14.8810    11.7413   122.7699     7.7246     2.4537     0.1141     0.0228
  339.0000   -46.8193    10.8050    14.6631    11.9880   127.2516     7.7316     2.4469     0.1173     0.0217
  339.5000   -46.8699    10.8186    14.4485    12.3290   134.2669     7.7386     2.4451     0.1185     0.0205
  340.0000   -46.9207    10.8398    14.2899    11.9107   132.5932     7.7456     2.4433     0.1184     0.0194
  340.5000   -46.9708    10.7989    14.3684    11.2665   128.7286     7.7528     2.4414     0.1179     0.0191
  341.0000   -47.0194    10.7180    14.4600    10.6619   122.3028     7.7584     2.4425     0.1174     0.0204
  341.5000   -47.0623    10.6362    14.5562    10.0900   117.7936     7.7311     2.4451     0.1169     0.0216
  342.0000   -47.1053    10.5549    14.4973     9.5488   120.6608     7.7027     2.4545     0.1112     0.0229
  342.5000   -47.1482    10.4743    14.4221     9.4413   123.3624     7.6745     2.4640     0.1058     0.0241
  343.0000   -47.1911    10.3944    14.4931     9.4662   122.3129     7.6458     2.4721     0.1002     0.0243
  343.5000   -47.2340    10.3377    14.5560     9.5690   120.5122     7.6462     2.4659     0.1042     0.0201
  344.0000   -47.2770    10.3070    14.4306     9.6730   118.7123     7.6622     2.4558     0.1093     0.0159
  344.5000   -47.3199    10.2764    14.1811     9.7785   117.4605     7.6781     2.4457     0.1144     0.0119
  345.0000   -47.3631    10.2459    14.0316     9.8868   118.8360     7.6941     2.4397     0.1195     0.0090
  345.5000   -47.4037    10.2155    14.4221     9.7743   120.4971     7.7106     2.4397     0.1198     0.0093
  346.0000   -47.3908    10.1851    14.2171     9.6340   122.4800     7.7378     2.4432     0.1177     0.0096
  346.5000   -47.3760    10.1549    13.9133     9.4956   125.2115     7.7161     2.4492     0.1157     0.0099
  347.0000   -47.3614    10.1247    13.5182     9.3603   127.9757     7.6958     2.4546     0.1136     0.0102
  347.5000   -47.3468    10.0947    13.5197     9.2651   130.4956     7.6759     2.4547     0.1115     0.0105
  348.0000   -47.3323    10.0647    13.7303     9.4773   129.2873     7.6558     2.4547     0.1106     0.0108
  348.5000   -47.3177    10.0348    14.6936     9.6405   126.3388     7.6359     2.4547     0.1106     0.0111
  349.0000   -47.3032    10.0050    14.6931     9.8079   127.1388     7.6195     2.4547     0.1110     0.0114
  349.5000   -47.2887     9.9753    14.3066     9.9782   128.7495     7.6349     2.4547     0.1117     0.0116
  350.0000   -47.2741     9.9457    14.1317    10.1514   128.9149     7.6527     2.4546     0.1130     0.0119
  350.5000   -47.2596     9.9161    13.9582    10.3277   127.4401     7.6705     2.4552     0.1149     0.0122
  351.0000   -47.2450     9.8862    13.7869    10.5446   125.9303     7.6883     2.4516     0.1168     0.0125
  351.5000   -47.2304     9.6470    13.6174    10.4067   125.6906     7.7060     2.4479     0.1187     0.0128
  352.0000   -47.2159     9.4087    13.3965    10.2352   127.1705     7.7200     2.4442     0.1197     0.0127
  352.5000   -47.2104     9.1767    13.4510    10.0666   127.8619     7.7197     2.4456     0.1173     0.0115
  353.0000   -47.2316     8.9505    13.5574     9.9008   127.1437     7.7197     2.4478     0.1149     0.0103
  353.5000   -47.2517     8.7300    13.6517     9.7377   127.8250     7.7187     2.4497     0.1139     0.0092
  354.0000   -47.2719     8.5148    13.1788     9.5773   131.6784     7.7176     2.4421     0.1179     0.0080
  354.5000   -47.2920     8.3050    12.6201     9.4195   135.3855     7.7166     2.4340     0.1219     0.0068
  355.0000   -47.3122     8.1002    12.0835     9.2643   139.1459     7.7155     2.4259     0.1259     0.0056
  355.5000   -47.3323     7.8994    11.4559     9.1117   142.8884     7.7144     2.4177     0.1285     0.0058
  356.0000   -47.3525     7.7792    11.4719     8.9337   146.3913     7.7134     2.4204     0.1270     0.0075
  356.5000   -47.3726     7.7809    11.4994     9.0740   147.0872     7.7123     2.4246     0.1256     0.0093
  357.0000   -47.3928     7.8341    11.5271     9.2498   144.6268     7.7112     2.4286     0.1241     0.0110
  357.5000   -47.4129     7.8970    11.5547     9.4291   141.2370     7.7101     2.4288     0.1237     0.0128
  358.0000   -47.4331     7.9865    11.6943     9.6118   136.4847     7.7091     2.4291     0.1233     0.0145
  358.5000   -47.4533     8.1598    12.5295     9.7981   131.7852     7.7080     2.4363     0.1190     0.0163
  359.0000   -47.4734     8.3369    13.4242     9.9880   127.0686     7.7069     2.4437     0.1149     0.0180
  359.5000   -47.4936     8.5178    14.2899    10.1816   123.8165     7.7059     2.4509     0.1108     0.0198
  360.0000   -47.5137     8.7026    13.9197    10.3789   122.4214     7.7048     2.4582     0.1067     0.0215
