~VERSION INFORMATION
 VERS.                2.0:   CWLS LOG ASCII STANDARD - VERSION 2.0
 WRAP.                 NO:   ONE LINE PER DEPTH STEP
~WELL INFORMATION
#MNEM.UNIT      DATA TYPE    INFORMATION
#----------   ------------   ------------------------------
 STRT.F           40.0000:   START DEPTH
 STOP.F          490.0000:   STOP DEPTH
 STEP.F            0.5000:   STEP LENGTH
 NULL.          -999.2500:   NO VALUE
 COMP.    FENIX & SCISSON:   COMPANY
 WELL. RES 3 TEAPOT DOM #76-10:   WELL
 FLD .        TEAPOT DOME:   FIELD
 LOC .      S10 T38N R78W:   LOCATION
 CNTY.            NATRONA:   COUNTY
 STAT.            WYOMING:   STATE
 CTRY. UNITED STATES OF AMERICA:   COUNTRY
 SRVC.           BIRDWELL:   SERVICE COMPANY
 DATE.        19-JUN-1978:   LOGDATE
 API .       490251065100:   API NUMBER
~CURVE INFORMATION
#MNEM.UNIT       API CODE    CURVE DESCRIPTION
#----------   ------------   ------------------------------
 DEPT.F                  :   
 CALD.IN     45 280 60 00:   CALIPER FROM DENSITY LOG
 CORR.G/C3   45 356 01 00:   DENSITY CORRECTION
 DPHI.DEC    45 890 12 00:   DENSITY POROSITY SANDSTONE
 GRD .GAPI   45 310 01 00:   GAMMA RAY FROM DENSITY LOG
 RHOB.G/C3   45 350 01 00:   BULK DENSITY
 ILD .OHMM   05 120 46 00:   INDUCTION LOG DEEP
 SN  .OHMM   05 040 16 00:   SHORT NORMAL 16"
 SPR .MV     05 010 01 00:   SPONTANEOUS POTENTIAL FROM RES.
~PARAMETER INFORMATION
#MNEM.UNIT          VALUE    DESCRIPTION
#----------   ------------   ------------------------------
 PD  .                 GL:   PERMANENT DATUM
 EPD .F              5185:   ELEVATION PERMANENT DATUM
 LMF .                 KB:   LOG MEASURED FROM
 DAPD.F                 4:   FEET ABOVE PERMANENT DATUM
 DMF .                 KB:   DRILLING MEASURED FROM
 EKB .F              5189:   KELLING BUSHING
 EGL .F              5185:   GROUND LEVEL
 DATE.        19-JUN-1978:   RUN DATE
 RUN .                  1:   RUN NUMBER
 DD  .F               485:   DEPTH DRILLER
 DL  .F               490:   DEPTH LOGGER
 BLI .F               490:   BOTTOM LOG INTERVAL
 TLI .F                50:   TOP LOG INTERVAL
 CS  .IN            8.625:   CASING SIZE
 CBD .F                30:   CASING BOTTOM DRILLER
 CBL .F                30:   CASING BOTTOM LOGGER
 BS  .IN            7.875:   BIT SIZE
 BSD .F               485:   BIT SIZE AT DEPTH
 DFT .                KCL:   DRILLING FLUID TYPE
 DFD .                8.7:   DRILLING FLUID DENSITY
 DFV .                 34:   DRILLING FLUID VISCOSITY
 DFPH.               10.5:   DRILLING FLUID PH
 MSS .           FLOWLINE:   MUD SAMPLE SOURCE
 RMS .OHMM           0.24:   RESISTIVITY MUD SAMPLE
 MST .F                70:   MUD SAMPLE TEMPERATURE
 RMF .OHMM           0.24:   RESISTIVITY MUD FILTRATE SAMPLE
 MFST.F                72:   MUD FILTRATE SAMPLE TEMPERATURE
 RMC .OHMM           0.28:   RESISTIVITY MUD CAKE
 MCST.F                78:   MUD CAKE SAMPLE TEMPERATURE
 MFSS.               MEAS:   MUD FILTRATE SAMPLE SOURCE
 MCSS.               MEAS:   MUD CAKE SAMPLE SOURCE
 RMB .OHMM           0.27:   RESISTIVITY MUD AT BHT
 BHT .F                74:   BOTTOM HOLE TEMPERATURE
 TCS .HRS               1:   TIME CURCULATED STOPPED
 MRT .F                74:   MAXIMUM RECORDED TEMPERATURE
 LUN .               2958:   LOGGING UNIT NUMBER
 LUL .               CASP:   LOGGING UNIT LOCATION
 ENGI.           REYNOLDS:   RECORDING ENGINEER
 WITN.           MCGINLEY:   WITNESSED BY
 CLNT.            A2DTECH:   CLIENT CODE
 ORIG.           5" PRINT:   ORIGIN OF DATA
 UWI .       490251065100:   UNIQUE WELL ID
 DICO. A2D Technologies, Inc.:   DIGITIZING COMPANY
~OTHER INFORMATION
~A   DEPT     CALD       CORR       DPHI        GRD       RHOB        ILD         SN        SPR   
# ...
  364.0000     7.2507     0.0070     0.1385    98.2592     2.4388     9.5357    11.3248   -38.1241
  364.5000     7.2513     0.0079     0.1409    99.4683     2.4345     9.5253    11.3886   -38.1241
  365.0000     7.2519     0.0101     0.1417    97.5778     2.4360     9.4078    11.3886   -38.1241
  365.5000     7.2525     0.0101     0.1424    95.2612     2.4362     9.2802    11.3886   -38.1241
  366.0000     7.2531     0.0087     0.1427    92.2523     2.4375     8.9056    11.3886   -38.1241
  366.5000     7.2687     0.0072     0.1409    95.5710     2.4406     8.7845    11.3886   -38.2753
  367.0000     7.2843     0.0041     0.1373    95.7259     2.4465     8.7859    11.3886   -38.2753
  367.5000     7.2864     0.0013     0.1334    95.2795     2.4488     8.7871    11.3943   -38.2753
  368.0000     7.3006    -0.0017     0.1304    95.1332     2.4503     8.7883    11.4675   -38.2753
  368.5000     7.3161    -0.0046     0.1343    94.9858     2.4376     8.7896    11.4675   -38.2753
  369.0000     7.3467    -0.0076     0.1412    95.2924     2.4309     8.7908    11.4675   -38.2753
  369.5000     7.3472    -0.0075     0.1436    98.9172     2.4294     8.7919    11.4783   -38.2753
  370.0000     7.3178    -0.0090     0.1463    98.4647     2.4241     8.8541    11.6271   -38.1241
  370.5000     7.2736    -0.0089     0.1504    97.2631     2.4144     8.8553    11.7563   -38.1241
  371.0000     7.2292    -0.0074     0.1556    98.3227     2.4069     8.9177    11.9529   -38.1241
  371.5000     7.1998    -0.0029     0.1594    99.3812     2.3927     9.0430    12.2033   -37.6702
  372.0000     7.2153     0.0017     0.1664   100.7410     2.3710     9.2970    12.4589   -37.0651
  372.5000     7.2464     0.0092     0.1748   101.6489     2.3567     9.8254    12.7573   -36.3086
  373.0000     7.3066     0.0167     0.1853    95.1784     2.3305    10.6921    13.0866   -35.2365
  373.5000     7.3221     0.0212     0.2010    85.5441     2.3073    11.9209    13.5359   -34.6445
  374.0000     7.3572     0.0198     0.2178    86.0002     2.3013    12.6856    14.1089   -34.4932
  374.5000     7.3832     0.0183     0.2247    88.4142     2.2967    13.4066    15.3286   -34.0393
  375.0000     7.3838     0.0168     0.2277    90.2257     2.2939    14.3658    16.7691   -33.4342
  375.5000     7.3515     0.0152     0.2292    82.3998     2.3021    15.3931    18.0934   -32.8290
  376.0000     7.2951     0.0139     0.2229    80.8970     2.3036    16.3805    18.8592   -32.5265
  376.5000     7.2507     0.0140     0.2217    80.7507     2.3036    16.0473    19.2542   -32.2239
  377.0000     7.2213     0.0140     0.2229    80.3042     2.3121    15.8296    19.2542   -32.0726
  377.5000     7.2369     0.0155     0.2175    79.7062     2.3142    15.7231    19.2542   -32.0726
  378.0000     7.2549     0.0201     0.2148    79.4093     2.3127    15.7254    19.3877   -32.0131
  378.5000     7.2981     0.0246     0.2163    79.5652     2.3119    15.7275    19.3877   -31.6188
  379.0000     7.3287     0.0276     0.2196    79.8708     2.3120    15.7299    19.1216   -31.0136
  379.5000     7.3593     0.0292     0.2175    80.3269     2.3150    15.7318    19.0981   -30.8623
  380.0000     7.3748     0.0277     0.2148    80.6526     2.3255    15.7340    18.8592   -30.7110
  380.5000     7.3295     0.0262     0.2097    82.2944     2.3510    15.7365    18.7294   -30.6904
  381.0000     7.2712     0.0263     0.1944    87.4192     2.3578    15.7386    18.6004   -30.5598
  381.5000     7.2268     0.0278     0.1877    86.6574     2.3600    15.8495    18.4723   -30.5598
  382.0000     7.1973     0.0310     0.1838    86.0030     2.3623    15.8516    18.3451   -30.5598
  382.5000     7.2129     0.0324     0.1814    85.7755     2.3660    15.8541    18.2042   -30.5598
  383.0000     7.2135     0.0234     0.1790    85.7809     2.3721    15.7467    17.9688   -30.5598
  383.5000     7.2142     0.0025     0.1733    85.7852     2.4103    15.1111    17.9688   -30.5598
  384.0000     7.1996     0.0058     0.1507    86.0907     2.4156    14.2043    17.7222   -30.7110
  384.5000     7.2603     0.0176     0.1558    86.5468     2.4126    13.6305    17.6001   -30.8623
  385.0000     7.3209     0.0236     0.1579    87.3193     2.4133    13.2615    17.3586   -31.0136
  385.5000     7.2756     0.0266     0.1591    87.7613     2.4134    13.0815    17.1204   -31.4675
  386.0000     7.1722     0.0146     0.1579    87.6150     2.4231    13.3571    16.8854   -31.9375
  386.5000     7.1427    -0.0018     0.1357    86.4145     2.4441    13.4512    16.6537   -32.2239
  387.0000     7.1734    -0.0092     0.1372    84.6116     2.4456    13.6397    16.3120   -32.2239
  387.5000     7.2189    -0.0077     0.1354    81.6542     2.4449    13.4547    16.1997   -32.2239
  388.0000     7.2795    -0.0061     0.1372    81.0057     2.4433    13.4060    16.1997   -32.2239
  388.5000     7.3401    -0.0016     0.1633    84.6256     2.3632    13.4586    16.0882   -32.2239
  389.0000     7.3737    -0.0001     0.1805    87.6419     2.3467    13.4606    16.0882   -32.2239
  389.5000     7.3863     0.0030     0.1964    89.7547     2.3385    13.5553    16.1997   -32.2239
  390.0000     7.3417     0.0045     0.2018    90.6727     2.3393    13.4639    16.1997   -32.2239
  390.5000     7.2825     0.0014     0.2036    90.5174     2.3408    13.4660    16.1997   -32.3752
  391.0000     7.2832    -0.0029     0.2003    89.7687     2.3453    13.3752    16.1997   -32.3229
  391.5000     7.2837    -0.0044     0.1978    89.1705     2.3461    13.3770    16.1997   -32.2239
  392.0000     7.3443     0.0046     0.1943    89.1749     2.3416    13.3790    16.1997   -32.2239
  392.5000     7.3449     0.0122     0.1988    89.6461     2.3356    13.2884    16.1997   -32.2239
  393.0000     7.3005     0.0167     0.2096    90.6906     2.3356    13.1992    16.0882   -32.2239
  393.5000     7.2860     0.0122     0.2087    91.2973     2.3358    13.2560    15.8674   -32.2239
  394.0000     7.2716     0.0108     0.2050    91.3016     2.3536    13.2944    15.8674   -32.2239
  394.5000     7.2873     0.0108     0.1967    91.3059     2.3604    13.3881    15.8674   -32.2239
  395.0000     7.3479     0.0154     0.1894    91.3128     2.3604    13.3899    15.7581   -32.2239
  395.5000     7.3334     0.0199     0.1885    91.6168     2.3601    13.3000    15.7581   -32.2239
  396.0000     7.2573     0.0229     0.1885    91.6211     2.3597    13.1196    15.6496   -32.3752
  396.5000     7.1698     0.0214     0.1858    91.7760     2.3665    12.8471    15.5418   -32.6778
  397.0000     7.1104     0.0183     0.1777    91.6286     2.3845    12.5051    15.3286   -32.8290
  397.5000     7.0660     0.0110     0.1723    91.6340     2.3845    12.0830    15.2230   -33.1316
  398.0000     7.0216     0.0051     0.1729    91.3371     2.3852    11.6751    14.9107   -33.4342
  398.5000     7.0072     0.0021     0.1711    91.3425     2.3876    11.5167    14.7061   -33.5855
  399.0000     7.0379    -0.0008     0.1675    91.1951     2.3965    11.4390    14.6048   -33.7368
  399.5000     7.0534    -0.0023     0.1651    90.7487     2.3973    11.3619    14.6048   -33.7368
  400.0000     7.0840     0.0007     0.1648    90.5711     2.3965    11.2081    14.6045   -33.7368
  400.5000     7.0941     0.0038     0.1648    90.5099     2.3943    11.3647    14.4003   -34.0409
  401.0000     7.1161     0.0083     0.1654    90.4423     2.3920    11.2871    14.1981   -34.4965
  401.5000     7.1381     0.0173     0.1681    91.3417     2.3906    11.2880    14.0967   -34.6492
  402.0000     7.1595     0.0249     0.1729    91.4881     2.3996    11.3408    13.9960   -34.9532
  402.5000     7.1597     0.0294     0.1681    91.0310     2.4116    11.2895    13.8003   -34.9546
  403.0000     7.1598     0.0264     0.1626    90.7266     2.4146    11.2904    13.6065   -35.1077
  403.5000     7.1450     0.0186     0.1571    91.3237     2.4154    11.2911    13.3239   -34.9576
  404.0000     7.1452     0.0070     0.1550    91.4701     2.4162    11.2919    13.3204   -34.9593
