~VERSION INFORMATION
 VERS.                2.0:   CWLS LOG ASCII STANDARD - VERSION 2.0
 WRAP.                 NO:   ONE LINE PER DEPTH STEP
~WELL INFORMATION
#MNEM.UNIT      DATA TYPE    INFORMATION
#----------   ------------   ------------------------------
 STRT.F            8.0000:   START DEPTH
 STOP.F         3200.0000:   STOP DEPTH
 STEP.F            0.5000:   STEP LENGTH
 NULL.          -999.2500:   NO VALUE
 COMP. BROWN JOHN E&C INC:   COMPANY
 WELL.  62 x 15-17 #62-15:   WELL
 FLD .        N.P.R NO. 3:   FIELD
 LOC .      S15 T38N R78W:   LOCATION
 CNTY.            NATRONA:   COUNTY
 STAT.            WYOMING:   STATE
 CTRY. UNITED STATES OF AMERICA:   COUNTRY
 SRVC.      Western Atlas:   SERVICE COMPANY
 DATE.        17-JUN-1986:   LOGDATE
 API .       490251104300:   API NUMBER
~CURVE INFORMATION
#MNEM.UNIT       API CODE    CURVE DESCRIPTION
#----------   ------------   ------------------------------
 DEPT.F                  :   
 GRR .GAPI   07 310 01 00:   GAMMA RAY
 CALR.IN     07 280 01 00:   CALIPER FROM RESISTIVITY
 SPR .MV     07 010 01 00:   SPONTANEOUS POTENTIAL
 RILD.OHMM   07 120 46 00:   INDUCTION LOG DEEP RESISTIVITY
 RILM.OHMM   07 120 44 00:   INDUCTION LOG MEDIUM RESISTIVITY
 RFOC.OHMM   07 220 04 00:   RESISTIVITY FOCUSED LOG
 PORD.DEC    45 890 12 00:   POROSITY DENSITY SANDSTONE
 CNC .DEC    42 890 03 00:   NEUTRON POROSITY SANDSTONE
 CORR.G/C3   45 356 01 00:   DENSITY CORRECTION
 DEN .G/C3   45 350 01 00:   COMPENSATED BULK DENSTIY
~PARAMETER INFORMATION
#MNEM.UNIT          VALUE    DESCRIPTION
#----------   ------------   ------------------------------
 PD  .                 GL:   PERMANENT DATUM
 EPD .F              5242:   ELEVATION PERMANENT DATUM
 LMF .                 KB:   LOG MEASURED FROM
 DAPD.F                11:   FEET ABOVE PERMANENT DATUM
 DMF .                 KB:   DRILLING MEASURED FROM
 EKB .F              5253:   KELLING BUSHING
 EGL .F              5242:   GROUND LEVEL
 DATE.            6-17-86:   RUN DATE
 RUN .                  1:   RUN NUMBER
 DD  .F              3200:   DEPTH DRILLER
 DL  .F              3202:   DEPTH LOGGER
 BLI .F              3200:   BOTTOM LOG INTERVAL
 CS  .IN            8.625:   CASING SIZE
 CBD .F               573:   CASING BOTTOM DRILLER
 CBL .F               573:   CASING BOTTOM LOGGER
 BS  .IN            7.875:   BIT SIZE
 BSD .F              3200:   BIT SIZE AT DEPTH
 DFT .            KCL/GEL:   DRILLING FLUID TYPE
 DFD .                8.9:   DRILLING FLUID DENSITY
 DFV .                 37:   DRILLING FLUID VISCOSITY
 DFPH.                8.5:   DRILLING FLUID PH
 DFL .               10.2:   DRILLING FLUID LOSS
 MSS .           MUD TANK:   MUD SAMPLE SOURCE
 RMS .OHMM            .39:   RESISTIVITY MUD SAMPLE
 MST .F                80:   MUD SAMPLE TEMPERATURE
 RMF .OHMM            .29:   RESISTIVITY MUD FILTRATE SAMPLE
 MFST.F                80:   MUD FILTRATE SAMPLE TEMPERATURE
 RMC .OHMM            .49:   RESISTIVITY MUD CAKE
 MCST.F                80:   MUD CAKE SAMPLE TEMPERATURE
 MFSS.               CALC:   MUD FILTRATE SAMPLE SOURCE
 MCSS.               CALC:   MUD CAKE SAMPLE SOURCE
 RMB .OHMM            .24:   RESISTIVITY MUD AT BHT
 BHT .F               130:   BOTTOM HOLE TEMPERATURE
 TCS .HRS               5:   TIME CURCULATED STOPPED
 MRT .F               130:   MAXIMUM RECORDED TEMPERATURE
 LUN .            HL 6264:   LOGGING UNIT NUMBER
 LUL .           GILLETTE:   LOGGING UNIT LOCATION
 ENGI.      P.H. FAHLSING:   RECORDING ENGINEER
 WITN.             STRONG:   WITNESSED BY
 CLNT.            A2DTECH:   CLIENT CODE
 UWI .       490251104300:   UNIQUE WELL ID
 DICO. A2D Technologies, Inc.:   DIGITIZING COMPANY
~OTHER INFORMATION
~A    DEPT     GRR       CALR        SPR       RILD       RILM       RFOC       PORD        CNC       CORR        DEN   
# ...
 2822.0000   109.6725     9.2764   -42.4408     8.4522     8.4742    10.3683     0.0695     0.2221     0.0678     2.5453
 2822.5000   119.8974     9.2771   -42.5841     8.3367     8.3576     9.0903     0.0800     0.2257     0.1019     2.5197
 2823.0000   116.6087     9.2778   -42.7273     8.2799     8.2999     8.7202     0.0723     0.2263     0.1174     2.5213
 2823.5000   111.8186     9.2786   -42.8690     8.2805     8.3576     9.5402     0.0615     0.2173     0.0969     2.5399
 2824.0000   104.0254     9.2793   -43.1626     8.3385     8.4157    11.0316     0.0411     0.2087     0.0704     2.5632
 2824.5000   103.4358     9.2800   -43.3058     8.3971     8.5331    11.8212     0.0375     0.1997     0.0552     2.5841
 2825.0000   103.1532     9.2808   -43.4491     8.5146     8.5924    11.2357     0.0486     0.2102     0.0489     2.5733
 2825.5000   103.4687     9.2817   -43.7430     8.6937     8.6521    10.8026     0.0531     0.2213     0.0430     2.5640
 2826.0000   105.0091     9.2674   -43.8844     8.8153     8.7122    10.5799     0.0558     0.2332     0.0414     2.5570
 2826.5000   106.8451     9.2681   -43.8770     8.9387     8.7826    10.5792     0.0579     0.2341     0.0461     2.5523
 2827.0000   108.6214     9.2688   -43.8697     9.0013     8.8951    10.5055     0.0579     0.2285     0.0492     2.5508
 2827.5000   108.9327     9.2696   -43.8623     9.1906     9.0818    10.5778     0.0557     0.2234     0.0538     2.5570
 2828.0000   106.8488     9.2551   -43.8550     9.2550     9.2725    11.0254     0.0524     0.2189     0.0600     2.5632
 2828.5000   104.7614     9.2710   -43.9985     9.3250     9.3369    11.5719     0.0540     0.2150     0.0569     2.5601
 2829.0000   103.2745     9.2568   -43.9908     9.2564     9.4018    11.8138     0.0585     0.2117     0.0476     2.5538
 2829.5000   102.6849     9.2575   -43.9834     9.1931     9.3369    11.7315     0.0600     0.2093     0.0352     2.5501
 2830.0000   102.4024     9.2434   -43.9759     9.1303     9.2725    11.7306     0.0531     0.2078     0.0259     2.5575
 2830.5000   105.4205     9.2441   -43.8164     9.0057     9.1422    11.8114     0.0516     0.2070     0.0476     2.5617
 2831.0000   106.9369     9.2449   -43.6584     8.8826     8.8244    11.5678     0.0567     0.2094     0.0507     2.5568
 2831.5000   107.2523     9.2456   -43.6510     8.7008     8.5331    11.0200     0.0579     0.2168     0.0492     2.5524
 2832.0000   109.3720     9.2311   -43.6437     8.4640     8.4157    10.2826     0.0606     0.2237     0.0492     2.5478
 2832.5000   111.7890     9.2320   -43.6364     8.2337     8.3576     9.7957     0.0666     0.2270     0.0538     2.5416
 2833.0000   110.9028     9.2328   -43.7814     8.1189     8.2999     9.7275     0.0690     0.2229     0.0569     2.5393
 2833.5000   108.2147     9.2335   -43.9247     8.1217     8.2999     9.8624     0.0642     0.2199     0.0647     2.5439
 2834.0000   106.4275     9.2492   -44.0663     8.1788     8.4157    10.1403     0.0546     0.2127     0.0786     2.5571
 2834.5000   105.5413     9.2500   -44.3602     8.2932     8.5331    10.5042     0.0462     0.2055     0.0988     2.5734
 2835.0000   104.6550     9.2509   -44.5181     8.4093     8.5924    10.7885     0.0363     0.1968     0.1143     2.5881
 2835.5000   103.1658     9.2516   -44.7971     8.5861     8.6607    10.8625     0.0336     0.1938     0.1158     2.5959
 2836.0000   100.4167     9.2674   -44.9403     8.8275     8.8951    11.1667     0.0454     0.1965     0.0786     2.5804
 2836.5000   101.3993     9.2529   -44.9311     9.0757     9.0818    11.6393     0.0590     0.1998     0.0197     2.5541
 2837.0000   103.2157     9.2538   -44.9238     9.2665     9.3369    11.8007     0.0633     0.2031     0.0026     2.5424
 2837.5000   103.8310     9.2545   -45.0688     9.4614     9.5992    11.7185     0.0660     0.2043    -0.0036     2.5370
 2838.0000   102.0438     9.2553   -45.0596     9.5938     9.7330    11.6369     0.0720     0.2031    -0.0066     2.5324
 2838.5000   100.2566     9.2710   -45.0523     9.5283     9.7330    11.6361     0.0753     0.2011     0.0140     2.5293
 2839.0000    99.6670     9.2718   -45.0449     9.5291     9.8007    11.7975     0.0658     0.1981     0.0229     2.5440
 2839.5000    99.9856     9.2725   -45.0376     9.5959     9.8023    11.7967     0.0595     0.1948     0.0229     2.5549
 2840.0000   101.5017     9.2733   -45.0301     9.6631     9.9374    11.6336     0.0547     0.1911     0.0259     2.5603
 2840.5000   103.6186     9.2589   -45.0226     9.9348    10.0759    11.1597     0.0523     0.1884     0.0430     2.5634
 2841.0000   103.5915     9.2599   -45.0137    10.2141    10.2875    11.0056     0.0523     0.1855     0.0585     2.5650
 2841.5000   102.1499     9.2606   -45.0063    10.5013    10.5034    11.8752     0.0520     0.1888     0.0724     2.5665
 2842.0000    98.8612     9.2613   -44.9990    10.7965    10.7984    13.3568     0.0490     0.1825     0.0848     2.5696
 2842.5000    93.7708     9.2621   -44.8410    10.9528    11.0251    14.4122     0.0439     0.1772     0.0662     2.5774
 2843.0000    90.4821     9.2778   -44.8337    11.1778    11.1789    15.0221     0.0415     0.1745     0.0507     2.5805
 2843.5000    91.3976     9.2785   -44.8263    11.1787    11.2566    15.0211     0.0424     0.1829     0.0414     2.5782
 2844.0000    91.1120     9.2943   -44.8190    11.0259    11.1006    14.6006     0.0484     0.1894     0.0321     2.5697
 2844.5000    90.5255     9.2952   -44.9622    10.5786    10.9396    14.0147     0.0562     0.1942     0.0213     2.5580
 2845.0000    91.7419     9.3109   -45.1055    10.2907    10.5764    13.0768     0.0589     0.1981     0.0136     2.5479
 2845.5000    94.2013     9.3117   -45.1175    10.0106    10.2165    12.0340     0.0617     0.2035     0.0105     2.5401
 2846.0000    96.3280     9.3124   -45.3901     9.8736     9.9374    10.6977     0.0679     0.2083     0.0089     2.5340
 2846.5000    95.6933     9.3131   -45.3828     9.6718     9.6659    10.6234     0.0703     0.2044     0.0120     2.5325
 2847.0000    90.6029     9.2987   -45.2248     9.4738     9.5329    11.3051     0.0604     0.2021     0.0198     2.5416
 2847.5000    88.5154     9.2996   -45.0669     9.3358     9.4671    12.3684     0.0529     0.2003     0.0275     2.5548
 2848.0000    90.0315     9.3003   -45.0595     9.0900     9.5329    13.1623     0.0508     0.2009     0.0321     2.5666
 2848.5000    94.5507     9.3011   -44.9016     8.7819     9.5992    12.3586     0.0565     0.2042     0.0352     2.5527
 2849.0000    98.7695     9.3018   -44.8942     8.2526     9.3873    10.6107     0.0616     0.2078     0.0368     2.5496
 2849.5000    99.7160     9.2875   -44.7363     7.7552     8.7727     8.9939     0.0583     0.2138     0.0445     2.5527
 2850.0000    98.7988     9.2883   -44.7289     7.3942     8.2951     9.1936     0.0520     0.2210     0.0538     2.5605
 2850.5000   100.6756     9.2887   -44.4659     6.7927     7.5241     9.5053     0.0484     0.2255     0.0569     2.5698
 2851.0000   102.5524     9.2892   -44.2620     6.4775     6.9302     9.1820     0.0487     0.2306     0.0569     2.5667
 2851.5000   107.8455     9.2897   -43.9533     6.4767     6.5106     8.2767     0.0511     0.2363     0.0600     2.5589
 2852.0000   114.4637     9.2901   -43.7938     6.1273     5.8675     7.4607     0.0560     0.2354     0.0740     2.5542
 2852.5000   123.1841     9.2905   -43.6360     5.1539     5.2879     6.7718     0.0579     0.2363     0.0957     2.5573
 2853.0000   129.5020     9.2911   -43.4781     4.2756     4.4776     6.9139     0.0539     0.2417     0.1112     2.5620
 2853.5000   130.4145     9.2915   -43.6214     3.5962     3.7393     6.8189     0.0512     0.2513     0.1065     2.5651
 2854.0000   132.3714     9.3070   -43.6142     3.1342     3.1176     6.1466     0.0554     0.2704     0.1034     2.5584
 2854.5000   143.0532     9.3047   -43.4563     2.5798     2.5688     5.2422     0.0656     0.2845     0.0988     2.5290
 2855.0000   155.9777     9.3021   -43.2982     2.2002     2.0180     4.3790     0.0902     0.2965     0.0910     2.4871
