~VERSION INFORMATION
 VERS.                2.0:   CWLS LOG ASCII STANDARD - VERSION 2.0
 WRAP.                 NO:   ONE LINE PER DEPTH STEP
~WELL INFORMATION
#MNEM.UNIT      DATA TYPE    INFORMATION
#----------   ------------   ------------------------------
 STRT.F           25.0000:   START DEPTH
 STOP.F          867.0000:   STOP DEPTH
 STEP.F            0.5000:   STEP LENGTH
 NULL.          -999.2500:   NO VALUE
 COMP. LAWRENCE/ALLISON INC:   COMPANY
 WELL.    38-11 SX #35-35:   WELL
 FLD .             TEAPOT:   FIELD
 LOC .      S35 T39N R78W:   LOCATION
 CNTY.            NATRONA:   COUNTY
 STAT.            WYOMING:   STATE
 CTRY. UNITED STATES OF AMERICA:   COUNTRY
 SRVC.      Dresser Atlas:   SERVICE COMPANY
 DATE.        07-AUG-1985:   LOGDATE
 API .       490251104100:   API NUMBER
~CURVE INFORMATION
#MNEM.UNIT       API CODE    CURVE DESCRIPTION
#----------   ------------   ------------------------------
 DEPT.F                  :   
 SPR .MV     07 010 01 00:   SPONTANEOUS POTENTIAL
 RILD.OHMM   07 120 46 00:   INDUCTION LOG DEEP RESISTIVITY
 RILM.OHMM   07 120 44 00:   INDUCTION LOG MEDIUM RESISTIVITY
 RFOC.OHMM   07 220 04 00:   RESISTIVITY FOCUSED LOG
 PORD.DEC    45 890 12 00:   POROSITY DENSITY SANDSTONE
 CNC .DEC    42 890 03 00:   NEUTRON POROSITY SANDSTONE
 GRD .GAPI   45 310 01 00:   GAMMA RAY FROM DENSITY LOG
 CALD.IN     45 280 60 00:   CALIPER FROM DENSITY LOG
 CORR.G/C3   45 356 01 00:   DENSITY CORRECTION
 DEN .G/C3   45 350 01 00:   COMPENSATED BULK DENSTIY
~PARAMETER INFORMATION
#MNEM.UNIT          VALUE    DESCRIPTION
#----------   ------------   ------------------------------
 PD  .                 GL:   PERMANENT DATUM
 EPD .F              5110:   ELEVATION PERMANENT DATUM
 LMF .                 GL:   LOG MEASURED FROM
 DMF .                 GL:   DRILLING MEASURED FROM
 EGL .F              5110:   GROUND LEVEL
 DATE.             8-7-85:   RUN DATE
 RUN .                  1:   RUN NUMBER
 DD  .F               900:   DEPTH DRILLER
 DL  .F               869:   DEPTH LOGGER
 BLI .F               867:   BOTTOM LOG INTERVAL
 TLI .F                40:   TOP LOG INTERVAL
 CS  .IN            8.625:   CASING SIZE
 CBD .F                40:   CASING BOTTOM DRILLER
 CBL .F                40:   CASING BOTTOM LOGGER
 BS  .IN            7.875:   BIT SIZE
 BSD .F               900:   BIT SIZE AT DEPTH
 DFT .             4% KCL:   DRILLING FLUID TYPE
 MSS .           FLOWLINE:   MUD SAMPLE SOURCE
 RMS .OHMM           .222:   RESISTIVITY MUD SAMPLE
 MST .F                71:   MUD SAMPLE TEMPERATURE
 TCS .HRS               2:   TIME CURCULATED STOPPED
 MRT .F               100:   MAXIMUM RECORDED TEMPERATURE
 LUN .               6264:   LOGGING UNIT NUMBER
 LUL .               GLTE:   LOGGING UNIT LOCATION
 ENGI.           FAHLSING:   RECORDING ENGINEER
 WITN.              FIVAS:   WITNESSED BY
 CLNT.            A2DTECH:   CLIENT CODE
 ORIG.       2", 5" PRINT:   ORIGIN OF DATA
 UWI .       490251104100:   UNIQUE WELL ID
 DICO. A2D Technologies, Inc.:   DIGITIZING COMPANY
~OTHER INFORMATION
~A   DEPT      SPR       RILD       RILM       RFOC       PORD          CNC      GRD       CALD       CORR        DEN   
# ...
  829.0000   -24.2962    10.3487    10.9360     9.6870     0.1156     0.2525    86.2452     8.0810     0.2291     2.4891
  829.5000   -24.4528    10.3487    11.2420     9.6870     0.1189     0.2665    88.0567     8.0375     0.2322     2.4794
  830.0000   -24.6093    10.6383    11.3982     9.6870     0.1108     0.2827    89.8681     7.9790     0.1919     2.4936
  830.5000   -24.9165    10.9360    11.3198     9.7541     0.0989     0.2797  -999.2500     7.9205     0.1875     2.5146
  831.0000   -25.0731    11.0117    11.3147     9.7541     0.0926     0.2680  -999.2500     7.8770     0.1876     2.5251
  831.5000   -25.5308    10.7120    11.0041     9.7541     0.0896     0.2617  -999.2500     7.8785     0.1773     2.5289
  832.0000   -25.6874    10.4925    10.7120     9.7541     0.0892     0.2574  -999.2500     7.8977     0.1387     2.5185
  832.5000   -26.1452    10.3487    10.5652     9.7541     0.1063     0.2577  -999.2500     7.9268     0.0864     2.4938
  833.0000   -26.1511    10.4925    10.4925     9.7541     0.1216     0.2640  -999.2500     7.9283     0.0528     2.4662
  833.5000   -26.1571    10.5652    10.5652     9.7541     0.1287     0.2723  -999.2500     7.9448     0.0459     2.4632
  834.0000   -26.1631    10.6383    10.6383     9.7541     0.1272     0.2762  -999.2500     7.9612     0.0565     2.4678
  834.5000   -26.1690    10.6383    10.7120     9.8216     0.1254     0.0115  -999.2500     7.9777     0.0686     2.4715
  835.0000   -26.1750    10.7120    10.7120     9.8216     0.1236    -0.0053  -999.2500     7.9792     0.0837     2.4753
  835.5000   -26.1810    10.7120    10.7861     9.8897     0.1221     0.0457  -999.2500     7.9653     0.0973     2.4722
  836.0000   -26.3375    10.7861    10.8608     9.8897     0.1215     0.3004  -999.2500     7.9671     0.1048     2.4672
  836.5000   -26.4941    10.7120    10.7861     9.8897     0.1236     0.6997  -999.2500     7.9533     0.0840     2.4665
  837.0000   -26.6507    10.7120    10.7861     9.9582     0.1275     0.6997  -999.2500     7.9397     0.0632     2.4605
  837.5000   -26.6566    10.6383    10.7861     9.9582     0.1353     0.4811  -999.2500     7.9416     0.0453     2.4471
  838.0000   -26.8133    10.6383    10.7861     9.9582     0.1409     0.2299  -999.2500     7.9281     0.0379     2.4284
  838.5000   -26.9699    10.6383    10.7120     9.9582     0.1478     0.2311  -999.2500     7.9146     0.0305     2.4113
  839.0000   -26.9939    10.6383    10.7120     9.9582     0.1571     0.2317  -999.2500     7.9010     0.0231     2.4083
  839.5000   -27.4337    10.5652    10.7120     9.9582     0.1625     0.2313  -999.2500     7.8875     0.0143     2.4024
  840.0000   -28.0434    10.5652    10.7120     9.9582     0.1687     0.2310  -999.2500     7.8891    -0.0335     2.3867
  840.5000   -28.1999    10.5652    10.7861     9.8897     0.1738     0.2307  -999.2500     7.9055    -0.0020     2.3837
  841.0000   -28.3565    10.6383    10.7861     9.8897     0.1750     0.2310  -999.2500     7.8920     0.0236     2.3920
  841.5000   -28.6637    10.7120    10.7861     9.8897     0.1654     0.2315  -999.2500     7.8938     0.0327     2.4055
  842.0000   -28.6696    10.7061    10.7120     9.8897     0.1576     0.2318  -999.2500     7.8953     0.0358     2.4197
  842.5000   -28.8262    10.4925    10.6383     9.8216     0.1522     0.2318  -999.2500     7.8968     0.0314     2.4235
  843.0000   -29.1334    10.3378    10.3487     9.7541     0.1483     0.2312  -999.2500     7.8982     0.0195     2.4259
  843.5000   -29.2899    10.2069     9.9291     9.6870     0.1429     0.2312  -999.2500     7.8997    -0.0044     2.4408
  844.0000   -29.4465    10.1368     9.6588     9.6203     0.1283     0.2305  -999.2500     7.9012    -0.0042     2.7690
  844.5000   -29.4525     9.9978     9.5265     9.6203    -0.1000     0.2308  -999.2500     7.9027    -0.0041     3.9969
  845.0000   -29.6090     9.9291     9.5924     9.7541    -0.1000     0.2311  -999.2500     7.9041     0.0005     3.9962
  845.5000   -29.6150    10.2069     9.8631     9.7541    -0.1000     0.2313  -999.2500     7.8903     0.0052     3.9865
  846.0000   -29.9222    10.4204    10.2116     9.7541    -0.1000     0.2337  -999.2500     7.7272     0.0151     2.9982
  846.5000   -29.9281    10.4925    10.4204     9.6870     0.3010     0.2376  -999.2500     7.4288     0.0667     2.0000
  847.0000   -29.9341    10.5652    10.5652     9.6203     0.5991     0.2391  -999.2500     7.4153     0.1177     2.0000
  847.5000   -30.0907    10.5652    10.5652     9.6326     0.3009     0.2384  -999.2500     7.4168     0.2061     2.1914
  848.0000   -30.0966    10.4925    10.4204     9.7541     0.1330     0.2378  -999.2500     7.3886     0.1897     2.4532
  848.5000   -30.4038    10.2776    10.2069     9.8897  -999.2500  -999.2500  -999.2500  -999.2500  -999.2500  -999.2500
  849.0000   -30.5604    10.1368     9.9978    10.0272  -999.2500  -999.2500  -999.2500  -999.2500  -999.2500  -999.2500
  849.5000   -30.7169     9.9291     9.7257    10.1666  -999.2500  -999.2500  -999.2500  -999.2500  -999.2500  -999.2500
  850.0000   -31.0241     9.6588     9.4610    10.2371  -999.2500  -999.2500  -999.2500  -999.2500  -999.2500  -999.2500
  850.5000   -31.1867     9.3959     9.2672    10.2371  -999.2500  -999.2500  -999.2500  -999.2500  -999.2500  -999.2500
  851.0000   -31.3373     9.2672     9.1402    10.1666  -999.2500  -999.2500  -999.2500  -999.2500  -999.2500  -999.2500
  851.5000   -31.5120     9.1402     9.0773    10.0967  -999.2500  -999.2500  -999.2500  -999.2500  -999.2500  -999.2500
  852.0000   -31.8012     9.0773     9.0773    10.0967  -999.2500  -999.2500  -999.2500  -999.2500  -999.2500  -999.2500
  852.5000   -31.9590     9.0773     9.0773    10.0967  -999.2500  -999.2500  -999.2500  -999.2500  -999.2500  -999.2500
  853.0000   -32.1156     8.9530     9.0149    10.0967  -999.2500  -999.2500  -999.2500  -999.2500  -999.2500  -999.2500
  853.5000   -32.4228     8.7696     8.8914    10.0272  -999.2500  -999.2500  -999.2500  -999.2500  -999.2500  -999.2500
  854.0000   -32.4287     8.5899     8.7696     9.9582  -999.2500  -999.2500  -999.2500  -999.2500  -999.2500  -999.2500
  854.5000   -32.5853     8.4140     8.5899     9.8216  -999.2500  -999.2500  -999.2500  -999.2500  -999.2500  -999.2500
  855.0000   -32.7419     8.2397     8.3561     9.6870  -999.2500  -999.2500  -999.2500  -999.2500  -999.2500  -999.2500
  855.5000   -33.0490     8.1248     8.1849     9.5541  -999.2500  -999.2500  -999.2500  -999.2500  -999.2500  -999.2500
  856.0000   -33.2056     7.9621     8.0173     9.4231  -999.2500  -999.2500  -999.2500  -999.2500  -999.2500  -999.2500
  856.5000   -33.6634     7.8452     7.9074     9.2939  -999.2500  -999.2500  -999.2500  -999.2500  -999.2500  -999.2500
  857.0000   -34.2717     7.6922     7.7990     9.2299  -999.2500  -999.2500  -999.2500  -999.2500  -999.2500  -999.2500
  857.5000   -34.7295     7.6393     7.6393     9.1033  -999.2500  -999.2500  -999.2500  -999.2500  -999.2500  -999.2500
  858.0000   -35.1873     7.5868     7.5868     8.9785  -999.2500  -999.2500  -999.2500  -999.2500  -999.2500  -999.2500
  858.5000   -35.6451     7.5868     7.5868     8.8554  -999.2500  -999.2500  -999.2500  -999.2500  -999.2500  -999.2500
  859.0000   -35.9522     7.5346     7.6393     8.6738  -999.2500  -999.2500  -999.2500  -999.2500  -999.2500  -999.2500
  859.5000   -36.1088     7.5868     7.6922     8.4376  -999.2500  -999.2500  -999.2500  -999.2500  -999.2500  -999.2500
  860.0000   -36.1148     7.5868     7.6393     8.2077  -999.2500  -999.2500  -999.2500  -999.2500  -999.2500  -999.2500
  860.5000   -36.1207     7.5868     7.5851     8.0395  -999.2500  -999.2500  -999.2500  -999.2500  -999.2500  -999.2500
  861.0000   -36.1267     7.6393     7.1202     7.8747  -999.2500  -999.2500  -999.2500  -999.2500  -999.2500  -999.2500
  861.5000   -36.1326     7.6393     6.6321     7.8192  -999.2500  -999.2500  -999.2500  -999.2500  -999.2500  -999.2500
  862.0000   -36.1386     7.6393     5.9787     7.7104  -999.2500  -999.2500  -999.2500  -999.2500  -999.2500  -999.2500
