~VERSION INFORMATION
 VERS.                2.0:   CWLS LOG ASCII STANDARD - VERSION 2.0
 WRAP.                 NO:   ONE LINE PER DEPTH STEP
~WELL INFORMATION
#MNEM.UNIT      DATA TYPE    INFORMATION
#----------   ------------   ------------------------------
 STRT.F           34.0000:   START DEPTH
 STOP.F          514.0000:   STOP DEPTH
 STEP.F            0.5000:   STEP LENGTH
 NULL.          -999.2500:   NO VALUE
 COMP. FENIX & SCISSON INC:   COMPANY
 WELL. NPR 3 #41 SX 10-10:   WELL
 FLD .             TEAPOT:   FIELD
 LOC .      S10 T38N R78W:   LOCATION
 CNTY.            NATRONA:   COUNTY
 STAT.            WYOMING:   STATE
 CTRY. UNITED STATES OF AMERICA:   COUNTRY
 SRVC.           BIRDWELL:   SERVICE COMPANY
 DATE.        25-JUN-1978:   LOGDATE
 API .       490251065200:   API NUMBER
~CURVE INFORMATION
#MNEM.UNIT       API CODE    CURVE DESCRIPTION
#----------   ------------   ------------------------------
 DEPT.F                  :   
 SPR .MV     07 010 01 00:   SPONTANEOUS POTENTIAL
 ILD .OHMM   07 120 46 00:   INDUCTION LOG DEEP
 SN  .OHMM   07 040 16 00:   SHORT NORMAL 16"
 CALD.IN     45 280 60 00:   CALIPER FROM DENSITY LOG
 GRD .GAPI   45 310 01 00:   GAMMA RAY FROM DENSITY LOG
 CORR.G/C3   45 356 01 00:   DENSITY CORRECTION
 DPHI.DEC    45 890 12 00:   DENSITY POROSITY SANDSTONE
 DEN .G/C3   45 350 01 00:   COMPENSATED BULK DENSTIY
 GRN .GAPI   35 310 01 00:   GAMMA RAY
 NEUT.NAPI   35 330 01 00:   NEUTRON
~PARAMETER INFORMATION
#MNEM.UNIT          VALUE    DESCRIPTION
#----------   ------------   ------------------------------
 PD  .                 GL:   PERMANENT DATUM
 EPD .F              5235:   ELEVATION PERMANENT DATUM
 LMF .                 KB:   LOG MEASURED FROM
 DAPD.F                 4:   FEET ABOVE PERMANENT DATUM
 DMF .                 KB:   DRILLING MEASURED FROM
 EKB .F              5239:   KELLING BUSHING
 EGL .F              5235:   GROUND LEVEL
 DATE.        25-JUN-1978:   RUN DATE
 RUN .                  1:   RUN NUMBER
 DD  .F               510:   DEPTH DRILLER
 DL  .F               514:   DEPTH LOGGER
 BLI .F               514:   BOTTOM LOG INTERVAL
 TLI .F                30:   TOP LOG INTERVAL
 CS  .IN            8.625:   CASING SIZE
 CBD .F                40:   CASING BOTTOM DRILLER
 CBL .F                40:   CASING BOTTOM LOGGER
 BS  .IN            7.875:   BIT SIZE
 BSD .F               510:   BIT SIZE AT DEPTH
 DFT .                KCL:   DRILLING FLUID TYPE
 DFD .                8.6:   DRILLING FLUID DENSITY
 DFV .                 31:   DRILLING FLUID VISCOSITY
 DFPH.                9.5:   DRILLING FLUID PH
 DFL .                 17:   DRILLING FLUID LOSS
 MSS .           FLOWLINE:   MUD SAMPLE SOURCE
 RMS .OHMM             .5:   RESISTIVITY MUD SAMPLE
 MST .F                74:   MUD SAMPLE TEMPERATURE
 RMF .OHMM            .54:   RESISTIVITY MUD FILTRATE SAMPLE
 MFST.F                72:   MUD FILTRATE SAMPLE TEMPERATURE
 RMC .OHMM            1.0:   RESISTIVITY MUD CAKE
 MCST.F                66:   MUD CAKE SAMPLE TEMPERATURE
 MFSS.               MEAS:   MUD FILTRATE SAMPLE SOURCE
 MCSS.               MEAS:   MUD CAKE SAMPLE SOURCE
 BHT .F                74:   BOTTOM HOLE TEMPERATURE
 TCS .HRS            0100:   TIME CURCULATED STOPPED
 MRT .F                74:   MAXIMUM RECORDED TEMPERATURE
 LUN .               2958:   LOGGING UNIT NUMBER
 LUL .               CASP:   LOGGING UNIT LOCATION
 ENGI.           REYNOLDS:   RECORDING ENGINEER
 CLNT.            A2DTECH:   CLIENT CODE
 ORIG.           5" PRINT:   ORIGIN OF DATA
 UWI .       490251065200:   UNIQUE WELL ID
 DICO. A2D Technologies, Inc.:   DIGITIZING COMPANY
~OTHER INFORMATION
~A   DEPT      SPR        ILD         SN       CALD        GRD       CORR       DPHI        DEN        GRN       NEUT   
# ...
  235.0000   -65.0827     3.6704     4.8510     8.8626    92.4547     0.0260     0.2283     2.3342    55.0075  1454.0297
  235.5000   -64.9381     3.3304     4.4937     8.8476    92.4532     0.0335     0.2387     2.3143    52.4352  1448.6132
  236.0000   -64.9453     3.1067     4.1340     8.8175    92.6023     0.0620     0.2474     2.2985    46.6069  1453.9790
  236.5000   -64.7777     2.9384     3.7970     8.8025    92.9024     0.1085     0.2592     2.2774    47.5785  1441.6051
  237.0000   -64.7467     2.8572     3.4741     8.9236    92.2982     0.1223     0.2616     2.2586    47.8774  1416.1389
  237.5000   -64.7156     2.7960     3.3085     8.9690    88.2304     0.1025     0.2169     2.2722    46.8311  1393.1747
  238.0000   -64.6845     2.7580     3.2169     9.0475    87.3253     0.0483     0.1592     2.3428    46.8311  1364.8130
  238.5000   -64.6534     2.7571     3.2383     9.1657    88.6789     0.0349     0.1562     2.4292    47.2048  1345.8966
  239.0000   -64.6223     2.7753     3.3275     8.7882    94.4003     0.0724     0.1861     2.4307    48.2511  1340.4736
  239.5000   -64.5912     2.8721     3.5447     9.6343    99.8205     0.0814     0.1942     2.4074    49.2975  1354.9507
  240.0000   -64.5602     3.0982     3.8712     9.0151   100.7231     0.0333     0.1594     2.3705    50.5680  1409.2311
  240.5000   -64.5291     3.4484     4.1470     8.8038    99.8176     0.0228     0.1368     2.4597    52.2123  1444.2878
  241.0000   -64.4980     4.1115     4.3813     9.3477    99.5149     0.0243     0.1453     2.4975    54.5291  1449.6656
  241.5000   -64.4669     4.5597     4.5969     9.0984    99.6644     0.0258     0.1447     2.4862    51.5396  1426.6949
  242.0000   -64.4358     4.9187     4.9585     8.8042   101.7710     0.0273     0.1438     2.4472    48.9985  1409.1278
  242.5000   -64.4211     5.2694     5.4785     8.8195   106.1370     0.0258     0.1447     2.4584    49.6712  1429.3354
  243.0000   -64.4271     5.5675     6.0132     8.8348   107.1898     0.0272     0.1398     2.4577    54.0060  1452.2483
  243.5000   -64.4338     5.8518     6.2656     8.8198   106.6641     0.0226     0.1356     2.4592    54.5291  1449.5237
  244.0000   -64.4401     6.0875     6.4389     8.8200   100.2587     0.0179     0.1335     2.4689    55.0523  1421.1621
  244.5000   -64.4239     6.1703     6.5720     8.8201   100.1067     0.0167     0.1328     2.4719    54.5599  1406.2938
  245.0000   -64.3890     5.9579     6.6144     8.8203   101.4606     0.0182     0.1440     2.4688    50.6427  1350.9391
  245.5000   -64.3542     5.7534     6.6576     8.8355   102.5134     0.0166     0.1450     2.4578    51.0912  1264.5565
  246.0000   -64.3137     5.5559     6.7477     8.8205   103.2649     0.0181     0.1564     2.4516    52.2123  1311.7572
  246.5000   -64.1691     5.3598     6.6979     8.8054   106.2755     0.0316     0.1672     2.4418    54.3797  1394.0402
  247.0000   -63.8866     5.2166     6.6490     8.8074   107.7800     0.0541     0.1778     2.4073    54.6039  1404.8096
  247.5000   -63.9128     5.1077     6.3759     8.8512   108.3810     0.0601     0.1874     2.3922    55.2018  1403.3214
  248.0000   -63.9390     5.0358     6.1566     8.8665   107.1747     0.0466     0.1554     2.3802    55.0523  1385.8604
  248.5000   -63.9653     4.9649     5.9861     8.8213   103.6852     0.0301     0.1479     2.3930    58.4903  1381.7866
  249.0000   -63.9915     4.8951     5.8204     8.9423   103.1054     0.0391     0.1488     2.4485    60.2093  1365.5688
  249.5000   -64.0177     4.8934     5.6464     9.3805   103.1036     0.0391     0.1539     2.4448    57.5187  1339.9059
  250.0000   -64.0439     4.9400     5.5792     8.8650   103.5540     0.0392     0.1315     2.4320    53.2586  1325.0375
  250.5000   -64.0664     5.2403     5.6381     8.8517   107.4682     0.0405     0.1312     2.4567    50.4922  1350.6747
  251.0000   -64.0722     5.4606     5.8107     8.8514   111.6440     0.0435     0.1337     2.4733    50.3438  1369.5652
  251.5000   -64.0782     5.6543     6.0619     8.8359   116.4253     0.0600     0.1394     2.4696    52.9596  1369.5652
  252.0000   -64.0842     5.9290     6.3519     8.8356   118.1297     0.0736     0.1416     2.4651    53.2586  1388.4558
  252.5000   -64.0911     6.1782     6.6645     8.8505   113.3032     0.0690     0.1199     2.4726    53.7818  1399.2504
  253.0000   -64.0895     6.4827     6.9925     8.8501   106.2142     0.0495     0.0959     2.5154    54.3049  1381.7091
  253.5000   -64.0777     6.6630     7.2860     8.8650   104.8567     0.0314     0.0950     2.5330    56.1734  1408.6957
  254.0000   -64.0659     6.8471     7.4875     8.8647   105.3092     0.0224     0.1228     2.5282    58.0419  1420.8396
  254.5000   -64.0541     6.9403     7.5888     8.8795   109.2433     0.0209     0.1201     2.4929    57.3692  1427.5862
  255.0000   -64.0423     6.9861     7.7448     8.8640   110.7391     0.0224     0.1228     2.4914    57.7429  1437.0315
  255.5000   -64.0304     7.0322     7.7955     8.8335   109.3816     0.0239     0.1325     2.4860    55.4427  1447.8260
  256.0000   -64.0186     7.0293     7.8465     8.8332   107.7225     0.0238     0.1433     2.4688    52.3799  1445.9896
  256.5000   -64.0068     6.9785     7.8978     8.8027   105.7617     0.0238     0.1409     2.4576    55.4456  1430.2849
  257.0000   -63.9950     6.9280     7.9494     8.8024   104.1026     0.0208     0.1341     2.4568    55.0733  1435.6821
  257.5000   -63.9832     6.8305     7.9454     8.8021   103.8009     0.0178     0.1297     2.4696    55.4485  1441.0795
  258.0000   -63.9714     6.7812     7.9423     8.8018   106.1236     0.0148     0.1358     2.4733    53.8655  1404.6477
  258.5000   -63.9595     6.7321     7.8274     8.8015   107.7225     0.0103     0.1421     2.4711    54.5548  1410.0538
  259.0000   -63.9477     6.6369     7.6124     8.7861   106.9683     0.0087     0.1491     2.4646    56.1258  1422.1890
  259.5000   -63.9359     6.5889     7.4530     8.7858   106.2142     0.0102     0.1524     2.4470    57.9957  1419.4902
  260.0000   -63.9241     6.4961     7.2466     8.7703   105.7617     0.0117     0.1521     2.4410    59.1182  1412.7437
  260.5000   -63.9123     6.4492     7.0460     8.7852   106.8175     0.0117     0.1527     2.4403    56.5785  1439.7301
  261.0000   -63.9005     6.4470     6.9946     8.7395   108.3258     0.0117     0.1554     2.4373    54.7115  1454.5728
  261.5000   -63.8976     6.2257     6.8957     8.7090   110.0201     0.0132     0.1626     2.4358    55.1702  1450.2681
  262.0000   -63.9038     5.9272     6.7969     8.7088   110.8899     0.0162     0.1690     2.4226    54.4906  1437.0315
  262.5000   -63.9098     5.5567     6.6022     8.7236   110.4374     0.0191     0.1771     2.4155    54.7909  1437.0315
  263.0000   -63.9150     5.1949     6.3819     8.6930   109.2308     0.0387     0.1853     2.3922    56.0629  1437.0315
  263.5000   -63.8955     5.0166     6.2483     8.6776   107.1192     0.0627     0.1925     2.3742    56.5875  1438.3809
  264.0000   -63.8784     4.9803     6.0753     8.6773   105.0075     0.0656     0.1735     2.3711    54.1974  1410.0449
  264.5000   -63.8613     4.9787     5.9481     8.6620   102.8884     0.0431     0.1406     2.3764    51.8819  1380.5411
  265.0000   -63.8442     5.0116     5.7834     8.7069   100.9351     0.0236     0.1334     2.4439    52.2820  1341.2294
  265.5000   -63.8271     5.1150     5.6232     8.7843   101.3876     0.0221     0.1355     2.4838    54.8747  1334.4828
  266.0000   -63.8100     5.2258     5.5822     8.8574    99.8793     0.0235     0.1400     2.4793    54.4277  1372.2639
  266.5000   -63.7929     5.4396     5.8563     8.6456    99.5777     0.0235     0.1452     2.4651    54.5039  1441.0795
  267.0000   -63.7758     5.6292     6.2734     8.6453   102.2926     0.0235     0.1442     2.4621    56.8969  1465.3673
  267.5000   -63.7587     5.9066     6.7669     8.6601   106.6667     0.0250     0.1421     2.4583    58.2623  1451.8740
  268.0000   -63.7416     6.2407     7.1988     8.6598   108.1850     0.0250     0.1406     2.4582    54.7678  1428.9355
