~VERSION INFORMATION
 VERS.                2.0:   CWLS LOG ASCII STANDARD - VERSION 2.0
 WRAP.                 NO:   ONE LINE PER DEPTH STEP
~WELL INFORMATION
#MNEM.UNIT      DATA TYPE    INFORMATION
#----------   ------------   ------------------------------
 STRT.F           70.0000:   START DEPTH
 STOP.F         1236.0000:   STOP DEPTH
 STEP.F            0.5000:   STEP LENGTH
 NULL.          -999.2500:   NO VALUE
 COMP. U S NAVY/INTEX OIL CO:   COMPANY
 WELL. NAVAL PETROLEUM TE ##3 75S-11:   WELL
 FLD .             TEAPOT:   FIELD
 LOC .      S11 T38N R78W:   LOCATION
 CNTY.            NATRONA:   COUNTY
 STAT.            WYOMING:   STATE
 CTRY. UNITED STATES OF AMERICA:   COUNTRY
 SRVC.         Lane Wells:   SERVICE COMPANY
 DATE.        04-MAR-1960:   LOGDATE
 API .       490250633900:   API NUMBER
~CURVE INFORMATION
#MNEM.UNIT       API CODE    CURVE DESCRIPTION
#----------   ------------   ------------------------------
 DEPT.F                  :   
 GR  .GAPI   30 310 01 00:   GAMMA RAY
 SPR .MV     05 010 01 00:   SPONTANEOUS POTENTIAL FROM RES.
 ILD .OHMM   05 120 46 00:   INDUCTION LOG DEEP
 CILD.MMHO   05 110 46 00:   CONDUCTIVITY INDUCTION LOG DEEP
 ASN .OHMM   05 041 18 00:   AMPLIFIED SHORT NORMAL 18"
~PARAMETER INFORMATION
#MNEM.UNIT          VALUE    DESCRIPTION
#----------   ------------   ------------------------------
 PD  .                 GL:   PERMANENT DATUM
 EPD .F              5252:   ELEVATION PERMANENT DATUM
 LMF .                 KB:   LOG MEASURED FROM
 DAPD.F                 5:   FEET ABOVE PERMANENT DATUM
 DMF .                 KB:   DRILLING MEASURED FROM
 EKB .F              5257:   KELLING BUSHING
 EGL .F              5252:   GROUND LEVEL
 DATE.             3-4-60:   RUN DATE
 RUN .                  1:   RUN NUMBER
 DD  .F              1239:   DEPTH DRILLER
 DL  .F              1238:   DEPTH LOGGER
 BLI .F              1236:   BOTTOM LOG INTERVAL
 TLI .F                70:   TOP LOG INTERVAL
 CS  .IN            8.625:   CASING SIZE
 CBD .F                12:   CASING BOTTOM DRILLER
 BS  .IN            7.875:   BIT SIZE
 BSD .F              1239:   BIT SIZE AT DEPTH
 DFT .                GEL:   DRILLING FLUID TYPE
 DFD .                9.2:   DRILLING FLUID DENSITY
 DFV .                 34:   DRILLING FLUID VISCOSITY
 DFPH.                7.5:   DRILLING FLUID PH
 DFL .                8.5:   DRILLING FLUID LOSS
 MSS .                PIT:   MUD SAMPLE SOURCE
 RMS .OHMM              3:   RESISTIVITY MUD SAMPLE
 MST .F                52:   MUD SAMPLE TEMPERATURE
 RMF .OHMM            2.8:   RESISTIVITY MUD FILTRATE SAMPLE
 MFST.F                55:   MUD FILTRATE SAMPLE TEMPERATURE
 RMC .OHMM            3.3:   RESISTIVITY MUD CAKE
 MCST.F                55:   MUD CAKE SAMPLE TEMPERATURE
 MFSS.                MUD:   MUD FILTRATE SAMPLE SOURCE
 MCSS.              PRESS:   MUD CAKE SAMPLE SOURCE
 RMB .OHMM            2.2:   RESISTIVITY MUD AT BHT
 BHT .F                77:   BOTTOM HOLE TEMPERATURE
 TCS .HRS              .5:   TIME CURCULATED STOPPED
 MRT .F                77:   MAXIMUM RECORDED TEMPERATURE
 LUN .               4474:   LOGGING UNIT NUMBER
 LUL .             CASPER:   LOGGING UNIT LOCATION
 ENGI.      GRIGGS/NELSON:   RECORDING ENGINEER
 WITN.  JORGENSEN/HOLLAND:   WITNESSED BY
 CLNT.            A2DTECH:   CLIENT CODE
 ORIG.       2", 5" PRINT:   ORIGIN OF DATA
 UWI .       490250633900:   UNIQUE WELL ID
 DICO. A2D Technologies, Inc.:   DIGITIZING COMPANY
~OTHER INFORMATION
~A   DEPT       GR        SPR          ILD      CILD         ASN 
# ...
  558.0000  -999.2500   -35.6973     2.6931   406.6018     3.1945
  558.5000  -999.2500   -35.8499     2.8083   384.8020     3.2875
  559.0000  -999.2500   -35.8701     2.9243   362.9861     3.2057
  559.5000  -999.2500   -35.7699     3.0280   352.6692     3.0811
  560.0000  -999.2500   -35.6659     2.9346   356.4728     2.9563
  560.5000  -999.2500   -35.5628     2.8361   367.2449     2.8317
  561.0000  -999.2500   -35.4599     2.7385   383.6681     2.7071
  561.5000  -999.2500   -35.3570     2.6412   400.0913     2.5824
  562.0000  -999.2500   -35.2538     2.5438   416.5145     2.4578
  562.5000  -999.2500   -35.1512     2.4464   432.9377     2.3332
  563.0000  -999.2500   -35.0589     2.3487   449.3609     2.2071
  563.5000  -999.2500   -34.8440     2.2504   465.7841     2.1654
  564.0000  -999.2500   -34.8482     2.2489   479.4566     2.1671
  564.5000  -999.2500   -34.8423     2.4429   476.9752     2.3784
  565.0000  -999.2500   -35.0215     2.6361   457.3036     2.6615
  565.5000  -999.2500   -35.2236     2.8288   430.4345     2.9481
  566.0000  -999.2500   -35.4262     3.0214   403.5653     3.2345
  566.5000  -999.2500   -35.6283     3.2140   376.6961     3.5208
  567.0000  -999.2500   -35.8304     3.4066   349.8269     3.8074
  567.5000  -999.2500   -36.0324     3.5992   322.9578     4.0981
  568.0000  -999.2500   -36.2345     3.7919   300.2637     4.2682
  568.5000  -999.2500   -36.4365     3.9846   288.0076     4.4114
  569.0000  -999.2500   -36.6389     4.1768   275.6619     4.5538
  569.5000  -999.2500   -36.8423     4.3247   264.6660     4.6973
  570.0000  -999.2500   -37.0354     4.4626   255.6397     4.9154
  570.5000  -999.2500   -36.9916     4.6003   246.7301     5.2832
  571.0000  -999.2500   -36.9372     4.7383   237.8050     5.5838
  571.5000  -999.2500   -36.8845     4.8772   228.8755     5.7614
  572.0000  -999.2500   -36.7389     5.0195   219.9461     5.9412
  572.5000  -999.2500   -36.5169     5.0568   211.0166     6.1200
  573.0000  -999.2500   -36.2944     5.0884   205.0473     6.2385
  573.5000  -999.2500   -36.0725     5.1207   202.9462     6.2230
  574.0000  -999.2500   -35.8476     5.1531   200.8452     6.1970
  574.5000  -999.2500   -35.8323     5.1856   198.7131     6.1713
  575.0000  -999.2500   -35.9427     5.2180   198.3508     6.1455
  575.5000  -999.2500   -36.0556     5.2504   197.9831     6.1196
  576.0000  -999.2500   -36.1686     5.2829   197.6154     6.0960
  576.5000  -999.2500   -36.2813     5.3067   197.2478     6.1114
  577.0000  -999.2500   -36.3941     5.3236   196.8801     6.1280
  577.5000  -999.2500   -36.5068     5.3403   196.5124     6.1444
  578.0000  -999.2500   -36.6196     5.3570   196.1447     6.1608
  578.5000  -999.2500   -36.7324     5.3737   195.7770     6.1672
  579.0000  -999.2500   -36.8455     5.3918   195.4093     6.1673
  579.5000  -999.2500   -36.9577     5.4158   195.0417     6.1671
  580.0000  -999.2500   -37.0333     5.4404   194.6740     6.1671
  580.5000  -999.2500   -36.9770     5.4649   194.3070     6.1797
  581.0000  -999.2500   -36.9243     5.4894   193.9411     6.2626
  581.5000  -999.2500   -36.8749     5.5139   193.5709     6.3450
  582.0000  -999.2500   -36.6550     5.5384   192.8039     6.4272
  582.5000  -999.2500   -36.3961     5.5633   190.5058     6.5094
  583.0000  -999.2500   -36.1362     5.5964   188.2078     6.5916
  583.5000  -999.2500   -35.8758     5.6332   185.9098     6.6738
  584.0000  -999.2500   -35.6137     5.6700   184.2231     6.7561
  584.5000  -999.2500   -35.6460     5.7069   184.2231     6.8403
  585.0000  -999.2500   -35.7254     5.7440   184.2231     6.8659
  585.5000  -999.2500   -35.8056     5.7289   184.2231     6.8747
  586.0000  -999.2500   -35.8850     5.6545   184.2231     6.8093
  586.5000  -999.2500   -35.9644     5.5810   187.0290     6.6609
  587.0000  -999.2500   -36.0443     5.5076   190.3994     6.5137
  587.5000  -999.2500   -36.1250     5.4328   193.7699     6.3665
  588.0000  -999.2500   -36.1553     5.2841   197.1403     6.2195
  588.5000  -999.2500   -36.1833     5.0067   200.5107     6.0727
  589.0000  -999.2500   -36.2118     4.7311   204.1468     5.9247
  589.5000  -999.2500   -36.2404     4.4552   213.4612     5.7443
  590.0000  -999.2500   -36.2687     4.1795   224.0705     5.4128
  590.5000  -999.2500   -36.2975     3.9037   251.1040     4.9336
  591.0000  -999.2500   -36.2516     3.6279   279.5382     4.4539
  591.5000  -999.2500   -36.1380     3.3520   307.9724     3.9873
  592.0000  -999.2500   -36.0240     3.0769   336.4066     3.5401
  592.5000  -999.2500   -35.9099     2.7998   364.8408     3.0847
  593.0000  -999.2500   -35.7952     2.6739   393.2750     2.6613
  593.5000  -999.2500   -35.6805     2.6697   421.7092     2.6701
  594.0000  -999.2500   -35.6064     2.8790   434.5567     2.9025
  594.5000  -999.2500   -35.8625     3.2454   430.3708     3.3787
  595.0000  -999.2500   -36.1232     3.6132   396.1460     4.0968
  595.5000  -999.2500   -36.3828     3.9811   363.9929     4.9136
  596.0000  -999.2500   -36.6421     4.3488   332.0504     5.7299
  596.5000  -999.2500   -36.9014     4.7165   300.1079     6.5505
  597.0000  -999.2500   -37.1607     5.0842   268.1654     7.3244
  597.5000  -999.2500   -37.4201     5.4519   236.2229     7.8198
  598.0000  -999.2500   -37.6798     5.8195   204.2804     8.2360
  598.5000  -999.2500   -37.9386     6.1875   177.5163     8.6715
  599.0000  -999.2500   -38.1533     6.5688   171.2131     8.7781
  599.5000  -999.2500   -38.1911     6.6898   164.9100     8.5513
  600.0000  -999.2500   -38.2321     6.7424   158.6068     8.2402
  600.5000  -999.2500   -38.2740     6.5662   157.0543     7.9296
  601.0000  -999.2500   -38.3216     6.3273   159.6927     7.6171
  601.5000  -999.2500   -38.0786     6.0869   169.1122     7.2708
  602.0000  -999.2500   -37.7685     5.8468   178.5317     6.7691
  602.5000  -999.2500   -37.4572     5.6110   187.9512     6.3415
  603.0000  -999.2500   -37.3228     5.4775   197.3707     6.0619
  603.5000  -999.2500   -37.2213     5.5372   199.1749     6.0035
  604.0000  -999.2500   -37.1195     5.8453   192.9774     6.2399
  604.5000  -999.2500   -37.0179     6.1611   182.7388     6.7761
  605.0000  -999.2500   -36.9218     6.4778   172.5012     7.3083
  605.5000  -999.2500   -37.1263     6.7937   162.2256     7.8587
  606.0000  -999.2500   -37.7509     7.1098   151.6622     8.3815
  606.5000  -999.2500   -38.3699     7.4264   146.4701     8.7057
  607.0000  -999.2500   -38.9908     7.7393   141.1088     9.0268
  607.5000  -999.2500   -39.6113     7.9456   135.7475     9.2836
  608.0000  -999.2500   -40.2317     8.1477   130.3862     9.5584
  608.5000  -999.2500   -40.8526     8.3504   125.0249     9.8290
  609.0000  -999.2500   -41.4720     8.5527   121.1787    10.3445
  609.5000  -999.2500   -42.0974     8.7441   118.5459    10.7217
  610.0000  -999.2500   -42.3448     8.8852   115.9131    10.8739
  610.5000  -999.2500   -42.3125     9.0206   113.4683    11.0047
  611.0000  -999.2500   -42.0033     9.1557   112.4630    10.9746
  611.5000  -999.2500   -41.6915     9.2908   111.4578    10.9477
  612.0000  -999.2500   -41.3810     9.4259   110.4526    10.9207
  612.5000  -999.2500   -41.0699     9.5611   109.4473    10.9309
  613.0000  -999.2500   -40.7605     9.7013   108.4421    10.9565
  613.5000  -999.2500   -40.5267     9.7728   106.9610    10.9832
  614.0000  -999.2500   -40.6085     9.8258   105.2856    11.0276
  614.5000  -999.2500   -40.6873     9.8782   103.6102    11.1455
  615.0000  -999.2500   -40.6303     9.9308   101.9347    11.2607
  615.5000  -999.2500   -40.5375     9.9834   100.2593    11.3752
  616.0000  -999.2500   -40.4424    10.0358    98.7371    11.5203
  616.5000  -999.2500   -40.3375    10.0853    97.5643    11.7363
  617.0000  -999.2500   -40.7837    10.2505    96.3915    11.9507
  617.5000  -999.2500   -41.3247    10.4347    95.2187    12.1640
  618.0000  -999.2500   -41.8680    10.6193    94.0459    12.3709
  618.5000  -999.2500   -42.4097    10.8036    92.8732    12.5785
