~VERSION INFORMATION
 VERS.                2.0:   CWLS LOG ASCII STANDARD - VERSION 2.0
 WRAP.                 NO:   ONE LINE PER DEPTH STEP
~WELL INFORMATION
#MNEM.UNIT      DATA TYPE    INFORMATION
#----------   ------------   ------------------------------
 STRT.F            3.0000:   START DEPTH
 STOP.F          600.0000:   STOP DEPTH
 STEP.F            0.5000:   STEP LENGTH
 NULL.          -999.2500:   NO VALUE
 COMP. FENIX & SCISSON INC:   COMPANY
 WELL.     NPR-3 #83SX4-4:   WELL
 FLD .             TEAPOT:   FIELD
 LOC .       S4 T38N R78W:   LOCATION
 CNTY.            NATRONA:   COUNTY
 STAT.            WYOMING:   STATE
 CTRY. UNITED STATES OF AMERICA:   COUNTRY
 SRVC.           BIRDWELL:   SERVICE COMPANY
 DATE.        02-AUG-1978:   LOGDATE
 API .       490251067700:   API NUMBER
~CURVE INFORMATION
#MNEM.UNIT       API CODE    CURVE DESCRIPTION
#----------   ------------   ------------------------------
 DEPT.F                  :   
 GRD .GAPI   45 310 01 00:   GAMMA RAY FROM DENSITY LOG
 CORR.G/C3   45 356 01 00:   DENSITY CORRECTION
 RHOB.G/C3   45 350 01 00:   BULK DENSITY
 DPHI.DEC    45 890 12 00:   DENSITY POROSITY SANDSTONE
 SPR .MV     05 010 01 00:   SPONTANEOUS POTENTIAL
 ILD .OHMM   05 120 46 00:   INDUCTION LOG DEEP
 SN  .OHMM   05 040 00 00:   SHORT NORMAL
~PARAMETER INFORMATION
#MNEM.UNIT          VALUE    DESCRIPTION
#----------   ------------   ------------------------------
 PD  .                 GL:   PERMANENT DATUM
 EPD .F              5204:   ELEVATION PERMANENT DATUM
 LMF .                 KB:   LOG MEASURED FROM
 DAPD.F                 4:   FEET ABOVE PERMANENT DATUM
 DMF .                 KB:   DRILLING MEASURED FROM
 EKB .F              5204:   KELLING BUSHING
 EGL .F              5200:   GROUND LEVEL
 DATE.        02-AUG-1978:   RUN DATE
 RUN .                  1:   RUN NUMBER
 DD  .F               590:   DEPTH DRILLER
 DL  .F               606:   DEPTH LOGGER
 BLI .F               590:   BOTTOM LOG INTERVAL
 TLI .F                30:   TOP LOG INTERVAL
 CS  .IN            8.625:   CASING SIZE
 CBD .F                40:   CASING BOTTOM DRILLER
 BS  .IN            7.875:   BIT SIZE
 BSD .F               590:   BIT SIZE AT DEPTH
 DFT .                KCL:   DRILLING FLUID TYPE
 DFD .                8.7:   DRILLING FLUID DENSITY
 DFV .                 32:   DRILLING FLUID VISCOSITY
 DFPH.                  9:   DRILLING FLUID PH
 DFL .                 12:   DRILLING FLUID LOSS
 MSS .           FLOWLINE:   MUD SAMPLE SOURCE
 RMS .OHMM             .4:   RESISTIVITY MUD SAMPLE
 MST .F                61:   MUD SAMPLE TEMPERATURE
 RMF .OHMM             .5:   RESISTIVITY MUD FILTRATE SAMPLE
 MFST.F                50:   MUD FILTRATE SAMPLE TEMPERATURE
 RMC .OHMM            .65:   RESISTIVITY MUD CAKE
 MCST.F                66:   MUD CAKE SAMPLE TEMPERATURE
 MFSS.               MEAS:   MUD FILTRATE SAMPLE SOURCE
 BHT .F                78:   BOTTOM HOLE TEMPERATURE
 TCS .HRS            0300:   TIME CURCULATED STOPPED
 MRT .F                78:   MAXIMUM RECORDED TEMPERATURE
 LUN .               3006:   LOGGING UNIT NUMBER
 LUL .               CASP:   LOGGING UNIT LOCATION
 ENGI.             MILLER:   RECORDING ENGINEER
 WITN.              AMEND:   WITNESSED BY
 CLNT.            A2DTECH:   CLIENT CODE
 ORIG.           5" PRINT:   ORIGIN OF DATA
 UWI .       490251067700:   UNIQUE WELL ID
 DICO. A2D Technologies, Inc.:   DIGITIZING COMPANY
~OTHER INFORMATION
~A    DEPT     GRD       CORR       RHOB       DPHI        SPR        ILD         SN   
# ...
  549.0000    39.4187     0.0632     2.4656     0.1287   -35.1325    12.7267    12.2580
  549.5000    39.5590     0.0676     2.4761     0.1266   -34.9764    12.7319    12.2693
  550.0000    40.9004     0.0676     2.4731     0.1195   -34.8220    12.8251    12.1921
  550.5000    41.7803     0.0675     2.4977     0.1096   -35.5569    12.6515    12.2034
  551.0000    42.0643     0.0674     2.5037     0.1105   -35.7002    12.7406    12.2125
  551.5000    42.6378     0.0689     2.5036     0.1117   -35.6910    12.5680    12.2215
  552.0000    43.3673     0.0733     2.5036     0.1120   -35.8324    12.4834    12.2306
  552.5000    44.3976     0.0792     2.5058     0.1117   -35.8250    12.3994    12.2397
  553.0000    45.5782     0.0851     2.5102     0.1084   -35.8177    12.4011    12.2488
  553.5000    46.1573     0.0926     2.5102     0.1075   -35.8103    12.4032    11.9691
  554.0000    46.8868     0.1031     2.5109     0.1066   -35.9518    12.4048    11.9752
  554.5000    47.9171     0.1163     2.5161     0.1033   -36.0951    12.4065    11.9801
  555.0000    49.6992     0.1267     2.5250     0.0965   -36.2365    12.4082    11.9849
  555.5000    50.8799     0.1341     2.5250     0.0992   -36.2273    12.3247    11.9063
  556.0000    50.5363     0.1415     2.5264     0.0926   -36.3690    12.3263    11.7483
  556.5000    47.2552     0.1459     2.5325     0.0893   -36.3614    12.2430    11.6736
  557.0000    43.9448     0.1473     2.5375     0.0872   -36.3418    12.0771    11.6783
  557.5000    41.3909     0.1458     2.5397     0.0854   -36.3467    12.0791    11.6831
  558.0000    39.6346     0.1382     2.5479     0.0836   -22.4994    12.0807    11.6878
  558.5000    38.7100     0.1291     2.5584     0.0803   -22.4920    12.0824    11.6926
  559.0000    38.2421     0.1216     2.5561     0.0774   -22.4847    12.0840    11.6973
  559.5000    44.3795     0.1185     2.5560     0.0774   -22.4773    12.0857    11.7021
  560.0000    64.8980     0.1169     2.5560     0.0774   -22.4699    12.0043    11.6160
  560.5000  -999.2500     0.1169     2.5537     0.0789   -22.4626    11.9235    11.4722
  561.0000  -999.2500     0.1168     2.5476     0.0847   -22.6034    11.8432    11.3981
  561.5000  -999.2500     0.1182     2.5374     0.0942   -22.7467    11.8452    11.4826
  562.0000  -999.2500     0.1212     2.5244     0.0954   -22.7375    11.7651    11.5667
  562.5000  -999.2500     0.1271     2.5228     0.0957   -22.8808    11.7671    11.4908
  563.0000  -999.2500     0.1360     2.5205     0.0948   -22.8716    11.6875    11.4966
  563.5000  -999.2500     0.1389     2.5444     0.0858   -22.8642    11.5295    11.5013
  564.0000  -999.2500     0.1369     2.5624     0.0651   -23.0060    11.4519    11.4270
  564.5000  -999.2500     0.1252     2.5728     0.0592   -22.9983    11.4535    11.4317
  565.0000  -999.2500     0.1072     2.5713     0.0747   -23.2887    11.2983    11.4363
  565.5000  -999.2500     0.0952     2.5525     0.0777   -23.8764    11.2222    11.4409
  566.0000  -999.2500     0.0846     2.5495     0.0801   -24.4643    11.1467    11.3671
  566.5000  -999.2500     0.0666     2.5457     0.0882   -24.7606    11.1486    11.3718
  567.0000  -999.2500     0.0531     2.5254     0.1011   -25.0448    11.0732    11.2982
  567.5000  -999.2500     0.0515     2.5126     0.1017   -25.3351    10.9986    11.2264
  568.0000  -999.2500     0.0514     2.5156     0.1011   -25.6253    10.8500    11.2310
  568.5000  -999.2500     0.0499     2.5058     0.1011   -25.7668    10.7769    11.1573
  569.0000  -999.2500     0.0496     2.5050     0.1014   -25.9082    10.6309    11.0864
  569.5000  -999.2500     0.0482     2.5080     0.1023   -25.8595    10.5590    10.9393
  570.0000  -999.2500     0.0466     2.5087     0.1032   -25.8492    10.5608    10.8675
  570.5000  -999.2500     0.0465     2.5079     0.1047   -25.8389    10.4177    10.8730
  571.0000  -999.2500     0.0465     2.5039     0.1074   -25.8286    10.2765    10.7276
  571.5000  -999.2500     0.0464     2.4973     0.1125   -25.8183    10.2074    10.5861
  572.0000  -999.2500     0.0493     2.4958     0.1143   -25.8080    10.0663    10.3740
  572.5000  -999.2500     0.0522     2.4957     0.1137   -25.7977     9.8566    10.2365
  573.0000  -999.2500     0.0537     2.4957     0.1128   -25.7874     9.5980    10.0286
  573.5000  -999.2500     0.0536     2.4979     0.1090   -26.0757     9.2106     9.7553
  574.0000  -999.2500     0.0550     2.4986     0.1138   -26.3642     8.2504     9.3726
  574.5000  -999.2500     0.0534     2.4896     0.1171   -26.3536     7.5969     8.9970
  575.0000  -999.2500     0.0563     2.4880     0.1168   -26.0448     7.0919     8.5772
  575.5000  -999.2500     0.0608     2.4880     0.1159   -25.2702     6.4410     8.1770
  576.0000  -999.2500     0.0637     2.4864     0.1150   -23.4508     6.2238     7.7955
  576.5000  -999.2500     0.0591     2.4811     0.1180   -23.1776     6.3546     7.3302
  577.0000  -999.2500     0.0635     2.4646     0.1288   -23.1652     6.4882     7.0357
  577.5000  -999.2500     0.0709     2.4556     0.1387   -23.3067     6.5339     6.8012
  578.0000  -999.2500     0.0903     2.4541     0.1301   -23.2939     6.6254     6.7102
  578.5000  -999.2500     0.0992     2.4862     0.1132   -23.2836     6.6721     6.8067
  579.0000  -999.2500     0.0763     2.5303     0.0917   -23.2733     6.8595     7.4469
  579.5000  -999.2500     0.0617     2.5415     0.0839   -23.2630     7.5031     8.3173
  580.0000  -999.2500     0.0586     2.5505     0.0803   -23.2527     8.5535     9.6373
  580.5000  -999.2500     0.0570     2.5549     0.0791   -23.2424     9.6195    10.4572
  581.0000  -999.2500     0.0540     2.5309     0.0920   -23.2321    10.2402    10.8183
  581.5000  -999.2500     0.0554     2.5271     0.0947   -23.0726    10.5215    10.9727
  582.0000  -999.2500     0.0568     2.5218     0.0953   -23.0623    10.5959    10.9772
  582.5000  -999.2500     0.0582     2.5203     0.0974   -23.0520    10.6706    11.0575
  583.0000  -999.2500     0.0626     2.5217     0.0956   -23.1910    10.8949    11.2928
  583.5000  -999.2500     0.0641     2.5299     0.0890   -23.0313    11.1239    11.5331
  584.0000  -999.2500     0.0655     2.5426     0.0827   -22.7105    11.2798    11.6175
  584.5000  -999.2500     0.0669     2.5516     0.0795   -21.4762    11.5169    11.8647
  585.0000  -999.2500     0.0638     2.5522     0.0786   -26.7293    11.6782    12.0340
  585.5000  -999.2500     0.0623     2.5530     0.0789   -26.7190    11.8418    12.2901
  586.0000  -999.2500     0.0622     2.5559     0.0798   -26.7087    12.1743    12.5516
  586.5000  -999.2500     0.0591     2.5611     0.0705   -26.6984    12.4302    12.7326
  587.0000  -999.2500     0.0590     2.5640     0.0693   -26.5389    12.6050    13.0018
  587.5000  -999.2500     0.0575     2.5558     0.0762   -26.5286    12.7810    13.1121
  588.0000  -999.2500     0.0574     2.5512     0.0789   -26.5183    12.8711    13.3769
  588.5000  -999.2500     0.0573     2.5519     0.0792   -26.6598    12.9622    13.3823
  589.0000  -999.2500     0.0556     2.5571     0.0786   -26.6469    13.0536    13.3877
  589.5000  -999.2500     0.0512     2.5631     0.0783   -26.6366    13.0553    13.3932
  590.0000  -999.2500     0.0496     2.5540     0.0816   -26.6264    13.1474    13.4912
  590.5000  -999.2500     0.0480     2.5375     0.0900   -26.6161    13.1491    13.4966
  591.0000  -999.2500     0.0465     2.5225     0.0978   -26.6058    13.1509    13.5021
  591.5000  -999.2500     0.0449     2.5187     0.0978   -26.5955    13.1527    13.5076
  592.0000  -999.2500     0.0448     2.5232     0.0936   -26.5851    13.1545    13.5131
  592.5000  -999.2500     0.0463     2.5261     0.0972   -26.5746    13.1563    13.4257
  593.0000  -999.2500     0.0477     2.5208     0.0990   -26.5642    13.0677    13.4312
  593.5000  -999.2500     0.0491     2.5171     0.0975   -26.5517    13.0698    13.4368
  594.0000  -999.2500     0.0492     2.5170     0.0990   -26.5414    13.1616    13.4423
