~VERSION INFORMATION
 VERS.                2.0:   CWLS LOG ASCII STANDARD - VERSION 2.0
 WRAP.                 NO:   ONE LINE PER DEPTH STEP
~WELL INFORMATION
#MNEM.UNIT      DATA TYPE    INFORMATION
#----------   ------------   ------------------------------
 STRT.F           35.0000:   START DEPTH
 STOP.F          474.0000:   STOP DEPTH
 STEP.F            0.5000:   STEP LENGTH
 NULL.          -999.2500:   NO VALUE
 COMP.    FENIX & SCISSON:   COMPANY
 WELL.        NPR #53-S-3:   WELL
 FLD .             TEAPOT:   FIELD
 LOC .       S3 T38N R78W:   LOCATION
 CNTY.            NATRONA:   COUNTY
 STAT.            WYOMING:   STATE
 CTRY. UNITED STATES OF AMERICA:   COUNTRY
 SRVC.       Schlumberger:   SERVICE COMPANY
 DATE.        21-FEB-1977:   LOGDATE
 API .       490251027800:   API NUMBER
~CURVE INFORMATION
#MNEM.UNIT       API CODE    CURVE DESCRIPTION
#----------   ------------   ------------------------------
 DEPT.F                  :   
 SPR .MV     07 010 01 00:   SPONTANEOUS POTENTIAL
 ILD .OHMM   07 120 46 00:   INDUCTION LOG DEEP
 ILM .OHMM   07 120 44 00:   INDUCTION LOG MEDIUM
 LL8 .OHMM   07 220 08 00:   LATEROLOG-8 RES.
 CALD.IN     45 280 60 00:   CALIPER FROM DENSITY LOG
 CORR.G/C3   45 356 01 00:   DENSITY CORRECTION
 RHOB.G/C3   45 350 01 00:   BULK DENSITY
 DPHI.DEC    45 890 12 00:   DENSITY POROSITY SANDSTONE
 GRD .GAPI   45 310 01 00:   GAMMA RAY FROM DENSITY LOG
~PARAMETER INFORMATION
#MNEM.UNIT          VALUE    DESCRIPTION
#----------   ------------   ------------------------------
 PD  .                 GL:   PERMANENT DATUM
 EPD .F              5163:   ELEVATION PERMANENT DATUM
 LMF .                 GL:   LOG MEASURED FROM
 DMF .                 KB:   DRILLING MEASURED FROM
 EKB .F              5167:   KELLING BUSHING
 EGL .F              5163:   GROUND LEVEL
 DATE.        21-FEB-1977:   RUN DATE
 RUN .                  1:   RUN NUMBER
 DD  .F               480:   DEPTH DRILLER
 DL  .F               475:   DEPTH LOGGER
 BLI .F               474:   BOTTOM LOG INTERVAL
 TLI .F                39:   TOP LOG INTERVAL
 CS  .IN            8.625:   CASING SIZE
 CBD .F                40:   CASING BOTTOM DRILLER
 CBL .F                39:   CASING BOTTOM LOGGER
 BS  .IN            7.875:   BIT SIZE
 BSD .F               480:   BIT SIZE AT DEPTH
 DFT .            KCL MUD:   DRILLING FLUID TYPE
 DFD .                8.6:   DRILLING FLUID DENSITY
 DFV .                 35:   DRILLING FLUID VISCOSITY
 DFPH.                8.0:   DRILLING FLUID PH
 DFL .                6.8:   DRILLING FLUID LOSS
 MSS .           FLOWLINE:   MUD SAMPLE SOURCE
 RMS .OHMM            .41:   RESISTIVITY MUD SAMPLE
 MST .F                70:   MUD SAMPLE TEMPERATURE
 RMF .OHMM            .46:   RESISTIVITY MUD FILTRATE SAMPLE
 MFST.F                70:   MUD FILTRATE SAMPLE TEMPERATURE
 MFSS.               MEAS:   MUD FILTRATE SAMPLE SOURCE
 TCS .HRS               1:   TIME CURCULATED STOPPED
 LUN .               7680:   LOGGING UNIT NUMBER
 LUL .               CSPR:   LOGGING UNIT LOCATION
 ENGI.             TAYLOR:   RECORDING ENGINEER
 WITN.               JAPP:   WITNESSED BY
 CLNT.            A2DTECH:   CLIENT CODE
 ORIG.           5" PRINT:   ORIGIN OF DATA
 UWI .       490251027800:   UNIQUE WELL ID
 DICO. A2D Technologies, Inc.:   DIGITIZING COMPANY
~OTHER INFORMATION
~A   DEPT      SPR        ILD        ILM        LL8       CALD       CORR       RHOB       DPHI         GRD  
# ...
  108.0000   -60.6864     8.2836     8.6737    10.3418     8.3096     0.0134     2.4660     0.1121    96.1330
  108.5000   -60.6715     8.4068     8.8012    10.2758     8.3108     0.0081     2.4705     0.1076    98.3978
  109.0000   -60.5069     8.5244     8.8691    10.2120     8.3122     0.0240     2.4834     0.1036    99.3115
  109.5000   -60.4921     8.7074     9.0620    10.5803     8.3134     0.0300     2.4850     0.0979    99.3269
  110.0000   -60.3275     8.7802     9.2591    10.9601     8.2993     0.0368     2.4910     0.0879   100.6897
  110.5000   -60.1629     8.9083     9.4604    11.1975     8.3008     0.0428     2.4994     0.0894   101.8279
  111.0000   -59.9983     8.9648     9.6662    11.2052     8.3020     0.0331     2.4845     0.1061   100.7206
  111.5000   -59.9834     8.9700     9.8764    11.2907     8.3031     0.0256     2.4768     0.1016    98.4905
  112.0000   -59.9686     8.9743    10.0913    11.8588     8.3043     0.0167     2.4836     0.0996    95.8113
  112.5000   -59.9537     8.9156    10.1690    13.6270     8.2902     0.0163     2.4806     0.1060    95.3777
  113.0000   -59.9388     8.8584     9.9677    11.7121     8.2917     0.0265     2.4814     0.0999    95.8428
  113.5000   -59.9239     8.8016     9.6360    11.0111     8.2779     0.0333     2.4875     0.0951    95.4086
  114.0000   -59.9777     8.6848     9.3153    11.1740     8.2342     0.0484     2.4913     0.0923    98.3470
  114.5000   -59.9553     8.5695     9.1941    10.9522     8.2054     0.0401     2.4800     0.1047    99.9305
  115.0000   -60.0916     8.5146     9.1377    10.6589     8.2066     0.0244     2.4838     0.0998    98.5986
  115.5000   -60.3686     8.5197     9.0190    10.5197     8.2078     0.0252     2.4921     0.0953    97.7197
  116.0000   -60.3507     8.5238     8.9636    10.7495     8.2090     0.0230     2.4786     0.1034    99.9807
  116.5000   -60.3328     8.4681     8.9704    10.8315     8.2104     0.0148     2.4794     0.1086   102.0171
  117.0000   -60.4691     8.4732     8.9153    10.9142     8.2116     0.0065     2.4719     0.1149   103.6044
  117.5000   -60.4467     8.4772     8.9840    10.7717     8.2128     0.0159     2.4772     0.1091   104.2935
  118.0000   -60.5830     8.5402     8.9909    10.4832     8.2289     0.0216     2.4658     0.1139   103.8598
  118.5000   -60.7148     8.6037     9.0602    10.7865     8.2301     0.0232     2.4741     0.1130   103.4262
  119.0000   -60.6924     8.6078     9.1360    11.0202     8.2160     0.0315     2.4962     0.1043   103.6662
  119.5000   -60.5248     8.7320     9.2644    10.8014     8.2175     0.0307     2.4691     0.1094   104.5943
  120.0000   -60.3572     8.7968     9.3444    10.4415     8.2187     0.0255     2.4804     0.1130   104.8204
  120.5000   -60.1881     8.9237     9.4178    10.2212     8.2198     0.0201     2.4880     0.1048   101.9200
  121.0000   -59.8723     9.1153     9.5461    11.2822     8.2210     0.0180     2.4707     0.1108    98.1181
  121.5000   -59.5550     9.1197     9.6327    11.6871     8.2222     0.0129     2.4715     0.1126    96.1126
  122.0000   -59.0880     9.2512     9.8305    11.6146     8.2234     0.0128     2.4941     0.0972    95.2259
  122.5000   -58.9204     9.3847    10.0443    11.4627     8.2246     0.0205     2.5062     0.0885    96.5926
  123.0000   -58.3037     9.5201    10.2628    11.4708     8.2258     0.0236     2.4995     0.0972    98.1799
  123.5000   -58.1361     9.6574    10.4137    11.7193     8.2269     0.0303     2.4912     0.1105    99.7672
  124.0000   -57.9684     9.8647    10.6402    12.4804     8.2433     0.0198     2.4664     0.1183    98.8844
  124.5000   -57.8008     9.9380    10.7966    12.6646     8.2445     0.0131     2.4514     0.1192    96.2053
  125.0000   -57.7829    10.0813    11.0314    12.4976     8.2304     0.0154     2.4627     0.1134    93.7506
  125.5000   -57.7650    10.2978    11.2714    12.5062     8.2319     0.0162     2.4711     0.1098    93.4978
  126.0000   -57.7471    10.5188    11.5165    12.6962     8.2481     0.0125     2.4802     0.1062    96.7007
  126.5000   -57.7292    10.7447    11.7670    13.3388     8.2492     0.0200     2.4704     0.1037    98.7373
  127.0000   -57.7113    10.8996    11.9400    14.0139     8.2504     0.0118     2.4794     0.1088    97.9775
  127.5000   -57.6934    11.1336    12.1997    14.3013     8.2516     0.0148     2.4893     0.0978    94.5621
  128.0000   -57.6755    11.2942    12.3791    13.7185     8.2528     0.0171     2.4840     0.0992    90.9280
  128.5000   -57.5079    11.4572    12.6484    13.5503     8.2387     0.0172     2.4901     0.0952    89.5923
  129.0000   -57.4900    11.7031    12.8344    14.2643     8.2402     0.0240     2.5007     0.0886    92.0817
  129.5000   -57.3224    11.7937    13.1135    15.3391     8.2413     0.0345     2.5082     0.0867    94.5672
  130.0000   -57.3045    12.0433    13.3063    14.8580     8.2425     0.0440     2.5249     0.0792    95.4808
  130.5000   -57.2866    12.1328    13.5020    14.4626     8.2437     0.0406     2.5038     0.0834    92.8017
  131.0000   -57.2687    12.1387    13.7005    14.3729     8.2449     0.0271     2.4963     0.0939    90.3471
  131.5000   -57.2508    12.0606    13.5199    14.4826     8.2463     0.0301     2.4948     0.1003    89.9096
  132.0000   -57.0832    11.9832    13.4368    14.4925     8.2475     0.0272     2.4738     0.1042    91.9498
  132.5000   -57.0653    11.8242    13.3543    14.4026     8.2487     0.0137     2.4588     0.1165    92.0172
  133.0000   -57.1971    11.6687    13.2723    14.1166     8.2499     0.0085     2.4712     0.1093    89.5107
  133.5000   -57.1792    11.5125    13.1907    13.9299     8.2511     0.0228     2.4897     0.0963    89.3016
  134.0000   -57.0116    11.2827    13.0193    14.0386     8.2522     0.0341     2.4800     0.0920    90.0120
  134.5000   -56.9937    11.2090    12.9393    14.1457     8.2535     0.0214     2.4567     0.1123    91.6519
  135.0000   -56.9757    11.1370    12.8598    14.0555     8.2546     0.0109     2.4529     0.1195    90.4745
  135.5000   -56.8081    11.0656    12.7808    13.6839     8.2559     0.0207     2.4741     0.1137    87.5708
  136.0000   -56.7902    10.9945    12.7023    13.0463     8.2569     0.0230     2.4673     0.1125    85.5653
  136.5000   -56.7723    11.0776    12.7143    12.8737     8.2582     0.0193     2.4809     0.1073    86.2544
  137.0000   -56.7544    11.1598    12.7239    13.5238     8.2593     0.0168     2.4749     0.1122    87.6171
  137.5000   -56.7365    11.2428    12.7336    13.8168     8.2605     0.0111     2.4561     0.1176    84.9380
  138.0000   -56.7186    11.2482    12.7432    13.4491     8.2467     0.0171     2.4539     0.1151    84.0514
  138.5000   -56.5509    11.2536    12.8414    13.0010     8.2479     0.0247     2.4675     0.1088    86.7653
  139.0000   -56.5329    11.2590    12.9404    13.4676     8.2341     0.0202     2.4743     0.1027    87.0014
  139.5000   -56.3573    11.1854    13.0401    15.1580     8.2355     0.0292     2.4841     0.1012    82.7543
  140.0000   -56.0479    11.1136    13.1406    17.2980     8.2367     0.0113     2.4729     0.1087    80.5242
  140.5000   -55.8802    10.9662    13.1506    18.4182     8.2379    -0.0007     2.4699     0.1081    82.3368
  141.0000   -55.8623    10.7473    13.0698    14.6731     8.2540     0.0143     2.4808     0.1030    81.6452
  141.5000   -55.6946    10.6051    12.4612    12.2671     8.2403     0.0271     2.4888     0.0997    80.3460
  142.0000   -55.6766    10.3918    11.7980    11.5349     8.2414     0.0400     2.4859     0.1039    85.3054
  142.5000   -55.6587    10.2539    11.4805    10.6956     8.2426     0.0491     2.4738     0.1126    88.0155
  143.0000   -55.4910    10.1179    11.0995    11.2357     8.2438     0.0573     2.4453     0.1141    89.6028
  143.5000   -55.4731    10.0529    10.8836    11.8010     8.2450     0.0461     2.4287     0.1264    92.3129
  144.0000   -55.4291     9.8511    10.7421    12.4808     8.2461     0.0326     2.4310     0.1337    95.9211
