~VERSION INFORMATION
 VERS.                2.0:   CWLS LOG ASCII STANDARD - VERSION 2.0
 WRAP.                 NO:   ONE LINE PER DEPTH STEP
~WELL INFORMATION
#MNEM.UNIT      DATA TYPE    INFORMATION
#----------   ------------   ------------------------------
 STRT.F           30.0000:   START DEPTH
 STOP.F          715.0000:   STOP DEPTH
 STEP.F            0.5000:   STEP LENGTH
 NULL.          -999.2500:   NO VALUE
 COMP. FENIX & SCISSON INC:   COMPANY
 WELL.   NPR-3 #84SX15-15:   WELL
 FLD .             TEAPOT:   FIELD
 LOC .      S15 T38N R78W:   LOCATION
 CNTY.            NATRONA:   COUNTY
 STAT.            WYOMING:   STATE
 CTRY. UNITED STATES OF AMERICA:   COUNTRY
 SRVC.            Unknown:   SERVICE COMPANY
 DATE.        15-MAY-1978:   LOGDATE
 API .       490251064000:   API NUMBER
~CURVE INFORMATION
#MNEM.UNIT       API CODE    CURVE DESCRIPTION
#----------   ------------   ------------------------------
 DEPT.F                  :   
 SPR .MV     05 010 01 00:   SPONTANEOUS POTENTIAL FROM RES.
 SN  .OHMM   05 040 16 00:   SHORT NORMAL 16"
 ILD .OHMM   05 120 46 00:   INDUCTION LOG DEEP
 CALD.IN     45 280 60 00:   CALIPER FROM DENSITY LOG
 GRD .GAPI   45 310 01 00:   GAMMA RAY FROM DENSITY LOG
 CORR.G/C3   45 356 01 00:   DENSITY CORRECTION
 DPHI.DEC    45 890 12 00:   DENSITY POROSITY SANDSTONE
 DEN .G/C3   45 350 01 00:   COMPENSATED BULK DENSITY
~PARAMETER INFORMATION
#MNEM.UNIT          VALUE    DESCRIPTION
#----------   ------------   ------------------------------
 PD  .                 GL:   PERMANENT DATUM
 EPD .F              5247:   ELEVATION PERMANENT DATUM
 LMF .                 KB:   LOG MEASURED FROM
 DMF .                 KB:   DRILLING MEASURED FROM
 EKB .F              5251:   KELLING BUSHING
 EGL .F              5247:   GROUND LEVEL
 DATE.        15-MAY-1978:   RUN DATE
 RUN .                  1:   RUN NUMBER
 DD  .F               725:   DEPTH DRILLER
 DL  .F               720:   DEPTH LOGGER
 BLI .F               713:   BOTTOM LOG INTERVAL
 TLI .F                40:   TOP LOG INTERVAL
 CS  .IN            8.625:   CASING SIZE
 CBD .F                40:   CASING BOTTOM DRILLER
 CBL .F                40:   CASING BOTTOM LOGGER
 BS  .IN            7.875:   BIT SIZE
 BSD .F               725:   BIT SIZE AT DEPTH
 DFT .                KCL:   DRILLING FLUID TYPE
 DFD .                8.6:   DRILLING FLUID DENSITY
 DFV .                 33:   DRILLING FLUID VISCOSITY
 DFPH.                9.5:   DRILLING FLUID PH
 DFL .                 12:   DRILLING FLUID LOSS
 MSS .           FLOWLINE:   MUD SAMPLE SOURCE
 RMS .OHMM             .2:   RESISTIVITY MUD SAMPLE
 MST .F                80:   MUD SAMPLE TEMPERATURE
 RMF .OHMM            .18:   RESISTIVITY MUD FILTRATE SAMPLE
 MFST.F                83:   MUD FILTRATE SAMPLE TEMPERATURE
 RMC .OHMM            .26:   RESISTIVITY MUD CAKE
 MCST.F                83:   MUD CAKE SAMPLE TEMPERATURE
 MFSS.               MEAS:   MUD FILTRATE SAMPLE SOURCE
 RMB .OHMM             .2:   RESISTIVITY MUD AT BHT
 BHT .F                80:   BOTTOM HOLE TEMPERATURE
 TCS .HRS            0200:   TIME CURCULATED STOPPED
 MRT .F                80:   MAXIMUM RECORDED TEMPERATURE
 LUN .               3006:   LOGGING UNIT NUMBER
 LUL .               CASP:   LOGGING UNIT LOCATION
 ENGI.             MILLER:   RECORDING ENGINEER
 WITN.           MCGINLEY:   WITNESSED BY
 CLNT.            A2DTECH:   CLIENT CODE
 ORIG.           5" PRINT:   ORIGIN OF DATA
 UWI .       490251064000:   UNIQUE WELL ID
 DICO. A2D Technologies, Inc.:   DIGITIZING COMPANY
~OTHER INFORMATION
~A   DEPT      SPR         SN        ILD       CALD         GRD      CORR       DPHI        DEN   
# ...
  475.5000   -41.5574     6.4786     6.3895     7.1675    90.8202     0.0744     0.1156     2.4857
  476.0000   -41.5812     6.4330     6.3886     7.0918    92.4694     0.0758     0.1130     2.4856
  476.5000   -41.6051     6.3878     6.3877     7.0464    92.6143     0.0803     0.1148     2.4849
  477.0000   -41.6290     6.3870     6.3429     7.2275    92.1532     0.0817     0.1235     2.4841
  477.5000   -41.6541     6.3861     6.2982     7.4690    91.9951     0.0892     0.1157     2.4765
  478.0000   -41.6541     6.4295     6.2974     7.4084    91.3852     0.0965     0.1148     2.4802
  478.5000   -41.6541     6.4732     6.2531     7.2723    90.7753     0.1039     0.1133     2.4855
  479.0000   -41.8045     6.4723     6.2523     7.1816    90.3160     0.1100     0.1170     2.4884
  479.5000   -41.8200     6.4714     6.2514     7.1663    89.1037     0.1115     0.1206     2.4839
  480.0000   -41.9401     6.4706     6.2505     7.1813    89.5481     0.1159     0.1167     2.4763
  480.5000   -41.9093     6.4178     6.2497     7.2113    93.1550     0.1174     0.1146     2.4733
  481.0000   -41.8785     6.3275     6.2488     7.2263    95.1112     0.1068     0.1242     2.4732
  481.5000   -41.8477     6.3351     6.2480     7.2714    90.7150     0.0852     0.1206     2.4755
  482.0000   -41.8169     6.3340     6.2471     7.2864    85.8738     0.0811     0.1182     2.4732
  482.5000   -41.7861     6.2031     6.2462     7.4071    84.6913     0.0630     0.1327     2.4634
  483.0000   -41.7553     6.1171     6.2024     6.9840    87.3184     0.0509     0.1303     2.4581
  483.5000   -41.7246     5.9494     6.1588     7.2708    94.3144     0.0508     0.1270     2.4603
  484.0000   -41.6938     5.9076     6.0315     7.4520    97.9213     0.0493     0.1282     2.4633
  484.5000   -41.6630     5.9068     5.8661     7.3461    98.4142     0.0462     0.1394     2.4520
  485.0000   -41.6541     5.9060     5.7053     7.1042    95.4967     0.0462     0.1448     2.4399
  485.5000   -41.6038     5.8645     5.4727     6.9228    90.6700     0.0506     0.1562     2.4271
  486.0000   -41.2030     5.8233     5.0712     7.0435    89.5964     0.0611     0.1725     2.4075
  486.5000   -40.6015     5.7425     4.7317     7.1642    89.9021     0.0685     0.1773     2.3887
  487.0000   -40.6015     5.6238     4.4765     7.2547    90.6475     0.0805     0.1749     2.3774
  487.5000   -40.6015     5.3945     4.5069     7.3301    91.6943     0.0985     0.1644     2.3796
  488.0000   -40.6015     5.2467     4.5691     7.3452    91.9880     0.1165     0.1425     2.3998
  488.5000   -40.6015     5.1028     4.5684     7.4212    92.2817     0.1224     0.1291     2.4749
  489.0000   -40.6015     5.1375     4.5678     7.5115    91.9609     0.1224     0.1136     2.4817
  489.5000   -40.6015     5.2084     4.5357     7.5712    88.8571     0.1268     0.1101     2.5027
  490.0000   -40.6015     5.3908     4.5982     7.5710    90.8428     0.1298     0.1089     2.5146
  490.5000   -40.6015     5.6574     4.8591     7.5708    94.6852     0.1342     0.1080     2.4966
  491.0000   -40.6015     5.8556     5.5405     7.5542    94.2962     0.0996     0.1152     2.4935
  491.5000   -40.6015     5.9364     5.8955     7.5252    91.1808     0.0724     0.1272     2.4935
  492.0000   -40.6015     6.0182     6.0187     7.5100    91.1733     0.0378     0.1258     2.4694
  492.5000   -40.6015     6.0174     6.0592     7.4645    91.9188     0.0242     0.1249     2.4664
  493.0000   -40.6015     6.0165     5.9729     7.4644    91.3089     0.0226     0.1249     2.4663
  493.5000   -40.6015     5.9743     5.7684     7.4491    88.7412     0.0241     0.1270     2.4686
  494.0000   -40.6015     5.9323     5.5637     7.4161    86.7759     0.0255     0.1439     2.4572
  494.5000   -40.6015     5.8905     4.9745     7.4035    87.5214     0.0255     0.1511     2.4407
  495.0000   -40.6015     5.7663     4.4893     7.4033    91.1284     0.0299     0.1472     2.4301
  495.5000   -40.6015     5.5313     4.3143     7.3880    92.3257     0.0464     0.1304     2.4391
  496.0000   -40.6015     5.3013     4.2839     7.3879    94.1255     0.0659     0.1391     2.4481
  496.5000   -40.6015     4.9527     4.2538     7.3424    97.7325     0.0508     0.1187     2.4541
  497.0000   -40.6015     4.9521     4.2531     7.3423    97.8774     0.0131     0.1226     2.4615
  497.5000   -40.6015     5.0203     4.2822     7.3421    94.2536     0.0071     0.1214     2.4720
  498.0000   -40.6015     5.1247     4.3111     7.4175    83.8546     0.0130     0.1229     2.4772
  498.5000   -40.6015     5.2677     4.4314     7.4627    84.2989     0.0190     0.1238     2.4757
  499.0000   -40.6015     5.3774     4.7480     7.4625    86.7011     0.0189     0.1167     2.4749
  499.5000   -40.6015     5.5274     5.3766     7.4775    90.9105     0.0128     0.1067     2.4831
  500.0000   -40.6078     5.7409     5.8581     7.4560    92.8627     0.0145     0.1059     2.4929
  500.5000   -40.6332     5.9777     6.0619     7.3814    90.8107     0.0158     0.1082     2.4938
  501.0000   -40.6586     6.2574     6.2656     7.3884    89.0503     0.0170     0.1065     2.4947
  501.5000   -40.6839     6.4766     6.5203     7.4777    87.4351     0.0173     0.1077     2.4955
  502.0000   -40.7093     6.5209     6.6469     7.4918    86.8312     0.0173     0.1113     2.4958
  502.5000   -40.7347     6.5652     6.7383     7.4464    86.8297     0.0142     0.1080     2.4965
  503.0000   -40.7601     6.6099     6.8297     7.4311    87.1294     0.0128     0.1065     2.4964
  503.5000   -40.7730     6.7147     6.8857     7.4478    87.4295     0.0128     0.1077     2.4972
  504.0000   -40.7760     7.0381     6.9798     7.5123    86.2228     0.0128     0.1086     2.4971
  504.5000   -40.7790     6.9829     7.0271     7.5666    86.0707     0.0128     0.1092     2.4963
  505.0000   -40.7820     6.9819     7.0253     7.5640    86.3704     0.0083     0.1104     2.4956
  505.5000   -40.7850     6.9809     7.0238     7.5182    86.2183     0.0083     0.1122     2.4939
  506.0000   -40.7880     6.9800     7.0224     7.5057    83.9578     0.0115     0.1125     2.4963
  506.5000   -40.7910     6.9790     7.0209     7.5056    83.0527     0.0132     0.1089     2.5022
  507.0000   -40.7940     6.9780     7.0681     7.5054    83.2018     0.0188     0.1026     2.5052
  507.5000   -40.7970     6.9770     7.0667     7.5506    83.8027     0.0235     0.0983     2.5082
  508.0000   -40.8000     6.9761     7.0652     7.5806    88.4698     0.0315     0.0992     2.5082
  508.5000   -40.8030     6.9751     7.0637     7.6107    87.4141     0.0429     0.1032     2.4987
  509.0000   -40.8065     6.9741     7.0622     7.6257    85.6054     0.0489     0.1044     2.4870
  509.5000   -40.8095     6.9732     7.0608     7.6255    85.6039     0.0549     0.1041     2.4863
  510.0000   -40.8120     6.9722     7.1086     7.6102    86.2048     0.0594     0.1008     2.4938
  510.5000   -40.8150     6.9712     7.1565     7.5648    83.7937     0.0549     0.0983     2.5081
  511.0000   -40.8180     6.9703     7.2546     7.5495    86.8042     0.0534     0.0992     2.5102
  511.5000   -40.8210     7.0666     7.4051     7.5041    87.4051     0.0489     0.1053     2.5072
  512.0000   -40.8240     7.0653     7.5685     7.4888    86.9518     0.0398     0.1098     2.4989
  512.5000   -40.8270     7.1134     7.7156     7.4433    86.1973     0.0308     0.1149     2.4891
  513.0000   -40.8301     7.1124     7.6530     7.3979    85.4366     0.0278     0.1185     2.4808
  513.5000   -40.8331     7.0624     7.2596     7.3826    83.3129     0.0293     0.1200     2.4748
  514.0000   -40.8362     6.9644     6.4232     7.4278    79.5421     0.0308     0.1416     2.4687
  514.5000   -40.6888     6.8678     5.8394     7.6089    75.9104     0.0308     0.1582     2.4326
  515.0000   -40.0904     6.1477     5.6413     7.6692    74.2922     0.0308     0.1648     2.4116
  515.5000   -39.1911     5.7759     5.4517     7.6842    76.0319     0.0338     0.1693     2.3995
