~VERSION INFORMATION
 VERS.                2.0:   CWLS LOG ASCII STANDARD - VERSION 2.0
 WRAP.                 NO:   ONE LINE PER DEPTH STEP
~WELL INFORMATION
#MNEM.UNIT      DATA TYPE    INFORMATION
#----------   ------------   ------------------------------
 STRT.F            4.0000:   START DEPTH
 STOP.F          544.0000:   STOP DEPTH
 STEP.F            0.5000:   STEP LENGTH
 NULL.          -999.2500:   NO VALUE
 COMP. LAWRENCE/ALLISON INC:   COMPANY
 WELL.    72-15 SX #10-10:   WELL
 FLD .             NPR #3:   FIELD
 LOC .      S10 T38N R78W:   LOCATION
 CNTY.            NATRONA:   COUNTY
 STAT.            WYOMING:   STATE
 CTRY. UNITED STATES OF AMERICA:   COUNTRY
 SRVC.           Gearhart:   SERVICE COMPANY
 DATE.        09-JUN-1986:   LOGDATE
 API .       490251107600:   API NUMBER
~CURVE INFORMATION
#MNEM.UNIT       API CODE    CURVE DESCRIPTION
#----------   ------------   ------------------------------
 DEPT.F                  :   
 ILD .OHMM   07 120 46 00:   INDUCTION LOG DEEP
 ILM .OHMM   07 120 44 00:   INDUCTION LOG MEDIUM
 GRR .GAPI   07 310 01 00:   GAMMA RAY FROM RES. LOG.
~PARAMETER INFORMATION
#MNEM.UNIT          VALUE    DESCRIPTION
#----------   ------------   ------------------------------
 PD  .                 GL:   PERMANENT DATUM
 EPD .F              5172:   ELEVATION PERMANENT DATUM
 LMF .                 KB:   LOG MEASURED FROM
 DMF .                 KB:   DRILLING MEASURED FROM
 EGL .F              5172:   GROUND LEVEL
 DATE.             6-9-86:   RUN DATE
 RUN .                  1:   RUN NUMBER
 DD  .F               530:   DEPTH DRILLER
 DL  .F               552:   DEPTH LOGGER
 BLI .F               543:   BOTTOM LOG INTERVAL
 TLI .F                42:   TOP LOG INTERVAL
 CS  .IN            8.625:   CASING SIZE
 CBD .F                42:   CASING BOTTOM DRILLER
 CBL .F                42:   CASING BOTTOM LOGGER
 BS  .IN            7.875:   BIT SIZE
 BSD .F               530:   BIT SIZE AT DEPTH
 DFT .               FOAM:   DRILLING FLUID TYPE
 MSS .               TANK:   MUD SAMPLE SOURCE
 RMB .OHMM            .26:   RESISTIVITY MUD AT BHT
 BHT .F                70:   BOTTOM HOLE TEMPERATURE
 TCS .HRS            0200:   TIME CURCULATED STOPPED
 TLAB.HRS            0327:   TIME LOGGER AT BOTTOM
 MRT .F                70:   MAXIMUM RECORDED TEMPERATURE
 LUN .               7609:   LOGGING UNIT NUMBER
 LUL .           GILLETTE:   LOGGING UNIT LOCATION
 ENGI.         WEATHERMON:   RECORDING ENGINEER
 WITN.              FIVAS:   WITNESSED BY
 CLNT.            A2DTECH:   CLIENT CODE
 ORIG.       2", 5" PRINT:   ORIGIN OF DATA
 UWI .       490251107600:   UNIQUE WELL ID
 DICO. A2D Technologies, Inc.:   DIGITIZING COMPANY
~OTHER INFORMATION
~A    DEPT     ILD        ILM         GRR  
# ...
  186.0000     5.9173     5.7995   126.8175
  186.5000     5.8010     5.6362   129.1686
  187.0000     5.6936     5.4848   128.1013
  187.5000     5.8155     5.5121   126.0651
  188.0000     5.9625     5.5346   124.4336
  188.5000     6.1120     5.6282   123.2421
  189.0000     6.3853     5.7730   122.4383
  189.5000     6.6916     5.9943   121.6324
  190.0000     7.0122     6.3095   121.0429
  190.5000     7.3482     6.6413   123.2868
  191.0000     7.6207     6.9906   126.2381
  191.5000     7.8879     7.3270   124.9661
  192.0000     8.1656     7.5685   122.2905
  192.5000     8.4528     7.9587   119.6105
  193.0000     8.6686     8.3520   119.4236
  193.5000     8.7853     8.5655   117.3566
  194.0000     8.8956     8.7542   114.7129
  194.5000     8.9986     8.7511   116.5772
  195.0000     8.8485     8.5899   119.3582
  195.5000     8.7116     8.4420   120.5133
  196.0000     8.5711     8.2977   120.0893
  196.5000     8.3729     8.1961   121.1960
  197.0000     8.1792     8.0836   123.0767
  197.5000     7.9901     7.7991   123.3927
  198.0000     7.6734     7.4617   123.2242
  198.5000     7.3538     7.1390   124.3222
  199.0000     7.0664     6.8302   126.7873
  199.5000     6.7982     6.5348   124.1338
  200.0000     6.5402     6.2520   120.3967
  200.5000     6.2919     5.9816   116.9378
  201.0000     6.0580     5.7264   118.5228
  201.5000     5.8555     5.4898   121.5107
  202.0000     5.8555     5.3384   124.4982
  202.5000     6.0195     5.4541   125.7859
  203.0000     6.2037     5.6667   125.6816
  203.5000     6.3690     5.8835   126.8067
  204.0000     6.7105     6.1235   127.5763
  204.5000     7.0990     6.4780   125.7014
  205.0000     7.5352     6.8530   123.6031
  205.5000     7.8998     7.2496   125.5143
  206.0000     8.3144     7.6059   127.7149
  206.5000     8.6233     8.0444   129.9051
  207.0000     8.7250     8.1970   132.0846
  207.5000     8.8279     8.3605   134.2871
  208.0000     8.9149     8.5272   135.2463
  208.5000     8.9149     8.6686   132.8870
  209.0000     8.9149     8.6967   131.0193
  209.5000     8.9147     8.7260   130.3381
  210.0000     8.9039     8.7501   129.1646
  210.5000     8.8926     8.7232   127.5762
  211.0000     8.8813     8.6959   126.4217
  211.5000     8.8701     8.6688   128.0020
  212.0000     8.8588     8.6417   129.6838
  212.5000     8.8477     8.6150   129.8895
  213.0000     8.8327     8.5874   128.9585
  213.5000     8.8453     8.4737   128.0014
  214.0000     8.8672     8.4284   127.6088
  214.5000     8.8890     8.4569   128.4133
  215.0000     8.9110     8.4768   129.6709
  215.5000     8.9330     8.4970   131.1931
  216.0000     8.9551     8.5080   130.7414
  216.5000     8.9772     8.4589   126.7151
  217.0000     8.9986     8.4244   122.8926
  217.5000     8.8759     8.3901   122.0916
  218.0000     8.7314     8.3559   123.1840
  218.5000     8.5892     8.2312   126.7082
  219.0000     8.4494     8.0921   128.7359
  219.5000     8.2772     7.9696   129.0653
  220.0000     8.1026     7.8023   130.4429
  220.5000     7.8391     7.6470   135.4208
  221.0000     7.5334     7.4949   140.4154
  221.5000     7.2411     7.3458   141.6104
  222.0000     6.9615     7.2093   134.2102
  222.5000     6.7097     6.9781   127.7369
  223.0000     6.4693     6.6683   124.3868
  223.5000     6.2377     6.3748   126.3632
  224.0000     6.0784     6.0942   127.3965
  224.5000     6.0784     5.7471   128.1965
  225.0000     6.2153     5.7642   128.9889
  225.5000     6.3056     5.7888   129.7761
  226.0000     6.4510     5.9403   130.3051
  226.5000     6.7255     6.2255   127.3804
  227.0000     7.0117     6.5244   124.6663
  227.5000     7.3106     6.8283   125.1900
  228.0000     7.6214     7.1257   124.9651
  228.5000     7.9696     7.4134   123.5477
  229.0000     7.8405     7.5352   123.1406
  229.5000     7.7039     7.6059   124.5023
  230.0000     7.5696     7.2338   126.1858
  230.5000     7.2080     6.9209   125.9102
  231.0000     6.7888     6.6213   124.0335
  231.5000     6.3939     6.3349   122.1372
  232.0000     6.0759     6.0606   120.0893
  232.5000     6.0601     5.7994   121.2185
  233.0000     6.0444     5.5856   125.0208
  233.5000     6.0219     5.5858   128.4937
  234.0000     6.1731     5.6967   127.0490
  234.5000     6.4479     5.8956   124.0792
  235.0000     6.7348     6.1701   124.8210
  235.5000     7.2210     6.5796   127.6074
  236.0000     7.7993     7.0163   130.4071
  236.5000     8.4290     7.4820   129.8150
  237.0000     8.7158     7.9786   127.6181
  237.5000     9.0915     8.5081   125.3935
  238.0000     9.3826     8.7869   123.1256
  238.5000     9.6573     9.0748   120.5748
  239.0000     9.8895     9.3721   120.8647
  239.5000     9.9359     9.4288   120.6951
  240.0000     9.9826     9.4963   119.7852
  240.5000    10.0295     9.6596   119.5575
  241.0000    10.0767     9.7878   121.6540
  241.5000    10.1241     9.6862   121.6371
  242.0000    10.1608     9.6758   120.5803
  242.5000    10.1604     9.6656   119.1312
  243.0000    10.1604     9.6553   120.1215
  243.5000    10.1604     9.6450   119.6911
  244.0000    10.1604     9.6347   116.3473
  244.5000    10.1607     9.6245   111.5229
  245.0000    10.1614     9.6137   111.2182
  245.5000    10.1114     9.6057   112.7542
  246.0000    10.0546     9.6978   114.7699
  246.5000     9.9982     9.7854   116.8126
  247.0000     9.9421     9.8732   118.1926
  247.5000     9.8863     9.9617   116.3350
  248.0000     9.5062    10.0099   113.6153
  248.5000     9.0991    10.0660   110.8675
  249.0000     8.7095     9.5786   108.8924
  249.5000     8.2865     8.9132   109.1814
  250.0000     7.8701     8.2939   114.1076
  250.5000     7.6376     7.7177   120.0742
  251.0000     7.4806     7.1816   123.4723
  251.5000     7.4651     6.8632   124.0114
  252.0000     7.7856     6.8632   122.8681
  252.5000     8.1579     7.0894   119.2124
  253.0000     8.5479     7.6562   114.7930
  253.5000     8.9149     8.2684   111.2234
  254.0000     9.6516     8.9296   108.5017
  254.5000    10.5423     9.4066   106.7151
  255.0000    11.2023    10.0230   105.2803
  255.5000    11.7783    10.6790   104.2962
  256.0000    12.0824    11.2075   104.5642
  256.5000    12.4136    11.7023   106.3917
  257.0000    12.9392    11.8398   106.4561
  257.5000    13.5097    11.9788   106.5031
  258.0000    14.1556    12.2475   106.8877
  258.5000    15.1829    12.5486   107.9675
  259.0000    16.4468    13.3036   104.7028
  259.5000    17.8180    14.4371    99.4561
  260.0000    19.9277    15.6662    93.8042
  260.5000    22.3662    17.8393    84.7679
  261.0000    25.1018    20.7319    75.6783
  261.5000    28.1721    24.0936    66.5608
  262.0000    31.6178    28.0003    58.2561
  262.5000    35.4851    32.3107    57.1967
  263.0000    39.1392    34.9808    63.0416
  263.5000    40.2515    37.7674    69.3328
  264.0000    41.2507    39.7791    73.1759
  264.5000    40.6198    41.5407    75.9444
  265.0000    39.9969    42.8212    73.6242
  265.5000    38.8758    42.6786    69.5722
  266.0000    37.7862    42.2994    65.6448
  266.5000    36.7271    41.0825    62.8764
  267.0000    35.6958    39.9006    66.6635
  267.5000    35.1744    38.7527    72.3298
  268.0000    35.0102    37.6378    78.0383
  268.5000    34.8829    36.9053    80.5613
  269.0000    36.2363    37.3633    76.7899
  269.5000    37.5281    38.7997    72.9881
  270.0000    38.8660    40.2913    69.1248
  270.5000    40.6768    41.8403    64.7454
  271.0000    42.4231    43.4488    61.7713
  271.5000    43.6316    45.1192    58.9368
  272.0000    45.0109    46.8744    60.6572
  272.5000    46.4344    48.7003    64.8923
  273.0000    46.8574    49.3386    69.1671
  273.5000    47.1711    49.5953    69.8389
  274.0000    47.5661    49.8534    67.9662
  274.5000    48.4250    50.1648    66.1220
  275.0000    48.8758    49.9324    66.3050
  275.5000    49.6080    49.5655    66.7395
  276.0000    50.3509    49.2013    67.2670
  276.5000    51.1048    48.8398    68.6362
