~VERSION INFORMATION
 VERS.                2.0:   CWLS LOG ASCII STANDARD - VERSION 2.0
 WRAP.                 NO:   ONE LINE PER DEPTH STEP
~WELL INFORMATION
#MNEM.UNIT      DATA TYPE    INFORMATION
#----------   ------------   ------------------------------
 STRT.F           70.0000:   START DEPTH
 STOP.F          990.0000:   STOP DEPTH
 STEP.F            0.5000:   STEP LENGTH
 NULL.          -999.2500:   NO VALUE
 COMP. U S NAVY/INTEX OIL CO:   COMPANY
 WELL.      NPR 3 #55 S-2:   WELL
 FLD .            WILDCAT:   FIELD
 LOC .       S2 T38N R78W:   LOCATION
 CNTY.            NATRONA:   COUNTY
 STAT.            WYOMING:   STATE
 CTRY. UNITED STATES OF AMERICA:   COUNTRY
 SRVC.         Lane Wells:   SERVICE COMPANY
 DATE.        23-MAR-1960:   LOGDATE
 API .       490250968000:   API NUMBER
~CURVE INFORMATION
#MNEM.UNIT       API CODE    CURVE DESCRIPTION
#----------   ------------   ------------------------------
 DEPT.F                  :   
 SPR .MV     05 010 01 00:   SPONTANEOUS POTENTIAL FROM RES.
 ASN .OHMM   05 041 16 00:   AMPLIFIED SHORT NORMAL 16"
 ILD .OHMM   05 120 46 00:   INDUCTION LOG DEEP
 CILD.MMHO   05 110 46 00:   CONDUCTIVITY INDUCTION LOG DEEP
~PARAMETER INFORMATION
#MNEM.UNIT          VALUE    DESCRIPTION
#----------   ------------   ------------------------------
 PD  .                 GL:   PERMANENT DATUM
 EPD .F              5163:   ELEVATION PERMANENT DATUM
 LMF .                 KB:   LOG MEASURED FROM
 DAPD.F                 5:   FEET ABOVE PERMANENT DATUM
 DMF .                 KB:   DRILLING MEASURED FROM
 EKB .F              5168:   KELLING BUSHING
 EGL .F              5163:   GROUND LEVEL
 DATE.        23-MAR-1960:   RUN DATE
 RUN .                  1:   RUN NUMBER
 DD  .F              1010:   DEPTH DRILLER
 DL  .F               992:   DEPTH LOGGER
 BLI .F               990:   BOTTOM LOG INTERVAL
 TLI .F                70:   TOP LOG INTERVAL
 CS  .IN            8.625:   CASING SIZE
 CBD .F                12:   CASING BOTTOM DRILLER
 BS  .IN            7.875:   BIT SIZE
 BSD .F              1010:   BIT SIZE AT DEPTH
 DFT .   GEL-OIL EMULSION:   DRILLING FLUID TYPE
 DFD .                9.5:   DRILLING FLUID DENSITY
 DFV .                 40:   DRILLING FLUID VISCOSITY
 MSS .           FLOWLINE:   MUD SAMPLE SOURCE
 RMS .OHMM            2.8:   RESISTIVITY MUD SAMPLE
 MST .F                74:   MUD SAMPLE TEMPERATURE
 RMF .OHMM            2.0:   RESISTIVITY MUD FILTRATE SAMPLE
 MFST.F                74:   MUD FILTRATE SAMPLE TEMPERATURE
 RMC .OHMM            3.9:   RESISTIVITY MUD CAKE
 MCST.F                74:   MUD CAKE SAMPLE TEMPERATURE
 MFSS.          MUD PRESS:   MUD FILTRATE SAMPLE SOURCE
 MCSS.          MUD PRESS:   MUD CAKE SAMPLE SOURCE
 RMB .OHMM            2.8:   RESISTIVITY MUD AT BHT
 BHT .F                74:   BOTTOM HOLE TEMPERATURE
 MRT .F                74:   MAXIMUM RECORDED TEMPERATURE
 LUN .             L-4474:   LOGGING UNIT NUMBER
 LUL .             CASPER:   LOGGING UNIT LOCATION
 ENGI.             NELSON:   RECORDING ENGINEER
 WITN.          JORGENSEN:   WITNESSED BY
 CLNT.            A2DTECH:   CLIENT CODE
 ORIG.       2", 5" PRINT:   ORIGIN OF DATA
 UWI .       490250968000:   UNIQUE WELL ID
 DICO. A2D Technologies, Inc.:   DIGITIZING COMPANY
~OTHER INFORMATION
~A   DEPT      SPR          ASN        ILD      CILD  
# ...
  508.0000   -44.8379     7.2604     6.1116   163.5724
  508.5000   -44.9221     7.1423     6.0428   164.9519
  509.0000   -44.9208     7.0716     5.9742   166.3324
  509.5000   -44.9194     6.9925     5.9603   167.1931
  510.0000   -44.9179     6.9376     5.9047   168.0402
  510.5000   -44.8611     6.8955     5.9041   169.1010
  511.0000   -44.6402     6.8700     5.9034   169.7343
  511.5000   -44.5041     6.8564     5.9028   170.4877
  512.0000   -44.3352     6.8563     5.9020   170.4958
  512.5000   -44.0914     6.8775     5.9013   170.5014
  513.0000   -44.0901     6.8994     5.9007   170.5086
  513.5000   -44.0888     6.9787     5.9000   170.5152
  514.0000   -44.0874     7.0974     5.8993   170.5219
  514.5000   -44.2229     7.2235     5.8986   169.1564
  515.0000   -44.4944     7.2643     5.8979   169.1621
  515.5000   -44.5578     7.2613     5.9295   169.1692
  516.0000   -44.7760     7.2370     5.9647   167.8022
  516.5000   -44.9003     7.1784     5.9638   167.8090
  517.0000   -45.0358     7.1133     5.9633   166.4432
  517.5000   -45.0341     7.0694     6.0306   166.4491
  518.0000   -44.9636     7.0600     6.0644   166.4285
  518.5000   -44.7272     7.0872     6.0973   165.0892
  519.0000   -44.3468     7.1875     6.0965   165.0962
  519.5000   -44.0278     7.3542     6.0959   163.7300
  520.0000   -43.7978     7.5088     6.0952   163.7363
  520.5000   -43.5860     7.5716     6.0946   162.3692
  521.0000   -43.5220     7.5904     6.0938   165.1250
  521.5000   -43.6571     7.4914     6.0931   165.5449
  522.0000   -43.7049     7.2261     6.0680   167.8850
  522.5000   -43.7910     6.9645     5.9558   169.9863
  523.0000   -43.9262     6.8266     5.8871   173.5806
  523.5000   -44.0860     6.6787     5.8183   176.1480
  524.0000   -44.3332     6.6008     5.8176   178.0221
  524.5000   -44.5223     6.5512     5.7489   180.2818
  525.0000   -44.7404     6.5289     5.6803   181.6620
  525.5000   -44.9586     6.5153     5.6383   183.3104
  526.0000   -45.0111     6.5289     5.6109   185.7976
  526.5000   -45.0094     6.5592     5.5421   186.3782
  527.0000   -45.0082     6.5999     5.5415   187.1841
  527.5000   -44.7245     6.5968     5.5408   188.0722
  528.0000   -44.2842     6.5845     5.5401   188.5715
  528.5000   -43.9112     6.5264     5.5395   188.5788
  529.0000   -43.9097     6.4607     5.6067   188.5852
  529.5000   -43.9085     6.3950     5.6374   188.5920
  530.0000   -43.9071     6.3517     5.6780   187.2266
  530.5000   -43.9977     6.4463     5.7866   187.2321
  531.0000   -44.0792     6.5804     5.8083   184.4920
  531.5000   -44.1762     6.7734     5.8074   182.3900
  532.0000   -44.3789     6.9530     5.8404   178.8097
  532.5000   -44.4468     7.1406     5.8742   176.2716
  533.0000   -44.5817     7.3070     5.8733   173.0217
  533.5000   -44.7600     7.3895     5.9409   170.7900
  534.0000   -44.9890     7.4399     5.9401   168.6082
  534.5000   -45.0597     7.3642     5.9395   166.4010
  535.0000   -45.2778     7.2493     5.9387   165.3160
  535.5000   -45.5312     7.2629     5.9380   165.3228
  536.0000   -45.5300     7.2765     5.9374   165.3296
  536.5000   -45.3920     7.2628     5.8687   165.3365
  537.0000   -44.8881     7.2244     5.8680   166.7171
  537.5000   -44.2281     7.1389     5.8673   168.0980
  538.0000   -43.8851     7.0294     5.7985   168.7731
  538.5000   -43.8839     6.9031     5.7979   170.8584
  539.0000   -43.8825     6.7865     5.7973   172.2402
  539.5000   -43.8812     6.7530     5.7286   173.6196
  540.0000   -44.0711     6.7184     5.6598   173.6266
  540.5000   -44.4247     6.7503     5.6591   175.0069
  541.0000   -44.6166     6.7863     5.6585   173.6394
  541.5000   -44.9686     6.7591     5.6578   172.2744
  542.0000   -45.0528     6.7659     5.7678   171.7582
  542.5000   -45.1027     6.8559     5.8084   169.5398
  543.0000   -44.9643     7.1535     5.9278   167.3442
  543.5000   -44.6435     7.3618     6.0256   164.8420
  544.0000   -44.2641     7.5888     6.2023   159.9458
  544.5000   -44.0041     7.7908     6.3109   157.3743
  545.0000   -43.8661     7.9196     6.4015   154.4640
  545.5000   -43.8646     7.9561     6.4006   154.4712
  546.0000   -43.8634     7.9748     6.3320   156.2270
  546.5000   -43.8620     7.9968     6.2574   158.6062
  547.0000   -43.8604     7.9291     6.1264   160.6686
  547.5000   -43.8593     7.7457     6.0374   163.0383
  548.0000   -43.8578     7.4525     5.9210   166.8694
  548.5000   -43.9267     7.1658     5.8524   169.1593
  549.0000   -44.1612     6.8911     5.7837   172.3766
  549.5000   -44.6733     6.7334     5.7829   175.8927
  550.0000   -44.9908     6.6395     5.7823   178.3433
  550.5000   -45.0806     6.5816     5.7136   182.0134
  551.0000   -45.0045     6.5816     5.7810   182.0192
  551.5000   -44.7418     6.6413     5.7802   182.0260
  552.0000   -44.1200     6.7720     5.7795   182.0330
  552.5000   -43.8456     6.9049     5.7789   180.3570
  553.0000   -43.7076     7.0576     5.7782   177.9266
  553.5000   -43.5697     7.2294     5.9245   175.9431
  554.0000   -43.5938     7.4331     6.0491   173.6538
  554.5000   -43.7036     7.8330     6.1843   170.1558
  555.0000   -43.8388     8.1706     6.2789   167.5599
  555.5000   -43.9749     8.7037     6.3196   164.2244
  556.0000   -44.1931     8.9475     6.3864   162.1610
  556.5000   -44.4112     9.0574     6.4538   160.1162
  557.0000   -44.7895     8.7988     6.4530   158.7512
  557.5000   -45.1799     8.5806     6.4524   157.3832
  558.0000   -45.4700     8.2410     6.3837   156.0166
  558.5000   -45.3320     7.8159     6.3830   156.0234
  559.0000   -45.1247     7.7375     6.3823   156.0302
  559.5000   -44.7827     7.7374     6.3135   156.0380
  560.0000   -44.5173     7.7374     6.3129   156.0440
  560.5000   -44.2136     7.7226     6.3123   156.0668
  561.0000   -43.8221     7.6699     6.2434   157.4314
  561.5000   -43.6453     7.5664     6.2429   159.1345
  562.0000   -43.5464     7.4380     6.1741   160.1930
  562.5000   -43.5451     7.3101     6.1395   162.2025
  563.0000   -43.6949     7.2154     6.0975   163.0495
  563.5000   -43.8156     7.1249     6.0359   164.3352
  564.0000   -43.9946     7.0977     6.0354   164.7436
  564.5000   -44.2226     7.1249     6.0347   165.7216
  565.0000   -44.5037     7.1527     5.9660   165.7280
  565.5000   -44.9221     7.1946     5.9653   167.1085
  566.0000   -45.3113     7.1928     5.8965   167.1164
  566.5000   -45.4467     7.1423     5.8959   167.6053
  567.0000   -45.4453     7.1111     5.9632   167.1292
  567.5000   -45.4440     7.1110     5.9626   167.1360
  568.0000   -45.2586     7.1246     6.0300   167.1428
  568.5000   -44.8946     7.1654     6.0292   167.1506
  569.0000   -44.5984     7.1952     6.0285   167.1566
  569.5000   -44.2090     7.2610     6.0959   167.1338
  570.0000   -43.8525     7.3318     6.1361   165.7967
  570.5000   -43.4950     7.3421     6.1627   165.8036
  571.0000   -43.3851     7.3285     6.2299   165.8110
  571.5000   -43.3046     7.3285     6.2578   164.4437
  572.0000   -43.3861     7.3420     6.2966   163.0766
  572.5000   -43.6908     7.3600     6.2959   161.7114
  573.0000   -43.9590     7.4001     6.2952   161.3004
  573.5000   -44.1980     7.4372     6.2945   160.3503
  574.0000   -44.4572     7.4844     6.3619   159.6338
  574.5000   -44.7500     7.5363     6.4293   157.6162
  575.0000   -44.9682     7.6139     6.4740   156.2510
  575.5000   -45.0125     7.6813     6.5145   154.8833
  576.0000   -44.8742     7.7635     6.5632   153.5166
  576.5000   -44.6699     7.8126     6.6306   151.3460
  577.0000   -44.4490     7.8918     6.7043   149.1395
  577.5000   -44.3235     7.9811     6.8332   146.6698
  578.0000   -44.1858     8.0837     6.9008   144.7251
  578.5000   -44.0477     8.2804     6.9680   142.5182
  579.0000   -44.1175     8.4389     7.1034   140.3116
  579.5000   -44.1990     8.5440     7.1794   138.4536
  580.0000   -44.4533     8.5660     7.3060   138.4622
  580.5000   -44.6817     8.5468     7.3286   137.8113
