~VERSION INFORMATION
 VERS.                2.0:   CWLS LOG ASCII STANDARD - VERSION 2.0
 WRAP.                 NO:   ONE LINE PER DEPTH STEP
~WELL INFORMATION
#MNEM.UNIT      DATA TYPE    INFORMATION
#----------   ------------   ------------------------------
 STRT.F            0.0000:   START DEPTH
 STOP.F          497.0000:   STOP DEPTH
 STEP.F            0.5000:   STEP LENGTH
 NULL.          -999.2500:   NO VALUE
 COMP. LAWRENCE/ALLISON INC:   COMPANY
 WELL.   73-66 STX #10-10:   WELL
 FLD .             TEAPOT:   FIELD
 LOC .      S10 T38N R78W:   LOCATION
 CNTY.            NATRONA:   COUNTY
 STAT.            WYOMING:   STATE
 CTRY. UNITED STATES OF AMERICA:   COUNTRY
 SRVC.           Gearhart:   SERVICE COMPANY
 DATE.        15-JUN-1987:   LOGDATE
 API .       490251112900:   API NUMBER
~CURVE INFORMATION
#MNEM.UNIT       API CODE    CURVE DESCRIPTION
#----------   ------------   ------------------------------
 DEPT.F                  :   
 RILD.OHMM   07 120 46 00:   INDUCTION LOG DEEP RESISTIVITY
 RILM.OHMM   07 120 44 00:   INDUCTION LOG MEDIUM RESISTIVITY
 GRR .GAPI   07 310 01 00:   GAMMA RAY FROM RES. LOG.
~PARAMETER INFORMATION
#MNEM.UNIT          VALUE    DESCRIPTION
#----------   ------------   ------------------------------
 PD  .                 GL:   PERMANENT DATUM
 EPD .F              5174:   ELEVATION PERMANENT DATUM
 LMF .                 KB:   LOG MEASURED FROM
 DAPD.F                 8:   FEET ABOVE PERMANENT DATUM
 DMF .                 KB:   DRILLING MEASURED FROM
 EKB .F              5182:   KELLING BUSHING
 EDF .F              5180:   DRILLING FLOOR
 EGL .F              5174:   GROUND LEVEL
 DATE.            6-15-87:   RUN DATE
 RUN .                  1:   RUN NUMBER
 DD  .F               550:   DEPTH DRILLER
 DL  .F               505:   DEPTH LOGGER
 BLI .F               502:   BOTTOM LOG INTERVAL
 TLI .F                41:   TOP LOG INTERVAL
 CS  .IN            8.625:   CASING SIZE
 CBD .F                47:   CASING BOTTOM DRILLER
 CBL .F                41:   CASING BOTTOM LOGGER
 BS  .IN            7.875:   BIT SIZE
 BSD .F               550:   BIT SIZE AT DEPTH
 DFT .               FOAM:   DRILLING FLUID TYPE
 TCS .HRS            1715:   TIME CURCULATED STOPPED
 TLAB.HRS            2144:   TIME LOGGER AT BOTTOM
 LUN .               7597:   LOGGING UNIT NUMBER
 LUL .           GILLETTE:   LOGGING UNIT LOCATION
 ENGI.             SLATKY:   RECORDING ENGINEER
 WITN.             STRONG:   WITNESSED BY
 CLNT.            A2DTECH:   CLIENT CODE
 ORIG.     1", 2.5" PRINT:   ORIGIN OF DATA
 UWI .       490251112900:   UNIQUE WELL ID
 DICO. A2D Technologies, Inc.:   DIGITIZING COMPANY
~OTHER INFORMATION
~A    DEPT    RILD       RILM         GRR  
# ...
  273.0000     9.1414     8.9391    98.4592
  273.5000     9.1201     8.8828    99.1886
  274.0000     9.0983     8.8268    99.9773
  274.5000     9.0766     8.7711   100.1850
  275.0000     9.0545     8.5564   100.4455
  275.5000     8.8879     8.5835   100.5728
  276.0000     9.0303     8.7065   100.6627
  276.5000     9.4022     8.8313    98.3993
  277.0000     9.7899     9.0436    96.1555
  277.5000    10.1027     8.8782    93.8989
  278.0000     9.9179     8.1195    92.0188
  278.5000     8.6133     7.3846    93.9030
  279.0000     7.6300     6.7162    96.7789
  279.5000     6.4871     6.1083    99.8014
  280.0000     6.5691     5.5554   103.1228
  280.5000     6.6949     4.9183   107.5806
  281.0000     6.7311     5.0950   105.3594
  281.5000     6.7311     5.6927   100.0099
  282.0000     7.3080     6.3619    95.1196
  282.5000     8.1311     7.1111    90.0746
  283.0000     9.0469     7.9492    87.9086
  283.5000    10.0659     8.8859    88.6523
  284.0000    11.0794     9.9312    89.1427
  284.5000    11.4720    10.7063    89.6164
  285.0000    11.8356    11.0794    90.1841
  285.5000    12.0663    11.0398    90.6888
  286.0000    12.2617    10.9356    91.1230
  286.5000    12.8552    10.8768    90.3412
  287.0000    13.8177    11.3345    89.7625
  287.5000    15.0506    11.7915    88.6398
  288.0000    16.5360    12.9010    86.5749
  288.5000    18.2337    14.5970    76.2985
  289.0000    20.1060    16.6968    67.2894
  289.5000    22.1621    19.0987    57.6781
  290.0000    24.4286    21.8461    53.1179
  290.5000    26.9268    25.4237    48.5469
  291.0000    29.6805    26.9109    46.2504
  291.5000    32.3182    28.7246    47.0394
  292.0000    32.9202    30.6606    49.5914
  292.5000    32.4789    31.7271    51.9756
  293.0000    31.9062    30.2481    54.6267
  293.5000    31.1469    28.8511    56.0732
  294.0000    31.2425    27.5186    57.6819
  294.5000    31.3910    26.8504    59.2502
  295.0000    31.5403    27.0360    60.9449
  295.5000    31.6903    27.6290    60.7203
  296.0000    31.8409    28.2336    59.2692
  296.5000    31.9923    28.8598    58.0937
  297.0000    32.1445    29.4691    56.3807
  297.5000    32.3182    29.4691    53.9845
  298.0000    33.1432    29.4691    51.5842
  298.5000    34.1247    29.4691    52.1646
  299.0000    35.1352    29.4691    56.0723
  299.5000    36.1756    30.5335    60.0825
  300.0000    37.4606    32.0109    60.3531
  300.5000    37.9788    33.5597    58.4981
  301.0000    38.6556    35.4427    54.7467
  301.5000    39.3431    34.7945    55.7995
  302.0000    40.0008    33.3791    57.3225
  302.5000    41.5975    32.0952    58.9015
  303.0000    43.4598    31.7271    56.6927
  303.5000    43.3933    32.9902    55.0118
  304.0000    42.1649    34.4177    53.8436
  304.5000    41.1176    35.9105    52.8425
  305.0000    40.0972    37.4618    52.5253
  305.5000    39.1005    36.7826    53.3395
  306.0000    38.1636    35.6873    55.1892
  306.5000    37.8989    34.6248    57.4140
  307.0000    37.6443    33.5934    59.6413
  307.5000    37.1836    32.5915    61.9022
  308.0000    36.2408    31.7317    63.8617
  308.5000    35.3181    31.7271    65.0396
  309.0000    34.4229    31.7271    65.5094
  309.5000    33.5335    31.7271    65.4624
  310.0000    32.9582    31.7271    65.4664
  310.5000    32.3816    30.8255    65.4726
  311.0000    31.7271    29.7397    65.4588
  311.5000    30.9280    28.6921    65.4748
  312.0000    30.0062    27.6814    65.4803
  312.5000    29.1119    26.7064    66.2507
  313.0000    28.2442    25.7656    67.0988
  313.5000    27.4024    24.8580    67.8103
  314.0000    26.7722    23.9824    66.9427
  314.5000    26.4936    23.3784    66.2698
  315.0000    26.2179    22.9694    65.6120
  315.5000    25.8973    22.5676    67.1018
  316.0000    26.0563    22.3422    68.5174
  316.5000    26.2506    22.6850    67.4827
  317.0000    26.4464    23.2252    66.4265
  317.5000    26.6437    23.7783    65.2772
  318.0000    26.8425    24.3445    64.1415
  318.5000    27.0427    24.9587    64.1602
  319.0000    27.2444    25.0305    65.2399
  319.5000    27.3717    25.1617    66.2471
  320.0000    27.3717    25.2937    66.9787
  320.5000    27.3717    25.4237    66.2185
  321.0000    27.3717    25.2423    65.6074
  321.5000    27.3717    24.9559    64.8133
  322.0000    27.2887    24.6728    65.2519
  322.5000    26.9881    24.3929    66.3824
  323.0000    26.6909    24.1161    67.3848
  323.5000    26.3969    23.8425    68.3969
  324.0000    26.1062    23.5720    68.3635
  324.5000    25.8187    23.3046    67.8794
  325.0000    25.5343    23.0402    67.4109
  325.5000    25.3027    22.7788    67.1364
  326.0000    25.1050    22.5204    67.3766
  326.5000    24.9089    22.2649    67.6366
  327.0000    24.7142    21.9336    67.9040
  327.5000    24.5056    22.2188    68.6179
  328.0000    24.3575    22.6411    69.2868
  328.5000    24.0706    22.2969    70.2194
  329.0000    23.6158    21.6760    71.2376
  329.5000    23.6407    21.0725    72.3161
  330.0000    23.7203    20.3726    72.5931
  330.5000    23.8009    20.5528    72.2839
  331.0000    23.8822    20.9973    72.0493
  331.5000    23.9639    21.4513    71.5203
  332.0000    24.0542    21.9152    70.6064
  332.5000    23.9689    22.3422    69.7343
  333.0000    23.7960    22.3010    68.6913
  333.5000    23.6243    22.1702    67.5136
  334.0000    23.4539    22.0401    66.3966
  334.5000    23.2847    21.9336    65.5495
  335.0000    23.1824    21.6321    66.3837
  335.5000    22.8775    21.3624    67.1187
  336.0000    22.5767    21.1200    67.9387
  336.5000    22.2798    20.1114    68.3624
  337.0000    21.9868    19.6188    67.0827
  337.5000    21.6977    19.6473    66.2691
  338.0000    21.4123    19.6427    66.5702
  338.5000    21.1308    19.6329    66.7864
  339.0000    20.8529    19.6367    66.9081
  339.5000    20.5787    19.4439    64.6040
  340.0000    20.3081    18.9421    63.8470
  340.5000    20.0410    18.4532    65.0703
  341.0000    19.7775    17.9033    66.6406
  341.5000    19.5702    17.6681    68.1170
  342.0000    19.4290    17.5759    68.9479
  342.5000    19.2889    17.5759    67.4968
  343.0000    19.1497    17.5759    66.6425
  343.5000    19.0115    17.5759    66.0732
  344.0000    18.8656    17.5759    65.5424
  344.5000    18.7048    17.5088    66.1345
  345.0000    18.5454    17.3915    67.8704
  345.5000    18.3874    17.2750    69.8973
  346.0000    18.2369    17.1592    71.7732
  346.5000    17.8838    17.0442    71.2472
  347.0000    17.5491    16.9389    70.7236
  347.5000    17.2225    16.5844    70.2073
  348.0000    16.9018    16.2624    69.9925
  348.5000    16.5871    15.9465    69.7594
  349.0000    16.2780    15.6369    69.5167
  349.5000    15.9745    15.3628    68.8957
  350.0000    15.6767    15.1425    68.1325
  350.5000    15.3846    14.9254    67.2877
  351.0000    15.1337    14.7114    67.7451
  351.5000    15.0052    14.5005    69.8481
  352.0000    14.8778    14.2882    72.4037
  352.5000    14.7516    14.0667    73.3609
  353.0000    14.6136    13.8264    72.7192
  353.5000    14.6568    13.8894    72.1679
  354.0000    14.7430    14.0152    72.0256
  354.5000    14.8296    14.1421    72.5309
  355.0000    14.8881    14.2702    72.9324
  355.5000    15.0324    14.3994    73.4407
  356.0000    15.1842    14.5298    72.6610
  356.5000    15.3376    14.6614    71.5763
  357.0000    15.4927    14.7942    71.2129
  357.5000    15.6493    14.9282    71.6974
  358.0000    15.7363    15.0634    72.1129
  358.5000    15.7334    15.1631    72.4905
  359.0000    15.7334    15.1631    72.9010
  359.5000    15.6557    14.9440    73.4160
  360.0000    15.3987    14.7452    72.6865
  360.5000    15.1460    14.5684    71.2066
  361.0000    14.8975    14.4324    69.6114
  361.5000    14.6530    14.1703    70.0101
  362.0000    14.4125    13.6953    71.0170
  362.5000    14.1760    13.2362    72.4596
  363.0000    14.0840    12.7925    73.6544
  363.5000    14.0840    12.3769    75.2749
