~VERSION INFORMATION
 VERS.                2.0:   CWLS LOG ASCII STANDARD - VERSION 2.0
 WRAP.                 NO:   ONE LINE PER DEPTH STEP
~WELL INFORMATION
#MNEM.UNIT      DATA TYPE    INFORMATION
#----------   ------------   ------------------------------
 STRT.F            8.5000:   START DEPTH
 STOP.F         2140.0000:   STOP DEPTH
 STEP.F            0.5000:   STEP LENGTH
 NULL.          -999.2500:   NO VALUE
 COMP. LAWRENCE/ALLISON INC:   COMPANY
 WELL.   11-61 SHX #61-11:   WELL
 FLD .             TEAPOT:   FIELD
 LOC .      S11 T38N R78W:   LOCATION
 CNTY.            NATRONA:   COUNTY
 STAT.            WYOMING:   STATE
 CTRY. UNITED STATES OF AMERICA:   COUNTRY
 SRVC.      NL McCullough:   SERVICE COMPANY
 DATE.        04-MAY-1988:   LOGDATE
 API .       490251115600:   API NUMBER
~CURVE INFORMATION
#MNEM.UNIT       API CODE    CURVE DESCRIPTION
#----------   ------------   ------------------------------
 DEPT.F                  :   
 GRR .GAPI   81 310 01 00:   GAMMY RAY
 ROP .FT/HR  91 810 01 00:   RAT OF DRILLING PENETRATION
 TGAS.TC/CC  91 830 01 00:   TOTAL GAS UNIT
~PARAMETER INFORMATION
#MNEM.UNIT          VALUE    DESCRIPTION
#----------   ------------   ------------------------------
 PD  .                 GL:   PERMANENT DATUM
 EPD .F              5135:   ELEVATION PERMANENT DATUM
 LMF .                 KB:   LOG MEASURED FROM
 DAPD.F                 8:   FEET ABOVE PERMANENT DATUM
 DMF .                 KB:   DRILLING MEASURED FROM
 EKB .F              5143:   KELLING BUSHING
 EGL .F              5135:   GROUND LEVEL
 DATE.        04-MAY-1988:   RUN DATE
 RUN .                  1:   RUN NUMBER
 DD  .F              2140:   DEPTH DRILLER
 DL  .F               572:   DEPTH LOGGER
 BLI .F               568:   BOTTOM LOG INTERVAL
 CS  .IN              5.5:   CASING SIZE
 CBD .F               622:   CASING BOTTOM DRILLER
 BSD .F              2140:   BIT SIZE AT DEPTH
 DFT .         KCL/ WATER:   DRILLING FLUID TYPE
 TCS .HRS               1:   TIME CURCULATED STOPPED
 ENGI.               DALY:   RECORDING ENGINEER
 WITN.           MR. LOWL:   WITNESSED BY
 CLNT.            A2DTECH:   CLIENT CODE
 ORIG.           5" PRINT:   ORIGIN OF DATA
 UWI .       490251115600:   UNIQUE WELL ID
 DICO. A2D Technologies, Inc.:   DIGITIZING COMPANY
~OTHER INFORMATION
~A    DEPT      GRR       ROP       TGAS   
# ...
 1646.5000  -999.2500     0.6442     3.0717
 1647.0000  -999.2500     0.6478     3.0642
 1647.5000  -999.2500     0.6515     3.0566
 1648.0000  -999.2500     0.6551     3.0491
 1648.5000  -999.2500     0.6588     3.0415
 1649.0000  -999.2500     0.6625     3.0340
 1649.5000  -999.2500     0.6661     3.0264
 1650.0000  -999.2500     0.6698     3.0189
 1650.5000  -999.2500     0.6887     3.0113
 1651.0000  -999.2500     0.7170     3.0038
 1651.5000  -999.2500     0.7547     2.9962
 1652.0000  -999.2500     0.7642     2.9887
 1652.5000  -999.2500     0.7736     2.9747
 1653.0000  -999.2500     0.7925     2.9435
 1653.5000  -999.2500     0.8019     2.9123
 1654.0000  -999.2500     0.8113     2.8812
 1654.5000  -999.2500     0.8019     2.8500
 1655.0000  -999.2500     0.7925     2.8188
 1655.5000  -999.2500     0.7913     2.7876
 1656.0000  -999.2500     0.8208     2.7565
 1656.5000  -999.2500     0.8777     2.7253
 1657.0000  -999.2500     0.9268     2.6941
 1657.5000  -999.2500     0.9811     2.6630
 1658.0000  -999.2500     0.9151     2.6318
 1658.5000  -999.2500     0.8774     2.6006
 1659.0000  -999.2500     0.8396     2.5694
 1659.5000  -999.2500     0.8113     2.5383
 1660.0000  -999.2500     0.7925     2.5071
 1660.5000  -999.2500     0.7736     2.4759
 1661.0000  -999.2500     0.7642     2.4447
 1661.5000  -999.2500     0.7669     2.4136
 1662.0000  -999.2500     0.7692     3.5772
 1662.5000  -999.2500     0.7715     3.8679
 1663.0000  -999.2500     0.7738     3.8415
 1663.5000  -999.2500     0.7760     3.8151
 1664.0000  -999.2500     0.7783     3.7887
 1664.5000  -999.2500     0.7806     3.7623
 1665.0000  -999.2500     0.7829     3.7358
 1665.5000  -999.2500     0.7852     3.7094
 1666.0000  -999.2500     0.7875     3.6830
 1666.5000  -999.2500     0.7898     3.6566
 1667.0000  -999.2500     0.7921     3.6302
 1667.5000  -999.2500     0.7944     3.6038
 1668.0000  -999.2500     0.7770     3.5774
 1668.5000  -999.2500     0.7488     3.5509
 1669.0000  -999.2500     0.7205     3.5245
 1669.5000  -999.2500     0.6546     3.4981
 1670.0000  -999.2500     0.6264     3.4717
 1670.5000  -999.2500     0.6076     3.4453
 1671.0000  -999.2500     0.6077     3.4189
 1671.5000  -999.2500     0.6173     3.3925
 1672.0000  -999.2500     0.6551     3.3660
 1672.5000  -999.2500     0.6929     3.3396
 1673.0000  -999.2500     0.7308     3.3132
 1673.5000  -999.2500     0.7686     3.2868
 1674.0000  -999.2500     0.7970     3.2604
 1674.5000  -999.2500     0.8348     3.2340
 1675.0000  -999.2500     0.8821     3.2075
 1675.5000  -999.2500     0.9293     3.1811
 1676.0000  -999.2500     0.9672     3.1547
 1676.5000  -999.2500     0.9861     3.1283
 1677.0000  -999.2500     1.0051     3.1019
 1677.5000  -999.2500     1.0052     3.0755
 1678.0000  -999.2500     1.0053     3.0491
 1678.5000  -999.2500     1.0054     3.0226
 1679.0000  -999.2500     1.0055     2.9962
 1679.5000  -999.2500     0.9961     2.9698
 1680.0000  -999.2500     0.9962     2.9434
 1680.5000  -999.2500     0.9869     2.9170
 1681.0000  -999.2500     0.9870     2.8906
 1681.5000  -999.2500     0.9871     2.8642
 1682.0000  -999.2500     0.9872     2.8377
 1682.5000  -999.2500     0.9873     2.8113
 1683.0000  -999.2500     0.9812     2.7849
 1683.5000  -999.2500     0.9780     2.7585
 1684.0000  -999.2500     0.9786     2.7321
 1684.5000  -999.2500     0.9877     2.7057
 1685.0000  -999.2500     0.9972     2.6792
 1685.5000  -999.2500     0.9973     2.6528
 1686.0000  -999.2500     1.0068     2.6264
 1686.5000  -999.2500     1.0069     2.6000
 1687.0000  -999.2500     0.8655     2.5736
 1687.5000  -999.2500     0.8278     2.5472
 1688.0000  -999.2500     0.8090     2.5208
 1688.5000  -999.2500     0.8092     2.4943
 1689.0000  -999.2500     0.8470     2.4679
 1689.5000  -999.2500     0.8942     2.4415
 1690.0000  -999.2500     0.9327     2.4151
 1690.5000  -999.2500     0.9619     2.3887
 1691.0000  -999.2500     0.9795     2.3623
 1691.5000  -999.2500     0.9795     2.3358
 1692.0000  -999.2500     0.9796     2.3094
 1692.5000  -999.2500     0.9797     2.2830
 1693.0000  -999.2500     0.9704     2.2566
 1693.5000  -999.2500     0.9516     2.2302
 1694.0000  -999.2500     0.8951     2.2038
 1694.5000  -999.2500     0.8197     2.1774
 1695.0000  -999.2500     0.7726     2.1509
 1695.5000  -999.2500     0.7444     1.3646
 1696.0000  -999.2500     0.7257    -0.1707
 1696.5000  -999.2500     0.8598     0.1873
 1697.0000  -999.2500     0.9428     0.1550
 1697.5000  -999.2500     0.9901     0.5130
 1698.0000  -999.2500     1.0091     1.2354
 1698.5000  -999.2500     1.0280     1.5934
 1699.0000  -999.2500     1.0376     1.9396
 1699.5000  -999.2500     1.0377     2.2906
 1700.0000  -999.2500     1.0472     2.6415
 1700.5000  -999.2500     1.0850     2.6151
 1701.0000  -999.2500     1.1794     2.5887
 1701.5000  -999.2500     1.2361     2.5576
 1702.0000  -999.2500     1.2362     2.5317
 1702.5000  -999.2500     1.2458     2.5059
 1703.0000  -999.2500     1.2364     2.8639
 1703.5000  -999.2500     1.2365     2.8508
 1704.0000  -999.2500     1.2366     2.8506
 1704.5000  -999.2500     1.2367     2.8504
 1705.0000  -999.2500     1.2462     2.8502
 1705.5000  -999.2500     1.2557     2.8501
 1706.0000  -999.2500     1.2925     2.8499
 1706.5000  -999.2500     1.4057     2.8497
 1707.0000  -999.2500     1.5094     2.8495
 1707.5000  -999.2500     1.6321     2.8493
 1708.0000  -999.2500     1.7755     2.8491
 1708.5000  -999.2500     1.8880     2.8489
 1709.0000  -999.2500     1.9623     2.8487
 1709.5000  -999.2500     1.7264     2.8485
 1710.0000  -999.2500     1.5472     2.8483
 1710.5000  -999.2500     1.4434     2.8481
 1711.0000  -999.2500     1.3302     2.8479
 1711.5000  -999.2500     1.2358     2.8477
 1712.0000  -999.2500     1.2358     2.8475
 1712.5000  -999.2500     1.2453     2.8473
 1713.0000  -999.2500     1.2547     2.8472
 1713.5000  -999.2500     1.2547     2.8470
 1714.0000  -999.2500     1.3208     2.8468
 1714.5000  -999.2500     1.3774     2.8466
 1715.0000  -999.2500     1.4340     2.8464
 1715.5000  -999.2500     1.4818     2.8462
 1716.0000  -999.2500     1.4906     2.8460
 1716.5000  -999.2500     1.4811     2.8458
 1717.0000  -999.2500     1.4717     2.8456
 1717.5000  -999.2500     1.4623     2.8454
 1718.0000  -999.2500     1.4623     2.8452
 1718.5000  -999.2500     1.4623     2.8450
 1719.0000  -999.2500     1.4717     2.8448
 1719.5000  -999.2500     1.4717     2.8446
 1720.0000  -999.2500     1.4811     2.8444
 1720.5000  -999.2500     1.4811     2.8443
 1721.0000  -999.2500     1.4811     2.8441
 1721.5000  -999.2500     1.4811     2.8439
 1722.0000  -999.2500     1.4811     2.8437
 1722.5000  -999.2500     1.4811     2.8435
 1723.0000  -999.2500     1.4811     2.8433
 1723.5000  -999.2500     1.4811     2.8477
 1724.0000  -999.2500     1.4623     2.8580
 1724.5000  -999.2500     1.3679     2.8683
 1725.0000  -999.2500     1.3208     2.8786
 1725.5000  -999.2500     1.3019     2.8889
 1726.0000  -999.2500     1.2925     2.8992
 1726.5000  -999.2500     1.2925     2.9094
 1727.0000  -999.2500     1.3019     2.9197
 1727.5000  -999.2500     1.3019     2.9300
 1728.0000  -999.2500     1.2642     2.9403
 1728.5000  -999.2500     1.1698     2.9506
 1729.0000  -999.2500     1.1132     2.9609
 1729.5000  -999.2500     1.0566     2.9711
 1730.0000  -999.2500     1.0283     2.9814
 1730.5000  -999.2500     1.0094     2.9917
 1731.0000  -999.2500     1.0000     3.0020
 1731.5000  -999.2500     0.9906     3.0123
 1732.0000  -999.2500     0.9906     3.0226
 1732.5000  -999.2500     0.9811     3.0328
 1733.0000  -999.2500     0.9811     3.0431
 1733.5000  -999.2500     0.9811     3.0534
 1734.0000  -999.2500     0.9811     3.0637
 1734.5000  -999.2500     0.9811     3.0740
 1735.0000  -999.2500     0.9811     3.0843
 1735.5000  -999.2500     0.9852     3.0945
 1736.0000  -999.2500     0.9906     3.1048
 1736.5000  -999.2500     0.9906     3.1151
 1737.0000  -999.2500     0.9906     3.1254
