~VERSION INFORMATION
 VERS.                2.0:   CWLS LOG ASCII STANDARD - VERSION 2.0
 WRAP.                 NO:   ONE LINE PER DEPTH STEP
~WELL INFORMATION
#MNEM.UNIT      DATA TYPE    INFORMATION
#----------   ------------   ------------------------------
 STRT.F            0.0000:   START DEPTH
 STOP.F         1283.5000:   STOP DEPTH
 STEP.F            0.5000:   STEP LENGTH
 NULL.          -999.2500:   NO VALUE
 COMP.      U.S. NAVY NPR:   COMPANY
 WELL. NAVAL PETROLEUM RESERVE 3 ST-11 #88-11:   WELL
 FLD .             TEAPOT:   FIELD
 LOC .      S11 T38N R78W:   LOCATION
 CNTY.            NATRONA:   COUNTY
 STAT.            WYOMING:   STATE
 CTRY. UNITED STATES OF AMERICA:   COUNTRY
 SRVC.       Schlumberger:   SERVICE COMPANY
 DATE.        01-NOV-1958:   LOGDATE
 API .       490250632600:   API NUMBER
~CURVE INFORMATION
#MNEM.UNIT       API CODE    CURVE DESCRIPTION
#----------   ------------   ------------------------------
 DEPT.F                  :   
 GRN .GAPI   35 310 01 00:   GAMMA RAY
 NEUT.NAPI   35 330 01 00:   NEUTRON
 ASN .OHMM   01 041 16 00:   AMPLIFIED SHORT NORMAL
 LAT .OHMM   01 070 18 00:   LATERAL 18"
 LN  .OHMM   01 060 64 00:   LONG NORMAL 64"
 SPR .MV     01 010 01 00:   SPONTANEOUS POTENTIAL
 CALM.IN     15 280 01 00:   CALIPER FROM MICRO LOG
~PARAMETER INFORMATION
#MNEM.UNIT          VALUE    DESCRIPTION
#----------   ------------   ------------------------------
 LMF .                 KB:   LOG MEASURED FROM
 DMF .                 KB:   DRILLING MEASURED FROM
 EKB .F              5289:   KELLING BUSHING
 EGL .F              5279:   GROUND LEVEL
 DATE.        01-NOV-1958:   RUN DATE
 RUN .                  1:   RUN NUMBER
 DD  .F              1280:   DEPTH DRILLER
 DL  .F              1283:   DEPTH LOGGER
 BLI .F              1282:   BOTTOM LOG INTERVAL
 TLI .F               150:   TOP LOG INTERVAL
 CBD .F                45:   CASING BOTTOM DRILLER
 BS  .IN            7.875:   BIT SIZE
 BSD .F              1280:   BIT SIZE AT DEPTH
 DFT .                GEL:   DRILLING FLUID TYPE
 DFD .                9.1:   DRILLING FLUID DENSITY
 DFV .                 63:   DRILLING FLUID VISCOSITY
 DFL .                2.1:   DRILLING FLUID LOSS
 RMS .OHMM            2.4:   RESISTIVITY MUD SAMPLE
 MST .F                56:   MUD SAMPLE TEMPERATURE
 RMF .OHMM           1.45:   RESISTIVITY MUD FILTRATE SAMPLE
 MFST.F                79:   MUD FILTRATE SAMPLE TEMPERATURE
 RMC .OHMM            1.7:   RESISTIVITY MUD CAKE
 MCST.F                79:   MUD CAKE SAMPLE TEMPERATURE
 MFSS.               MEAS:   MUD FILTRATE SAMPLE SOURCE
 MCSS.               MEAS:   MUD CAKE SAMPLE SOURCE
 RMB .OHMM            1.6:   RESISTIVITY MUD AT BHT
 BHT .F                79:   BOTTOM HOLE TEMPERATURE
 TCS .HRS               1:   TIME CURCULATED STOPPED
 MRT .F                79:   MAXIMUM RECORDED TEMPERATURE
 LUN .               2544:   LOGGING UNIT NUMBER
 LUL .                 NC:   LOGGING UNIT LOCATION
 ENGI.            EARNEST:   RECORDING ENGINEER
 WITN.             MARTIN:   WITNESSED BY
 CLNT.            A2DTECH:   CLIENT CODE
 ORIG.         2.5" PRINT:   ORIGIN OF DATA
 UWI .       490250632600:   UNIQUE WELL ID
 DICO. A2D Technologies, Inc.:   DIGITIZING COMPANY
~OTHER INFORMATION
~A    DEPT       GRN     NEUT        ASN        LAT         LN        SPR       CALM   
# ...
  864.5000     5.8638   247.6022     7.2860     6.6884     5.8855   -12.8742     8.1753
  865.0000     5.4229   260.2467     7.3899     6.6917     6.0228   -12.8701     8.1760
  865.5000     5.3776   258.7108     7.3595     6.6951     6.0241   -12.8661     8.1767
  866.0000     5.5812   256.4131     7.3092     6.8343     6.0255   -12.5885     8.1773
  866.5000     5.4003   255.6388     7.3425     6.8377     6.0268   -12.5845     8.1780
  867.0000     5.1754   257.0882     7.4050     6.8410     6.0282   -12.3069     8.1917
  867.5000     5.0560   256.7041     7.5161     6.8444     6.0295   -12.3029     8.2066
  868.0000     5.0096   251.8603     7.6272     6.8478     6.0308   -12.0253     8.2073
  868.5000     5.0552   250.2412     7.7480     6.8512     6.0325   -12.0212     8.2081
  869.0000     5.2360   258.2938     7.8872     6.8546     6.1695   -12.0172     8.2087
  869.5000     5.0664   259.4743     8.0148     6.8580     6.3068   -12.0132     8.2094
  870.0000     5.2440   254.3781     8.1132     6.8614     6.3217   -12.2827     8.2100
  870.5000     5.4676   239.5976     8.1555     6.8648     6.4455   -12.5522     8.2107
  871.0000     5.5720   238.8079     8.2247     6.8682     6.5828   -12.5663     8.2114
  871.5000     5.6712   237.2719     8.2220     6.8716     6.5841   -12.8448     8.2120
  872.0000     5.9303   232.7506     8.2109     6.7386     6.5855   -13.0872     8.2127
  872.5000     5.8094   234.2000     8.2385     6.7425     6.5869   -13.1284     8.2134
  873.0000     5.8056   234.9035     8.3476     6.7459     6.5882   -13.3527     8.2140
  873.5000     5.9302   230.2458     8.4567     6.7493     6.5896   -13.3482     8.2147
  874.0000     6.1348   225.8603     8.5658     6.7527     6.6390   -13.3441     8.2154
  874.5000     6.0824   231.7150     8.6477     6.7561     6.7282   -13.3400     8.2161
  875.0000     5.9550   233.2371     8.7025     6.7595     6.7296   -13.3359     8.2168
  875.5000     5.7241   217.8520     8.7301     6.8669     6.7310   -13.1448     8.2174
  876.0000     6.0232   212.9993     8.7033     6.9022     6.7323   -13.0541     8.2181
  876.5000     6.0578   222.6440     8.6765     6.9056     6.8032   -12.9907     8.2188
  877.0000     5.9364   228.5714     8.6769     6.9096     6.8710   -12.7723     8.2195
  877.5000     6.2603   233.0062     8.7602     6.9129     6.9794   -12.7682     8.2202
  878.0000     5.7595   244.1580     8.8995     6.7804     7.1459   -12.4906     8.1937
  878.5000     5.6386   251.6228     9.0387     6.7838     7.1472   -12.3315     8.1943
  879.0000     5.5177   246.4717     9.1745     6.9230     7.2845   -12.2080     8.1951
  879.5000     5.3569   241.7891     9.2856     6.9263     7.4218   -12.4775     8.1958
  880.0000     5.2960   249.2092     9.4239     7.0656     7.4231   -12.7470     8.2237
  880.5000     5.3211   247.4158     9.5350     7.2048     7.5604   -13.0166     8.2243
  881.0000     5.6662   246.8836     9.6733     7.3440     7.5618   -13.0125     8.2250
  881.5000     5.7778   253.8148     9.7844     7.4832     7.6991   -13.2821     8.2256
  882.0000     5.8644   261.9510     9.8692     7.6224     7.7004   -13.5516     8.2263
  882.5000     5.9117   274.3466     9.9859     7.6258     7.7017   -13.5475     8.2270
  883.0000     5.8656   278.0351    10.0405     7.6291     7.7031   -13.5435     8.2276
  883.5000     5.7087   275.7527    10.0409     7.6325     7.7044   -13.5395     8.2011
  884.0000     5.6286   268.2460    10.0413     7.6413     7.7057   -13.5354     8.2018
  884.5000     5.5478   265.9637    10.0417     7.7751     7.8431   -13.5314     8.2025
  885.0000     5.4669   268.9057    10.0485     7.7649     7.8444   -13.5274     8.2032
  885.5000     5.3060   293.6541    10.0697     7.6458     7.8569   -13.5142     8.2039
  886.0000     5.0052   306.1362    10.0701     7.6495     7.9831   -13.2456     8.2317
  886.5000     4.9043   301.0331    10.0705     7.5167     7.9844   -13.2415     8.2324
  887.0000     5.2484   299.3326    10.0709     7.5204     7.9858   -13.2374     8.2331
  887.5000     5.3026   302.4860    10.0713     7.5238     7.9872   -13.2333     8.2338
  888.0000     5.2817   302.9777    10.0446     7.5652     7.9885   -13.2292     8.2344
  888.5000     5.5317   301.2197    10.0045     7.6664     8.0268   -13.2251     8.2351
  889.0000     5.5400   295.8023     9.8938     7.8057     8.1272   -13.1480     8.2358
  889.5000     5.5759   280.2213     9.7978     7.8091     8.1285   -12.9433     8.2366
  890.0000     5.6880   245.3145     9.7474     7.8669     8.1299   -12.9392     8.2373
  890.5000     5.6281   237.8078     9.7206     7.9810     8.1313   -12.9351     8.2379
  891.0000     5.6360   268.3645     9.6666     8.0910     8.1326   -12.9310     8.2386
  891.5000     5.6152   270.2999     9.6127     8.1277     7.9980   -13.2005     8.2393
  892.0000     5.8543   254.8437     9.5587     8.2337     7.8634   -13.1964     8.2399
  892.5000     5.8134   248.0834     9.5319     8.2371     7.7289   -13.1922     8.2406
  893.0000     5.7676   245.8010     9.5324     8.3478     7.6545   -13.6076     8.2412
  893.5000     5.8117   256.9529     9.5056     8.5163     7.5956   -13.8862     8.2419
  894.0000     5.4508   258.9359     9.4517     8.6555     7.4610   -14.2734     8.2426
  894.5000     5.5734   264.3297     9.4249     8.6588     7.3267   -14.2693     8.2433
  895.0000     5.4940   263.2968     9.3709     8.7981     7.3280   -13.9917     8.2440
  895.5000     5.3886   261.0948     9.3441     8.8014     7.3292   -13.9877     8.2446
  896.0000     5.2992   247.0542     9.2891     8.8047     7.3305   -13.9837     8.2453
  896.5000     5.5370   250.3864     9.2363     8.8081     7.3848   -13.7061     8.2187
  897.0000     5.7874   255.5477     9.2367     8.8114     7.4692   -13.4285     8.2195
  897.5000     5.9043   260.3309     9.2371     8.8148     7.4706   -13.4244     8.2086
  898.0000     6.1435   239.2715     9.2375     8.8181     7.6079   -13.1468     8.1407
  898.5000     6.0182   232.2179     9.2379     8.6856     7.6093   -13.1428     8.0856
  899.0000     6.3617   240.1280     9.2312     8.6890     7.6106   -13.4123     8.0436
  899.5000     6.3824   248.9409     9.1763     8.6923     7.6120   -13.9554     8.0599
  900.0000     6.3200   253.3757     9.0851     8.6957     7.4773   -14.4985     8.1693
  900.5000     6.4791   259.3031     8.9376     8.5611     7.4787   -14.7680     8.2515
  901.0000     6.1432   260.1572     8.8102     8.5625     7.4715   -14.4903     8.3338
  901.5000     5.9774   244.2897     8.7512     8.5639     7.3454   -14.1853     8.3344
  902.0000     6.3444   250.2171     8.7516     8.7011     7.2108   -13.8985     8.3351
  902.5000     6.6305   265.1316     8.7520     8.7024     7.2122   -13.0646     8.3358
  903.0000     6.6166   268.7891     8.7374     8.7038     7.1878   -12.5590     8.3364
  903.5000     6.5327   256.3684     8.6664     8.7052     7.0789   -12.8289     8.3371
  904.0000     6.4326   251.8007     8.4544     8.7500     6.9442   -12.8243     8.3378
  904.5000     6.3118   244.4651     8.1559     8.8438     6.8096   -13.0944     8.3384
  905.0000     6.1583   239.9861     7.6400     8.8451     6.6750   -13.0897     8.3391
  905.5000     6.2891   243.0115     7.4774     8.7867     6.5404   -13.0856     8.3398
  906.0000     6.3656   253.1888     7.3962     8.7120     6.4058   -12.9720     8.3405
  906.5000     6.3242   256.9467     7.3694     8.7133     6.2715   -12.8038     8.3331
  907.0000     6.2631   263.9430     7.3699     8.7147     6.2125   -12.7997     8.3145
  907.5000     6.2019   257.9289     7.3682     8.5802     6.1382   -12.7956     8.3153
  908.0000     5.4008   254.1539     7.5946     8.4459     6.1396   -12.5179     8.3432
  908.5000     5.3396   263.0667     7.8023     8.4472     6.1409   -12.5138     8.3439
  909.0000     5.4984   268.9942     7.9666     8.3125     6.2782   -12.5089     8.3446
  909.5000     5.3862   270.4705     8.0344     8.1781     6.4158   -12.5049     8.3452
