~VERSION INFORMATION
 VERS.                2.0:   CWLS LOG ASCII STANDARD - VERSION 2.0
 WRAP.                 NO:   ONE LINE PER DEPTH STEP
~WELL INFORMATION
#MNEM.UNIT      DATA TYPE    INFORMATION
#----------   ------------   ------------------------------
 STRT.F            1.0000:   START DEPTH
 STOP.F          483.0000:   STOP DEPTH
 STEP.F            0.5000:   STEP LENGTH
 NULL.          -999.2500:   NO VALUE
 COMP. LAWRENCE/ALLISON INC:   COMPANY
 WELL.   47-66-1 SX #47-3:   WELL
 FLD .             TEAPOT:   FIELD
 LOC .       S3 T38N R78W:   LOCATION
 CNTY.            NATRONA:   COUNTY
 STAT.            WYOMING:   STATE
 CTRY. UNITED STATES OF AMERICA:   COUNTRY
 SRVC.           Gearhart:   SERVICE COMPANY
 DATE.        07-JUN-1988:   LOGDATE
 API .       490251121500:   API NUMBER
~CURVE INFORMATION
#MNEM.UNIT       API CODE    CURVE DESCRIPTION
#----------   ------------   ------------------------------
 DEPT.F                  :   
 GRR .GAPI   07 310 01 00:   GAMMA RAY
 RILD.OHMM   07 120 46 00:   INDUCTION LOG DEEP RESISTIVITY
 RILM.OHMM   07 120 44 00:   INDUCTION LOG MEDIUM RESISTIVITY
~PARAMETER INFORMATION
#MNEM.UNIT          VALUE    DESCRIPTION
#----------   ------------   ------------------------------
 PD  .                 GL:   PERMANENT DATUM
 EPD .F              5183:   ELEVATION PERMANENT DATUM
 LMF .                 KB:   LOG MEASURED FROM
 DAPD.F                 5:   FEET ABOVE PERMANENT DATUM
 DMF .                 KB:   DRILLING MEASURED FROM
 EKB .F              5188:   KELLING BUSHING
 EGL .F              5183:   GROUND LEVEL
 DATE.        07-JUN-1988:   RUN DATE
 RUN .                  1:   RUN NUMBER
 DD  .F               490:   DEPTH DRILLER
 DL  .F               483:   DEPTH LOGGER
 BLI .F               483:   BOTTOM LOG INTERVAL
 CS  .IN            8.625:   CASING SIZE
 CBD .F                40:   CASING BOTTOM DRILLER
 CBL .F                40:   CASING BOTTOM LOGGER
 BS  .IN            7.875:   BIT SIZE
 BSD .F               490:   BIT SIZE AT DEPTH
 DFT .                AIR:   DRILLING FLUID TYPE
 TLAB.HRS            0400:   TIME LOGGER AT BOTTOM
 MRT .F                70:   MAXIMUM RECORDED TEMPERATURE
 LUN .               7597:   LOGGING UNIT NUMBER
 LUL .           GILLETTE:   LOGGING UNIT LOCATION
 ENGI.          HUCKFELDT:   RECORDING ENGINEER
 WITN.             STRONG:   WITNESSED BY
 CLNT.            A2DTECH:   CLIENT CODE
 ORIG.           5" PRINT:   ORIGIN OF DATA
 UWI .       490251121500:   UNIQUE WELL ID
 DICO. A2D Technologies, Inc.:   DIGITIZING COMPANY
~OTHER INFORMATION
~A    DEPT      GRR      RILD       RILM   
# ...
  183.0000   115.3513     5.2133     4.2004
  183.5000   114.4458     5.5110     4.8283
  184.0000   113.5389     5.7852     5.2125
  184.5000   113.8456     6.0731     5.7462
  185.0000   116.9193     6.3754     6.2466
  185.5000   121.1248     6.6013     6.5126
  186.0000   122.3398     6.6913     6.6496
  186.5000   122.9488     6.6896     6.6485
  187.0000   122.3456     6.6419     6.6941
  187.5000   121.7424     6.5032     6.6467
  188.0000   121.7738     6.3674     6.5080
  188.5000   122.9611     6.2344     6.3282
  189.0000   122.6610     6.0619     6.1964
  189.5000   119.9366     5.8938     6.0251
  190.0000   114.7880     5.7307     5.8179
  190.5000   112.6697     5.5334     5.6177
  191.0000   113.0223     5.5322     5.5392
  191.5000   114.7975     5.6480     5.5384
  192.0000   116.6185     5.7661     5.6154
  192.5000   118.4396     5.8864     5.6935
  193.0000   120.5637     6.0938     5.8171
  193.5000   122.1041     6.5322     6.1885
  194.0000   122.6908     6.8573     6.5884
  194.5000   119.3611     7.1486     6.9170
  195.0000   117.8488     7.3525     7.2116
  195.5000   119.3669     7.6609     7.5196
  196.0000   121.4910     7.8758     7.7841
  196.5000   121.4646     7.9851     7.9478
  197.0000   119.3763     8.0956     8.1145
  197.5000   117.5610     8.0935     8.1134
  198.0000   116.9571     8.0919     8.1123
  198.5000   118.1729     8.0337     8.1046
  199.0000   119.3879     7.9763     7.9976
  199.5000   120.6506     7.8644     7.8310
  200.0000   121.9182     7.7542     7.7218
  200.5000   122.4269     7.4875     7.7119
  201.0000   120.9154     7.2807     7.5058
  201.5000   120.6146     7.0305     7.2979
  202.0000   122.1334     6.7889     7.0465
  202.5000   123.3485     6.5033     6.7094
  203.0000   123.0142     6.2425     6.3886
  203.5000   121.5369     6.0280     6.1214
  204.0000   120.6308     5.8616     5.5545
  204.5000   121.5428     5.7396     5.1794
  205.0000   122.7578     5.6594     4.9662
  205.5000   123.9729     5.6193     5.0349
  206.0000   123.3698     5.7371     5.2857
  206.5000   120.6314     5.8984     5.5104
  207.0000   119.4362     6.0643     5.7888
  207.5000   119.7430     6.3223     6.3763
  208.0000   119.7459     6.6838     6.7879
  208.5000   120.0518     7.1263     7.0765
  209.0000   120.6609     7.5219     7.3260
  209.5000   121.5729     7.6800     7.4275
  210.0000   122.7879     7.7865     7.5829
  210.5000   124.0223     7.8399     7.7497
  211.0000   125.8248     7.8936     7.8487
  211.5000   127.3429     7.8975     7.9573
  212.0000   127.9519     8.0020     8.0670
  212.5000   127.3488     8.0009     8.1222
  213.0000   124.6245     7.9998     8.1202
  213.5000   121.5971     8.0550     8.1186
  214.0000   120.6909     8.0536     8.1165
  214.5000   120.6940     8.0525     8.1149
  215.0000   121.3036     8.0512     8.1132
  215.5000   121.9126     8.0501     8.1116
  216.0000   122.2186     8.0490     8.1100
  216.5000   121.6147     8.0480     8.1083
  217.0000   121.3146     8.0469     8.1067
  217.5000   122.2274     8.0458     8.1047
  218.0000   123.1394     8.0445     8.0467
  218.5000   123.4888     8.0434     8.0451
  219.0000   124.0551     7.9865     8.0435
  219.5000   124.3610     7.9854     8.0419
  220.0000   124.6670     7.9843     7.9844
  220.5000   124.9730     7.9261     7.9827
  221.0000   124.3699     7.6551     7.8702
  221.5000   123.1607     7.2898     7.7058
  222.0000   121.9353     6.8458     7.3886
  222.5000   121.3484     6.4738     6.6535
  223.0000   121.6551     6.2514     6.0336
  223.5000   122.2640     6.1208     5.5831
  224.0000   123.4791     5.9520     5.2094
  224.5000   125.6032     5.9099     5.1724
  225.0000   128.0304     5.8681     5.4298
  225.5000   130.1546     5.8673     5.7002
  226.0000   130.4605     5.9077     5.9012
  226.5000   127.7369     5.9480     5.9829
  227.0000   127.7399     5.9472     5.8947
  227.5000   127.7428     5.9462     5.6164
  228.0000   127.4427     5.9872     5.3478
  228.5000   127.1419     5.9862     5.2361
  229.0000   126.5394     6.0696     5.3088
  229.5000   125.6323     6.2401     5.4576
  230.0000   124.0406     6.4724     5.6896
  230.5000   121.3975     6.8296     5.9791
  231.0000   121.0967     7.1699     6.3582
  231.5000   121.1003     7.3718     6.6748
  232.0000   121.1033     7.4743     7.0073
  232.5000   120.1971     7.4730     7.1543
  233.0000   119.8969     7.4142     7.1028
  233.5000   119.2809     7.1649     6.9520
  234.0000   117.0706     6.8706     6.6678
  234.5000   115.0574     6.4973     6.3933
  235.0000   115.3641     6.1872     6.0032
  235.5000   118.0943     5.9746     5.6370
  236.0000   122.0366     5.8911     5.2930
  236.5000   125.9789     5.8086     5.0752
  237.0000   129.3152     5.7675     4.9691
  237.5000   128.6616     5.8071     5.0026
  238.0000   126.2915     5.8880     5.1790
  238.5000   125.0823     6.0957     5.5519
  239.0000   124.7815     6.4094     6.0352
  239.5000   125.0882     7.0539     6.4697
  240.0000   125.0911     7.5094     6.8873
  240.5000   124.1849     7.7746     7.2962
  241.0000   122.9758     7.9377     7.6431
  241.5000   122.0696     8.1043     7.8031
  242.0000   120.5581     8.2774     7.9664
  242.5000   117.5308     8.4480     8.0210
  243.0000   114.8064     8.5651     8.0750
  243.5000   113.2942     8.6241     8.0734
  244.0000   113.6002     8.6226     7.9596
  244.5000   116.3304     8.5616     7.9027
  245.0000   118.7776     8.3795     7.8462
  245.5000   120.5788     8.1516     7.7901
  246.0000   119.6732     8.2078     7.8431
  246.5000   118.4633     8.3798     8.0072
  247.0000   119.0731     8.4375     8.0672
  247.5000   119.6820     8.4361     8.1164
  248.0000   120.2910     8.3764     8.0580
  248.5000   120.2940     8.3750     8.0004
  249.0000   119.3656     8.3739     7.9432
  249.5000   117.8763     8.3728     7.9416
  250.0000   117.1957     8.2559     7.9955
  250.5000   116.9332     8.4871     8.1645
  251.0000   116.9758     8.7862     8.3954
  251.5000   115.7672     9.1594     8.6329
  252.0000   113.9519     9.3510     8.8153
  252.5000   112.4396     9.1558     8.8153
  253.0000   110.6243     8.6433     8.5133
  253.5000   110.6273     7.9060     7.9955
  254.0000   111.8429     7.4240     7.0035
  254.5000   113.9670     7.0202     6.1775
  255.0000   117.6063     6.7314     5.6816
  255.5000   123.9728     6.6834     5.4110
  256.0000   131.0748     6.7754     5.4870
  256.5000   133.0695     7.1126     5.9244
  257.0000   127.0125     7.6243     6.4414
  257.5000   120.0457     8.3454     7.1142
  258.0000   114.5940     9.2629     7.7756
  258.5000   111.4543    10.2094     8.4542
  259.0000   109.4490    10.4958     9.1281
  259.5000   108.5428    10.6410     9.5846
  260.0000   108.2419    10.7881     9.8557
  260.5000   108.2455    10.7860    10.1344
  261.0000   108.8970    10.7918    10.2053
  261.5000   110.6762    11.0858    10.2053
  262.0000   112.1943    11.6375    10.2053
  262.5000   113.4093    12.4747    10.2053
  263.0000   113.1091    13.1871    10.2767
  263.5000   112.1083    14.0495    10.7907
  264.0000   106.4490    15.3646    12.1486
  264.5000    98.2700    16.4699    14.0642
  265.0000    88.2729    17.7782    16.0564
  265.5000    77.9727    19.8706    17.9598
  266.0000    67.6733    22.2094    21.3696
  266.5000    63.1308    24.3643    24.2270
  267.0000    60.4056    26.4231    26.3412
  267.5000    62.5305    28.7214    28.0471
  268.0000    66.4727    29.3237    29.2453
  268.5000    69.5066    28.7100    29.6560
  269.0000    69.8126    29.1258    29.2453
  269.5000    69.5124    30.1313    29.6560
  270.0000    68.6062    30.5480    30.2828
  270.5000    65.8778    30.5419    30.4947
  271.0000    61.0369    30.3238    30.4947
  271.5000    60.1307    30.1072    30.4947
  272.0000    60.1336    29.8907    30.2828
  272.5000    60.7426    29.4712    29.4499
  273.0000    62.2729    29.6713    28.8403
  273.5000    65.5975    29.8743    27.8523
