~VERSION INFORMATION
 VERS.                2.0:   CWLS LOG ASCII STANDARD - VERSION 2.0
 WRAP.                 NO:   ONE LINE PER DEPTH STEP
~WELL INFORMATION
#MNEM.UNIT      DATA TYPE    INFORMATION
#----------   ------------   ------------------------------
 STRT.F          648.0000:   START DEPTH
 STOP.F         2443.0000:   STOP DEPTH
 STEP.F            0.5000:   STEP LENGTH
 NULL.          -999.2500:   NO VALUE
 COMP.    FENIX & SCISSON:   COMPANY
 WELL.  NPR #3 SHX-11 #22:   WELL
 FLD .             TEAPOT:   FIELD
 LOC .      S11 T38N R78W:   LOCATION
 CNTY.            NATRONA:   COUNTY
 STAT.            WYOMING:   STATE
 CTRY. UNITED STATES OF AMERICA:   COUNTRY
 SRVC.           BIRDWELL:   SERVICE COMPANY
 DATE.        23-APR-1978:   LOGDATE
 API .       490251061300:   API NUMBER
~CURVE INFORMATION
#MNEM.UNIT       API CODE    CURVE DESCRIPTION
#----------   ------------   ------------------------------
 DEPT.F                  :   
 CALD.IN     45 280 60 00:   CALIPER FROM DENSITY LOG
 CORR.G/C3   45 356 01 00:   DENSITY CORRECTION
 DPHI.DEC    45 890 12 00:   DENSITY POROSITY SANDSTONE
 GRD .GAPI   45 310 01 00:   GAMMA RAY FROM DENSITY LOG
 RHOB.G/C3   45 350 01 00:   BULK DENSITY
~PARAMETER INFORMATION
#MNEM.UNIT          VALUE    DESCRIPTION
#----------   ------------   ------------------------------
 PD  .                 GL:   PERMANENT DATUM
 EPD .F              5166:   ELEVATION PERMANENT DATUM
 LMF .                 KB:   LOG MEASURED FROM
 DMF .                 KB:   DRILLING MEASURED FROM
 EKB .F              5176:   KELLING BUSHING
 EGL .F              5166:   GROUND LEVEL
 DATE.        23-APR-1978:   RUN DATE
 RUN .                  1:   RUN NUMBER
 DD  .F              2450:   DEPTH DRILLER
 DL  .F              2450:   DEPTH LOGGER
 BLI .F              2443:   BOTTOM LOG INTERVAL
 TLI .F               670:   TOP LOG INTERVAL
 CS  .IN            9.625:   CASING SIZE
 CBD .F               660:   CASING BOTTOM DRILLER
 CBL .F               670:   CASING BOTTOM LOGGER
 BS  .IN             8.75:   BIT SIZE
 BSD .F              2450:   BIT SIZE AT DEPTH
 DFT .               MIST:   DRILLING FLUID TYPE
 LUN .               2958:   LOGGING UNIT NUMBER
 LUL .             CASPER:   LOGGING UNIT LOCATION
 ENGI.             MILLER:   RECORDING ENGINEER
 WITN.          MC GINLEY:   WITNESSED BY
 CLNT.            A2DTECH:   CLIENT CODE
 ORIG.           5" PRINT:   ORIGIN OF DATA
 UWI .       490251061300:   UNIQUE WELL ID
 DICO. A2D Technologies, Inc.:   DIGITIZING COMPANY
~OTHER INFORMATION
~A   DEPT     CALD       CORR       DPHI        GRD       RHOB   
# ...
 1563.0000     9.3008     0.0022     0.0221    97.8470     2.5138
 1563.5000     9.3158     0.0021     0.0239   100.8441     2.5152
 1564.0000     9.3609     0.0035     0.0315   100.8423     2.4972
 1564.5000     9.4060     0.0019     0.0393   100.2412     2.5002
 1565.0000     9.4662     0.0018     0.0408   100.6895     2.5002
 1565.5000     9.3910     0.0047     0.0351   101.2878     2.4866
 1566.0000     9.3008     0.0122     0.0312    98.5877     2.4821
 1566.5000     9.3008     0.0291     0.0255    99.7853     2.4821
 1567.0000     9.3459     0.0481     0.0144   101.4331     2.4851
 1567.5000     9.3759     0.0360     0.0306   102.1817     2.5151
 1568.0000     9.4211     0.0118     0.0246   102.1799     2.5512
 1568.5000     9.4662     0.0163     0.0207   102.1784     2.5121
 1569.0000     9.4812     0.0222     0.0208   102.0268     2.4986
 1569.5000     9.4962     0.0236     0.0219   102.0253     2.5074
 1570.0000     9.4812     0.0280     0.0211   100.6746     2.5166
 1570.5000     9.4361     0.0324     0.0181    95.4229     2.5128
 1571.0000     9.3910     0.0459     0.0054    94.2246     2.5143
 1571.5000     9.4060     0.0533     0.0027    91.8244     2.5181
 1572.0000     9.4511     0.0578     0.0109    91.2236     2.5293
 1572.5000     9.4662     0.0517     0.0124    93.3208     2.5429
 1573.0000     9.4812     0.0440     0.0124    95.4721     2.5466
 1573.5000     9.4812     0.0650     0.0196    96.6163     2.5233
 1574.0000     9.4511     0.0740     0.0223    96.4646     2.5241
 1574.5000     9.4211     0.0633     0.0064    96.3133     2.5271
 1575.0000     9.4060     0.0694     0.0040    96.4618     2.5225
 1575.5000     9.4060     0.0827     0.0031    96.7598     2.5105
 1576.0000     9.4231     0.0676     0.0055    97.2085     2.5443
 1576.5000     9.4812     0.0509     0.0127    93.1588     2.5360
 1577.0000     9.5714     0.0388     0.0161    91.5082     2.5330
 1577.5000     9.6767     0.0266     0.0191    94.6400     2.5420
 1578.0000     9.3308     0.0220     0.0206    99.3011     2.5225
 1578.5000     9.3158     0.0220     0.0209   102.1483     2.5195
 1579.0000     9.3158     0.0219     0.0236   102.5970     2.5180
 1579.5000     9.3158     0.0218     0.0315   100.7961     2.5165
 1580.0000     9.3158     0.0232     0.0318    95.5469     2.5119
 1580.5000     9.3459     0.0261     0.0312    95.0961     2.4977
 1581.0000     9.3609     0.0275     0.0315    97.9429     2.4969
 1581.5000     9.3759     0.0320     0.0401   101.9895     2.4969
 1582.0000     9.4060     0.0394     0.0435   103.7871     2.4961
 1582.5000     9.4211     0.0438     0.0423    94.9398     2.4939
 1583.0000     9.4361     0.0467     0.0396    95.3881     2.4751
 1583.5000     9.4709     0.0573     0.0381    96.4362     2.4736
 1584.0000     9.4962     0.0676     0.0288    97.1844     2.4774
 1584.5000     9.5414     0.0675     0.0291    97.0327     2.4826
 1585.0000     9.5865     0.0675     0.0273    98.9803     2.4874
 1585.5000     9.6165     0.0644     0.0088   100.3282     2.4968
 1586.0000     9.6617     0.0703     0.0145   100.7769     2.5028
 1586.5000     9.6922     0.0642     0.0317   100.7930     2.5081
 1587.0000     9.7368     0.0505     0.0289   103.1722     2.5291
 1587.5000     9.7519     0.0489     0.0314   112.4661     2.5006
 1588.0000     9.7970     0.0614     0.0317   112.0149     2.4998
 1588.5000     9.8271     0.0774     0.0242   109.0150     2.4975
 1589.0000     9.9023     0.0923     0.0242   108.5634     2.4960
 1589.5000     9.9624     0.0892     0.0323   107.0628     2.4968
 1590.0000    10.0075     0.1029     0.0281   104.3630     2.4983
 1590.5000    10.0526     0.1147     0.0251   108.5592     2.4923
 1591.0000    10.0977     0.1055     0.0257   120.6119     2.5028
 1591.5000    10.1128     0.1039     0.0260   130.7449     2.5238
 1592.0000    10.1579     0.1069     0.0269   166.8754     2.5152
 1592.5000    10.2030     0.1173     0.0305   170.9219     2.5035
 1593.0000    10.2642     0.1157     0.0423   170.9205     2.5020
 1593.5000    10.3684     0.1051     0.0523   170.9191     2.4967
 1594.0000    10.4436     0.1003     0.0844   170.9173     2.4862
 1594.5000    10.5188     0.1145     0.1094   157.4226     2.4606
 1595.0000    10.6241     0.1560     0.0956   133.2833     2.4486
 1595.5000    10.7744     0.2026     0.0878   129.5029     2.4133
 1596.0000    10.8797     0.1679     0.1266   116.1886     2.3547
 1596.5000    11.0000     0.1241     0.1636   109.1407     2.3370
 1597.0000    11.0902     0.1255     0.2040   107.6404     2.2803
 1597.5000    11.1654     0.1435     0.2283   113.7856     2.2149
 1598.0000    11.2857     0.1525     0.2548   123.4147     2.1661
 1598.5000    11.3459     0.1870     0.2834   124.1605     2.0721
 1599.0000    11.0000     0.2472     0.2991   113.0475     1.8573
 1599.5000    10.6391     0.3389     0.3181   114.2370     1.8392
 1600.0000    10.9299     0.3931     0.3322   119.6244     1.7739
 1600.5000    11.2563     0.4457     0.3436   126.8108     1.6401
 1601.0000    11.3621     0.4752     0.3575   123.8978     1.6844
 1601.5000    11.4390     0.5073     0.3710   122.5906     1.7693
 1602.0000    11.4837     0.5222     0.3798   121.9809     1.7971
 1602.5000    11.5143     0.5402     0.3554   121.5212     1.8565
 1603.0000    11.5149     0.5399     0.3269   120.7495     1.9115
 1603.5000    11.5155     0.4783     0.3003   116.2515     2.0075
 1604.0000    11.5010     0.4435     0.2946   107.5459     1.9909
 1604.5000    11.5017     0.3712     0.2931   106.1867     1.8144
 1605.0000    11.5023     0.2988     0.2667   106.9264     1.8391
 1605.5000    11.5036     0.2279     0.2673   108.4157     1.8444
 1606.0000    11.5186     0.2384     0.2658   107.6536     1.7820
 1606.5000    11.5342     0.2624     0.1490   106.8941     1.7482
 1607.0000    11.5498     0.2457     0.1394   106.4344     1.8106
 1607.5000    11.5654     0.2099     0.1228   106.8840     1.9491
 1608.0000    11.1902     0.1416     0.1051   108.2111     2.2441
 1608.5000    11.0402     0.1114     0.1270   111.0498     2.3117
 1609.0000    11.1913     0.0586     0.1415   111.6420     2.3425
 1609.5000    11.2975     0.0311     0.1535   111.0299     2.3710
 1610.0000    11.1174     0.0102     0.1812   114.1659     2.3214
 1610.5000    10.7871     0.0041     0.1981   116.4049     2.2853
 1611.0000    10.7276     0.0281     0.2041   117.1470     2.1546
 1611.5000    10.5476     0.0958     0.1280   115.1856     2.0937
 1612.0000    10.4582     0.1861     0.1018   114.5757     2.0847
 1612.5000    10.3083     0.1980     0.0416   114.7160     2.3552
 1613.0000    10.0833     0.1949     0.0079   112.9044     2.3942
 1613.5000     9.9185     0.1858    -0.0020   110.3458     2.4243
 1614.0000     9.7538     0.0923     0.0052   109.8861     2.4553
 1614.5000     9.6190     0.0682     0.0139   112.7223     2.5445
 1615.0000     9.4842     0.0500     0.0155   114.3615     2.5557
 1615.5000     9.3344     0.0680     0.0043   114.8038     2.5302
 1616.0000     9.2148     0.0769     0.0119   112.8424     2.5204
 1616.5000     9.2002     0.0663     0.0182   111.4608     2.5336
 1617.0000     9.2461     0.0571     0.0197   110.4212     2.5452
 1617.5000     9.2767     0.0556     0.0188   109.6617     2.5189
 1618.0000     9.3225     0.0540     0.0152   106.9531     2.5121
 1618.5000     9.3381     0.0554     0.0083   103.3207     2.5174
 1619.0000     9.3537     0.0630     0.0055    97.1856     2.5234
 1619.5000     9.3392     0.0748     0.0000    95.2291     2.5294
 1620.0000     9.2648     0.0792    -0.0073   100.0143     2.5406
 1620.5000     9.1150     0.0791    -0.0099   104.9519     2.5504
 1621.0000     9.0101     0.0729    -0.0132   111.3863     2.5594
 1621.5000     9.1913     0.0624    -0.0144   109.8771     2.5602
 1622.0000     9.3273     0.0563    -0.0096   103.1205     2.5586
 1622.5000     9.3580     0.0501     0.0001   101.2917     2.5369
 1623.0000     9.3734     0.0395     0.0109   104.2484     2.5383
 1623.5000     9.3591     0.0274     0.0190   109.2339     2.5383
