~VERSION INFORMATION
 VERS.                2.0:   CWLS LOG ASCII STANDARD - VERSION 2.0
 WRAP.                 NO:   ONE LINE PER DEPTH STEP
~WELL INFORMATION
#MNEM.UNIT      DATA TYPE    INFORMATION
#----------   ------------   ------------------------------
 STRT.F           34.0000:   START DEPTH
 STOP.F          576.0000:   STOP DEPTH
 STEP.F            0.5000:   STEP LENGTH
 NULL.          -999.2500:   NO VALUE
 COMP. FENIX & SCISSON INC:   COMPANY
 WELL.   NPR-3 #22 SX 3-3:   WELL
 FLD .             TEAPOT:   FIELD
 LOC .       S3 T38N R78W:   LOCATION
 CNTY.            NATRONA:   COUNTY
 STAT.            WYOMING:   STATE
 CTRY. UNITED STATES OF AMERICA:   COUNTRY
 SRVC.            Unknown:   SERVICE COMPANY
 DATE.        17-JUL-1978:   LOGDATE
 API .       490251066700:   API NUMBER
~CURVE INFORMATION
#MNEM.UNIT       API CODE    CURVE DESCRIPTION
#----------   ------------   ------------------------------
 DEPT.F                  :   
 SN  .OHMM   05 040 16 00:   SHORT NORMAL 16"
 ILD .OHMM   05 120 46 00:   INDUCTION LOG DEEP
 SPR .MV     05 010 01 00:   SPONTANEOUS POTENTIAL FROM RES.
 CALD.IN     45 280 60 00:   CALIPER FROM DENSITY LOG
 GRD .GAPI   45 310 01 00:   GAMMA RAY FROM DENSITY LOG
 CORR.G/C3   45 356 01 00:   DENSITY CORRECTION
 DPHI.DEC    45 890 12 00:   DENSITY POROSITY SANDSTONE
 DEN .G/C3   45 350 01 00:   COMPENSATED BULK DENSITY
~PARAMETER INFORMATION
#MNEM.UNIT          VALUE    DESCRIPTION
#----------   ------------   ------------------------------
 PD  .                 GL:   PERMANENT DATUM
 EPD .F              5193:   ELEVATION PERMANENT DATUM
 LMF .                 KB:   LOG MEASURED FROM
 DAPD.F                 4:   FEET ABOVE PERMANENT DATUM
 DMF .                 KB:   DRILLING MEASURED FROM
 EKB .F              5197:   KELLING BUSHING
 EGL .F              5193:   GROUND LEVEL
 DATE.        17-JUL-1978:   RUN DATE
 RUN .                  1:   RUN NUMBER
 DD  .F               570:   DEPTH DRILLER
 DL  .F               576:   DEPTH LOGGER
 BLI .F               576:   BOTTOM LOG INTERVAL
 CS  .IN            8.625:   CASING SIZE
 CBD .F                30:   CASING BOTTOM DRILLER
 BS  .IN            7.875:   BIT SIZE
 BSD .F               570:   BIT SIZE AT DEPTH
 DFT .            MUD KCL:   DRILLING FLUID TYPE
 DFD .                8.6:   DRILLING FLUID DENSITY
 DFV .                 32:   DRILLING FLUID VISCOSITY
 DFL .                 15:   DRILLING FLUID LOSS
 MSS .           FLOWLINE:   MUD SAMPLE SOURCE
 RMS .OHMM            .18:   RESISTIVITY MUD SAMPLE
 MST .F                86:   MUD SAMPLE TEMPERATURE
 RMF .OHMM            .17:   RESISTIVITY MUD FILTRATE SAMPLE
 MFST.F                94:   MUD FILTRATE SAMPLE TEMPERATURE
 RMC .OHMM            .34:   RESISTIVITY MUD CAKE
 MCST.F                94:   MUD CAKE SAMPLE TEMPERATURE
 MFSS.               MEAS:   MUD FILTRATE SAMPLE SOURCE
 TCS .HRS            0300:   TIME CURCULATED STOPPED
 LUN .               2958:   LOGGING UNIT NUMBER
 LUL .               CASP:   LOGGING UNIT LOCATION
 ENGI.             MILLER:   RECORDING ENGINEER
 WITN.           MCGINLEY:   WITNESSED BY
 CLNT.            A2DTECH:   CLIENT CODE
 ORIG.           5" PRINT:   ORIGIN OF DATA
 UWI .       490251066700:   UNIQUE WELL ID
 DICO. A2D Technologies, Inc.:   DIGITIZING COMPANY
~OTHER INFORMATION
~A   DEPT       SN        ILD        SPR       CALD         GRD      CORR       DPHI        DEN   
# ...
  398.5000    12.0833    17.6402   -37.0846     8.0269    54.6241     0.0008     0.2037     2.3212
  399.0000    12.0889    17.3989   -37.0655     8.0421    55.2090     0.0008     0.2005     2.3310
  399.5000    12.0946    17.1794   -36.9132     8.0428    58.6915     0.0008     0.2007     2.3413
  400.0000    12.0172    17.0707   -36.9930     8.0447    60.7246     0.0017     0.1973     2.3460
  400.5000    12.0083    17.3774   -37.3391     8.0524    61.1530     0.0039     0.1933     2.3502
  401.0000    11.9994    16.9748   -37.6190     8.0602    61.2892     0.0051     0.1927     2.3554
  401.5000    11.9904    16.5227   -38.1992     8.0680    62.1535     0.0052     0.1904     2.3630
  402.0000    11.9815    16.1937   -38.4881     8.0758    59.5361     0.0065     0.1874     2.3665
  402.5000    11.9725    15.9808   -38.9142     8.0836    59.3841     0.0064     0.1901     2.3613
  403.0000    11.9685    15.9894   -39.3424     8.0725    59.8102     0.0063     0.1904     2.3561
  403.5000    11.9755    15.9980   -39.3279     8.0725    59.9499     0.0063     0.1889     2.3532
  404.0000    11.9812    16.0066   -39.3133     8.0870    60.9557     0.0077     0.1871     2.3673
  404.5000    11.9868    16.0152   -39.2988     8.0870    60.6588     0.0077     0.1984     2.3651
  405.0000    11.9924    16.0239   -38.9866     8.0870    59.9272     0.0076     0.2043     2.3530
  405.5000    11.9158    15.9078   -38.5257     8.0870    59.3405     0.0075     0.2058     2.3316
  406.0000    11.8410    15.5004   -38.0647     8.0725    58.7536     0.0075     0.2023     2.3286
  406.5000    11.6846    15.0875   -38.3482     8.0580    59.6146     0.0089     0.1913     2.3517
  407.0000    11.6085    14.8872   -38.6310     8.0580    61.2018     0.0089     0.1823     2.3621
  407.5000    11.3779    14.6915   -38.1598     8.0435    62.2111     0.0103     0.1806     2.3762
  408.0000    11.3039    14.4009   -37.8333     8.0290    61.1878     0.0102     0.1856     2.3635
  408.5000    11.3105    14.1122   -37.9920     8.0145    61.0359     0.0102     0.1818     2.3703
  409.0000    11.3158    13.9286   -38.4202     8.0145    61.6087     0.0101     0.1800     2.3799
  409.5000    11.3211    13.8404   -38.5581     8.0145    63.2131     0.0100     0.1818     2.3680
  410.0000    11.3265    13.8481   -38.8376     8.0000    63.4787     0.0085     0.1821     2.3658
  410.5000    11.3319    13.8557   -39.1207     8.0000    62.7454     0.0069     0.1821     2.3688
  411.0000    11.3384    13.8647   -39.2549     8.0000    62.1586     0.0054     0.1809     2.3732
  411.5000    11.2660    13.9679   -39.3928     8.0000    60.9922     0.0053     0.1788     2.3785
  412.0000    11.2713    14.0720   -39.5238     8.0000    59.2461     0.0068     0.1761     2.3822
  412.5000    11.1979    14.0795   -39.6577     8.0000    58.2246     0.0112     0.1744     2.3844
  413.0000    11.1263    14.0871   -39.6429     8.0000    59.1082     0.0126     0.1726     2.3874
  413.5000    11.0552    13.9961   -40.0751     8.0000    58.2089     0.0081     0.1711     2.3918
  414.0000    11.0617    13.8138   -40.6521     8.0000    57.4773     0.0020     0.1673     2.3985
  414.5000    11.0669    13.5389   -40.7900     8.0000    58.0500    -0.0010     0.1625     2.4030
  415.0000    10.9961    13.2604   -40.9243     8.0000    59.0575    -0.0011     0.1610     2.4104
  415.5000    11.0014    13.0051   -41.3562     8.0145    60.7896    -0.0011     0.1598     2.4059
  416.0000    11.0078    12.8341   -41.3380     8.0145    62.9566    -0.0012     0.1774     2.4000
  416.5000    10.9361    12.8427   -40.5794     8.0145    62.8029    -0.0027     0.1794     2.3874
  417.0000    10.9425    12.8496   -40.5417     8.0145    63.2307    -0.0028     0.1794     2.3792
  417.5000    10.9477    12.7666   -41.1456     8.0145    64.6730    -0.0043     0.1768     2.3732
  418.0000    10.9528    12.7752   -41.7263     8.0145    66.1153    -0.0059     0.1649     2.3994
  418.5000    11.0337    12.7821   -42.0094     8.0145    66.6880    -0.0059     0.1631     2.4000
  419.0000    11.0388    12.7011   -41.8424     8.0145    66.8259    -0.0060     0.1619     2.4022
  419.5000    11.1203    12.7081   -41.2326     8.0000    66.9639    -0.0045     0.1616     2.4134
  420.0000    11.1255    12.6276   -40.9241     8.0000    66.9551    -0.0031     0.1622     2.4104
  420.5000    11.1309    12.6361   -41.7988     8.0000    66.6583    -0.0017     0.1649     2.4037
  421.0000    11.0609    12.6429   -42.3794     8.0000    65.4919     0.0012     0.1749     2.3948
  421.5000    11.0661    12.7370   -42.3649     8.0000    64.9052     0.0027     0.1783     2.3788
  422.0000    11.0713    12.7439   -42.0527     8.0145    65.0431     0.0041     0.1709     2.3747
  422.5000    11.0765    12.9275   -41.8894     8.0145    66.1955     0.0055     0.1747     2.3911
  423.0000    11.0817    13.0238   -42.0238     8.0145    66.6233     0.0069     0.1747     2.3918
  423.5000    11.0870    13.1208   -42.3067     8.0145    62.5566     0.0084     0.1727     2.3874
  424.0000    11.0148    13.1278   -42.2917     8.0145    60.6656     0.0068     0.1697     2.3926
  424.5000    11.0213    13.1350   -42.2740     8.0145    60.8035     0.0038     0.1664     2.4000
  425.0000    11.0264    13.1422   -42.5571     8.0145    61.8110     0.0022     0.1626     2.4085
  425.5000    11.0317    13.1507   -42.8438     8.0290    62.9634     0.0007     0.1611     2.4112
  426.0000    11.0381    13.0658   -42.9781     8.0290    62.8115    -0.0024     0.1661     2.3985
  426.5000    11.0433    12.9831   -43.2612     8.0290    62.0642    -0.0024     0.1721     2.3903
  427.0000    11.0485    12.8125   -43.3954     8.0290    60.7668    -0.0010     0.1712     2.3874
  427.5000    11.0537    12.7331   -43.3773     8.0290    60.1801     0.0034     0.1645     2.3970
  428.0000    11.0589    12.5658   -43.0651     8.0145    60.7528     0.0034     0.1528     2.4098
  428.5000    10.9882    12.4861   -42.3065     8.0145    63.6444     0.0018     0.1489     2.4186
  429.0000    10.9933    12.3222   -43.3336     8.0145    65.3765    -0.0012     0.1483     2.4238
  429.5000    10.9985    12.2362   -43.7907     8.0000    67.3985    -0.0028     0.1495     2.4268
  430.0000    11.0037    12.0849   -43.7473     8.0000    68.2611    -0.0027     0.1519     2.4290
  430.5000    11.0090    11.9260   -43.5840     7.9710    68.2524    -0.0014     0.1569     2.4245
  431.0000    11.0153    11.8490   -43.2718     7.9565    67.8106    -0.0015     0.1584     2.4178
  431.5000    11.0966    11.7740   -43.2573     7.9565    67.3688    -0.0030     0.1593     2.4103
  432.0000    11.1019    11.6995   -43.2427     7.9565    67.3618    -0.0075     0.1599     2.4089
  432.5000    11.1838    11.7074   -43.2282     7.9565    67.6447    -0.0151     0.1614     2.4067
  433.0000    11.2663    11.7946   -43.2137     7.9565    68.6522    -0.0211     0.1665     2.3970
  433.5000    11.2716    11.9645   -43.1991     7.9420    69.0800    -0.0241     0.1772     2.3822
  434.0000    11.3548    12.2230   -43.1826     7.9420    66.8973    -0.0227     0.1932     2.3584
  434.5000    11.5177    12.5802   -42.8720     7.9420    66.8904    -0.0168     0.2163     2.3293
  435.0000    11.7635    13.2891   -42.5566     7.9420    66.8834    -0.0109     0.2485     2.3148
  435.5000    12.1897    14.2438   -41.9468     7.9420    65.1372    -0.0050     0.2631     2.2528
  436.0000    12.8783    15.6932   -41.0394     7.8696    59.9129     0.0009     0.2809     2.2112
  436.5000    13.7079    17.7728   -40.1320     7.7681    54.8218     0.0025     0.2815     2.2022
  437.0000    14.3913    20.4070   -39.2246     7.6667    54.1000     0.0068     0.2759     2.2164
  437.5000    14.9023    23.1113   -38.9125     7.7113    54.0930     0.0067     0.2666     2.2275
  438.0000    15.5380    24.4329   -38.3027     7.7681    54.3759     0.0081     0.2612     2.2426
  438.5000    15.8696    25.3020   -37.8417     7.7681    54.6588     0.0081     0.2461     2.2580
