~VERSION INFORMATION
 VERS.                2.0:   CWLS LOG ASCII STANDARD - VERSION 2.0
 WRAP.                 NO:   ONE LINE PER DEPTH STEP
~WELL INFORMATION
#MNEM.UNIT      DATA TYPE    INFORMATION
#----------   ------------   ------------------------------
 STRT.F           20.0000:   START DEPTH
 STOP.F          744.0000:   STOP DEPTH
 STEP.F            0.5000:   STEP LENGTH
 NULL.          -999.2500:   NO VALUE
 COMP. FENIX & SCISSON INCORP.:   COMPANY
 WELL.          SX #53-15:   WELL
 FLD .             TEAPOT:   FIELD
 LOC .      S15 T38N R78W:   LOCATION
 CNTY.            NATRONA:   COUNTY
 STAT.            WYOMING:   STATE
 CTRY. UNITED STATES OF AMERICA:   COUNTRY
 SRVC.              Welex:   SERVICE COMPANY
 DATE.        02-MAR-1977:   LOGDATE
 API .       490251030000:   API NUMBER
~CURVE INFORMATION
#MNEM.UNIT       API CODE    CURVE DESCRIPTION
#----------   ------------   ------------------------------
 DEPT.F                  :   
 SGRD.OHMM   07 220 05 00:   SHALLOW RESISTIVITY
 ILD .OHMM   07 120 46 00:   INDUCTION LOG DEEP
 ILM .OHMM   07 120 44 00:   INDUCTION LOG MEDIUM
 SPR .MV     07 010 01 00:   SPONTANEOUS POTENTIAL
 GRD .GAPI   45 310 01 00:   GAMMA RAY FROM DENSITY LOG
 CALD.IN     45 280 60 00:   CALIPER
 RHOB.G/C3   45 350 01 00:   BULK DENSITY
 DPHI.DEC    45 890 10 00:   DENSITY POROSITY SANDSTONE
 CORR.G/C3   45 356 01 00:   DENSITY CORRECTION
~PARAMETER INFORMATION
#MNEM.UNIT          VALUE    DESCRIPTION
#----------   ------------   ------------------------------
 PD  .                 GL:   PERMANENT DATUM
 EPD .F              5253:   ELEVATION PERMANENT DATUM
 LMF .                 GL:   LOG MEASURED FROM
 DMF .                 GL:   DRILLING MEASURED FROM
 EGL .F              5253:   GROUND LEVEL
 DATE.             3-2-77:   RUN DATE
 RUN .                  1:   RUN NUMBER
 DD  .F               750:   DEPTH DRILLER
 DL  .F               747:   DEPTH LOGGER
 BLI .F               745:   BOTTOM LOG INTERVAL
 TLI .F                44:   TOP LOG INTERVAL
 CS  .IN            8.625:   CASING SIZE
 CBD .F                40:   CASING BOTTOM DRILLER
 CBL .F                44:   CASING BOTTOM LOGGER
 BS  .IN            7.875:   BIT SIZE
 BSD .F               750:   BIT SIZE AT DEPTH
 DFT .           CHEM-GEL:   DRILLING FLUID TYPE
 MSS .          FLOW LINE:   MUD SAMPLE SOURCE
 RMS .OHMM           .425:   RESISTIVITY MUD SAMPLE
 MST .F                56:   MUD SAMPLE TEMPERATURE
 RMF .OHMM           .436:   RESISTIVITY MUD FILTRATE SAMPLE
 MFST.F                56:   MUD FILTRATE SAMPLE TEMPERATURE
 RMC .OHMM           .712:   RESISTIVITY MUD CAKE
 MCST.F                56:   MUD CAKE SAMPLE TEMPERATURE
 MFSS.           MEASURED:   MUD FILTRATE SAMPLE SOURCE
 MCSS.           MEASURED:   MUD CAKE SAMPLE SOURCE
 RMB .OHMM            .35:   RESISTIVITY MUD AT BHT
 BHT .F                68:   BOTTOM HOLE TEMPERATURE
 TCS .HRS               2:   TIME CURCULATED STOPPED
 MRT .F                68:   MAXIMUM RECORDED TEMPERATURE
 LUN .               8611:   LOGGING UNIT NUMBER
 LUL .           GILLETTE:   LOGGING UNIT LOCATION
 ENGI.          D. LAWSON:   RECORDING ENGINEER
 WITN.           S. BURKE:   WITNESSED BY
 CLNT.            A2DTECH:   CLIENT CODE
 ORIG.        2" 5" PRINT:   ORIGIN OF DATA
 UWI .       490251030000:   UNIQUE WELL ID
 DICO. A2D Technologies, Inc.:   DIGITIZING COMPANY
~OTHER INFORMATION
~A   DEPT     SGRD        ILD        ILM        SPR         GRD      CALD         RHOB       DPHI      CORR  
# ...
   56.5000     6.9487     4.0896     5.2289    -8.1503   117.7568     8.5664     2.4401     0.1240     0.0654
   57.0000     6.8396     3.7720     4.8690    -6.9903   117.4388     8.5848     2.4250     0.1305     0.0630
   57.5000     6.2781     3.4793     4.5338    -6.2980   118.1933     8.6041     2.4067     0.1422     0.0607
   58.0000     5.7247     3.2074     4.2218    -6.0960   120.3733     8.5613     2.3884     0.1546     0.0584
   58.5000     5.2200     2.9989     3.9308    -6.1191   122.5492     8.5645     2.3723     0.1652     0.0561
   59.0000     4.6957     2.8757     3.6583    -6.3055   124.6033     8.5870     2.3586     0.1707     0.0538
   59.5000     3.8743     2.7735     3.4889    -6.4907   124.8113     8.6096     2.3534     0.1757     0.0516
   60.0000     3.1967     2.7897     3.7766    -6.6762   124.7001     8.6320     2.3586     0.1681     0.0506
   60.5000     2.9582     2.8206     4.0485    -6.8619   120.9699     8.6467     2.3838     0.1481     0.0537
   61.0000     7.3626     2.9766     4.3386    -7.0475   115.7466     8.6388     2.4179     0.1294     0.0567
   61.5000     7.4460     3.1413     4.6495    -7.2058   110.4491     8.6864     2.4602     0.1137     0.0596
   62.0000     7.1618     3.3150     4.9079    -7.1430   108.2157     8.7327     2.4692     0.1071     0.0619
   62.5000     6.8065     3.4983     5.0353    -7.0769   108.1918     8.7712     2.4767     0.1004     0.0619
   63.0000     6.5941     3.6918     5.1661    -6.9580   108.8941     8.7699     2.4843     0.0967     0.0603
   63.5000     6.8083     3.8960     5.3003    -6.4068   109.7396     8.7700     2.4925     0.0931     0.0585
   64.0000     6.9727     4.1115     5.4379    -5.8505   110.5900     8.7775     2.4845     0.0958     0.0566
   64.5000     7.1411     4.3389     5.5791    -5.2912   111.4171     8.8198     2.4834     0.0978     0.0548
   65.0000     7.3143     4.4150     5.7240    -4.4298   112.7756     8.8618     2.4867     0.0953     0.0530
   65.5000     7.5680     4.4364     5.8483    -3.5306   114.2179     8.9036     2.4901     0.0922     0.0532
   66.0000     7.5216     4.4364     5.8483    -2.6504   115.4725     8.9319     2.4973     0.0868     0.0562
   66.5000     7.4336     4.4364     5.7947    -1.7776   115.2543     8.9411     2.5097     0.0815     0.0592
   67.0000     7.3484     4.4227     5.7287    -0.9087   114.1189     8.9508     2.5108     0.0790     0.0622
   67.5000     7.2641     4.3418     5.5529    -0.2202   113.7401     8.9608     2.5057     0.0838     0.0652
   68.0000     7.1807     4.2625     5.3824    -0.0040   113.1345     8.9678     2.4903     0.0964     0.0681
   68.5000     6.6100     4.1713     5.2172     0.2206   111.0691     8.8880     2.4588     0.1106     0.0687
   69.0000     5.9581     4.0200     5.0570     0.4431   110.6393     8.7575     2.4360     0.1245     0.0660
   69.5000     5.5851     3.8742     4.9018     0.6453   111.2597     8.5926     2.4186     0.1267     0.0633
   70.0000     5.9516     3.7338     4.7513     1.2185   111.4319     8.4268     2.4145     0.1288     0.0606
   70.5000     6.2378     3.5985     4.6029     1.8046   110.9056     8.3505     2.4159     0.1309     0.0578
   71.0000     5.5853     3.4681     4.5063     2.3931   110.1984     8.3508     2.4174     0.1326     0.0551
   71.5000     4.2881     3.3424     4.3858     2.9802   109.7963     8.3873     2.4189     0.1341     0.0524
   72.0000     3.4596     3.2212     4.2686     3.5665   109.4764     8.4281     2.4204     0.1357     0.0512
   72.5000     5.0470     3.1045     4.1544     4.1536   109.2431     8.4162     2.4219     0.1334     0.0500
   73.0000     5.5851     2.9920     4.0434     4.4089   111.1619     8.3889     2.4233     0.1348     0.0488
   73.5000     5.4339     2.8835     3.9353     4.3322   113.3283     8.4417     2.4207     0.1386     0.0477
   74.0000     4.7156     2.7790     3.8300     4.2487   112.9248     8.5133     2.4099     0.1445     0.0465
   74.5000     4.0887     2.6783     3.7276     4.3688   112.6417     8.5850     2.3995     0.1509     0.0453
   75.0000     3.7610     2.5811     3.6280     4.6981   112.9921     8.6500     2.3891     0.1568     0.0441
   75.5000     3.9591     2.4878     3.5310    -3.0269   114.3837     8.7209     2.3786     0.1604     0.0423
   76.0000     4.0460     2.4156     3.4366    -2.8943   115.7090     8.7994     2.3761     0.1627     0.0397
   76.5000     3.5621     2.4336     3.3447    -3.2644   117.7952     8.8783     2.3797     0.1595     0.0370
   77.0000     3.1376     2.4486     3.2736    -3.5545   119.7010     8.9492     2.3890     0.1540     0.0374
   77.5000     2.6979     2.4859     3.5112    -3.8563   119.4455     8.9502     2.3997     0.1390     0.0412
   78.0000     4.0140     2.6103     3.7209    -4.1554   116.8976     8.9341     2.4240     0.1240     0.0450
   78.5000     5.9744     2.7410     3.9431    -4.6186   112.4175     8.9009     2.4546     0.1090     0.0488
   79.0000     5.8959     2.8783     4.1786    -5.1446   109.0245     8.8679     2.4701     0.1058     0.0520
   79.5000     5.7398     3.0224     4.4282    -5.6718   107.0596     8.8345     2.4626     0.1123     0.0519
   80.0000     5.5918     3.1738     4.6926    -6.1990   107.2112     8.7996     2.4429     0.1178     0.0519
   80.5000     5.4832     3.3328     4.9094    -6.7261   107.4067     8.7448     2.4445     0.1202     0.0528
   81.0000     5.4280     3.4733     4.9094    -7.2557   107.2948     8.6452     2.4520     0.1174     0.0553
   81.5000     5.3746     3.6235     4.8644    -7.6381   108.1084     8.5651     2.4595     0.1127     0.0578
   82.0000     5.2928     3.6227     4.7006    -7.9643   110.1016     8.5089     2.4614     0.1105     0.0603
   82.5000     5.1098     3.4905     4.5463    -8.2892   112.3332     8.4964     2.4532     0.1177     0.0605
   83.0000     4.9346     3.3665     4.3971    -8.6144   114.8917     8.5055     2.4388     0.1235     0.0567
   83.5000     4.7652     3.2469     4.2527    -8.9396   117.4304     8.5150     2.4238     0.1293     0.0530
   84.0000     4.6017     3.1316     4.1131    -9.2648   119.9517     8.5246     2.4088     0.1351     0.0498
   84.5000     4.4438     3.0203     3.9781    -9.5900   121.5790     8.5426     2.4029     0.1409     0.0499
   85.0000     4.2910     2.9131     3.8475    -9.9152   121.1027     8.5726     2.3988     0.1467     0.0499
   85.5000     4.1455     2.8096     3.7211   -10.2404   120.4507     8.6024     2.3924     0.1546     0.0495
   86.0000     3.9652     2.7481     3.5990   -10.5656   120.6106     8.6320     2.3802     0.1641     0.0468
   86.5000     3.7854     2.7481     3.5196   -10.8908   120.7373     8.6549     2.3684     0.1666     0.0441
   87.0000     3.3448     2.7889     3.5193   -11.2160   120.4880     8.6675     2.3684     0.1668     0.0414
   87.5000     2.8329     2.8776     4.0805   -11.5413   118.6912     8.6799     2.3716     0.1636     0.0387
   88.0000     2.6732     3.0829     4.5607   -11.8666   114.7377     8.6870     2.3917     0.1464     0.0361
   88.5000     6.9994     3.2920     4.8563   -12.1924   109.8770     8.6684     2.4423     0.1189     0.0378
   89.0000     7.0963     3.5152     5.1552   -12.5162   108.0837     8.6503     2.4908     0.0941     0.0398
   89.5000     6.9118     3.7537     5.4749   -12.6981   108.3140     8.6321     2.5006     0.0882     0.0418
   90.0000     6.7769     4.0083     5.8618   -12.8626   108.6347     8.6125     2.5071     0.0851     0.0438
   90.5000     6.9787     4.2802     6.0746   -13.0270   108.9562     8.6479     2.5083     0.0829     0.0458
   91.0000     7.1746     4.5705     6.1676   -13.1917   109.4395     8.6957     2.5095     0.0820     0.0465
   91.5000     7.3626     4.8805     6.2633   -13.3564   110.1552     8.7441     2.5107     0.0808     0.0470
   92.0000     7.2854     5.1884     6.4590   -13.5210   110.8729     8.7925     2.5120     0.0797     0.0476
   92.5000     7.2137     5.3247     6.7122   -13.6858   111.6179     8.8410     2.5183     0.0781     0.0481
