~VERSION INFORMATION
 VERS.                2.0:   CWLS LOG ASCII STANDARD - VERSION 2.0
 WRAP.                 NO:   ONE LINE PER DEPTH STEP
~WELL INFORMATION
#MNEM.UNIT      DATA TYPE    INFORMATION
#----------   ------------   ------------------------------
 STRT.F           20.0000:   START DEPTH
 STOP.F          488.0000:   STOP DEPTH
 STEP.F            0.5000:   STEP LENGTH
 NULL.          -999.2500:   NO VALUE
 COMP.    FENIX & SCISSON:   COMPANY
 WELL.  SX-3 NPR #3-3 #43:   WELL
 FLD .             TEAPOT:   FIELD
 LOC .       S3 T38N R78W:   LOCATION
 CNTY.            NATRONA:   COUNTY
 STAT.            WYOMING:   STATE
 CTRY. UNITED STATES OF AMERICA:   COUNTRY
 SRVC.           BIRDWELL:   SERVICE COMPANY
 DATE.        04-JAN-1978:   LOGDATE
 API .       490251044800:   API NUMBER
~CURVE INFORMATION
#MNEM.UNIT       API CODE    CURVE DESCRIPTION
#----------   ------------   ------------------------------
 DEPT.F                  :   
 ILD .OHMM   05 120 46 00:   INDUCTION LOG DEEP
 SN  .OHMM   05 040 16 00:   SHORT NORMAL 16"
 SPR .MV     05 010 01 00:   SPONTANEOUS POTENTIAL FROM RES.
 CALD.IN     45 280 60 00:   CALIPER FROM DENSITY LOG
 DPHI.DEC    45 890 12 00:   DENSITY POROSITY SANDSTONE
 DRHO.G/C3   45 356 01 00:   DENSITY CORRECTION
 GRD .GAPI   45 310 01 00:   GAMMA RAY FROM DENSITY LOG
 RHOB.G/C3   45 350 01 00:   BULK DENSITY
~PARAMETER INFORMATION
#MNEM.UNIT          VALUE    DESCRIPTION
#----------   ------------   ------------------------------
 PD  .                 GL:   PERMANENT DATUM
 LMF .                 KB:   LOG MEASURED FROM
 DAPD.F                 4:   FEET ABOVE PERMANENT DATUM
 DMF .                 KB:   DRILLING MEASURED FROM
 EKB .F              5163:   KELLING BUSHING
 EGL .F              5159:   GROUND LEVEL
 DATE.        04-JAN-1978:   RUN DATE
 RUN .                  1:   RUN NUMBER
 DD  .F               490:   DEPTH DRILLER
 DL  .F               490:   DEPTH LOGGER
 BLI .F               485:   BOTTOM LOG INTERVAL
 TLI .F                20:   TOP LOG INTERVAL
 CS  .IN            8.625:   CASING SIZE
 CBD .F                40:   CASING BOTTOM DRILLER
 CBL .F                44:   CASING BOTTOM LOGGER
 BS  .IN            7.875:   BIT SIZE
 BSD .F               490:   BIT SIZE AT DEPTH
 DFT .                KCL:   DRILLING FLUID TYPE
 DFD .                8.4:   DRILLING FLUID DENSITY
 DFV .                 32:   DRILLING FLUID VISCOSITY
 DFPH.                 11:   DRILLING FLUID PH
 DFL .                  8:   DRILLING FLUID LOSS
 MSS .                PIT:   MUD SAMPLE SOURCE
 RMS .OHMM           0.32:   RESISTIVITY MUD SAMPLE
 MST .F                62:   MUD SAMPLE TEMPERATURE
 RMF .OHMM           0.30:   RESISTIVITY MUD FILTRATE SAMPLE
 MFST.F                62:   MUD FILTRATE SAMPLE TEMPERATURE
 RMC .OHMM           0.35:   RESISTIVITY MUD CAKE
 MCST.F                62:   MUD CAKE SAMPLE TEMPERATURE
 MFSS.               MEAS:   MUD FILTRATE SAMPLE SOURCE
 MCSS.               MEAS:   MUD CAKE SAMPLE SOURCE
 RMB .OHMM           0.26:   RESISTIVITY MUD AT BHT
 BHT .F                75:   BOTTOM HOLE TEMPERATURE
 TCS .HRS               2:   TIME CURCULATED STOPPED
 MRT .F                75:   MAXIMUM RECORDED TEMPERATURE
 LUN .               2958:   LOGGING UNIT NUMBER
 LUL .             CASPER:   LOGGING UNIT LOCATION
 ENGI.             HUGHES:   RECORDING ENGINEER
 WITN.         HARRINGTON:   WITNESSED BY
 CLNT.            A2DTECH:   CLIENT CODE
 ORIG.           5" PRINT:   ORIGIN OF DATA
 UWI .       490251044800:   UNIQUE WELL ID
 DICO. A2D Technologies, Inc.:   DIGITIZING COMPANY
~OTHER INFORMATION
~A   DEPT      ILD         SN        SPR       CALD       DPHI       DRHO         GRD      RHOB   
# ...
  182.0000    11.7021     9.6097   -84.9085     8.3358     0.0982     0.0485   114.0348     2.4592
  182.5000    11.8637     9.6000   -84.9099     8.3358     0.1023     0.0373   118.4158     2.4563
  183.0000    12.0278     9.5909   -84.9113     8.3358     0.1084     0.0275   115.0209     2.4571
  183.5000    12.0259     9.5872   -84.9130     8.3212     0.1108     0.0208   110.8280     2.4660
  184.0000    12.1927     9.5856   -84.9144     8.3212     0.1114     0.0163   103.5301     2.4690
  184.5000    12.3610     9.5844   -84.6151     8.3358     0.1069     0.0178    99.5895     2.4638
  185.0000    12.3590     9.5171   -84.6168     8.3358     0.0985     0.0246   104.4088     2.4624
  185.5000    12.3574     9.4503   -84.4675     8.3358     0.1003     0.0321   111.5638     2.4654
  186.0000    12.3559     9.4488   -84.3188     8.3504     0.0973     0.0426   114.3389     2.4766
  186.5000    12.3539     9.4475   -84.3206     8.3504     0.0928     0.0501   114.9242     2.4909
  187.0000    12.2669     9.4463   -84.3220     8.3504     0.0919     0.0523   118.4292     2.4969
  187.5000    12.1806     9.5106   -84.3233     8.3504     0.0937     0.0441   122.3722     2.4984
  188.0000    12.0108     9.5091   -84.4754     8.3504     0.0985     0.0373   116.0966     2.4954
  188.5000    12.0093     9.5078   -84.6272     8.3504     0.1015     0.0314   115.3677     2.4902
  189.0000    11.6792     9.5066   -84.6286     8.3650     0.1045     0.0276   115.3694     2.4865
  189.5000    11.5966     9.4398   -84.6303     8.3650     0.1071     0.0314   115.3562     2.4798
  190.0000    11.3564     9.3087   -84.9325     8.3650     0.1086     0.0321   114.2046     2.4663
  190.5000    11.0443     9.3075   -84.9339     8.3650     0.1068     0.0269   113.7677     2.4708
  191.0000    10.8151     9.1785   -84.9356     8.3650     0.1074     0.0232   114.4993     2.4731
  191.5000    10.6648     9.0510   -84.9370     8.3650     0.1113     0.0299   113.8827     2.4671
  192.0000    10.3716     8.9255   -84.9384     8.3650     0.1110     0.0374   109.2466     2.4710
  192.5000    10.0165     8.7411   -84.9401     8.3650     0.1095     0.0441   111.4381     2.4732
  193.0000     9.6739     8.4430   -84.9415     8.3650     0.1092     0.0501   110.7096     2.4724
  193.5000     9.3430     8.0985   -84.9429     8.3650     0.1107     0.0477   107.3533     2.4635
  194.0000     9.0861     7.8223   -84.9446     8.3650     0.1179     0.0419   105.0189     2.4463
  194.5000     9.0847     7.5555   -84.7953     8.3650     0.1382     0.0404   107.3564     2.4418
  195.0000     8.8350     7.2442   -84.6466     8.3504     0.1358     0.0397   109.8395     2.4426
  195.5000     7.8866     6.8091   -84.6484     8.3650     0.1513     0.0450   112.6146     2.4411
  196.0000     6.6927     6.4866   -84.6497     8.3650     0.1660     0.0524   123.1854     2.4038
  196.5000     5.8251     6.0944   -84.6511     8.3650     0.1603     0.0584   123.7123     2.3872
  197.0000     5.3156     5.4425   -84.7342     8.3650     0.1765     0.0629   116.9987     2.3829
  197.5000     4.8289     4.7173   -84.8351     8.3650     0.1797     0.0622   112.1825     2.3717
  198.0000     4.3513     4.2815   -84.5291     8.3650     0.1864     0.0354   112.9917     2.3373
  198.5000     4.1420     3.9129   -84.2241     8.3650     0.2282     0.0031   119.1929     2.3201
  199.0000     4.0585     3.7498   -83.7678     8.3650     0.2503    -0.0037   118.3184     2.2902
  199.5000     4.0580     3.6757   -83.6132     8.3650     0.2420    -0.0104   114.8161     2.2446
  200.0000     4.1716     3.7265   -83.0075     8.3796     0.2228     0.0076   119.0511     2.2528
  200.5000     4.3785     3.9108   -82.5511     8.3796     0.1860     0.0345   115.1112     2.2746
  201.0000     4.6599     4.2191   -82.3966     8.3796     0.1737     0.0375   109.7111     2.3140
  201.5000     5.2061     4.3973   -81.7909     8.3796     0.2021    -0.0014   100.8074     2.3621
  202.0000     6.1480     4.6148   -81.0338     8.3796     0.1761     0.0076    95.8453     2.4489
  202.5000     6.4981     4.9104   -80.4281     8.3796     0.1538     0.0260    98.0368     2.4789
  203.0000     6.8202     5.4087   -79.9728     8.3796     0.1498     0.0361   106.7973     2.4886
  203.5000     7.2584     5.6371   -79.3660     8.3650     0.1115     0.0361   115.1299     2.4871
  204.0000     7.6715     6.1240   -78.4596     8.3504     0.1055     0.0353   119.0743     2.4804
  204.5000     8.3362     7.0367   -77.2524     8.3504     0.1112     0.0331   118.4932     2.4707
  205.0000     8.8107     7.4300   -76.6366     8.3504     0.1159     0.0294   121.4164     2.4618
  205.5000     8.8093     7.5325   -76.1903     8.3504     0.1174     0.0226   122.8790     2.4579
  206.0000     8.8082     7.5840   -76.1861     8.3650     0.1180     0.0206   123.7577     2.4551
  206.5000     8.8207     7.5828   -76.0316     8.3796     0.1183     0.0168   124.3582     2.4558
  207.0000     8.8689     7.5816   -75.7256     8.3796     0.1183     0.0199   125.0779     2.4551
  207.5000     8.9093     7.5806   -75.7214     8.3796     0.1183     0.0311   125.6646     2.4551
  208.0000     8.9065     7.5796   -75.7172     8.3942     0.1180     0.0409   126.2513     2.4552
  208.5000     8.9036     7.5786   -75.7120     8.3942     0.1184     0.0469   126.9840     2.4552
  209.0000     8.6578     7.5252   -75.7078     8.3942     0.1188     0.0514   126.0915     2.4560
  209.5000     8.4187     7.3697   -75.7036     8.3942     0.1192     0.0432   123.0487     2.4560
  210.0000     7.9618     7.1678   -75.6992     8.3942     0.1228     0.0316   120.8617     2.4567
  210.5000     7.6884     6.8280   -75.6942     8.3942     0.1485     0.0200   118.5288     2.4074
  211.0000     7.3222     6.4152   -75.6900     8.3942     0.1602     0.0096   116.4877     2.4052
  211.5000     7.2190     6.1964   -75.6857     8.3942     0.1611     0.0261   115.3227     2.4232
  212.0000     7.2172     6.1956   -75.6805     8.3796     0.1542     0.0336   119.7129     2.3865
  212.5000     7.3161     6.2377   -75.3756     8.3650     0.1479     0.0242   125.1100     2.4090
  213.0000     7.4675     6.4116   -75.0706     8.3504     0.1374     0.0104   124.8208     2.4322
  213.5000     7.7290     6.5906   -73.8624     8.3358     0.1273     0.0359   126.7214     2.4382
  214.0000     7.9444     6.8727   -73.2567     8.3358     0.1255     0.0419   127.7402     2.4367
  214.5000     8.3424     7.2584   -73.2525     8.3358     0.1147     0.0352   115.4453     2.4540
  215.0000     8.8716     7.5127   -72.6458     8.3358     0.1099     0.0292   106.2925     2.4794
  215.5000     9.3105     7.8300   -71.5890     8.3358     0.1075     0.0210   105.1267     2.4802
  216.0000     9.6366     8.2097   -70.2314     8.3358     0.1006     0.0323   118.2689     2.4862
  216.5000    10.0428     8.5832   -69.7759     8.3358     0.0943     0.0443   126.7388     2.5049
  217.0000    10.2513     8.9059   -69.6205     8.3358     0.0875     0.0503   128.5012     2.5124
  217.5000    10.3200     9.0299   -69.6163     8.3358     0.0898     0.0473   130.8320     2.4990
  218.0000    10.3167     8.9677   -69.6120     8.3212     0.0979     0.0383   124.9960     2.4863
  218.5000    10.2427     8.9059   -69.4565     8.3212     0.1036     0.0324   124.5602     2.4796
  219.0000    10.1693     8.7836   -69.4523     8.3212     0.1005     0.0264   127.6294     2.4729
  219.5000    10.1666     8.7836   -69.4481     8.3212     0.0976     0.0212   130.9898     2.4684
  220.0000    10.1634     8.7231   -69.2925     8.3358     0.1114     0.0210   127.3626     2.4677
  220.5000    10.1608     8.4851   -69.2883     8.3358     0.1153     0.0320   118.4414     2.4714
  221.0000    10.0176     8.4266   -69.2841     8.3358     0.1114     0.0392   114.3565     2.4774
  221.5000     9.8771     8.3109   -69.1285     8.3504     0.1086     0.0332   110.2710     2.4820
  222.0000     9.8746     8.2536   -68.9744     8.3504     0.1066     0.0288   113.4862     2.4850
