~VERSION INFORMATION
 VERS.                2.0:   CWLS LOG ASCII STANDARD - VERSION 2.0
 WRAP.                 NO:   ONE LINE PER DEPTH STEP
~WELL INFORMATION
#MNEM.UNIT      DATA TYPE    INFORMATION
#----------   ------------   ------------------------------
 STRT.F           30.0000:   START DEPTH
 STOP.F          655.5000:   STOP DEPTH
 STEP.F            0.5000:   STEP LENGTH
 NULL.          -999.2500:   NO VALUE
 COMP. FENIX & SCISSON INC:   COMPANY
 WELL.    NPR-3 SX #52-15:   WELL
 FLD .             TEAPOT:   FIELD
 LOC .      S15 T38N R78W:   LOCATION
 CNTY.            NATRONA:   COUNTY
 STAT.            WYOMING:   STATE
 CTRY. UNITED STATES OF AMERICA:   COUNTRY
 SRVC.            Unknown:   SERVICE COMPANY
 DATE.        27-MAY-1978:   LOGDATE
 API .       490251062200:   API NUMBER
~CURVE INFORMATION
#MNEM.UNIT       API CODE    CURVE DESCRIPTION
#----------   ------------   ------------------------------
 DEPT.F                  :   
 GRD .GAPI   45 310 01 00:   GAMMA RAY FROM DENSITY LOG
 CALD.IN     45 280 60 00:   CALIPER
 RHOB.G/C3   45 350 01 00:   BULK DENSITY
 DPHI.DEC    45 890 12 00:   DENSITY POROSITY SANDSTONE
 CORR.G/C3   45 356 01 00:   DENSITY CORRECTION
 SN  .OHMM   05 040 16 00:   SHORT NORMAL 16"
 IL  .OHMM   05 120 00 00:   INDUCTION LOG
 SPR .MV     05 010 01 00:   SPONTANEOUS POTENTIAL FROM RES.
~PARAMETER INFORMATION
#MNEM.UNIT          VALUE    DESCRIPTION
#----------   ------------   ------------------------------
 PD  .                 GL:   PERMANENT DATUM
 EPD .F              5240:   ELEVATION PERMANENT DATUM
 LMF .                 KB:   LOG MEASURED FROM
 DAPD.F                 4:   FEET ABOVE PERMANENT DATUM
 DMF .                 GL:   DRILLING MEASURED FROM
 EKB .F              5244:   KELLING BUSHING
 EGL .F              5240:   GROUND LEVEL
 DATE.          5-27-1978:   RUN DATE
 RUN .                  1:   RUN NUMBER
 DD  .F               645:   DEPTH DRILLER
 DL  .F               655:   DEPTH LOGGER
 BLI .F               650:   BOTTOM LOG INTERVAL
 TLI .F                50:   TOP LOG INTERVAL
 CS  .IN            8.625:   CASING SIZE
 CBD .F                40:   CASING BOTTOM DRILLER
 CBL .F                40:   CASING BOTTOM LOGGER
 BS  .IN            7.875:   BIT SIZE
 BSD .F               645:   BIT SIZE AT DEPTH
 DFT .                KCL:   DRILLING FLUID TYPE
 DFD .                8.6:   DRILLING FLUID DENSITY
 DFV .                 32:   DRILLING FLUID VISCOSITY
 DFPH.               10.5:   DRILLING FLUID PH
 DFL .                7.4:   DRILLING FLUID LOSS
 MSS .           FLOWLINE:   MUD SAMPLE SOURCE
 RMS .OHMM            .30:   RESISTIVITY MUD SAMPLE
 MST .F                66:   MUD SAMPLE TEMPERATURE
 RMF .OHMM            .32:   RESISTIVITY MUD FILTRATE SAMPLE
 MFST.F                64:   MUD FILTRATE SAMPLE TEMPERATURE
 RMC .OHMM            .50:   RESISTIVITY MUD CAKE
 MCST.F                64:   MUD CAKE SAMPLE TEMPERATURE
 MFSS.           MEASURED:   MUD FILTRATE SAMPLE SOURCE
 BHT .F                68:   BOTTOM HOLE TEMPERATURE
 TCS .HRS               2:   TIME CURCULATED STOPPED
 MRT .F                68:   MAXIMUM RECORDED TEMPERATURE
 LUN .               2958:   LOGGING UNIT NUMBER
 LUL .              CASP.:   LOGGING UNIT LOCATION
 ENGI.            POINTER:   RECORDING ENGINEER
 WITN.           MCGINLEY:   WITNESSED BY
 CLNT.            A2DTECH:   CLIENT CODE
 ORIG.      2" , 5" PRINT:   ORIGIN OF DATA
 UWI .       490251062200:   UNIQUE WELL ID
 DICO. A2D Technologies, Inc.:   DIGITIZING COMPANY
~OTHER INFORMATION
~A   DEPT       GRD      CALD       RHOB       DPHI       CORR         SN         IL        SPR   
# ...
  192.0000    95.5976     7.7209     2.5081     0.1063     0.0785     9.7992    10.9074   -19.8901
  192.5000    96.9342     7.7057     2.5074     0.1054     0.0787     9.8829    11.0057   -19.7351
  193.0000    99.3877     7.6901     2.5056     0.1051     0.0788     9.9673    11.1049   -19.6307
  193.5000   101.1734     7.6919     2.5056     0.1053     0.0790    10.0525    11.2050   -19.6846
  194.0000   102.0662     7.7030     2.5081     0.1055     0.0791    10.1632    11.3060   -19.7345
  194.5000   102.0351     7.7143     2.5087     0.1057     0.0793    10.1521    11.4079   -19.7843
  195.0000   100.8760     7.7257     2.5068     0.1033     0.0794    10.1366    11.4608   -19.8341
  195.5000    99.9781     7.7370     2.5064     0.0978     0.0796    10.1209    11.4701   -19.8839
  196.0000    99.9565     7.7483     2.5109     0.1017     0.0797    10.1054    11.4793   -19.9336
  196.5000    98.2718     7.7597     2.5206     0.1081     0.0799    10.0898    11.4886   -19.9834
  197.0000    96.4504     7.7627     2.5232     0.1094     0.0800    10.0743    11.4979   -20.0332
  197.5000    94.9179     7.7598     2.5093     0.1070     0.0806    10.0589    11.5072   -20.0830
  198.0000    95.4225     7.7568     2.5053     0.1018     0.0834    10.0434    11.5165   -20.1328
  198.5000    97.0174     7.7538     2.5094     0.1066     0.0861    10.0280    11.5258   -20.1824
  199.0000    98.5718     7.7508     2.5125     0.1068     0.0889    10.0126    11.5351   -20.2199
  199.5000    98.1252     7.7477     2.5094     0.1069     0.0916     9.9972    11.5443   -20.2192
  200.0000    95.2014     7.7447     2.5064     0.1087     0.0943     9.9818    11.5538   -20.2191
  200.5000    92.2824     7.7536     2.5035     0.1121     0.0962     9.9665    11.5621   -20.2192
  201.0000    91.0105     7.7638     2.5005     0.1150     0.0962     9.9512    11.4114   -20.2193
  201.5000    90.1904     7.7742     2.4975     0.1146     0.0962     9.9359    11.2781   -20.2205
  202.0000    88.9398     7.7835     2.4946     0.1142     0.0962     9.9207    11.1463   -20.1609
  202.5000    89.9898     7.7591     2.4958     0.1138     0.0962     9.9054    11.0161   -20.0849
  203.0000    91.3816     7.7325     2.4976     0.1116     0.0962     9.8902    10.8875   -20.0085
  203.5000    92.7742     7.7060     2.4994     0.1087     0.0962     9.8750    10.7406   -19.9323
  204.0000    94.1688     7.6799     2.5011     0.1099     0.0962     9.8599    10.8574   -19.8561
  204.5000    95.5513     7.6806     2.5029     0.1126     0.0962     9.8447    10.8842   -19.7798
  205.0000    96.4394     7.7177     2.5022     0.1090     0.0962     9.8296    10.9112   -19.7027
  205.5000    95.6353     7.7464     2.5002     0.1102     0.0962     9.8145    10.9403   -19.6257
  206.0000    94.8087     7.7521     2.5015     0.1114     0.0962     9.7994    10.9094   -19.6830
  206.5000    97.7682     7.7580     2.5021     0.1112     0.0962     9.7618    10.8511   -19.7514
  207.0000   101.6463     7.7645     2.4994     0.1080     0.0962     9.7165    10.7932   -19.8194
  207.5000   105.6230     7.7901     2.5001     0.1047     0.1009     9.6714    10.7356   -19.8871
  208.0000   107.0768     7.8192     2.5083     0.1015     0.1060     9.6266    10.6783   -19.9548
  208.5000   101.7198     7.7963     2.5164     0.0982     0.1112     9.5820    10.6213   -20.0226
  209.0000    96.1803     7.7596     2.5243     0.0961     0.1123     9.5376    10.5647   -20.0904
  209.5000    96.5284     7.7226     2.5257     0.0957     0.1121     9.4934    10.5083   -20.1583
  210.0000    98.7830     7.6860     2.5267     0.0957     0.1078     9.4494    10.4522   -20.2189
  210.5000   100.9899     7.6723     2.5274     0.0972     0.1033     9.4056    10.3964   -20.2194
  211.0000   103.1883     7.6911     2.5267     0.1006     0.0988     9.3620    10.3409   -20.2192
  211.5000   104.5313     7.7095     2.5244     0.1049     0.0944     9.3186    10.2857   -20.2191
  212.0000   104.5625     7.7281     2.5210     0.1036     0.0899     9.2754    10.2308   -20.2191
  212.5000   103.5947     7.7435     2.5146     0.1040     0.0853     9.2324    10.1762   -20.2191
  213.0000   103.3844     7.7262     2.5111     0.1078     0.0842     9.1896    10.1219   -20.2190
  213.5000   104.1940     7.7091     2.5102     0.1062     0.0853     9.1470    10.0700   -20.2223
  214.0000   103.3868     7.6921     2.5093     0.1032     0.0891     9.1046    10.1759   -20.2263
  214.5000   102.0631     7.6848     2.5087     0.1017     0.0929     9.0624    10.2788   -20.2302
  215.0000   100.9128     7.6846     2.5152     0.1013     0.0967     9.0194    10.3521   -20.2341
  215.5000   101.7449     7.6846     2.5169     0.1010     0.0982     9.0437    10.1229   -20.2380
  216.0000   108.8249     7.6846     2.5173     0.0981     0.0982     9.0741     9.9492   -20.2420
  216.5000   108.0434     7.6846     2.5192     0.1020     0.0985     9.0998     9.7785   -20.2459
  217.0000   106.4218     7.6846     2.5233     0.1128     0.0889     8.8391     9.6107   -20.2498
  217.5000   107.3465     7.6846     2.5237     0.1193     0.0777     8.6582     9.4457   -20.2537
  218.0000   109.3232     7.6846     2.5055     0.1206     0.0736     8.4811     9.2837   -20.2577
  218.5000   108.4262     7.6846     2.4874     0.1188     0.0726     8.3076     9.0989   -20.2616
  219.0000   106.4835     7.6846     2.4862     0.1192     0.0735     8.1476     9.0998   -20.2655
  219.5000   105.2053     7.6846     2.4874     0.1199     0.0744     8.1476     9.0995   -20.2694
  220.0000   110.2830     7.7062     2.4883     0.1176     0.0754     8.1476     9.0996   -20.2733
  220.5000   113.0944     7.7469     2.4865     0.1126     0.0767     8.1476     9.0992   -20.2773
  221.0000   105.5581     7.7603     2.4871     0.1101     0.0807     8.2874     9.1540   -20.2812
  221.5000    98.2562     7.7540     2.4942     0.1084     0.0846     8.4417     9.3195   -20.2851
  222.0000    98.6485     7.7471     2.5030     0.1078     0.0865     8.5989     9.4878   -20.2890
  222.5000    99.2863     7.7472     2.5048     0.1094     0.0872     8.7591     9.6591   -20.2930
  223.0000    97.3323     7.7513     2.5051     0.1082     0.0879     8.9222     9.7911   -20.2969
  223.5000    95.2859     7.7555     2.5053     0.1045     0.0900     9.0163     9.8912   -20.3008
  224.0000    93.2549     7.7598     2.5114     0.1008     0.0941     9.0067     9.8838   -20.3047
  224.5000    91.2191     7.7643     2.5182     0.0974     0.0959     9.0000     9.8758   -20.3086
  225.0000    91.0088     7.7551     2.5252     0.0994     0.0952     8.9933     9.8635   -20.3126
  225.5000    93.1194     7.7444     2.5286     0.1016     0.0945     8.9866     9.8513   -20.3165
  226.0000    93.0412     7.7337     2.5247     0.1038     0.0938     8.9799     9.8391   -20.3204
  226.5000    92.3615     7.7236     2.5193     0.1060     0.0931     8.9732     9.8270   -20.3243
  227.0000    91.7796     7.7187     2.5139     0.1060     0.0924     8.9665     9.8150   -20.3283
  227.5000    91.9721     7.7137     2.5093     0.1042     0.0917     8.9598     9.8023   -20.3322
  228.0000    93.0834     7.7086     2.5115     0.1025     0.0910     8.9532     9.7958   -20.3361
  228.5000    94.1597     7.7035     2.5140     0.1016     0.0903     8.9463     9.8790   -20.3400
  229.0000    96.1294     7.6985     2.5166     0.1026     0.0897     8.9398     9.9388   -20.3440
  229.5000    98.2675     7.6934     2.5169     0.1029     0.0890     8.9337     9.9989   -20.3479
  230.0000   100.4136     7.6883     2.5160     0.1026     0.0883     9.0475    10.0593   -20.3518
  230.5000   102.3449     7.6833     2.5151     0.1050     0.0881     9.1544    10.1201   -20.3557
  231.0000   101.7721     7.6782     2.5140     0.1040     0.0905     9.2625    10.1812   -20.3596
  231.5000   100.0712     7.6731     2.5130     0.1025     0.0939     9.3720    10.2572   -20.3636
  232.0000    98.4274     7.6681     2.5126     0.1009     0.0973     9.4827    10.2398   -20.3675
