~VERSION INFORMATION
 VERS.                2.0:   CWLS LOG ASCII STANDARD - VERSION 2.0
 WRAP.                 NO:   ONE LINE PER DEPTH STEP
~WELL INFORMATION
#MNEM.UNIT      DATA TYPE    INFORMATION
#----------   ------------   ------------------------------
 STRT.F           36.0000:   START DEPTH
 STOP.F          592.0000:   STOP DEPTH
 STEP.F            0.5000:   STEP LENGTH
 NULL.          -999.2500:   NO VALUE
 COMP. FENIX & SCISSON INC:   COMPANY
 WELL.           S #35-10:   WELL
 FLD .              NPR-3:   FIELD
 LOC .      S10 T38N R78W:   LOCATION
 CNTY.            NATRONA:   COUNTY
 STAT.            WYOMING:   STATE
 CTRY. UNITED STATES OF AMERICA:   COUNTRY
 SRVC.              Welex:   SERVICE COMPANY
 DATE.        07-MAR-1977:   LOGDATE
 API .       490251029000:   API NUMBER
~CURVE INFORMATION
#MNEM.UNIT       API CODE    CURVE DESCRIPTION
#----------   ------------   ------------------------------
 DEPT.F                  :   
 SPR .MV     07 010 01 00:   SPONTANEOUS POTENTIAL
 ILM .OHMM   07 120 44 00:   INDUCTION LOG MEDIUM
 ILD .OHMM   07 120 46 00:   INDUCTION LOG DEEP
 SGRD.OHMM   07 220 05 00:   SHALLOW GUARD RESISTIVITY
 CALD.IN     45 280 60 00:   CALIPER FROM DENSITY LOG
 RHOB.G/C3   45 350 01 00:   BULK DENSITY
 CORR.G/C3   45 356 01 00:   DENSITY CORRECTION
 DPHI.DEC    45 890 12 00:   DENSITY POROSITY SANDSTONE
 GRD .GAPI   45 310 01 00:   GAMMA RAY FROM DENSITY LOG
~PARAMETER INFORMATION
#MNEM.UNIT          VALUE    DESCRIPTION
#----------   ------------   ------------------------------
 PD  .                 GL:   PERMANENT DATUM
 EPD .F              5234:   ELEVATION PERMANENT DATUM
 LMF .                 GL:   LOG MEASURED FROM
 DMF .                 GL:   DRILLING MEASURED FROM
 EGL .F              5234:   GROUND LEVEL
 DATE.             3-7-77:   RUN DATE
 RUN .                  1:   RUN NUMBER
 DD  .F               600:   DEPTH DRILLER
 DL  .F               593:   DEPTH LOGGER
 BLI .F               591:   BOTTOM LOG INTERVAL
 TLI .F                35:   TOP LOG INTERVAL
 CS  .IN            8.625:   CASING SIZE
 CBD .F                42:   CASING BOTTOM DRILLER
 CBL .F                42:   CASING BOTTOM LOGGER
 BS  .IN            7.875:   BIT SIZE
 BSD .F               600:   BIT SIZE AT DEPTH
 DFT .            KCL MUD:   DRILLING FLUID TYPE
 MSS .          FLOW LINE:   MUD SAMPLE SOURCE
 RMS .OHMM            .40:   RESISTIVITY MUD SAMPLE
 MST .F                58:   MUD SAMPLE TEMPERATURE
 RMF .OHMM            .33:   RESISTIVITY MUD FILTRATE SAMPLE
 MFST.F                58:   MUD FILTRATE SAMPLE TEMPERATURE
 RMC .OHMM            .44:   RESISTIVITY MUD CAKE
 MCST.F                58:   MUD CAKE SAMPLE TEMPERATURE
 MFSS.           FANN KIT:   MUD FILTRATE SAMPLE SOURCE
 MCSS.           FANN KIT:   MUD CAKE SAMPLE SOURCE
 RMB .OHMM            .31:   RESISTIVITY MUD AT BHT
 BHT .F                62:   BOTTOM HOLE TEMPERATURE
 TCS .HRS               3:   TIME CURCULATED STOPPED
 MRT .F                62:   MAXIMUM RECORDED TEMPERATURE
 LUN .               8611:   LOGGING UNIT NUMBER
 LUL .           GILLETTE:   LOGGING UNIT LOCATION
 ENGI.            C. DOAK:   RECORDING ENGINEER
 WITN.      L. STUEBINGER:   WITNESSED BY
 CLNT.            A2DTECH:   CLIENT CODE
 ORIG.        2" 5" PRINT:   ORIGIN OF DATA
 UWI .       490251029000:   UNIQUE WELL ID
 DICO. A2D Technologies, Inc.:   DIGITIZING COMPANY
~OTHER INFORMATION
~A   DEPT      SPR        ILM        ILD       SGRD         CALD       RHOB      CORR        DPHI       GRD  
# ...
  182.0000   -52.9345     9.1850     8.5757    11.4814     7.8782     2.5035     0.0393     0.0852   140.0979
  182.5000   -52.9715     9.1757     8.6098    12.0203     7.8735     2.5062     0.0374     0.0842   138.8255
  183.0000   -53.0084     9.1664     8.6395    11.8189     7.8688     2.5074     0.0357     0.0827   138.3809
  183.5000   -53.0453     9.1571     8.5444    11.4319     7.8641     2.5017     0.0328     0.0860   138.7381
  184.0000   -53.0822     9.1477     8.4614    11.0661     7.8594     2.4960     0.0297     0.0900   137.3522
  184.5000   -53.1190     9.1385     8.3792    11.3840     7.8547     2.4902     0.0267     0.0941   135.0263
  185.0000   -53.1561     9.1284     8.2979    11.5872     7.8499     2.4850     0.0236     0.0957   132.6774
  185.5000   -53.2221     9.1761     8.2173    11.0677     7.8453     2.4865     0.0217     0.0944   131.9176
  186.0000   -53.3523     9.2687     8.1375    11.1697     7.8405     2.4824     0.0238     0.0967   134.1709
  186.5000   -53.4816     9.3623     8.0585    11.1209     7.8390     2.4778     0.0265     0.0996   134.2881
  187.0000   -53.6108     9.4695     7.9803    11.0396     7.8390     2.4732     0.0281     0.1025   133.4252
  187.5000   -53.7455     9.3987     7.9124    10.9667     7.8390     2.4694     0.0297     0.1050   132.2898
  188.0000   -53.7773     9.3176     7.8497    10.7908     7.8389     2.4691     0.0260     0.1062   131.5072
  188.5000   -53.7778     9.2371     7.7876    10.5994     7.8371     2.4747     0.0245     0.1034   133.5697
  189.0000   -53.7774     9.1573     7.7384    10.4101     7.8332     2.4801     0.0290     0.0987   133.9466
  189.5000   -53.7774     9.1284     7.7372    10.3793     7.8294     2.4856     0.0335     0.0939   129.7229
  190.0000   -53.7775     9.2326     7.7355    10.4544     7.8255     2.4913     0.0376     0.0918   125.1211
  190.5000   -53.7726     9.3322     7.8073    10.5259     7.8216     2.4915     0.0360     0.0944   124.1577
  191.0000   -53.7356     9.4329     7.8391    10.5688     7.8177     2.4857     0.0346     0.0974   125.8838
  191.5000   -53.6985     9.5347     7.8652    10.2799     7.8139     2.4793     0.0338     0.1004   128.0950
  192.0000   -53.6616     9.6376     7.8912    10.6454     7.8100     2.4737     0.0358     0.1030   128.2897
  192.5000   -53.6247     9.7416     7.9172    11.0171     7.8063     2.4809     0.0388     0.0993   127.4272
  193.0000   -53.5878     9.8467     7.9432    11.3210     7.8018     2.4891     0.0417     0.0959   126.6661
  193.5000   -53.5508     9.9298     7.9696    11.6940     7.7840     2.4899     0.0411     0.0950   126.7716
  194.0000   -53.5139    10.0215     8.0575    11.2726     7.7790     2.4884     0.0403     0.0958   127.2469
  194.5000   -53.4770    10.1137     8.1461    11.5872     7.7814     2.4875     0.0400     0.0952   128.1522
  195.0000   -53.4400    10.2069     8.2356    11.4575     7.7845     2.4948     0.0421     0.0914   129.6121
  195.5000   -53.4034    10.3007     8.3261    11.1927     7.7789     2.5020     0.0440     0.0875   131.6141
  196.0000   -53.3794    10.3796     8.4177    14.1455     7.7773     2.5086     0.0497     0.0847   133.6364
  196.5000   -53.3798    10.4396     8.5102    12.7504     7.7744     2.5118     0.0556     0.0819   135.1431
  197.0000   -53.3797    10.5164     8.6037    11.7936     7.7714     2.5149     0.0523     0.0792   136.2358
  197.5000   -53.3798    10.5940     8.6983    12.1311     7.7684     2.5106     0.0481     0.0822   135.8533
  198.0000   -53.3796    10.6720     8.7995    12.2429     7.7654     2.5030     0.0439     0.0878   134.9754
  198.5000   -53.3703    10.7506     8.7228    11.6924     7.7624     2.4951     0.0441     0.0926   134.0986
  199.0000   -53.3436    10.7673     8.6421    11.1697     7.7597     2.4934     0.0474     0.0898   133.2195
  199.5000   -53.3172    10.7274     8.5622    11.3080     7.7646     2.5000     0.0507     0.0862   134.5155
  200.0000   -53.2907    10.6991     8.4830    11.4776     7.7699     2.5084     0.0514     0.0823   136.0526
  200.5000   -53.2643    10.6708     8.4046    11.6497     7.7752     2.5060     0.0503     0.0838   135.6761
  201.0000   -53.2378    10.6426     8.3269    11.6940     7.7804     2.4973     0.0467     0.0889   134.7016
  201.5000   -53.2116    10.6145     8.2499    11.4696     7.7857     2.4889     0.0374     0.0942   135.7398
  202.0000   -53.1880    10.5867     8.1768    11.2726     7.7910     2.4887     0.0380     0.0919   135.0504
  202.5000   -53.0663    10.5719     8.1890    11.5102     7.7962     2.4955     0.0408     0.0904   134.4321
  203.0000   -52.9306    10.5799     8.2075    11.7429     7.7918     2.4944     0.0405     0.0929   135.1676
  203.5000   -52.7948    10.6533     8.2261    11.9802     7.7795     2.4883     0.0378     0.0953   135.0878
  204.0000   -52.6593    10.7274     8.2447    12.1311     7.7792     2.4819     0.0351     0.0978   135.3220
  204.5000   -52.5238    10.8020     8.3328    11.5199     7.7858     2.4778     0.0324     0.1002   136.3496
  205.0000   -52.3886    10.8771     8.5325    11.0599     7.7951     2.4737     0.0331     0.1018   135.4498
  205.5000   -52.2531    10.9527     8.7396    11.5704     7.7991     2.4782     0.0354     0.1009   135.7837
  206.0000   -52.0653    11.0289     8.9300    12.1784     7.7992     2.4841     0.0378     0.0978   134.7728
  206.5000   -51.8254    11.1056     9.0925    12.6555     7.7987     2.4899     0.0401     0.0942   130.1278
  207.0000   -51.5867    11.1828     9.2554    12.8243     7.8039     2.4959     0.0417     0.0910   127.4689
  207.5000   -51.3479    11.2606     9.4213    12.9857     7.8141     2.4939     0.0391     0.0917   125.2603
  208.0000   -51.1091    11.2726     9.5913    13.1491     7.8045     2.4889     0.0367     0.0932   123.0673
  208.5000   -50.8703    11.2726     9.8266    13.2966     7.7942     2.4875     0.0343     0.0947   121.0886
  209.0000   -50.6315    11.2726    10.0970    13.2966     7.7840     2.4901     0.0319     0.0947   119.6842
  209.5000   -50.3927    11.4814    10.3750    13.1751     7.7794     2.4880     0.0295     0.0942   118.3136
  210.0000   -50.1539    11.7412    10.6606    13.7238     7.7793     2.4899     0.0271     0.0915   117.0655
  210.5000   -49.9151    12.0111    10.9540    14.0974     7.7793     2.4975     0.0268     0.0889   116.4668
  211.0000   -49.6763    12.2872    11.1697    14.4812     7.7793     2.5051     0.0289     0.0863   118.4826
  211.5000   -49.4369    12.5696    11.4483    14.9807     7.7793     2.5046     0.0309     0.0851   120.3951
  212.0000   -49.1999    12.7080    11.7103    14.0260     7.7793     2.5018     0.0314     0.0862   122.2938
  212.5000   -48.9650    12.7296    11.9783    12.4280     7.7793     2.4962     0.0285     0.0892   121.7663
  213.0000   -48.9594    12.7512    12.2429    11.5872     7.7793     2.4887     0.0257     0.0944   120.4160
  213.5000   -48.6441    12.7729    12.2429    13.4707     7.7793     2.4741     0.0228     0.1024   119.0353
  214.0000   -48.6942    12.7946    12.1025    15.1188     7.7793     2.4599     0.0229     0.1097   117.6472
  214.5000   -48.7960    12.8175    12.0070    14.9380     7.7793     2.4539     0.0244     0.1149   117.0971
  215.0000   -48.8973    12.5845    11.9105    14.7421     7.7793     2.4500     0.0260     0.1160   117.5341
  215.5000   -48.9978    12.5845    11.7040    14.5482     7.7793     2.4462     0.0276     0.1169   118.4360
  216.0000   -49.0983    13.1394    11.5810    14.4406     7.7793     2.4442     0.0252     0.1181   118.6613
  216.5000   -49.1988    13.6699    11.4594    14.5736     7.7793     2.4452     0.0218     0.1182   118.0249
  217.0000   -49.3002    13.6701    11.2660    14.7084     7.7793     2.4441     0.0184     0.1184   117.3901
  217.5000   -49.4001    13.3699    11.2118    14.3584     7.7793     2.4403     0.0159     0.1185   116.3420
  218.0000   -49.3897    13.0560    11.1558    13.7328     7.7793     2.4437     0.0178     0.1199   114.4079
