~VERSION INFORMATION
 VERS.                2.0:   CWLS LOG ASCII STANDARD - VERSION 2.0
 WRAP.                 NO:   ONE LINE PER DEPTH STEP
~WELL INFORMATION
#MNEM.UNIT      DATA TYPE    INFORMATION
#----------   ------------   ------------------------------
 STRT.F           70.0000:   START DEPTH
 STOP.F          806.0000:   STOP DEPTH
 STEP.F            0.5000:   STEP LENGTH
 NULL.          -999.2500:   NO VALUE
 COMP. U S NAVY/INTEX OIL CO:   COMPANY
 WELL. RES 3 TEAPOT DOME #33-S-2:   WELL
 FLD .             TEAPOT:   FIELD
 LOC .       S2 T38N R78W:   LOCATION
 CNTY.            NATRONA:   COUNTY
 STAT.            WYOMING:   STATE
 CTRY. UNITED STATES OF AMERICA:   COUNTRY
 SRVC.         Lane Wells:   SERVICE COMPANY
 DATE.        15-MAR-1980:   LOGDATE
 API .       490250644600:   API NUMBER
~CURVE INFORMATION
#MNEM.UNIT       API CODE    CURVE DESCRIPTION
#----------   ------------   ------------------------------
 DEPT.F                  :   
 GR  .GAPI   30 310 01 00:   GAMMA RAY
 SPR .MV     05 010 01 00:   SPONTANEOUS POTENTIAL FROM RES.
 CILD.MMHO   05 110 46 00:   CONDUCTIVITY INDUCTION LOG DEEP
 ASN .OHMM   05 041 16 00:   AMPLIFIED SHORT NORMAL 16"
 ILD .OHMM   05 120 46 00:   INDUCTION LOG DEEP
~PARAMETER INFORMATION
#MNEM.UNIT          VALUE    DESCRIPTION
#----------   ------------   ------------------------------
 PD  .                 GL:   PERMANENT DATUM
 EPD .F              5119:   ELEVATION PERMANENT DATUM
 LMF .                 KB:   LOG MEASURED FROM
 DAPD.F                 5:   FEET ABOVE PERMANENT DATUM
 DMF .                 KB:   DRILLING MEASURED FROM
 EKB .F              5124:   KELLING BUSHING
 EGL .F              5119:   GROUND LEVEL
 DATE.            3-15-60:   RUN DATE
 RUN .                  1:   RUN NUMBER
 DD  .F               810:   DEPTH DRILLER
 DL  .F               808:   DEPTH LOGGER
 BLI .F               806:   BOTTOM LOG INTERVAL
 TLI .F                70:   TOP LOG INTERVAL
 CS  .IN            8.625:   CASING SIZE
 CBD .F                12:   CASING BOTTOM DRILLER
 BS  .IN            7.875:   BIT SIZE
 BSD .F               810:   BIT SIZE AT DEPTH
 DFT .   GEL/OIL EMULSION:   DRILLING FLUID TYPE
 DFD .                6.8:   DRILLING FLUID DENSITY
 DFV .                 34:   DRILLING FLUID VISCOSITY
 DFPH.                7.6:   DRILLING FLUID PH
 DFL .                9.4:   DRILLING FLUID LOSS
 MSS .           FLOWLINE:   MUD SAMPLE SOURCE
 RMS .OHMM            4.2:   RESISTIVITY MUD SAMPLE
 MST .F                65:   MUD SAMPLE TEMPERATURE
 RMF .OHMM            3.3:   RESISTIVITY MUD FILTRATE SAMPLE
 MFST.F                68:   MUD FILTRATE SAMPLE TEMPERATURE
 RMC .OHMM              4:   RESISTIVITY MUD CAKE
 MCST.F                68:   MUD CAKE SAMPLE TEMPERATURE
 MFSS.                MUD:   MUD FILTRATE SAMPLE SOURCE
 MCSS.              PRESS:   MUD CAKE SAMPLE SOURCE
 RMB .OHMM            3.9:   RESISTIVITY MUD AT BHT
 BHT .F                71:   BOTTOM HOLE TEMPERATURE
 MRT .F                71:   MAXIMUM RECORDED TEMPERATURE
 LUN .             L-4474:   LOGGING UNIT NUMBER
 LUL .             CASPER:   LOGGING UNIT LOCATION
 ENGI.      GRIGGS/NELSON:   RECORDING ENGINEER
 WITN.   JORGENSEN/HUDSON:   WITNESSED BY
 CLNT.            A2DTECH:   CLIENT CODE
 ORIG. 1", 2.5", 5" PRINT:   ORIGIN OF DATA
 UWI .       490250644600:   UNIQUE WELL ID
 DICO. A2D Technologies, Inc.:   DIGITIZING COMPANY
~OTHER INFORMATION
~A   DEPT       GR        SPR        CILD         ASN        ILD 
# ...
  741.0000    52.1939   -31.0200   118.6624    12.9549    10.5839
  741.5000    55.9826   -31.0454   118.7929    12.8655    10.5299
  742.0000    63.9174   -31.0153   118.9233    12.7758    10.4735
  742.5000    75.1329   -30.8981   119.0538    12.6865    10.4262
  743.0000    63.0131   -30.7664   119.1842    12.5958    10.3990
  743.5000    65.8846   -30.6910   119.3147    12.5038    10.3927
  744.0000    68.0276   -30.6646   119.4451    12.4183    10.3962
  744.5000    69.3478   -30.6588   119.5756    12.3518    10.3981
  745.0000    69.8871   -30.6783   119.7061    12.3105    10.3963
  745.5000    70.7290   -30.6997   119.8365    12.2876    10.3952
  746.0000    55.0758   -30.6369   119.9670    12.2642    10.3971
  746.5000    55.2229   -30.4697   120.0974    12.2281    10.3989
  747.0000    60.6910   -30.3438   120.2279    12.1933    10.3946
  747.5000    56.3048   -30.4086   120.3584    12.1908    10.3796
  748.0000    51.7161   -30.5875   120.4888    12.2353    10.3560
  748.5000    47.4474   -30.6518   120.6193    12.3131    10.3303
  749.0000    47.5148   -30.5206   120.7497    12.4011    10.3063
  749.5000    53.2472   -30.3471   120.8802    12.4770    10.2828
  750.0000    59.3804   -30.2870   121.0106    12.5151    10.2584
  750.5000    62.9611   -30.3149   121.1411    12.5011    10.2338
  751.0000    55.9486   -30.3200   121.2716    12.4517    10.2097
  751.5000    59.4325   -30.2674   121.4731    12.3991    10.1856
  752.0000    63.2545   -30.1961   122.4159    12.3565    10.1613
  752.5000    53.6222   -30.1332   124.0064    12.3146    10.1370
  753.0000    59.0080   -30.0788   125.4333    12.2672    10.1128
  753.5000    66.2047   -30.0255   127.0387    12.2196    10.0884
  754.0000    70.5928   -29.9663   128.5173    12.1758    10.0642
  754.5000    73.3627   -29.9265   128.4108    12.1324    10.0402
  755.0000    69.3522   -29.9536   128.1193    12.0853    10.0158
  755.5000    69.9420   -30.0059   127.9868    12.0378     9.9912
  756.0000    83.3559   -29.9256   127.7171    11.9950     9.9672
  756.5000    80.7686   -29.6426   127.5587    11.9529     9.9438
  757.0000    76.0261   -29.3472   127.3157    11.9022     9.9189
  757.5000    69.3151   -29.3064   127.1328    11.8514     9.8923
  758.0000    57.2634   -29.5397   126.9096    11.8314     9.8672
  758.5000    59.8210   -29.8076   126.7132    11.8621     9.8455
  759.0000    62.8481   -29.8934   126.5026    11.9220     9.8257
  759.5000    56.7503   -29.7710   126.2966    11.9747     9.8044
  760.0000    57.9383   -29.5142   126.0906    12.0131     9.7816
  760.5000    51.2323   -29.1971   125.8846    12.0607     9.7591
  761.0000    51.1520   -28.9343   125.6786    12.1244     9.7377
  761.5000    58.6650   -28.8799   125.4726    12.1641     9.7160
  762.0000    70.9606   -29.0509   125.2666    12.1235     9.6934
  762.5000    64.0902   -29.2099   125.0000    12.0048     9.6709
  763.0000    67.7205   -29.0796   125.7109    11.8897     9.6497
  763.5000    71.7420   -28.6981   126.7180    11.8250     9.6285
  764.0000    63.1024   -28.4247   127.7251    11.7339     9.6053
  764.5000    62.9031   -28.5306   128.7322    11.5642     9.5824
  765.0000    61.5168   -28.8970   129.7393    11.4427     9.5634
  765.5000    63.1332   -29.1945   130.7464    11.4594     9.5425
  766.0000    65.7141   -29.2586   131.7536    11.3858     9.5017
  766.5000    71.1744   -29.1810   132.7607    10.9323     9.4256
  767.0000    72.7079   -29.1016   133.7769    10.2433     9.3198
  767.5000    68.6506   -29.0525   134.7083     9.7722     9.2078
  768.0000    82.1145   -29.0054   135.6615     9.6711     9.1073
  768.5000    77.7129   -28.9496   137.6801     9.6677     9.0169
  769.0000    75.0732   -28.8770   139.6143     9.5442     8.9284
  769.5000    82.8948   -28.7614   141.4213     9.3797     8.8392
  770.0000    88.7418   -28.5925   143.3630     9.2861     8.7438
  770.5000    96.5811   -28.3899   145.1878     9.2156     8.6261
  771.0000    99.3670   -28.1760   147.1262     9.0910     8.4683
  771.5000    68.3071   -27.9751   148.9389     8.9125     8.2637
  772.0000    83.1083   -27.8341   150.9097     8.7009     8.0243
  772.5000    52.7923   -27.7834   152.7191     8.4655     7.7833
  773.0000    64.6361   -27.7953   154.6683     8.2304     7.5714
  773.5000    70.9385   -27.8118   157.0230     8.0068     7.3751
  774.0000    71.1700   -27.8060   161.7781     7.7571     7.1436
  774.5000    70.0298   -27.7926   168.2888     7.4498     6.8571
  775.0000  -999.2500   -27.7949   174.7630     7.1070     6.5550
  775.5000  -999.2500   -27.8127   186.2990     6.7785     6.2729
  776.0000  -999.2500   -27.8130   197.8350     6.4387     6.0023
  776.5000  -999.2500   -27.7847   209.3710     5.9864     5.7497
  777.0000  -999.2500   -27.7847   224.5261     5.3978     5.5862
  777.5000  -999.2500   -27.8368   224.5261     4.8505     5.5805
  778.0000  -999.2500   -27.7868   221.1747     4.6261     5.7132
  778.5000  -999.2500   -27.4453   217.4171     4.8542     5.9082
  779.0000  -999.2500   -26.9645   217.4171     5.3927     6.1225
  779.5000  -999.2500   -26.8416   202.1650     6.0463     6.3591
  780.0000  -999.2500   -27.3176   188.9810     6.7742     6.6199
  780.5000  -999.2500   -27.9454   175.7971     7.5254     6.8935
  781.0000  -999.2500   -28.0722   160.5450     8.0625     7.1714
  781.5000  -999.2500   -27.6456   158.7109     8.2748     7.4434
  782.0000  -999.2500   -27.2064   156.5356     8.3710     7.6988
  782.5000  -999.2500   -27.1645   154.1701     8.5159     7.9427
  783.0000  -999.2500   -27.4419   152.3840     8.6515     8.1845
  783.5000  -999.2500   -27.7755   149.8215     8.7745     8.4034
  784.0000  -999.2500   -28.0015   147.9513     8.9136     8.5728
  784.5000  -999.2500   -28.0490   145.5172     9.0165     8.7109
  785.0000  -999.2500   -27.9619   143.4956     9.1946     8.8566
  785.5000  -999.2500   -27.9269   141.2219     9.4944     9.0098
  786.0000  -999.2500   -28.0651   139.1828     9.5951     9.1549
  786.5000  -999.2500   -28.2668   137.4774     9.6090     9.3112
  787.0000  -999.2500   -28.3868   135.8637    10.2697     9.4923
  787.5000  -999.2500   -28.4473   134.2648    11.4453     9.6466
  788.0000  -999.2500   -28.4894   132.6370    12.0770     9.7100
  788.5000  -999.2500   -28.4282   131.0505    12.0164     9.6963
  789.0000  -999.2500   -28.2560   129.4074    12.0375     9.6756
  789.5000  -999.2500   -28.2028   127.8227    12.2914     9.6892
  790.0000  -999.2500   -28.4770   126.2060    12.4308     9.7323
  790.5000  -999.2500   -28.9373   124.5874    12.4864     9.7935
  791.0000  -999.2500   -29.2148   122.9689    12.5761     9.8649
  791.5000  -999.2500   -29.1439   121.4455    12.6192     9.9329
  792.0000  -999.2500   -28.9391   121.4455    12.6327     9.9949
  792.5000  -999.2500   -28.9151   121.4455    12.6805    10.0673
  793.0000  -999.2500   -29.1332   121.4455    12.7080    10.1492
  793.5000  -999.2500   -29.4057   121.4455    12.6888    10.2017
  794.0000  -999.2500   -29.5706   121.4455    12.6669    10.1915
  794.5000  -999.2500   -29.6210   121.4455    12.6569    10.1356
  795.0000  -999.2500   -29.5884   122.2986    12.6395    10.0770
  795.5000  -999.2500   -29.4695   123.0237    12.6218    10.0307
  796.0000  -999.2500   -29.3211   123.7488    12.6105     9.9825
  796.5000  -999.2500   -29.2975   124.4739    12.5931     9.9282
  797.0000  -999.2500   -29.5033   125.1991    12.5699     9.8789
  797.5000  -999.2500   -29.8287   125.9242    12.5662     9.8328
  798.0000  -999.2500   -29.9841   126.6493    12.5365     9.7765
  798.5000  -999.2500   -29.7765   127.3744    12.5330     9.7203
  799.0000  -999.2500   -29.4008   128.0995    12.5202     9.7007
  799.5000  -999.2500   -29.3206   128.5545    12.4378     9.7346
  800.0000  -999.2500   -29.7135   127.7889    12.3505     9.7961
  800.5000  -999.2500   -30.1864   127.2311    12.3749     9.8517
  801.0000  -999.2500   -30.2788   126.6733    12.3698     9.8985
  801.5000  -999.2500   -30.0747   126.1156    11.9555     9.9496
