~VERSION INFORMATION
 VERS.                2.0:   CWLS LOG ASCII STANDARD - VERSION 2.0
 WRAP.                 NO:   ONE LINE PER DEPTH STEP
~WELL INFORMATION
#MNEM.UNIT      DATA TYPE    INFORMATION
#----------   ------------   ------------------------------
 STRT.F           32.0000:   START DEPTH
 STOP.F          502.0000:   STOP DEPTH
 STEP.F            0.5000:   STEP LENGTH
 NULL.          -999.2500:   NO VALUE
 COMP.    FENIX & SCISSON:   COMPANY
 WELL. NPR # #3 65-36-SX-3-FP:   WELL
 FLD .             TEAPOT:   FIELD
 LOC .       S3 T38N R78W:   LOCATION
 CNTY.            NATRONA:   COUNTY
 STAT.            WYOMING:   STATE
 CTRY. UNITED STATES OF AMERICA:   COUNTRY
 SRVC.              Welex:   SERVICE COMPANY
 DATE.        15-JUN-1980:   LOGDATE
 API .       490251082600:   API NUMBER
~CURVE INFORMATION
#MNEM.UNIT       API CODE    CURVE DESCRIPTION
#----------   ------------   ------------------------------
 DEPT.F                  :   
 CALD.IN     45 280 60 00:   CALIPER FROM DENSITY LOG
 CORR.G/C3   45 356 01 00:   DENSITY CORRECTION
 DPHI.DEC    45 890 12 00:   DENSITY POROSITY SANDSTONE
 GRD .GAPI   45 310 01 00:   GAMMA RAY FROM DENSITY LOG
 RHOB.G/C3   45 350 01 00:   BULK DENSITY
 NPHI.DEC    42 890 03 00:   NEUTRON POROSITY SANDSTONE
 ILD .OHMM   07 120 46 00:   INDUCTION LOG DEEP
 ILM .OHMM   07 120 44 00:   INDUCTION LOG MEDIUM
 SGRD.OHMM   07 220 05 00:   SHALLOW GUARD RESISTIVITY
 SPR .MV     07 010 01 00:   SPONTANEOUS POTENTIAL FROM RES.
~PARAMETER INFORMATION
#MNEM.UNIT          VALUE    DESCRIPTION
#----------   ------------   ------------------------------
 PD  .                 GL:   PERMANENT DATUM
 EPD .F              5159:   ELEVATION PERMANENT DATUM
 LMF .                 KB:   LOG MEASURED FROM
 DAPD.F                 5:   FEET ABOVE PERMANENT DATUM
 DMF .                 KB:   DRILLING MEASURED FROM
 EKB .F              5164:   KELLING BUSHING
 EGL .F              5159:   GROUND LEVEL
 DATE.            6-15-80:   RUN DATE
 RUN .                  1:   RUN NUMBER
 DD  .F               505:   DEPTH DRILLER
 DL  .F               504:   DEPTH LOGGER
 BLI .F               502:   BOTTOM LOG INTERVAL
 TLI .F                30:   TOP LOG INTERVAL
 BS  .IN            9.875:   BIT SIZE
 BSD .F               505:   BIT SIZE AT DEPTH
 DFT .             2% KCL:   DRILLING FLUID TYPE
 DFD .                9.4:   DRILLING FLUID DENSITY
 DFV .                 51:   DRILLING FLUID VISCOSITY
 DFPH.                 12:   DRILLING FLUID PH
 DFL .                5.6:   DRILLING FLUID LOSS
 MSS .           FLOWLINE:   MUD SAMPLE SOURCE
 RMS .OHMM            .36:   RESISTIVITY MUD SAMPLE
 MST .F                65:   MUD SAMPLE TEMPERATURE
 RMF .OHMM            .29:   RESISTIVITY MUD FILTRATE SAMPLE
 MFST.F                65:   MUD FILTRATE SAMPLE TEMPERATURE
 RMC .OHMM            .42:   RESISTIVITY MUD CAKE
 MCST.F                65:   MUD CAKE SAMPLE TEMPERATURE
 MFSS.           MEASURED:   MUD FILTRATE SAMPLE SOURCE
 MCSS.           MEASURED:   MUD CAKE SAMPLE SOURCE
 RMB .OHMM            .32:   RESISTIVITY MUD AT BHT
 BHT .F                74:   BOTTOM HOLE TEMPERATURE
 TCS .HRS               2:   TIME CURCULATED STOPPED
 MRT .F                74:   MAXIMUM RECORDED TEMPERATURE
 LUN .               1892:   LOGGING UNIT NUMBER
 LUL .             CASPER:   LOGGING UNIT LOCATION
 ENGI.               REIN:   RECORDING ENGINEER
 WITN.              AMEND:   WITNESSED BY
 CLNT.            A2DTECH:   CLIENT CODE
 ORIG.       2", 5" PRINT:   ORIGIN OF DATA
 UWI .       490251082600:   UNIQUE WELL ID
 DICO. A2D Technologies, Inc.:   DIGITIZING COMPANY
~OTHER INFORMATION
~A   DEPT     CALD       CORR       DPHI        GRD       RHOB       NPHI         ILD         ILM       SGRD      SPR   
# ...
  300.0000     9.9412     0.2031     0.1363    78.8254     2.4110     0.2703    31.3229    17.0674    21.7240   -42.3367
  300.5000     9.9444     0.1920     0.1380    77.4989     2.4252     0.2685    34.0789    17.0604    21.0276   -42.6478
  301.0000     9.9475     0.1694     0.1344    76.1724     2.4103     0.2726    35.1865    19.9853    20.1134   -42.9741
  301.5000     9.9507     0.1635     0.1361    75.4130     2.4164     0.2776    27.4464    22.4630    19.7089   -43.2612
  302.0000     9.9538     0.1606     0.1286    75.1384     2.4284     0.2815    21.7061    23.0835    19.9786   -43.8276
  302.5000     9.9570     0.1502     0.1330    76.4062     2.4195     0.2837    20.1170    23.0757    20.6726   -44.3979
  303.0000     9.9601     0.1186     0.1453    78.1534     2.3963     0.2850    18.3889    23.0665    21.3920   -44.3952
  303.5000     9.9633     0.0855     0.1464    79.6451     2.3941     0.2843    17.7623    23.0590    21.6833   -44.3925
  304.0000     9.9664     0.0795     0.1365    81.6654     2.4024     0.2824    17.3731    22.7358    21.6762   -44.3891
  304.5000     9.9696     0.0948     0.1406    82.2642     2.4110     0.2793    16.1210    22.4171    21.6705   -44.2431
  305.0000     9.9780     0.0858     0.1433    83.1580     2.4055     0.2757    15.8972    22.2540    21.5160   -43.9539
  305.5000     9.9790     0.0875     0.1411    84.1992     2.3929     0.2748    15.7856    22.2468    21.5103   -43.8079
  306.0000     9.9799     0.0982     0.1309    84.5030     2.4169     0.2751    16.0009    22.2395    21.5034   -43.3754
  306.5000     9.9778     0.1073     0.1299    84.3621     2.4274     0.2732    16.2198    22.2322    21.4977   -42.9422
  307.0000     9.9671     0.0953     0.1353    82.8981     2.4170     0.2666    16.1044    22.3787    21.4925   -42.7963
  307.5000     9.9684     0.0957     0.1364    81.4320     2.4081     0.2701    16.1013    22.3696    21.4866   -42.7936
  308.0000     9.9694     0.1019     0.1370    80.5558     2.4081     0.2748    15.8777    22.3623    21.4807   -42.7908
  308.5000     9.9851     0.0982     0.1402    80.2674     2.4067     0.2745    15.9844    22.6672    21.4738   -42.7875
  309.0000     9.9898     0.0941     0.1450    81.1634     2.3985     0.2747    16.3144    22.8147    21.3207   -42.9287
  309.5000    10.0020     0.0947     0.1458    82.4996     2.3926     0.2765    16.8833    22.9650    21.3152   -43.2118
  310.0000    10.0029     0.1059     0.1422    84.8683     2.3942     0.2836    16.8800    23.1163    21.3096   -43.7822
  310.5000    10.0040     0.1222     0.1418    83.4021     2.4032     0.2854    16.8767    23.1069    21.4500   -43.6355
  311.0000    10.0051     0.1326     0.1453    81.4935     2.4025     0.2853    16.8725    22.7830    22.1964   -43.3463
  311.5000     9.9765     0.1312     0.1489    80.9102     2.3979     0.2853    17.3409    22.2909    23.1278   -43.6301
  312.0000     9.9481     0.1281     0.1578    84.1660     2.3823     0.2849    18.0697    20.8147    23.9326   -43.9139
  312.5000     9.8901     0.1236     0.1593    85.0597     2.3680     0.2849    18.9593    19.0242    24.4403   -44.0545
  313.0000     9.8912     0.1210     0.1622    85.3635     2.3646     0.2845    19.6349    16.9147    24.7590   -44.3383
  313.5000     9.8774     0.1272     0.1655    85.9623     2.3637     0.2839    21.1610    15.5667    24.5809   -44.9080
  314.0000     9.7752     0.1255     0.1705    86.8560     2.3548     0.2928    21.5989    15.3472    24.4056   -45.1925
  314.5000     9.7319     0.1075     0.1726    85.8324     2.3423     0.2948    21.8945    15.3422    24.0651   -45.0454
  315.0000     9.7183     0.0958     0.1710    84.5137     2.3431     0.2963    21.7398    15.5501    23.0824   -44.4694
  315.5000     9.7193     0.1095     0.1653    83.0476     2.3451     0.2950    20.9990    16.2015    22.4487   -43.8936
  316.0000     9.6897     0.1111     0.1715    82.7611     2.3612     0.2914    20.1433    16.8896    22.1356   -43.3178
  316.5000     9.6771     0.1022     0.1727    83.0652     2.3463     0.2928    19.7271    18.0776    22.1298   -43.1719
  317.0000     9.6634     0.0978     0.1660    84.2539     2.3396     0.2940    18.6649    18.8365    21.8210   -42.7173
  317.5000     9.6792     0.0964     0.1618    86.6226     2.3457     0.2942    17.2905    19.2222    21.8139   -42.3062
  318.0000     9.6950     0.1040     0.1540    87.0738     2.3712     0.2882    16.5934    19.2160    21.6584   -42.1602
  318.5000     9.7257     0.1329     0.1434    86.9351     2.3825     0.2860    16.2506    19.2095    21.6527   -42.1575
  319.0000     9.7857     0.1285     0.1457    86.2025     2.3945     0.2835    15.4820    19.0699    21.4985   -42.5846
  319.5000     9.8458     0.1105     0.1440    85.1770     2.4005     0.2802    15.0579    18.9327    21.4925   -43.2975
  320.0000     9.9353     0.1015     0.1435    82.5367     2.4111     0.2693    14.6454    18.7965    21.4857   -43.4384
  320.5000     9.9658     0.1062     0.1515    83.2969     2.3954     0.2684    14.2436    18.7877    21.4800   -43.4525
  321.0000     9.9963     0.0700     0.1570    83.8817     2.3820     0.2647    14.1433    18.6548    21.1804   -43.4327
  321.5000    10.0269     0.0611     0.1621    82.6893     2.3679     0.2634    14.2388    18.7781    20.8849   -43.4293
  322.0000    10.0279     0.0567     0.1642    81.6618     2.3559     0.2625    14.5354    18.7704    20.7346   -43.2833
  322.5000    10.0288     0.0568     0.1682    81.1058     2.3560     0.2619    15.4592    18.6354    20.7292   -43.1373
  323.0000    10.0299     0.0569     0.1706    80.9670     2.3576     0.2600    16.2204    18.7581    20.8671   -42.9913
  323.5000    10.0162     0.0389     0.1762    80.9780     2.3561     0.2588    16.4431    18.7505    20.8617   -43.1319
  324.0000    10.0172     0.0239     0.1788    81.1343     2.3188     0.2575    15.6646    18.7444    21.0005   -43.7016
  324.5000    10.0034     0.0241     0.1800    81.7331     2.3203     0.2575    15.4350    18.7382    20.9936   -43.8421
  325.0000    10.0044     0.0272     0.1745    82.7743     2.3256     0.2571    15.3372    18.7321    20.8439   -43.9834
  325.5000    10.0056     0.0470     0.1616    86.7654     2.3346     0.2562    15.4403    18.8555    20.6953   -43.9799
  326.0000    10.0067     0.0652     0.1594    88.8391     2.3706     0.2549    15.4373    18.8478    20.2664   -43.9766
  326.5000    10.0075     0.0819     0.1630    88.9954     2.3684     0.2546    15.4342    18.8417    20.2609   -43.6874
  327.0000    10.0086     0.0700     0.1719    88.7092     2.3595     0.2548    15.4304    18.9660    20.2545   -43.3981
  327.5000    10.0097     0.0429     0.1737    87.6855     2.3409     0.2574    15.4274    18.8292    20.3906   -43.1089
  328.0000    10.0255     0.0339     0.1691    86.5144     2.3387     0.2586    15.4244    18.5640    20.1048   -41.0998
  328.5000    10.0265     0.0356     0.1601    84.1633     2.3567     0.2585    15.4214    18.0531    19.5506   -41.5268
  329.0000    10.0275     0.0493     0.1501    82.8447     2.3702     0.2582    15.7506    17.3160    19.1464   -41.9546
  329.5000    10.0285     0.0812     0.1429    81.3785     2.4122     0.2572    16.2886    16.6089    19.0098   -42.5243
  330.0000    10.0295     0.0767     0.1365    81.2376     2.4168     0.2578    16.2854    16.0396    19.1376   -43.1136
  330.5000    10.0306     0.0723     0.1345    81.8386     2.4108     0.2586    15.4085    15.9242    20.0772   -43.5211
  331.0000    10.0316     0.0936     0.1409    83.6173     2.4236     0.2583    14.9865    15.9190    20.7759   -43.6619
  331.5000    10.0474     0.0771     0.1472    85.6910     2.4095     0.2579    14.7777    15.9138    20.7691   -43.8028
  332.0000    10.0484     0.0712     0.1507    87.6172     2.3811     0.2555    14.6733    15.7992    19.1151   -43.6562
  332.5000    10.0199     0.0683     0.1486    88.0662     2.3796     0.2593    14.4695    15.7928    17.5928   -43.2230
  333.0000    10.0062     0.0714     0.1458    87.1923     2.3834     0.2604    14.1705    15.5715    16.9922   -43.0770
