~VERSION INFORMATION
 VERS.                2.0:   CWLS LOG ASCII STANDARD - VERSION 2.0
 WRAP.                 NO:   ONE LINE PER DEPTH STEP
~WELL INFORMATION
#MNEM.UNIT      DATA TYPE    INFORMATION
#----------   ------------   ------------------------------
 STRT.F           20.0000:   START DEPTH
 STOP.F          964.0000:   STOP DEPTH
 STEP.F            0.5000:   STEP LENGTH
 NULL.          -999.2500:   NO VALUE
 COMP. FENIX & SCISSON INC:   COMPANY
 WELL.    NPR-3 SX #58-11:   WELL
 FLD .             TEAPOT:   FIELD
 LOC .      S11 T38N R78W:   LOCATION
 CNTY.            NATRONA:   COUNTY
 STAT.            WYOMING:   STATE
 CTRY. UNITED STATES OF AMERICA:   COUNTRY
 SRVC.            Unknown:   SERVICE COMPANY
 DATE.        09-MAR-1978:   LOGDATE
 API .       490251060100:   API NUMBER
~CURVE INFORMATION
#MNEM.UNIT       API CODE    CURVE DESCRIPTION
#----------   ------------   ------------------------------
 DEPT.F                  :   
 SPR .MV     05 010 01 00:   SPONTANEOUS POTENTIAL FROM RES.
 SN  .OHMM   05 040 16 00:   SHORT NORMAL 16"
 ILD .OHMM   05 120 46 00:   INDUCTION LOG DEEP
 CALD.IN     45 280 60 00:   CALIPER
 GRD .GAPI   45 310 01 00:   GAMMA RAY FROM DENSITY LOG
 CORR.G/C3   45 356 01 00:   DENSITY CORRECTION
 RHOB.G/C3   45 350 01 00:   BULK DENSITY
 DPHI.DEC    45 890 12 00:   DENSITY POROSITY SANDSTONE
~PARAMETER INFORMATION
#MNEM.UNIT          VALUE    DESCRIPTION
#----------   ------------   ------------------------------
 PD  .                 GL:   PERMANENT DATUM
 EPD .F              5219:   ELEVATION PERMANENT DATUM
 LMF .                 KB:   LOG MEASURED FROM
 DAPD.F                 4:   FEET ABOVE PERMANENT DATUM
 DMF .                 KB:   DRILLING MEASURED FROM
 EKB .F              5223:   KELLING BUSHING
 EGL .F              5219:   GROUND LEVEL
 DATE.           3-9-1978:   RUN DATE
 RUN .                  1:   RUN NUMBER
 DD  .F               963:   DEPTH DRILLER
 DL  .F               966:   DEPTH LOGGER
 BLI .F               960:   BOTTOM LOG INTERVAL
 TLI .F                80:   TOP LOG INTERVAL
 CS  .IN            8.625:   CASING SIZE
 CBD .F                40:   CASING BOTTOM DRILLER
 BS  .IN            7.875:   BIT SIZE
 BSD .F               963:   BIT SIZE AT DEPTH
 DFT .         LIGNO SULF:   DRILLING FLUID TYPE
 DFD .                8.6:   DRILLING FLUID DENSITY
 DFV .                 30:   DRILLING FLUID VISCOSITY
 DFPH.               10.5:   DRILLING FLUID PH
 DFL .                4.8:   DRILLING FLUID LOSS
 MSS .          FLOW LINE:   MUD SAMPLE SOURCE
 RMS .OHMM            1.7:   RESISTIVITY MUD SAMPLE
 MST .F                60:   MUD SAMPLE TEMPERATURE
 RMF .OHMM            1.5:   RESISTIVITY MUD FILTRATE SAMPLE
 MFST.F                74:   MUD FILTRATE SAMPLE TEMPERATURE
 RMC .OHMM            2.8:   RESISTIVITY MUD CAKE
 MCST.F                68:   MUD CAKE SAMPLE TEMPERATURE
 MFSS.               MEAS:   MUD FILTRATE SAMPLE SOURCE
 MCSS.               MEAS:   MUD CAKE SAMPLE SOURCE
 RMB .OHMM           1.38:   RESISTIVITY MUD AT BHT
 BHT .F                74:   BOTTOM HOLE TEMPERATURE
 TCS .HRS               4:   TIME CURCULATED STOPPED
 MRT .F                74:   MAXIMUM RECORDED TEMPERATURE
 LUN .               2958:   LOGGING UNIT NUMBER
 LUL .               CASP:   LOGGING UNIT LOCATION
 ENGI.             MILLER:   RECORDING ENGINEER
 WITN.         HARRINGTON:   WITNESSED BY
 CLNT.            A2DTECH:   CLIENT CODE
 ORIG.      2" , 5" PRINT:   ORIGIN OF DATA
 UWI .       490251060100:   UNIQUE WELL ID
 DICO. A2D Technologies, Inc.:   DIGITIZING COMPANY
~OTHER INFORMATION
~A   DEPT      SPR         SN        ILD       CALD         GRD      CORR       RHOB       DPHI   
# ...
  789.5000   -24.2485     8.7239     7.9401     7.9400    89.1472     0.0229     2.4593     0.1417
  790.0000   -24.1475     8.6162     7.2395     7.9399    96.3689     0.0329     2.4327     0.1636
  790.5000   -24.0487     8.5491     6.4137     7.9406   100.0129     0.0598     2.4014     0.1488
  791.0000   -23.9468     8.0138     5.6480     7.9346    99.4115     0.0641     2.3898     0.1333
  791.5000   -23.8443     6.6858     5.1095     7.9248    93.9732     0.0347     2.4040     0.1178
  792.0000   -23.7425     5.5263     4.7747     7.9157    84.5820     0.0070     2.4516     0.1023
  792.5000   -23.6839     5.2394     4.7923     7.9067    75.5960     0.0055     2.4979     0.0869
  793.0000   -23.9419     5.2394     4.8160     7.8985    73.0676     0.0041     2.5285     0.0839
  793.5000   -24.2004     5.2394     4.8396     7.8930    78.0147     0.0100     2.5189     0.0859
  794.0000   -24.4839     6.1708     4.8625     7.8873    80.3569     0.0168     2.5127     0.0865
  794.5000   -25.4864     8.2390     5.0199     7.8817    81.0495     0.0159     2.5180     0.0841
  795.0000   -26.1083     8.6629     5.5070     7.8761    81.2935     0.0154     2.5213     0.0841
  795.5000   -26.2323     9.2268     6.5200     7.8704    81.6251     0.0148     2.5204     0.0835
  796.0000   -25.9468     9.8185     7.7191     7.8648    85.7085     0.0142     2.5191     0.0831
  796.5000   -25.6581     9.8558     8.6977     7.8592    87.8202     0.0135     2.5178     0.0855
  797.0000   -25.7219     9.9036     8.9643     7.8536    83.2604     0.0129     2.5169     0.0880
  797.5000   -25.8439     9.9508     8.5610     7.8479    82.7271     0.0122     2.5127     0.0910
  798.0000   -25.7894     9.9974     8.1632     7.8423    81.5458     0.0116     2.5043     0.0939
  798.5000   -25.6864    10.0440     8.1632     7.8367    79.0665     0.0110     2.4966     0.0969
  799.0000   -25.5829    10.0972     8.1632     7.8311    76.9726     0.0103     2.4882     0.1031
  799.5000   -25.4717    10.0938     8.1632     7.8255    76.7573     0.0098     2.4793     0.1197
  800.0000   -25.6345    10.3571     8.1632     7.8198    76.3646     0.0091     2.4541     0.1361
  800.5000   -25.8911    10.5628     8.2390     7.8142    74.3885     0.0142     2.4297     0.1575
  801.0000   -26.1475    10.7738     8.5976     7.8086    71.4909     0.0211     2.4000     0.1788
  801.5000   -26.4081    10.9760     9.0229     7.8030    63.9794     0.0253     2.3644     0.2002
  802.0000   -27.4978    12.1696     9.4694     7.7973    54.2105     0.0259     2.3198     0.2221
  802.5000   -28.7238    13.4290    10.4137     7.7917    39.5271     0.0398     2.2757     0.2439
  803.0000   -30.4785    15.1392    11.7711     7.7861    41.5461     0.0512     2.2414     0.2543
  803.5000   -32.9852    17.2983    13.3053     7.7805    40.7422     0.0643     2.2388     0.2447
  804.0000   -35.4760    19.7654    15.0396     7.7748    40.7534     0.0663     2.2525     0.2161
  804.5000   -37.6133    22.4062    17.0933     7.7692    40.8497     0.0605     2.3204     0.1977
  805.0000   -39.1338    25.4298    18.3519     7.7636    40.6818     0.0556     2.3569     0.1700
  805.5000   -39.6596    25.4298    19.7772     7.7579    40.7020     0.0509     2.3683     0.1714
  806.0000   -39.1968    24.9689    20.5712     7.7522    40.5121     0.0465     2.3767     0.1750
  806.5000   -38.7911    23.5516    19.7349     7.7470    41.8687     0.0420     2.3615     0.1777
  807.0000   -38.3555    22.0358    18.6598     7.7397    45.3035     0.0425     2.3613     0.1795
  807.5000   -37.7419    20.7401    17.5628     7.7489    48.4428     0.0461     2.3603     0.1786
  808.0000   -36.6808    19.5205    16.5301     7.7730    50.0547     0.0483     2.3631     0.1763
  808.5000   -35.1748    18.5512    15.5581     7.7964    50.1053     0.0447     2.3669     0.1740
  809.0000   -34.9731    17.7269    14.7446     7.8200    49.9979     0.0412     2.3708     0.1717
  809.5000   -35.1049    16.9361    14.3168     7.8436    49.8574     0.0443     2.3747     0.1693
  810.0000   -35.0271    16.5122    13.9063     7.8668    49.6963     0.0481     2.3775     0.1683
  810.5000   -34.0363    16.0972    13.5076     7.8912    50.8601     0.0525     2.3926     0.1537
  811.0000   -33.3095    15.6926    13.1204     7.9008    53.5093     0.0401     2.4224     0.1390
  811.5000   -32.6339    15.2983    12.7186     7.8999    55.4125     0.0256     2.4492     0.1377
  812.0000   -30.9013    14.8814    12.6275     7.9000    54.1325     0.0175     2.4422     0.1360
  812.5000   -30.0974    14.6766    12.5034     7.9001    52.2858     0.0178     2.4335     0.1342
  813.0000   -30.3817    14.4560    12.3804     7.9000    51.3690     0.0188     2.4379     0.1358
  813.5000   -30.6343    14.2386    12.2587     7.9000    56.2273     0.0200     2.4378     0.1330
  814.0000   -30.3979    14.1622    12.1445     7.9000    59.4221     0.0211     2.4366     0.1302
  814.5000   -29.9345    14.0909    12.1445     7.9000    60.5379     0.0222     2.4378     0.1318
  815.0000   -29.4688    13.7776    12.1445     7.9000    60.7884     0.0233     2.4421     0.1245
  815.5000   -29.0735    13.5665    12.1445     7.9000    58.4084     0.0244     2.4505     0.1143
  816.0000   -29.6237    13.9761    12.1445     7.9000    55.7828     0.0255     2.4600     0.1193
  816.5000   -29.5721    14.7434    12.1445     7.9000    53.0678     0.0267     2.4688     0.1276
  817.0000   -29.4650    14.6831    12.1307     7.9000    54.1940     0.0277     2.4515     0.1342
  817.5000   -29.8810    14.5182    12.0440     7.9000    56.5684     0.0286     2.4351     0.1428
  818.0000   -30.9595    14.3416    11.9578     7.9000    57.3625     0.0261     2.4139     0.1485
  818.5000   -32.0100    14.0417    11.8723     7.9000    57.0816     0.0234     2.4112     0.1501
  819.0000   -31.8504    13.8115    11.8126     7.9000    57.0197     0.0207     2.4087     0.1481
  819.5000   -31.6006    13.5851    11.8126     7.9000    58.3245     0.0178     2.4146     0.1461
  820.0000   -31.3523    13.3625    11.8126     7.9000    59.3541     0.0181     2.4194     0.1492
  820.5000   -31.1037    13.1974    11.8126     7.9000    67.3665     0.0209     2.4116     0.1511
  821.0000   -30.8484    13.2661    11.8126     7.9000    65.8483     0.0234     2.4034     0.1511
  821.5000   -30.8595    13.3215    11.8126     7.9000    61.6513     0.0258     2.4158     0.1487
  822.0000   -30.8938    12.9879    11.8126     7.9000    59.6607     0.0284     2.4112     0.1539
  822.5000   -30.9272    12.5999    11.8126     7.9000    59.4428     0.0308     2.4012     0.1547
  823.0000   -30.9601    12.6229    11.8126     7.9000    59.5209     0.0326     2.3970     0.1541
  823.5000   -30.9934    12.7510    11.8126     7.9000    59.5827     0.0308     2.4071     0.1445
  824.0000   -31.0249    12.8367    11.8126     7.9000    59.7011     0.0292     2.4209     0.1398
  824.5000   -30.9804    12.6959    11.8126     7.9000    59.7673     0.0275     2.4310     0.1398
  825.0000   -30.6959    12.5050    11.8126     7.9000    59.6858     0.0258     2.4276     0.1419
  825.5000   -30.4188    12.3710    11.8126     7.9000    58.1913     0.0238     2.4224     0.1455
  826.0000   -30.4501    12.4008    11.8126     7.9000    56.2913     0.0211     2.4178     0.1487
  826.5000   -31.0171    12.4346    11.8126     7.9000    57.8754     0.0126     2.4089     0.1517
  827.0000   -30.9315    12.4686    11.8126     7.8999    61.3393     0.0113     2.4018     0.1668
  827.5000   -30.8133    12.5027    11.8126     7.9000    62.2184     0.0170     2.3880     0.1665
  828.0000   -30.6976    12.5368    11.8126     7.9001    59.4453     0.0218     2.3826     0.1644
  828.5000   -30.8373    12.5710    11.8126     7.8993    57.1420     0.0270     2.3886     0.1644
  829.0000   -31.2210    12.6053    11.8126     7.9075    57.0371     0.0274     2.3888     0.1613
  829.5000   -31.6040    12.6398    11.8126     7.9223    56.9638     0.0243     2.3956     0.1541
