~VERSION INFORMATION
 VERS.                2.0:   CWLS LOG ASCII STANDARD - VERSION 2.0
 WRAP.                 NO:   ONE LINE PER DEPTH STEP
~WELL INFORMATION
#MNEM.UNIT      DATA TYPE    INFORMATION
#----------   ------------   ------------------------------
 STRT.F            0.0000:   START DEPTH
 STOP.F          484.0000:   STOP DEPTH
 STEP.F            0.5000:   STEP LENGTH
 NULL.          -999.2500:   NO VALUE
 COMP. LAWRENCE/ALLISON INC:   COMPANY
 WELL.  NPR 3 #68-63-SX-3:   WELL
 FLD .             TEAPOT:   FIELD
 LOC .       S3 T38N R78W:   LOCATION
 CNTY.            NATRONA:   COUNTY
 STAT.            WYOMING:   STATE
 CTRY. UNITED STATES OF AMERICA:   COUNTRY
 SRVC.           Gearhart:   SERVICE COMPANY
 DATE.        29-JUN-1988:   LOGDATE
 API .       490251122900:   API NUMBER
~CURVE INFORMATION
#MNEM.UNIT       API CODE    CURVE DESCRIPTION
#----------   ------------   ------------------------------
 DEPT.F                  :   
 GRR .GAPI   07 310 01 00:   GAMMA RAY FROM RES. LOG.
 ILD .OHMM   07 120 46 00:   INDUCTION LOG DEEP
 ILM .OHMM   07 120 44 00:   INDUCTION LOG MEDIUM
 CALI.IN     70 280 01 00:   CALIPER
~PARAMETER INFORMATION
#MNEM.UNIT          VALUE    DESCRIPTION
#----------   ------------   ------------------------------
 PD  .                 GL:   PERMANENT DATUM
 EPD .F              5158:   ELEVATION PERMANENT DATUM
 LMF .                 KB:   LOG MEASURED FROM
 DAPD.F                10:   FEET ABOVE PERMANENT DATUM
 DMF .                 KB:   DRILLING MEASURED FROM
 EKB .F              5168:   KELLING BUSHING
 EGL .F              5158:   GROUND LEVEL
 DATE.            6-29-88:   RUN DATE
 RUN .                  1:   RUN NUMBER
 DD  .F               490:   DEPTH DRILLER
 DL  .F             492.5:   DEPTH LOGGER
 BLI .F               484:   BOTTOM LOG INTERVAL
 TLI .F                49:   TOP LOG INTERVAL
 CS  .IN            9.625:   CASING SIZE
 CBD .F                49:   CASING BOTTOM DRILLER
 CBL .F                49:   CASING BOTTOM LOGGER
 BS  .IN             8.75:   BIT SIZE
 BSD .F               490:   BIT SIZE AT DEPTH
 DFT .                AIR:   DRILLING FLUID TYPE
 TLAB.HRS            1000:   TIME LOGGER AT BOTTOM
 MRT .F                70:   MAXIMUM RECORDED TEMPERATURE
 LUN .               7597:   LOGGING UNIT NUMBER
 LUL .           GILLETTE:   LOGGING UNIT LOCATION
 ENGI.          HUCKFELDT:   RECORDING ENGINEER
 WITN.              FIVAS:   WITNESSED BY
 CLNT.            A2DTECH:   CLIENT CODE
 ORIG.  2", 5", 10" PRINT:   ORIGIN OF DATA
 UWI .       490251122900:   UNIQUE WELL ID
 DICO. A2D Technologies, Inc.:   DIGITIZING COMPANY
~OTHER INFORMATION
~A    DEPT      GRR       ILD        ILM       CALI   
# ...
  292.0000    77.7140    29.4282    26.4620  -999.2500
  292.5000    79.0659    29.4243    25.3336  -999.2500
  293.0000    80.7463    28.4340    24.6647  -999.2500
  293.5000    81.6923    27.2332    23.9730  -999.2500
  294.0000    82.2675    26.0718    23.3063  -999.2500
  294.5000    83.3953    26.3409    22.7468  -999.2500
  295.0000    85.2488    26.6473    21.9916  -999.2500
  295.5000    86.7285    26.8104    21.6458  -999.2500
  296.0000    87.0986    26.5826    22.0345  -999.2500
  296.5000    87.4833    26.4062    22.3999  -999.2500
  297.0000    87.7969    26.2309    22.7715  -999.2500
  297.5000    87.2079    26.0724    22.9936  -999.2500
  298.0000    86.6259    26.1931    23.1472  -999.2500
  298.5000    86.3367    26.3043    23.3019  -999.2500
  299.0000    86.9117    26.5364    23.9753  -999.2500
  299.5000    88.4062    26.7849    24.2985  -999.2500
  300.0000    89.9587    27.6437    24.6569  -999.2500
  300.5000    91.5276    28.6065    25.1782  -999.2500
  301.0000    92.0555    29.0065    26.2477  -999.2500
  301.5000    88.9859    29.2668    27.6175  -999.2500
  302.0000    84.9606    29.5248    28.4446  -999.2500
  302.5000    81.1106    29.6994    28.7419  -999.2500
  303.0000    78.1334    29.6994    28.8819  -999.2500
  303.5000    78.3388    29.0819    27.8853  -999.2500
  304.0000    80.4226    28.2652    27.1609  -999.2500
  304.5000    82.4255    27.4715    26.3161  -999.2500
  305.0000    84.4577    26.7000    25.8333  -999.2500
  305.5000    86.5049    26.0724    25.2078  -999.2500
  306.0000    87.6920    25.6675    24.5974  -999.2500
  306.5000    88.2215    25.2551    24.0018  -999.2500
  307.0000    87.8562    24.8493    23.4445  -999.2500
  307.5000    87.4101    24.4500    23.2057  -999.2500
  308.0000    88.0040    23.9783    22.9689  -999.2500
  308.5000    89.0163    24.0209    22.7354  -999.2500
  309.0000    89.6597    24.0745    22.5037  -999.2500
  309.5000    88.2327    24.1282    22.2747  -999.2500
  310.0000    86.8320    24.1820    22.0523  -999.2500
  310.5000    85.4458    24.2330    22.0501  -999.2500
  311.0000    84.4190    24.2824    22.0480  -999.2500
  311.5000    84.1763    24.3318    22.0473  -999.2500
  312.0000    84.3755    24.3813    23.1024  -999.2500
  312.5000    85.5093    24.4280    22.9951  -999.2500
  313.0000    86.5760    24.4282    22.8302  -999.2500
  313.5000    86.7998    24.4270    22.6765  -999.2500
  314.0000    86.9831    24.4255    22.5709  -999.2500
  314.5000    88.1939    24.4286    22.3457  -999.2500
  315.0000    89.0516    23.7038    22.1228  -999.2500
  315.5000    89.0431    23.2234    21.5880  -999.2500
  316.0000    89.0342    22.8884    21.0473  -999.2500
  316.5000    89.5590    22.8354    20.5137  -999.2500
  317.0000    90.2022    22.7761    20.2708  -999.2500
  317.5000    89.0479    22.7169    20.2857  -999.2500
  318.0000    87.5945    22.4665    20.2806  -999.2500
  318.5000    86.2082    22.1188    20.2811  -999.2500
  319.0000    85.5928    21.7456    20.2811  -999.2500
  319.5000    85.0579    21.1957    20.2811  -999.2500
  320.0000    84.5509    20.5940    19.7712  -999.2500
  320.5000    84.1920    20.0630    18.9894  -999.2500
  321.0000    84.6838    19.8554    19.0132  -999.2500
  321.5000    85.1667    19.6500    19.0068  -999.2500
  322.0000    85.6542    19.4467    18.4865  -999.2500
  322.5000    85.6991    19.2455    17.9608  -999.2500
  323.0000    85.5539    19.0463    17.6347  -999.2500
  323.5000    85.3908    18.8494    17.4761  -999.2500
  324.0000    86.2026    18.6521    17.5192  -999.2500
  324.5000    86.9956    18.5866    17.5465  -999.2500
  325.0000    86.7149    18.5039    17.5740  -999.2500
  325.5000    85.4662    18.4216    17.6017  -999.2500
  326.0000    83.7815    18.3397    17.6304  -999.2500
  326.5000    83.9740    18.0847    17.6394  -999.2500
  327.0000    85.4680    17.8375    17.2107  -999.2500
  327.5000    86.5017    17.5936    16.9142  -999.2500
  328.0000    87.1149    17.3531    16.6227  -999.2500
  328.5000    87.7134    17.1539    16.3362  -999.2500
  329.0000    88.4474    16.9533    16.0548  -999.2500
  329.5000    89.9823    16.7628    15.7782  -999.2500
  330.0000    91.7551    16.5746    15.6300  -999.2500
  330.5000    90.0510    16.3884    15.4135  -999.2500
  331.0000    88.7274    16.2043    15.3057  -999.2500
  331.5000    87.7578    16.0724    15.1986  -999.2500
  332.0000    87.5971    15.9864    15.0923  -999.2500
  332.5000    87.4382    15.8891    14.9956  -999.2500
  333.0000    87.9165    15.7924    14.8662  -999.2500
  333.5000    89.0716    15.6964    14.7380  -999.2500
  334.0000    91.4131    15.6300    14.6108  -999.2500
  334.5000    93.7583    15.7009    14.4847  -999.2500
  335.0000    94.7347    15.7555    14.2415  -999.2500
  335.5000    93.7329    15.8102    14.3957  -999.2500
  336.0000    92.4648    15.8651    14.5651  -999.2500
  336.5000    91.1855    15.9236    14.7365  -999.2500
  337.0000    90.1544    16.0405    14.9196  -999.2500
  337.5000    89.1998    16.1661    15.1005  -999.2500
  338.0000    87.8877    16.2927    15.2945  -999.2500
  338.5000    86.6651    16.4203    15.4853  -999.2500
  339.0000    87.1410    16.5282    15.3970  -999.2500
  339.5000    87.6838    16.3322    15.2822  -999.2500
  340.0000    88.2252    16.1320    15.1682  -999.2500
  340.5000    88.9439    15.9314    15.0550  -999.2500
  341.0000    90.4557    15.6351    14.9427  -999.2500
  341.5000    91.8943    15.3629    14.6843  -999.2500
  342.0000    92.6230    15.1022    14.2969  -999.2500
  342.5000    91.5608    14.8474    13.9196  -999.2500
  343.0000    92.5731    14.5018    13.5523  -999.2500
  343.5000    93.6463    14.5090    13.2825  -999.2500
  344.0000    94.7118    14.3890    13.0091  -999.2500
  344.5000    95.7757    14.3523    12.7371  -999.2500
  345.0000    96.3487    14.2566    12.7388  -999.2500
  345.5000    95.9430    14.2415    12.7757  -999.2500
  346.0000    94.0848    14.2415    12.8027  -999.2500
  346.5000    93.2723    14.7510    12.8306  -999.2500
  347.0000    92.9129    15.6004    12.8561  -999.2500
  347.5000    92.5492    16.8420    13.2200  -999.2500
  348.0000    91.7972    18.1823    14.0987  -999.2500
  348.5000    89.6028    19.6293    15.6279  -999.2500
  349.0000    86.7576    21.0500    17.8982  -999.2500
  349.5000    81.2859    23.9008    20.4982  -999.2500
  350.0000    76.2388    26.8619    23.4760  -999.2500
  350.5000    71.8231    30.1898    26.8532  -999.2500
  351.0000    70.7837    33.8686    30.6783  -999.2500
  351.5000    71.5845    37.6616    35.0482  -999.2500
  352.0000    73.2362    39.4585    37.6651  -999.2500
  352.5000    76.5144    41.5147    39.4622  -999.2500
  353.0000    78.1995    41.8228    41.1302  -999.2500
  353.5000    75.6215    42.2373    40.8398  -999.2500
  354.0000    73.0274    42.6888    40.5238  -999.2500
  354.5000    72.0714    41.5654    40.0047  -999.2500
  355.0000    74.7986    40.7175    38.8771  -999.2500
  355.5000    77.9476    40.6177    37.7764  -999.2500
  356.0000    78.1929    40.5182    37.1293  -999.2500
  356.5000    75.1342    40.4189    37.4864  -999.2500
  357.0000    71.9215    39.8385    37.8266  -999.2500
  357.5000    69.9521    38.8465    37.4785  -999.2500
  358.0000    71.2500    37.8773    36.7855  -999.2500
  358.5000    73.1759    36.9345    36.1065  -999.2500
  359.0000    75.5073    36.0117    34.8661  -999.2500
  359.5000    77.8396    35.1355    33.6684  -999.2500
  360.0000    80.1613    34.2880    32.8997  -999.2500
  360.5000    82.2456    33.4610    31.3498  -999.2500
  361.0000    82.5030    32.6540    29.6968  -999.2500
  361.5000    81.7806    32.0481    29.1509  -999.2500
  362.0000    80.3535    31.6031    29.1474  -999.2500
  362.5000    79.7170    31.1642    29.1513  -999.2500
  363.0000    79.0792    30.7315    29.1519  -999.2500
  363.5000    77.6175    30.5201    29.1519  -999.2500
  364.0000    76.9797    30.3910    29.1521  -999.2500
  364.5000    77.2303    30.2625    29.1515  -999.2500
