~VERSION INFORMATION
 VERS.                2.0:   CWLS LOG ASCII STANDARD - VERSION 2.0
 WRAP.                 NO:   ONE LINE PER DEPTH STEP
~WELL INFORMATION
#MNEM.UNIT      DATA TYPE    INFORMATION
#----------   ------------   ------------------------------
 STRT.F           22.0000:   START DEPTH
 STOP.F          564.0000:   STOP DEPTH
 STEP.F            0.5000:   STEP LENGTH
 NULL.          -999.2500:   NO VALUE
 COMP.    FENIX & SCISSON:   COMPANY
 WELL. NPR # #3 12 - SX 11:   WELL
 FLD .             TEAPOT:   FIELD
 LOC .      S11 T38N R78W:   LOCATION
 CNTY.            NATRONA:   COUNTY
 STAT.            WYOMING:   STATE
 CTRY. UNITED STATES OF AMERICA:   COUNTRY
 SRVC.           BIRDWELL:   SERVICE COMPANY
 DATE.        29-NOV-1978:   LOGDATE
 API .       490251075500:   API NUMBER
~CURVE INFORMATION
#MNEM.UNIT       API CODE    CURVE DESCRIPTION
#----------   ------------   ------------------------------
 DEPT.F                  :   
 ILD .OHMM   05 120 46 00:   INDUCTION LOG DEEP
 SN  .OHMM   05 040 00 00:   SHORT NORMAL
 SPR .MV     05 010 01 00:   SPONTANEOUS POTENTIAL FROM RES.
 CALD.IN     45 280 60 00:   CALIPER FROM DENSITY LOG
 CORR.G/C3   45 356 01 00:   DENSITY CORRECTION
 DPHI.DEC    45 890 12 00:   DENSITY POROSITY SANDSTONE
 GRD .GAPI   45 310 01 00:   GAMMA RAY FROM DENSITY LOG
 RHOB.G/C3   45 350 01 00:   BULK DENSITY
~PARAMETER INFORMATION
#MNEM.UNIT          VALUE    DESCRIPTION
#----------   ------------   ------------------------------
 PD  .                 GL:   PERMANENT DATUM
 EPD .F              5143:   ELEVATION PERMANENT DATUM
 LMF .                 KB:   LOG MEASURED FROM
 DAPD.F                 4:   FEET ABOVE PERMANENT DATUM
 DMF .                 KB:   DRILLING MEASURED FROM
 EKB .F              5147:   KELLING BUSHING
 EGL .F              5143:   GROUND LEVEL
 DATE.        29-NOV-1978:   RUN DATE
 RUN .                  1:   RUN NUMBER
 DD  .F               562:   DEPTH DRILLER
 DL  .F               564:   DEPTH LOGGER
 BLI .F               564:   BOTTOM LOG INTERVAL
 TLI .F                30:   TOP LOG INTERVAL
 CS  .IN            8.625:   CASING SIZE
 CBL .F                48:   CASING BOTTOM LOGGER
 BS  .IN            7.875:   BIT SIZE
 BSD .F               562:   BIT SIZE AT DEPTH
 DFT .                KCL:   DRILLING FLUID TYPE
 DFD .                8.7:   DRILLING FLUID DENSITY
 DFV .                 36:   DRILLING FLUID VISCOSITY
 DFPH.               10.9:   DRILLING FLUID PH
 DFL .                 12:   DRILLING FLUID LOSS
 MSS .           FLOWLINE:   MUD SAMPLE SOURCE
 RMS .OHMM           0.34:   RESISTIVITY MUD SAMPLE
 MST .F                56:   MUD SAMPLE TEMPERATURE
 RMF .OHMM           0.32:   RESISTIVITY MUD FILTRATE SAMPLE
 MFST.F                59:   MUD FILTRATE SAMPLE TEMPERATURE
 RMC .OHMM            0.4:   RESISTIVITY MUD CAKE
 MCST.F                59:   MUD CAKE SAMPLE TEMPERATURE
 MFSS.               MEAS:   MUD FILTRATE SAMPLE SOURCE
 MCSS.               MEAS:   MUD CAKE SAMPLE SOURCE
 RMB .OHMM           0.33:   RESISTIVITY MUD AT BHT
 BHT .F                59:   BOTTOM HOLE TEMPERATURE
 TCS .HRS               1:   TIME CURCULATED STOPPED
 MRT .F                59:   MAXIMUM RECORDED TEMPERATURE
 LUN .               2958:   LOGGING UNIT NUMBER
 LUL .               CASP:   LOGGING UNIT LOCATION
 ENGI.             MILLER:   RECORDING ENGINEER
 WITN.           DINSMORE:   WITNESSED BY
 CLNT.            A2DTECH:   CLIENT CODE
 ORIG.           5" PRINT:   ORIGIN OF DATA
 UWI .       490251075500:   UNIQUE WELL ID
 DICO. A2D Technologies, Inc.:   DIGITIZING COMPANY
~OTHER INFORMATION
~A   DEPT      ILD         SN        SPR       CALD       CORR       DPHI         GRD      RHOB   
# ...
  224.5000     9.0784     9.2957   -26.7059     8.0634     0.0203     0.1315   102.4636     2.4685
  225.0000     9.1396     9.2939   -26.6968     8.0060     0.0143     0.1330    99.0226     2.4677
  225.5000     9.0742     9.2919   -26.6861     8.0369     0.0082     0.1315    97.8211     2.4670
  226.0000     9.0723     9.2258   -26.8302     8.0676     0.0022     0.1321    99.0256     2.4685
  226.5000     9.0078     9.2239   -26.8191     8.1585    -0.0038     0.1333   101.0446     2.4685
  227.0000     8.9438     9.1582   -26.8102     8.2344    -0.0068     0.1429   104.5924     2.4625
  227.5000     8.9420     9.1564   -26.8013     8.2501    -0.0038     0.1501   107.7522     2.4527
  228.0000     8.8784     9.0283   -26.7924     8.2506     0.0055     0.1513   107.7536     2.4347
  228.5000     8.8766     9.0265   -26.7836     8.2512     0.0232     0.1468   107.4540     2.4324
  229.0000     8.8135     9.0242   -26.7747     8.2518     0.0397     0.1395   107.0047     2.4369
  229.5000     8.6904     9.2121   -26.7658     8.2524     0.0487     0.1338   107.1565     2.4550
  230.0000     8.5690     9.2102   -26.6060     8.2530     0.0502     0.1291   110.1655     2.4700
  230.5000     8.5081     9.2083   -26.5971     8.2536     0.0471     0.1275   107.1595     2.4722
  231.0000     8.5655     9.1428   -26.4374     8.2543     0.0426     0.1329   103.2512     2.4707
  231.5000     8.5637     9.1410   -26.5907     8.2397     0.0381     0.1464    97.6888     2.4647
  232.0000     8.4438     8.9509   -27.0230     8.2555     0.0321     0.1470    97.2391     2.4502
  232.5000     8.2683     8.8872   -27.6174     8.2712     0.0306     0.1440    98.1679     2.4444
  233.0000     8.1529     8.7630   -27.9101     8.2717     0.0320     0.1409    99.3975     2.4482
  233.5000     7.9835     8.7007   -27.8990     8.2723     0.0290     0.1391   100.8529     2.4535
  234.0000     7.8176     8.6388   -27.8901     8.2579     0.0260     0.1421   100.4029     2.4557
  234.5000     7.6552     8.5145   -27.7304     8.2434     0.0230     0.1445    99.8032     2.4444
  235.0000     7.3930     8.3332   -27.8746     8.2440     0.0185     0.1515    98.9024     2.4324
  235.5000     7.0414     8.0546   -27.8634     8.2446     0.0139     0.1670    96.7986     2.4174
  236.0000     6.8475     7.8326   -27.8546     8.2452     0.0169     0.1745    94.5445     2.4054
  236.5000     6.7519     7.6167   -27.8457     8.2307     0.0229     0.1679    95.5986     2.4029
  237.0000     6.7505     7.5103   -27.8368     8.2314     0.0289     0.1601    97.8557     2.4122
  237.5000     6.8433     7.5614   -27.8279     8.2621     0.0349     0.1541    99.6617     2.4214
  238.0000     6.9451     7.6125   -27.9698     8.2627     0.0349     0.1537    99.3624     2.4294
  238.5000     7.1802     7.7172   -27.9608     8.2481     0.0334     0.1564    99.6897     2.4264
  239.0000     7.3805     7.8234   -27.9517     8.2488     0.0349     0.1576   100.4431     2.4234
  239.5000     7.6392     7.9862   -27.7901     8.2645     0.0379     0.1585   101.3221     2.4219
  240.0000     7.8523     8.2088   -27.7812     8.2651     0.0408     0.1525   101.4739     2.4272
  240.5000     7.9607     8.4967   -27.7723     8.2355     0.0438     0.1474   102.9792     2.4362
  241.0000     7.9587     8.6744   -27.7634     8.2211     0.0498     0.1440   105.6874     2.4444
  241.5000     7.9571     8.7322   -27.7545     8.2217     0.0573     0.1416   104.4859     2.4474
  242.0000     8.0112     8.7207   -27.7456     8.2375     0.0588     0.1401   100.8783     2.4474
  242.5000     8.0091     8.6678   -27.7367     8.2381     0.0571     0.1413    98.4739     2.4505
  243.0000     8.0075     8.6062   -27.7278     8.2386     0.0543     0.1419    98.0239     2.4465
  243.5000     8.0059     8.5449   -27.8697     8.2090     0.0542     0.1473    98.1761     2.4358
  244.0000     8.0042     8.4841   -28.0121     8.2097     0.0572     0.1524    97.8764     2.4339
  244.5000     7.9473     8.4238   -27.8520     8.2103     0.0602     0.1479    98.4798     2.4377
  245.0000     7.8359     8.3639   -27.8431     8.2410     0.0662     0.1440    99.6843     2.4399
  245.5000     7.7802     8.2470   -27.9850     8.2416     0.0692     0.1512   100.2872     2.4362
  246.0000     7.6186     8.1317   -27.9761     8.2121     0.0677     0.1512   101.7925     2.4354
  246.5000     7.4088     8.0180   -28.2689     8.2127     0.0647     0.1468   104.5509     2.4369
  247.0000     7.3053     7.9060   -28.5616     8.2133     0.0616     0.1405   106.0561     2.4414
  247.5000     7.0551     7.9044   -28.8544     8.2140     0.0584     0.1424   106.6089     2.4474
  248.0000     6.7196     7.7917   -29.1472     8.2146     0.0496     0.1490   106.0093     2.4467
  248.5000     6.3559     7.4688   -29.2869     8.2453     0.0286     0.1604   105.7100     2.4390
  249.0000     6.0119     7.1682   -29.1272     8.2459     0.0195     0.1745   105.4103     2.4276
  249.5000     5.8870     6.9225   -29.1183     8.2464     0.0180     0.1901   104.2092     2.3934
  250.0000     5.8856     6.7786   -28.9608     8.2168     0.0225     0.1934   102.7065     2.3664
  250.5000     5.8442     6.5006   -28.7982     8.2330     0.0210     0.1895    98.9525     2.3679
  251.0000     5.8031     6.4539   -28.4877     8.2188     0.0178     0.1777    95.7991     2.3732
  251.5000     5.8426     6.4971   -28.3281     8.2498     0.0150     0.1621    94.4501     2.4085
  252.0000     5.9234     6.7750   -28.1684     8.2507     0.0150     0.1501    94.7553     2.4266
  252.5000     6.1314     7.0701   -28.1596     8.2516     0.0149     0.1443    97.4665     2.4396
  253.0000     6.4800     7.4572   -28.1508     8.2525     0.0149     0.1410    99.4259     2.4483
  253.5000     6.9457     7.7182   -28.1418     8.2533     0.0149     0.1422    99.5807     2.4476
  254.0000     7.3526     7.9884   -28.1310     8.2542     0.0149     0.1449    99.5851     2.4476
  254.5000     7.8100     8.2109   -27.9714     8.2551     0.0149     0.1455   101.2437     2.4469
  255.0000     8.0843     8.4396   -27.8117     8.2560     0.0164     0.1440   104.1053     2.4477
  255.5000     8.2533     8.4960   -27.8029     8.2569     0.0179     0.1413   106.2451     2.4507
  256.0000     8.4253     8.5534   -27.7941     8.2429     0.0148     0.1377   108.0239     2.4545
  256.5000     8.5417     8.6699   -27.7853     8.2285     0.0118     0.1343   106.8264     2.4605
  257.0000     8.6597     8.7279   -27.7765     8.2296     0.0118     0.1331   105.3271     2.4628
  257.5000     8.7188     8.8474   -27.7677     8.2153     0.0088     0.1343   104.1286     2.4613
  258.0000     8.7782     8.9065   -27.7587     8.2314     0.0055     0.1361   102.9300     2.4583
  258.5000     8.8995     9.0279   -27.7479     8.2323     0.0027     0.1379   102.6326     2.4552
  259.0000     8.9065     9.0254   -27.7391     8.2332     0.0012     0.1403   102.6381     2.4509
  259.5000     9.0213     9.0230   -27.8811     8.2341     0.0012     0.1421   102.3407     2.4479
  260.0000     9.0198     9.0839   -27.8723     8.2284     0.0012     0.1426   101.4440     2.4479
  260.5000     9.0186     9.1441   -27.8635     8.2208     0.0012     0.1408   102.0499     2.4509
  261.0000     9.0173     9.1416   -28.0055     8.2066    -0.0003     0.1366   104.7611     2.4562
  261.5000     9.0161     9.1391   -27.9967     8.2075    -0.0003     0.1360   107.0212     2.4600
  262.0000     9.0149     9.2002   -27.9879     8.2058    -0.0004     0.1372   108.2286     2.4577
  262.5000     9.0137     9.2617   -27.9789     8.1942    -0.0004     0.1396   107.9323     2.4540
  263.0000     8.9502     9.3237   -27.9698     8.2104    -0.0019     0.1426   102.4430     2.4510
  263.5000     8.8852     9.3205   -27.9592     8.2113    -0.0004     0.1432   100.5728     2.4481
  264.0000     8.7637     9.3835   -27.9504     8.2122     0.0027     0.1413   102.5332     2.4527
  264.5000     8.7624     9.3155   -27.9416     8.2130     0.0060     0.1383   104.0414     2.4587
