~VERSION INFORMATION
 VERS.                2.0:   CWLS LOG ASCII STANDARD - VERSION 2.0
 WRAP.                 NO:   ONE LINE PER DEPTH STEP
~WELL INFORMATION
#MNEM.UNIT      DATA TYPE    INFORMATION
#----------   ------------   ------------------------------
 STRT.F           22.0000:   START DEPTH
 STOP.F          630.5000:   STOP DEPTH
 STEP.F            0.5000:   STEP LENGTH
 NULL.          -999.2500:   NO VALUE
 COMP. LAWRENCE/ALLISON INC:   COMPANY
 WELL.   16-61 SHX #11-11:   WELL
 FLD .             TEAPOT:   FIELD
 LOC .      S11 T38N R78W:   LOCATION
 CNTY.            NATRONA:   COUNTY
 STAT.            WYOMING:   STATE
 CTRY. UNITED STATES OF AMERICA:   COUNTRY
 SRVC.           Gearhart:   SERVICE COMPANY
 DATE.        13-JUN-1986:   LOGDATE
 API .       490251108900:   API NUMBER
~CURVE INFORMATION
#MNEM.UNIT       API CODE    CURVE DESCRIPTION
#----------   ------------   ------------------------------
 DEPT.F                  :   
 GRR .GAPI   07 310 01 00:   GAMMA RAY FROM RES. LOG.
 RILD.OHMM   07 120 46 00:   INDUCTION LOG DEEP RESISTIVITY
 RILM.OHMM   07 120 44 00:   INDUCTION LOG MEDIUM RESISTIVITY
~PARAMETER INFORMATION
#MNEM.UNIT          VALUE    DESCRIPTION
#----------   ------------   ------------------------------
 PD  .                 GL:   PERMANENT DATUM
 EPD .F              5185:   ELEVATION PERMANENT DATUM
 LMF .                 KB:   LOG MEASURED FROM
 DAPD.F                 5:   FEET ABOVE PERMANENT DATUM
 DMF .                 KB:   DRILLING MEASURED FROM
 EKB .F              5190:   KELLING BUSHING
 EGL .F              5185:   GROUND LEVEL
 DATE.            6-13-86:   RUN DATE
 RUN .                  1:   RUN NUMBER
 DD  .F               648:   DEPTH DRILLER
 DL  .F               640:   DEPTH LOGGER
 BLI .F               631:   BOTTOM LOG INTERVAL
 TLI .F                22:   TOP LOG INTERVAL
 CS  .IN            8.625:   CASING SIZE
 CBD .F                42:   CASING BOTTOM DRILLER
 CBL .F                47:   CASING BOTTOM LOGGER
 BS  .IN            7.875:   BIT SIZE
 BSD .F               648:   BIT SIZE AT DEPTH
 DFT .               FOAM:   DRILLING FLUID TYPE
 MSS .               TANK:   MUD SAMPLE SOURCE
 RMS .OHMM           1.85:   RESISTIVITY MUD SAMPLE
 MST .F                70:   MUD SAMPLE TEMPERATURE
 RMB .OHMM           1.55:   RESISTIVITY MUD AT BHT
 BHT .F                85:   BOTTOM HOLE TEMPERATURE
 TCS .HRS            1330:   TIME CURCULATED STOPPED
 TLAB.HRS            1600:   TIME LOGGER AT BOTTOM
 MRT .F                85:   MAXIMUM RECORDED TEMPERATURE
 LUN .               7609:   LOGGING UNIT NUMBER
 LUL .           GILLETTE:   LOGGING UNIT LOCATION
 ENGI.              BAUER:   RECORDING ENGINEER
 WITN.           JENNINGS:   WITNESSED BY
 CLNT.            A2DTECH:   CLIENT CODE
 ORIG.       2", 5" PRINT:   ORIGIN OF DATA
 UWI .       490251108900:   UNIQUE WELL ID
 DICO. A2D Technologies, Inc.:   DIGITIZING COMPANY
~OTHER INFORMATION
~A   DEPT       GRR      RILD       RILM   
# ...
  113.0000   113.7060     7.7359     7.4720
  113.5000   112.4567     7.7722     7.5451
  114.0000   108.6550     7.8085     7.6188
  114.5000   104.8562     7.8451     7.6933
  115.0000   103.9038     7.8780     7.7327
  115.5000   106.2234     7.9205     7.7745
  116.0000   108.5248     7.9633     7.8165
  116.5000   110.7030     8.0064     7.8588
  117.0000   109.6378     8.0496     7.9012
  117.5000   108.3767     8.0740     7.9252
  118.0000   105.5834     8.0407     7.8925
  118.5000   104.6641     8.0140     7.8662
  119.0000   104.5206     7.9993     7.8520
  119.5000   102.6309     8.0734     7.8518
  120.0000   100.1935     8.1332     7.8518
  120.5000    99.6418     8.1916     7.9987
  121.0000   102.7170     8.3478     8.2260
  121.5000   109.0149     8.6094     8.4597
  122.0000   114.0711     8.6979     8.5375
  122.5000   115.5191     8.6979     8.5375
  123.0000   114.3926     8.6979     8.5379
  123.5000   113.7324     8.7406     8.5792
  124.0000   114.5235     8.7802     8.6183
  124.5000   115.1257     8.8200     8.6574
  125.0000   114.0843     8.8599     8.6966
  125.5000   113.0589     8.9002     8.7360
  126.0000   111.5774     8.9434     8.7792
  126.5000   108.9820     9.0260     8.8596
  127.0000   106.4383     9.1428     8.9743
  127.5000   104.7125     9.2612     9.0905
  128.0000   105.0033     9.3810     9.2081
  128.5000   107.2806     9.5025     9.3273
  129.0000   110.3392     9.6255     9.4480
  129.5000   113.4313     9.7500     9.5703
  130.0000   112.5741     9.8762     9.6942
  130.5000   110.6977    10.0041     9.8196
  131.0000   109.1745    10.1336     9.9467
  131.5000   109.9832    10.2647    10.0755
  132.0000   110.0768    10.3976    10.2059
  132.5000   108.3057    10.5322    10.3380
  133.0000   105.1385    10.6728    10.4766
  133.5000   101.8849    10.6969    10.4991
  134.0000   100.4842    10.7203    10.5225
  134.5000   105.0369    10.7440    10.5459
  135.0000   109.0394    10.7732    10.5746
  135.5000   109.5896    10.7270    10.5293
  136.0000   107.5543    10.6482    10.4519
  136.5000   107.2155    10.5700    10.3751
  137.0000   106.2979    10.4923    10.2989
  137.5000   104.2174    10.4153    10.2233
  138.0000   105.1084    10.3387    10.1482
  138.5000   107.8223    10.2628    10.0736
  139.0000   108.3042    10.1883    10.0005
  139.5000   107.2631    10.1600     9.9727
  140.0000   106.7205    10.1321     9.9453
  140.5000   109.1085    10.1043     9.9180
  141.0000   111.4191    10.0766     9.8908
  141.5000   112.6277    10.0490     9.8637
  142.0000   111.9236    10.0214     9.8366
  142.5000   111.3896    10.0003     9.8068
  143.0000   110.7257    10.0005     9.7661
  143.5000   108.8001    10.0005     9.7260
  144.0000   106.9297    10.0007     9.6860
  144.5000   108.1192     9.9990     9.6461
  145.0000   112.3698     9.9644     9.6065
  145.5000   117.6613     9.9305     9.5669
  146.0000   120.5468     9.8966     9.5459
  146.5000   120.7158     9.8628     9.5458
  147.0000   120.9013     9.8292     9.5459
  147.5000   121.0721     9.7957     9.5459
  148.0000   121.3689     9.7620     9.5463
  148.5000   123.4347     9.7289     9.5483
  149.0000   123.1845     9.6448     9.4663
  149.5000   121.0534     9.5552     9.3805
  150.0000   119.0112     9.4285     9.2547
  150.5000   116.9731     9.3008     9.1293
  151.0000   116.6143     9.1740     9.0049
  151.5000   118.5648     9.0490     8.8822
  152.0000   120.5048     8.9257     8.7612
  152.5000   122.4656     8.8041     8.6424
  153.0000   123.1914     8.6010     8.4424
  153.5000   123.0738     8.3818     8.2272
  154.0000   122.9506     8.1678     8.0172
  154.5000   123.2534     7.9597     7.8123
  155.0000   125.2344     7.8518     7.7000
  155.5000   127.1805     7.8518     7.6739
  156.0000   129.1185     7.8754     7.6357
  156.5000   129.9790     7.9222     7.6876
  157.0000   126.0458     7.9692     7.7875
  157.5000   121.2052     8.1241     7.9744
  158.0000   115.3415     8.4779     8.3216
  158.5000   109.4866     8.6979     8.5375
  159.0000   103.6737     8.7811     8.6193
  159.5000   103.3937     8.8612     8.6979
  160.0000   103.4454     8.8612     8.6980
  160.5000   104.2176     8.7956     8.6385
  161.0000   107.5408     8.7507     8.5975
  161.5000   111.6034     8.7060     8.5569
  162.0000   114.0160     8.6616     8.5164
  162.5000   111.7983     8.6173     8.4762
  163.0000   108.6578     8.5733     8.4359
  163.5000   106.5059     8.5375     8.3804
  164.0000   105.4768     8.6157     8.4208
  164.5000   108.0696     8.6824     8.4915
  165.0000   110.5777     8.7496     8.5622
  165.5000   113.0632     8.8173     8.6334
  166.0000   115.3546     8.8855     8.7053
  166.5000   113.6185     8.9543     8.7777
  167.0000   110.0895     9.0235     8.8508
  167.5000   106.5454     9.0941     8.9244
  168.0000   103.0928     9.1269     8.9589
  168.5000   104.5414     9.1479     8.9791
  169.0000   108.2117     9.1685     8.9994
  169.5000   111.9404     9.1978     9.0197
  170.0000   113.6732     9.1611     9.0277
  170.5000   110.1777     9.0750     8.9077
  171.0000   106.2176     9.0275     8.8613
  171.5000   103.0512     9.0634     8.8611
  172.0000   105.4138     9.0921     8.8612
  172.5000   109.3179     9.1120     8.8612
  173.0000   112.6619     9.0863     8.8612
  173.5000   114.6686     9.0503     8.8613
  174.0000   116.0256     9.0283     8.8670
  174.5000   114.5098     9.0500     8.8832
  175.0000   111.9814     9.0665     8.8994
  175.5000   109.4377     9.0830     8.9156
  176.0000   106.9274     9.0996     8.9317
  176.5000   106.6398     9.1120     8.9428
  177.0000   109.4166     9.0049     8.8438
  177.5000   111.9257     8.9200     8.7644
  178.0000   111.8572     8.8359     8.6857
  178.5000   109.7200     8.7570     8.6082
  179.0000   109.9210     8.6882     8.5344
  179.5000   113.6142     8.6178     8.4585
  180.0000   117.3253     8.5858     8.4585
  180.5000   120.1699     8.5456     8.4585
  181.0000   116.8917     8.5052     8.4585
  181.5000   113.5673     8.4650     8.4585
  182.0000   111.1153     8.4250     8.6896
  182.5000   112.3094     8.3852     9.6895
  183.0000   114.2714     8.3456    10.7350
  183.5000   116.9762     8.3026    11.7002
  184.0000   119.6325     8.3028    12.7371
  184.5000   119.1036     8.3026    12.2214
  185.0000   115.0730     8.3026    11.3916
  185.5000   111.5409     8.3025    10.4642
  186.0000   111.9516     8.3021     9.5789
  186.5000   114.1469     8.3210     8.7792
  187.0000   116.5962     8.3512     9.2553
  187.5000   119.1069     8.3802    10.3241
  188.0000   120.3411     8.4945    11.5162
  188.5000   117.6894     8.6049    13.0976
  189.0000   114.1297     8.6342    12.6756
  189.5000   111.9169     8.6683    12.0894
  190.0000   112.2217     8.7026    11.1965
  190.5000   112.6430     8.7370     9.7252
  191.0000   113.1535     8.7715     9.1887
  191.5000   109.3414     8.8063     8.8288
  192.0000   103.6272     8.8405     8.7456
  192.5000    99.3401     8.9445     8.6979
  193.0000   100.5890     8.9444     8.7792
  193.5000   103.3461     8.9444     8.7792
  194.0000   107.8178     8.9446     8.7799
  194.5000   112.5483     8.8970     8.7328
  195.0000   112.5010     8.8533     8.6901
  195.5000   113.5209     8.8100     8.6476
  196.0000   116.1994     8.7670     8.6055
  196.5000   119.3427     8.7241     8.5629
  197.0000   122.5204     8.6729     8.5140
  197.5000   123.1969     8.5414     8.3838
  198.0000   118.5223     8.4120     8.2569
  198.5000   113.1944     8.2844     8.1317
  199.0000   110.8946     8.1587     8.0084
  199.5000   115.3166     8.0351     7.8870
  200.0000   119.7994     7.9248     7.7791
  200.5000   118.5265     7.9046     7.7590
  201.0000   116.7649     7.8859     7.7407
  201.5000   116.4697     7.8673     7.7224
  202.0000   117.8128     7.8517     7.7071
  202.5000   116.8488     7.9340     7.7812
  203.0000   115.3806     8.0208     7.8594
  203.5000   115.9506     8.1086     7.9384
