~VERSION INFORMATION
 VERS.                2.0:   CWLS LOG ASCII STANDARD - VERSION 2.0
 WRAP.                 NO:   ONE LINE PER DEPTH STEP
~WELL INFORMATION
#MNEM.UNIT      DATA TYPE    INFORMATION
#----------   ------------   ------------------------------
 STRT.F           86.0000:   START DEPTH
 STOP.F         1134.0000:   STOP DEPTH
 STEP.F            0.5000:   STEP LENGTH
 NULL.          -999.2500:   NO VALUE
 COMP.          U.S. NAVY:   COMPANY
 WELL. RES 3 TEAPOT DOM #64-S-2:   WELL
 FLD .             TEAPOT:   FIELD
 LOC .       S2 T38N R78W:   LOCATION
 CNTY.            NATRONA:   COUNTY
 STAT.            WYOMING:   STATE
 CTRY. UNITED STATES OF AMERICA:   COUNTRY
 SRVC. Schlumberger Well Surveying Corp:   SERVICE COMPANY
 DATE.        28-JUL-1964:   LOGDATE
 API .       490250644400:   API NUMBER
~CURVE INFORMATION
#MNEM.UNIT       API CODE    CURVE DESCRIPTION
#----------   ------------   ------------------------------
 DEPT.F                  :   
 ASN .OHMM   05 041 16 00:   AMPLIFIED SHORT NORMAL 16"
 CILD.MMHO   05 110 46 00:   CONDUCTIVITY INDUCTION LOG DEEP
 ILD .OHMM   05 120 46 00:   INDUCTION LOG DEEP
 SPR .MV     05 010 01 00:   SPONTANEOUS POTENTIAL FROM RES.
 DT  .US/F   60 520 33 00:   INTERVAL TRANSIT TIME
 GR  .GAPI   30 310 01 00:   GAMMA RAY
~PARAMETER INFORMATION
#MNEM.UNIT          VALUE    DESCRIPTION
#----------   ------------   ------------------------------
 PD  .                 GL:   PERMANENT DATUM
 EPD .F              5204:   ELEVATION PERMANENT DATUM
 LMF .                 KB:   LOG MEASURED FROM
 DAPD.F                 5:   FEET ABOVE PERMANENT DATUM
 DMF .                 KB:   DRILLING MEASURED FROM
 EKB .F              5209:   KELLING BUSHING
 EGL .F              5204:   GROUND LEVEL
 DATE.        28-JUL-1964:   RUN DATE
 RUN .                  1:   RUN NUMBER
 DD  .F              1135:   DEPTH DRILLER
 DL  .F              1135:   DEPTH LOGGER
 BLI .F              1134:   BOTTOM LOG INTERVAL
 TLI .F                86:   TOP LOG INTERVAL
 CS  .IN            10.75:   CASING SIZE
 CBD .F                11:   CASING BOTTOM DRILLER
 BS  .IN            7.875:   BIT SIZE
 BSD .F              1135:   BIT SIZE AT DEPTH
 DFT .            GEL-OIL:   DRILLING FLUID TYPE
 DFD .                9.5:   DRILLING FLUID DENSITY
 DFV .                 49:   DRILLING FLUID VISCOSITY
 DFL .                 10:   DRILLING FLUID LOSS
 MSS .           FLOWLINE:   MUD SAMPLE SOURCE
 RMS .OHMM           2.35:   RESISTIVITY MUD SAMPLE
 MST .F                89:   MUD SAMPLE TEMPERATURE
 RMF .OHMM           1.71:   RESISTIVITY MUD FILTRATE SAMPLE
 MFST.F                89:   MUD FILTRATE SAMPLE TEMPERATURE
 RMC .OHMM           3.01:   RESISTIVITY MUD CAKE
 MCST.F                89:   MUD CAKE SAMPLE TEMPERATURE
 MFSS.                 FP:   MUD FILTRATE SAMPLE SOURCE
 MCSS.                 FP:   MUD CAKE SAMPLE SOURCE
 TCS .HRS               1:   TIME CURCULATED STOPPED
 LUN .               3527:   LOGGING UNIT NUMBER
 LUL .               CSPR:   LOGGING UNIT LOCATION
 ENGI.             KNOBEL:   RECORDING ENGINEER
 WITN.          JORGENSEN:   WITNESSED BY
 CLNT.            A2DTECH:   CLIENT CODE
 ORIG.        2" 5" PRINT:   ORIGIN OF DATA
 UWI .       490250644400:   UNIQUE WELL ID
 DICO. A2D Technologies, Inc.:   DIGITIZING COMPANY
~OTHER INFORMATION
~A   DEPT        ASN      CILD        ILD       SPR         DT         GR   
# ...
 1022.0000     9.9996   105.7882     9.7413   -23.1843    98.1565    42.1289
 1022.5000    10.5251    97.6155    10.6213   -24.9475    97.4041    34.9325
 1023.0000    11.5789    87.5820    11.3536   -27.0475    98.2318    30.2849
 1023.5000    12.7060    81.8800    12.2856   -29.1648    98.3822    28.0360
 1024.0000    13.6301    76.4658    13.5365   -30.8846    93.9428    24.1379
 1024.5000    14.4361    70.2282    14.4329   -32.1579    96.3506    25.4873
 1025.0000    15.3757    65.1980    15.0088   -33.5081    99.4357    24.4378
 1025.5000    17.1215    60.3791    15.4183   -34.9701   101.9187    17.5412
 1026.0000    17.5940    61.1575    15.7103   -41.5472   103.3545    22.6387
 1026.5000    17.0346    63.3812    15.7600   -42.6489   104.4956    22.3388
 1027.0000    16.0737    67.9139    15.6359   -42.5337   108.2393    21.5892
 1027.5000    15.9185    71.8059    15.1296   -42.0440   105.5305    22.9385
 1028.0000    16.0150    75.0102    14.1250   -41.3072   103.0474    19.9400
 1028.5000    16.0902    77.6685    13.1596   -39.6836   102.2950    21.2894
 1029.0000    15.7454    79.9121    12.5443   -38.4437   101.9940    21.8891
 1029.5000    15.2511    82.2641    12.1555   -37.4203   100.5643    24.8876
 1030.0000    14.7368    83.6580    11.9595   -36.4919   100.3386    24.2879
 1030.5000    14.4246    84.4014    11.9242   -35.5906   100.7901    27.5940
 1031.0000    14.7278    83.6094    11.8851   -35.2894   100.7148    28.3538
 1031.5000    15.2632    82.3670    11.9606   -35.3044   100.4003    22.3388
 1032.0000    15.7915    81.1246    11.9910   -35.7359    99.5109    20.5397
 1032.5000    16.1241    79.8377    12.1146   -36.5292    99.6614    24.4378
 1033.0000    16.3910    77.0182    12.5624   -38.4707    99.9624    26.2369
 1033.5000    16.4990    73.1541    13.3566   -41.3638    99.1347    25.9370
 1034.0000    16.6225    67.0020    14.8904   -44.4338   101.4673    15.7421
 1034.5000    16.8421    61.7759    16.7799   -45.4737   102.9722    18.7406
 1035.0000    18.1052    56.8402    18.1195   -45.4723   103.1979    19.6402
 1035.5000    20.2316    51.1542    19.9216   -45.4708   104.1761    18.7406
 1036.0000    21.4165    48.0120    20.3774   -45.4691   107.0354    18.5907
 1036.5000    23.5512    45.0767    20.5360   -45.4678   110.5223    20.2618
 1037.0000    25.2632    43.0974    20.6735   -45.8172   112.5106    21.2894
 1037.5000    26.0088    42.0746    20.7489   -47.5635   114.5598    15.5922
 1038.0000    25.7012    42.0627    20.7492   -49.9169   115.0865    13.6432
 1038.5000    24.0602    42.4749    20.6746   -51.0159   115.3123    17.3913
 1039.0000    22.3435    42.9418    20.5423   -51.4063   112.0015    17.5412
 1039.5000    20.6929    44.2872    20.1367   -51.1278   109.8947    23.2384
 1040.0000    20.2256    46.4859    19.3744   -49.9550   108.7660    29.2354
 1040.5000    20.0085    48.8605    18.2729   -48.5413   108.0135    27.5862
 1041.0000    19.5980    51.0298    16.9978   -47.7911   106.7344    26.9865
 1041.5000    18.7970    54.1190    16.0422   -47.5516   104.3983    28.8815
 1042.0000    18.1775    57.8015    14.4958   -47.7721   111.0564    31.9340
 1042.5000    17.2809    62.9329    13.3953   -47.9986   112.9797    30.5847
 1043.0000    15.8961    70.1003    13.0541   -47.8469   113.2807    29.5352
 1043.5000    14.2901    75.8239    12.6609   -47.0780   111.4748    30.8846
 1044.0000    13.1579    79.3073    12.1202   -44.7783   108.8412    39.1304
 1044.5000    12.6045    82.8526    11.7539   -40.6050   107.1859    40.3298
 1045.0000    12.1854    85.5786    11.4327   -35.7121   105.7562    37.6312
 1045.5000    11.6541    88.0950    11.1453   -34.7960   104.0256    41.9790
 1046.0000    11.3865    90.2058    10.9404   -34.0869   102.2197    32.0840
 1046.5000    11.1033    93.0741    10.7694   -33.3493   100.1881    28.9355
 1047.0000    10.9023    94.0864    10.5721   -32.5426    98.4935    34.2306
 1047.5000    10.7181    96.0655    10.4492   -32.0965    96.4259    34.7826
 1048.0000    10.6015    96.8072    10.3964   -31.6042    93.7171    35.2324
 1048.5000    10.5263    97.5508    10.3968   -31.0388    91.8360    35.9820
 1049.0000    10.5263    98.2899    10.3809   -30.4697    91.5350    35.0825
 1049.5000    10.5263    98.6798    10.3224   -29.6639    91.6102    41.0795
 1050.0000    10.5263    99.0222    10.3228   -28.8356    91.4597    39.4303
 1050.5000    10.6015    99.0084    10.3232   -28.9343    91.0083    35.3823
 1051.0000    10.6015    99.3274    10.3236   -28.7826    89.5786    36.8816
 1051.5000    10.6767    99.7943    10.3239   -28.5447    87.8480    37.8782
 1052.0000    10.7519   100.4819    10.3243   -28.1159    87.3965    28.4858
 1052.5000    10.7519   100.7279    10.3248   -27.4286    88.8074    34.2427
 1053.0000    10.7123   101.2123    10.2500   -26.6817    90.1053    39.4211
 1053.5000    10.6015   101.9541    10.1753   -26.1895    90.9330    41.5186
 1054.0000    10.5263   102.8816    10.1006   -25.7749    91.6102    42.4167
 1054.5000    10.4511   103.4375    10.0053   -25.7736    92.6637    40.4662
 1055.0000    10.3684   104.5682     9.8761   -25.7771    93.4913    36.2668
 1055.5000    10.1504   105.7882     9.7595   -25.9205    93.6418    34.4662
 1056.0000    10.0461   107.1672     9.6366   -25.9190    93.1151    39.4422
 1056.5000     9.9225   107.9104     9.4268   -25.9175    93.1904    41.5098
 1057.0000     9.7744   108.6948     9.3909   -25.7661    94.0978    35.8108
 1057.5000     9.4775   110.8977     9.2587   -25.5822    95.4077    34.1602
 1058.0000     9.0226   111.1344     9.1276   -25.4631    96.2875    40.4555
 1058.5000     8.5857   112.3830     8.9472   -25.3118    97.2664    42.7030
 1059.0000     8.4211   113.5744     8.8281   -25.1604    98.0949    42.4016
 1059.5000     8.5714   114.0411     8.7534   -25.0088    98.4718    41.9504
 1060.0000     8.8772   115.3605     8.6787   -25.0675    98.4726    42.9984
 1060.5000     9.1376   116.1032     8.6791   -25.1614    98.2476    43.8965
 1061.0000     9.4737   115.1332     8.7720   -25.3043    97.3747    46.8935
 1061.5000     9.6937   112.3139     8.9633   -25.6492    94.8632    44.7931
 1062.0000     9.9409   109.1262     9.3559   -25.9010    95.4659    41.1336
 1062.5000    10.2256   103.0692     9.7441   -26.1369    99.9061    42.0165
 1063.0000    10.5694    90.4420    10.2100   -26.5638   101.7879    43.1392
 1063.5000    11.0637    87.0001    10.7834   -27.0958   104.1965    44.4870
 1064.0000    11.7293    80.6322    11.5144   -27.9881   106.3040    45.9848
 1064.5000    12.3263    76.2952    12.1761   -31.4985   107.2830    40.8859
 1065.0000    13.0827    73.5064    12.8867   -38.3356   108.4876    33.3882
 1065.5000    13.7632    71.5615    13.3049   -40.4067   109.9702    26.6401
 1066.0000    14.0982    70.4318    13.8709   -39.6582   109.1664    24.8395
 1066.5000    14.2857    70.0339    14.0383   -38.6309   106.3831    28.1364
 1067.0000    14.2451    70.0209    13.9154   -38.2359   108.7917    33.8321
 1067.5000    14.0326    70.3062    13.7143   -37.5787   111.8774    32.4368
 1068.0000    13.7594    72.2993    13.4745   -35.9641   113.0067    30.1405
 1068.5000    13.4278    74.7502    13.1351   -35.7768   110.5997    20.0342
 1069.0000    13.0486    78.1776    12.8146   -36.5246   110.7510    17.3344
 1069.5000    12.4060    82.0138    12.4320   -36.8231   112.2793    27.0777
 1070.0000    12.1955    86.2951    11.9645   -36.3118   110.3509    36.0718
 1070.5000    11.9484    89.6736    11.6896   -35.3206   108.8406    41.3177
 1071.0000    11.5789    91.0154    11.4722   -34.4478   107.2174    43.2656
 1071.5000    11.3790    92.8665    11.2261   -33.9620   109.7765    39.0659
 1072.0000    11.1278    94.1665    10.9400   -33.9190   109.0249    34.5666
 1072.5000    10.9311    96.2520    10.8089   -33.9658   108.7997    34.4003
 1073.0000    10.7323    97.2791    10.6379   -33.9640   108.7252    37.5622
 1073.5000    10.6015    98.4989    10.4412   -33.7856   108.6509    36.0178
