~VERSION INFORMATION
 VERS.                2.0:   CWLS LOG ASCII STANDARD - VERSION 2.0
 WRAP.                 NO:   ONE LINE PER DEPTH STEP
~WELL INFORMATION
#MNEM.UNIT      DATA TYPE    INFORMATION
#----------   ------------   ------------------------------
 STRT.F           27.0000:   START DEPTH
 STOP.F          670.0000:   STOP DEPTH
 STEP.F            0.5000:   STEP LENGTH
 NULL.          -999.2500:   NO VALUE
 COMP. LAWRENCE/ALLISON INC:   COMPANY
 WELL. SX 11 WP 26 #26-11:   WELL
 FLD .           N.P.R #3:   FIELD
 LOC .      S11 T38N R78W:   LOCATION
 CNTY.            NATRONA:   COUNTY
 STAT.            WYOMING:   STATE
 CTRY. UNITED STATES OF AMERICA:   COUNTRY
 SRVC.            Unknown:   SERVICE COMPANY
 DATE.        11-SEP-1984:   LOGDATE
 API .       490251097700:   API NUMBER
~CURVE INFORMATION
#MNEM.UNIT       API CODE    CURVE DESCRIPTION
#----------   ------------   ------------------------------
 DEPT.F                  :   
 CNC .DEC    42 890 03 00:   NEUTRON POROSITY SANDSTONE
 AC  .US/F   60 520 00 00:   ACCOUSTIC SONIC
 SPR .MV     07 010 01 00:   SPONTANEOUS POTENTIAL
 RILD.OHMM   07 120 46 00:   INDUCTION LOG DEEP RESISTIVITY
 RILM.OHMM   07 120 44 00:   INDUCTION LOG MEDIUM RESISTIVITY
 RFOC.OHMM   07 220 04 00:   RESISTIVITY FOCUSED LOG
 GRD .GAPI   45 310 01 00:   GAMMA RAY FROM DENSITY LOG
 CALD.IN     45 280 60 00:   CALIPER FROM DENSITY LOG
 DEN .G/C3   45 350 01 00:   COMPENSATED BULK DENSTIY
 CORR.G/C3   45 356 01 00:   DENSITY CORRECTION
 PORD.DEC    45 890 12 00:   POROSITY DENSITY SANDSTONE
~PARAMETER INFORMATION
#MNEM.UNIT          VALUE    DESCRIPTION
#----------   ------------   ------------------------------
 PD  .                 GL:   PERMANENT DATUM
 EPD .F              5186:   ELEVATION PERMANENT DATUM
 LMF .                 GL:   LOG MEASURED FROM
 DMF .                 GL:   DRILLING MEASURED FROM
 EGL .F              5186:   GROUND LEVEL
 DATE.            9-11-84:   RUN DATE
 RUN .                  1:   RUN NUMBER
 DD  .F               672:   DEPTH DRILLER
 DL  .F               668:   DEPTH LOGGER
 BLI .F               668:   BOTTOM LOG INTERVAL
 TLI .F                45:   TOP LOG INTERVAL
 CS  .IN            8.625:   CASING SIZE
 CBD .F                42:   CASING BOTTOM DRILLER
 CBL .F                45:   CASING BOTTOM LOGGER
 BS  .IN            7.875:   BIT SIZE
 BSD .F               672:   BIT SIZE AT DEPTH
 DFT .          KCL WATER:   DRILLING FLUID TYPE
 MSS .               TANK:   MUD SAMPLE SOURCE
 RMS .OHMM            .36:   RESISTIVITY MUD SAMPLE
 MST .F                82:   MUD SAMPLE TEMPERATURE
 MFSS.                  C:   MUD FILTRATE SAMPLE SOURCE
 MCSS.                  C:   MUD CAKE SAMPLE SOURCE
 TCS .HRS               3:   TIME CURCULATED STOPPED
 MRT .F               100:   MAXIMUM RECORDED TEMPERATURE
 LUN .            HL 6307:   LOGGING UNIT NUMBER
 LUL .           GILLETTE:   LOGGING UNIT LOCATION
 ENGI.      FAHLSING/MACK:   RECORDING ENGINEER
 WITN.            JOHNSON:   WITNESSED BY
 CLNT.            A2DTECH:   CLIENT CODE
 ORIG.       2", 5" PRINT:   ORIGIN OF DATA
 UWI .       490251097700:   UNIQUE WELL ID
 DICO. A2D Technologies, Inc.:   DIGITIZING COMPANY
~OTHER INFORMATION
~A   DEPT      CNC          AC       SPR       RILD       RILM       RFOC        GRD       CALD        DEN       CORR       PORD   
# ...
  515.0000     0.2840    98.2230   -20.0600    16.4070    17.5660    19.2820    74.8010     7.7990     2.3440     0.0390     0.1990
  515.5000     0.2824    97.8350   -20.3450    16.2610    16.9120    19.5060    77.0320     7.7990     2.3540     0.0430     0.1920
  516.0000     0.2669    97.6760   -20.6330    16.1190    16.4070    19.7260    79.3150     7.7990     2.3650     0.0460     0.1850
  516.5000     0.2644    97.6200   -20.9220    15.9760    16.6560    19.5660    79.9970     7.7990     2.3730     0.0500     0.1830
  517.0000     0.2742    97.6740   -21.2100    15.8330    16.8990    19.1940    79.8430     7.7990     2.3700     0.0510     0.1850
  517.5000     0.2764    97.7190   -21.4990    15.6900    17.1800    18.8380    79.7080     7.7990     2.3650     0.0390     0.1870
  518.0000     0.2754    96.8730   -21.7870    15.5470    16.9130    18.8380    80.3540     7.7990     2.3610     0.0270     0.1900
  518.5000     0.2751    95.9320   -22.0750    15.3310    16.5940    19.1500    81.2880     7.7990     2.3630     0.0160     0.1890
  519.0000     0.2750    94.9910   -22.3620    15.1010    16.2760    19.6350    81.2250     7.7990     2.3750     0.0280     0.1810
  519.5000     0.2750    94.4320   -22.6490    14.8720    15.9580    20.0920    81.1410     7.7990     2.3870     0.0200     0.1720
  520.0000     0.2839    95.0120   -22.7960    14.6420    15.6390    18.8180    82.2320     7.7990     2.3910     0.0090     0.1690
  520.5000     0.2898    95.9730   -22.7470    14.4130    15.3210    17.5460    83.2610     7.7990     2.3840     0.0260     0.1760
  521.0000     0.2993    96.9330   -22.7000    14.1590    15.0020    16.7120    82.5820     7.7990     2.3740     0.0460     0.1820
  521.5000     0.2863    97.0820   -22.6530    13.8780    14.6840    16.8740    80.8070     7.7990     2.3660     0.0380     0.1860
  522.0000     0.2751    96.8820   -22.6060    13.5970    14.3660    17.1160    80.6100     7.7990     2.3670     0.0250     0.1850
  522.5000     0.2674    96.6830   -22.5590    13.3170    14.0470    17.3390    83.0250     7.7990     2.3700     0.0280     0.1840
  523.0000     0.2612    96.4840   -22.5110    13.0360    13.7290    17.0370    85.4250     7.7990     2.3700     0.0310     0.1840
  523.5000     0.2577    96.0760   -22.4590    12.7550    13.4110    16.6930    86.5000     7.7990     2.3680     0.0310     0.1840
  524.0000     0.2580    95.3290   -22.3970    12.4740    13.0920    16.3500    85.6430     7.7990     2.3690     0.0240     0.1800
  524.5000     0.2626    94.6240   -22.6540    12.2920    12.7740    16.0360    87.2250     7.7990     2.3840     0.0170     0.1730
  525.0000     0.2715    93.9340   -22.8030    12.2190    12.6770    15.7920    89.3850     7.7990     2.3990     0.0100     0.1650
  525.5000     0.2724    94.0340   -22.9560    12.4270    13.2260    15.5250    87.8180     7.7990     2.4060     0.0030     0.1660
  526.0000     0.2560    94.1330   -23.1090    12.6580    13.8350    15.5250    86.0140     7.7990     2.4080     0.0110     0.1680
  526.5000     0.2402    92.2850   -23.2600    12.8900    14.4430    16.1520    85.6670     7.7990     2.4080     0.0250     0.1650
  527.0000     0.2361    89.7510   -23.4120    13.1210    15.0520    17.0650    84.3440     7.7990     2.4170     0.0310     0.1570
  527.5000     0.2361    86.0990   -23.5630    13.3520    15.6610    19.1550    79.4600     7.7990     2.4310     0.0220     0.1490
  528.0000     0.2361    82.4470   -23.7150    13.5830    16.5590    21.2450    74.6320     7.7990     2.4440     0.0130     0.1420
  528.5000     0.2357    79.9900   -23.8660    13.8040    16.2100    23.0350    70.9040     7.7990     2.4510     0.0050     0.1370
  529.0000     0.2354    82.0100   -24.0180    13.8620    15.5470    21.9580    73.4790     7.7990     2.4580    -0.0040     0.1310
  529.5000     0.2360    86.0490   -24.1690    13.9000    14.8840    19.2380    75.9580     7.7990     2.4590    -0.0070     0.1320
  530.0000     0.2491    89.3290   -24.3210    13.5000    14.2220    16.5180    78.4090     7.7990     2.4450     0.0110     0.1440
  530.5000     0.2610    92.2840   -24.4720    13.2000    13.5220    15.7840    80.8130     7.7990     2.4240     0.0310     0.1580
  531.0000     0.2606    95.2390   -24.6240    12.9000    13.3290    15.7430    80.2200     7.7990     2.4030     0.0260     0.1650
  531.5000     0.2559    97.0220   -24.7750    12.5990    13.1240    15.7030    79.0390     7.7990     2.3860     0.0200     0.1720
  532.0000     0.2544    97.3010   -24.9270    12.2990    12.9200    15.6630    77.8410     7.7990     2.3830     0.0140     0.1790
  532.5000     0.2556    97.0720   -25.0780    12.0870    12.7160    15.6230    78.3670     7.7990     2.3830     0.0090     0.1780
  533.0000     0.2549    96.5740   -25.2300    11.9630    12.5110    15.5830    80.1230     7.7990     2.3840     0.0040     0.1760
  533.5000     0.2496    96.0760   -25.3810    11.8380    12.3070    15.5420    81.8830     7.7990     2.3850     0.0140     0.1740
  534.0000     0.2397    95.5780   -25.5330    11.7140    12.1530    15.4420    83.6460     7.7990     2.3870     0.0250     0.1740
  534.5000     0.2463    95.0800   -25.5970    11.5900    12.0370    15.2960    82.7630     7.7990     2.3860     0.0330     0.1740
  535.0000     0.2538    94.5820   -25.5970    11.4800    11.9210    15.1500    81.5640     7.7990     2.3860     0.0320     0.1750
  535.5000     0.2618    94.2830   -25.5970    11.3740    11.8050    15.0040    80.3800     7.7990     2.3870     0.0300     0.1730
  536.0000     0.2606    93.7850   -25.5980    11.2690    11.6890    14.8580    79.7580     7.7990     2.3890     0.0210     0.1700
  536.5000     0.2565    93.2370   -25.5980    11.1630    11.5730    14.7120    82.7490     7.7990     2.3920     0.0110     0.1670
  537.0000     0.2546    92.9760   -25.6000    11.0580    11.4580    14.5660    85.7240     7.7990     2.3960     0.0010     0.1670
  537.5000     0.2577    92.6020   -25.6070    10.9520    11.3420    14.4200    87.6430     7.7990     2.4000    -0.0080     0.1660
  538.0000     0.2645    92.2270   -25.7510    10.8470    11.2260    14.2750    85.3110     7.7990     2.4040    -0.0010     0.1650
  538.5000     0.2625    91.8470   -25.9240    10.7410    11.1100    14.1590    82.8200     7.7990     2.4080     0.0080     0.1630
  539.0000     0.2603    91.4680   -26.0770    10.6360    11.0420    14.1010    80.2910     7.7990     2.4110     0.0160     0.1600
  539.5000     0.2526    91.0890   -26.2290    10.5300    11.0420    14.0450    78.8400     7.7990     2.4150     0.0250     0.1570
  540.0000     0.2501    90.7470   -26.3830    10.4480    11.0420    13.9880    77.6140     7.7990     2.4200     0.0330     0.1540
  540.5000     0.2494    90.4910   -26.5350    10.5310    11.0420    13.9310    76.4300     7.7990     2.4250     0.0360     0.1510
  541.0000     0.2476    90.3930   -26.8420    10.6340    11.0420    13.8740    77.4270     7.7990     2.4310     0.0320     0.1480
  541.5000     0.2351    90.5390   -27.2350    10.6000    11.0420    13.8170    79.7450     7.7990     2.4350     0.0280     0.1460
  542.0000     0.2326    90.6850   -27.6280    10.5340    11.0420    13.7730    82.0650     7.7990     2.4350     0.0240     0.1470
  542.5000     0.2326    90.8470   -28.0220    10.4670    11.0420    13.8640    84.0150     7.7990     2.4340     0.0220     0.1480
  543.0000     0.2441    90.6000   -28.4150    10.4000    11.0420    13.9520    81.3050     7.7990     2.4340     0.0270     0.1440
  543.5000     0.2452    90.3260   -28.8090    10.3340    10.9980    14.0400    78.3420     7.7990     2.4390     0.0320     0.1410
  544.0000     0.2455    90.0520   -29.1750    10.2570    10.9550    14.1280    79.4800     7.7990     2.4450     0.0380     0.1370
  544.5000     0.2486    89.7510   -29.1140    10.2760    10.9130    14.2170    80.8630     7.7990     2.4500     0.0430     0.1360
  545.0000     0.2553    89.7260   -29.0090    10.3040    10.8710    14.3050    80.1410     7.7990     2.4530     0.0360     0.1340
