~VERSION INFORMATION
 VERS.                2.0:   CWLS LOG ASCII STANDARD - VERSION 2.0
 WRAP.                 NO:   ONE LINE PER DEPTH STEP
~WELL INFORMATION
#MNEM.UNIT      DATA TYPE    INFORMATION
#----------   ------------   ------------------------------
 STRT.F           30.0000:   START DEPTH
 STOP.F          744.0000:   STOP DEPTH
 STEP.F            0.5000:   STEP LENGTH
 NULL.          -999.2500:   NO VALUE
 COMP. FENIX & SCISSON INC:   COMPANY
 WELL.   NPR 3 #53 S - 34:   WELL
 FLD .             TEAPOT:   FIELD
 LOC .      S34 T39N R78W:   LOCATION
 CNTY.            NATRONA:   COUNTY
 STAT.            WYOMING:   STATE
 CTRY. UNITED STATES OF AMERICA:   COUNTRY
 SRVC.       Schlumberger:   SERVICE COMPANY
 DATE.        28-MAR-1977:   LOGDATE
 API .       490251031700:   API NUMBER
~CURVE INFORMATION
#MNEM.UNIT       API CODE    CURVE DESCRIPTION
#----------   ------------   ------------------------------
 DEPT.F                  :   
 CALD.IN     45 280 60 00:   CALIPER FROM DENSITY LOG
 GRD .GAPI   45 310 01 00:   GAMMA RAY FROM DENSITY LOG
 CORR.G/C3   45 356 01 00:   DENSITY CORRECTION
 DPHI.DEC    45 890 12 00:   DENSITY POROSITY SANDSTONE
 RHOB.G/C3   45 350 01 00:   BULK DENSITY
~PARAMETER INFORMATION
#MNEM.UNIT          VALUE    DESCRIPTION
#----------   ------------   ------------------------------
 PD  .                 GL:   PERMANENT DATUM
 EPD .F              5081:   ELEVATION PERMANENT DATUM
 LMF .                 GL:   LOG MEASURED FROM
 DAPD.F                 5:   FEET ABOVE PERMANENT DATUM
 DMF .                 KB:   DRILLING MEASURED FROM
 EKB .F              5086:   KELLING BUSHING
 EGL .F              5081:   GROUND LEVEL
 DATE.        20-MAR-1977:   RUN DATE
 RUN .                  1:   RUN NUMBER
 DD  .F               751:   DEPTH DRILLER
 DL  .F               745:   DEPTH LOGGER
 BLI .F               744:   BOTTOM LOG INTERVAL
 TLI .F                30:   TOP LOG INTERVAL
 CBL .F                38:   CASING BOTTOM LOGGER
 BS  .IN            7.875:   BIT SIZE
 BSD .F               751:   BIT SIZE AT DEPTH
 DFT .             5% KCL:   DRILLING FLUID TYPE
 MSS .           MUD TANK:   MUD SAMPLE SOURCE
 RMS .OHMM            .23:   RESISTIVITY MUD SAMPLE
 MST .F                68:   MUD SAMPLE TEMPERATURE
 RMF .OHMM            .18:   RESISTIVITY MUD FILTRATE SAMPLE
 MFST.F                68:   MUD FILTRATE SAMPLE TEMPERATURE
 RMC .OHMM            .35:   RESISTIVITY MUD CAKE
 MCST.F                68:   MUD CAKE SAMPLE TEMPERATURE
 MFSS.               MEAS:   MUD FILTRATE SAMPLE SOURCE
 MCSS.               CALC:   MUD CAKE SAMPLE SOURCE
 RMB .OHMM            .24:   RESISTIVITY MUD AT BHT
 BHT .F                60:   BOTTOM HOLE TEMPERATURE
 TCS .HRS            0300:   TIME CURCULATED STOPPED
 MRT .F                60:   MAXIMUM RECORDED TEMPERATURE
 LUN .               7680:   LOGGING UNIT NUMBER
 LUL .               CSPR:   LOGGING UNIT LOCATION
 ENGI.                FIX:   RECORDING ENGINEER
 WITN.              BURKE:   WITNESSED BY
 CLNT.            A2DTECH:   CLIENT CODE
 ORIG.           5" PRINT:   ORIGIN OF DATA
 UWI .       490251031700:   UNIQUE WELL ID
 DICO. A2D Technologies, Inc.:   DIGITIZING COMPANY
~OTHER INFORMATION
~A   DEPT     CALD        GRD       CORR       DPHI       RHOB   
# ...
  640.0000     8.3459    58.6475     0.0119     0.1816     2.3491
  640.5000     8.3474    59.2823     0.0213     0.1840     2.3476
  641.0000     8.3489    59.3007     0.0237     0.1840     2.3469
  641.5000     8.3505    59.0064     0.0268     0.1861     2.3493
  642.0000     8.3520    60.7244     0.0331     0.1797     2.3603
  642.5000     8.3377    62.1297     0.0401     0.1721     2.3681
  643.0000     8.3397    61.2236     0.0518     0.1759     2.3635
  643.5000     8.3412    57.3900     0.0333     0.1810     2.3442
  644.0000     8.3269    53.7105     0.0260     0.1956     2.3350
  644.5000     8.3130    49.5687     0.0270     0.1634     2.3669
  645.0000     8.3150    53.5934     0.0400     0.1501     2.4050
  645.5000     8.3165    58.6966     0.0522     0.1373     2.4175
  646.0000     8.3181    56.7120     0.0384     0.1298     2.4276
  646.5000     8.3505    56.4177     0.0153     0.1222     2.4401
  647.0000     8.3674    58.2898     0.0097     0.1163     2.4604
  647.5000     8.3690    60.1572     0.0192     0.1453     2.4069
  648.0000     8.3396    58.6349     0.0285     0.1722     2.3705
  648.5000     8.2795    56.4962     0.0410     0.1752     2.3683
  649.0000     8.2193    56.8228     0.0518     0.1739     2.3684
  649.5000     8.1745    58.2281     0.0549     0.1686     2.3684
  650.0000     8.1143    59.4792     0.0464     0.1773     2.3685
  650.5000     8.2085    60.9799     0.0318     0.1794     2.3507
  651.0000     8.2717    62.6023     0.0164     0.1922     2.3368
  651.5000     8.3041    61.6992     0.0273     0.1792     2.3516
  652.0000     8.3201    60.6420     0.0367     0.1692     2.3773
  652.5000     8.3214    60.3313     0.0251     0.1794     2.3541
  653.0000     8.3228    60.8388     0.0245     0.1756     2.3611
  653.5000     8.3083    61.4765     0.0184     0.1728     2.3651
  654.0000     8.2946    61.9722     0.0122     0.1752     2.3675
  654.5000     8.2959    60.4407     0.0162     0.1715     2.3706
  655.0000     8.2814    60.3080     0.0186     0.1690     2.3684
  655.5000     8.2831    62.8382     0.0140     0.1832     2.3591
  656.0000     8.2844    65.8266     0.0164     0.1798     2.3584
  656.5000     8.2700    66.2501     0.0142     0.1810     2.3538
  657.0000     8.2871    67.4113     0.0042     0.1835     2.3508
  657.5000     8.2884    68.8948    -0.0004     0.1791     2.3532
  658.0000     8.3052    69.8353    -0.0002     0.1679     2.3636
  658.5000     8.3065    66.1640     0.0110     0.1619     2.3811
  659.0000     8.3078    63.1038     0.0281     0.1557     2.3975
  659.5000     8.3091    62.2006     0.0495     0.1665     2.3782
  660.0000     8.2947    62.0626     0.0333     0.1712     2.3736
  660.5000     8.2806    62.8597     0.0303     0.1665     2.3791
  661.0000     8.2819    64.5760     0.0164     0.1652     2.3807
  661.5000     8.2833    66.6005     0.0142     0.1624     2.3886
  662.0000     8.2846    68.3114     0.0104     0.1474     2.4096
  662.5000     8.2859    66.1810     0.0197     0.1421     2.4158
  663.0000     8.2872    64.6615     0.0245     0.1378     2.4221
  663.5000     8.2885    66.0696     0.0176     0.1396     2.4322
  664.0000     8.2900    66.8614     0.0107     0.1452     2.4129
  664.5000     8.2912    66.8828     0.0139     0.1396     2.4200
  665.0000     8.2925    65.5174     0.0178     0.1358     2.4255
  665.5000     8.2938    61.3786     0.0225     0.1271     2.4395
  666.0000     8.2952    60.6597     0.0141     0.1267     2.4426
  666.5000     8.2965    63.8866     0.0242     0.1193     2.4536
  667.0000     8.2820    67.1438     0.0337     0.1133     2.4662
  667.5000     8.2837    68.0896     0.0228     0.1248     2.4529
  668.0000     8.2693    67.8028     0.0237     0.1235     2.4413
  668.5000     8.2709    66.2764     0.0318     0.1176     2.4577
  669.0000     8.2722    65.9966     0.0259     0.1256     2.4484
  669.5000     8.2736    66.6646     0.0231     0.1250     2.4524
  670.0000     8.2749    67.4474     0.0302     0.1212     2.4494
  670.5000     8.2916    68.2450     0.0233     0.1271     2.4424
  671.0000     8.2930    68.8609     0.0133     0.1296     2.4394
  671.5000     8.2943    69.6527     0.0219     0.1243     2.4480
  672.0000     8.2956    70.9014     0.0251     0.1164     2.4573
  672.5000     8.2967    69.5414     0.0159     0.1174     2.4527
  673.0000     8.2980    68.6383     0.0338     0.1111     2.4978
  673.5000     8.2993    68.3461     0.0578     0.0990     2.4777
  674.0000     8.3006    69.1433     0.0432     0.1140     2.4607
  674.5000     8.2704    69.0106     0.0324     0.1142     2.4677
  675.0000     8.1952    66.7207     0.0348     0.1070     2.4934
  675.5000     8.0268    65.3553     0.0403     0.0976     2.5043
  676.0000     8.2596    64.9091     0.0350     0.1079     2.4734
  676.5000     8.3381    66.3226     0.0204     0.1147     2.4571
  677.0000     8.3085    69.1174     0.0157     0.1156     2.4580
  677.5000     8.2790    71.7582     0.0174     0.1152     2.4611
  678.0000     8.2646    72.5500     0.0221     0.1136     2.4674
  678.5000     8.2662    73.0337     0.0261     0.1096     2.4783
  679.0000     8.2675    73.8254     0.0332     0.0943     2.5049
  679.5000     8.2689    74.9254     0.0445     0.0962     2.4964
  680.0000     8.2702    76.0254     0.0232     0.1076     2.4749
  680.5000     8.2715    76.5234     0.0392     0.0971     2.4850
  681.0000     8.2728    74.8354     0.0381     0.0983     2.4934
  681.5000     8.2742    72.5456     0.0366     0.1020     2.4826
  682.0000     8.2755    72.1047     0.0328     0.1109     2.4741
  682.5000     8.2768    72.9044     0.0228     0.1091     2.4765
  683.0000     8.2781    74.0236     0.0276     0.1068     2.4843
  683.5000     8.2795    75.2893     0.0377     0.1003     2.4914
  684.0000     8.2808    77.1709     0.0277     0.1111     2.4744
  684.5000     8.2821    76.3772     0.0170     0.1148     2.4651
  685.0000     8.2832    74.7036     0.0124     0.1179     2.4535
  685.5000     8.2845    72.7219     0.0179     0.1091     2.4753
  686.0000     8.2858    71.5106     0.0280     0.1045     2.4924
  686.5000     8.2871    70.6075     0.0343     0.1048     2.4785
  687.0000     8.2884    71.3993     0.0243     0.1082     2.4732
  687.5000     8.2897    72.6534     0.0190     0.1128     2.4686
  688.0000     8.2911    73.2911     0.0167     0.1112     2.4686
  688.5000     8.2924    73.7747     0.0183     0.1100     2.4687
  689.0000     8.2937    74.7206     0.0215     0.1118     2.4703
  689.5000     8.2950    75.5124     0.0247     0.1052     2.4805
  690.0000     8.2964    76.3041     0.0280     0.0984     2.5085
  690.5000     8.2977    77.2500     0.0335     0.1086     2.4895
  691.0000     8.2990    79.4286     0.0163     0.1095     2.4750
  691.5000     8.3003    81.4530     0.0142     0.1054     2.4730
  692.0000     8.3017    80.8581     0.0150     0.1082     2.4885
  692.5000     8.3030    79.0251     0.0167     0.1085     2.4793
  693.0000     8.3043    80.2845     0.0159     0.1057     2.4801
  693.5000     8.3056    81.6926     0.0168     0.1013     2.4918
  694.0000     8.3070    83.5630     0.0215     0.1041     2.4795
  694.5000     8.3083    84.2111     0.0169     0.1063     2.4850
  695.0000     8.2938    84.2221     0.0224     0.1040     2.4943
  695.5000     8.2955    84.3975     0.0125     0.1065     2.4734
  696.0000     8.2968    82.6996     0.0180     0.1036     2.4782
  696.5000     8.2827    80.0908     0.0165     0.1052     2.4860
  697.0000     8.2840    79.5310     0.0228     0.1093     2.4767
  697.5000     8.2851    80.3698     0.0128     0.1139     2.4605
  698.0000     8.2864    81.5435     0.0159     0.1176     2.4520
  698.5000     8.2877    84.1865     0.0253     0.1237     2.4397
  699.0000     8.2890    90.7151     0.0331     0.1355     2.4304
  699.5000     8.2749    91.8145     0.0394     0.1357     2.4243
  700.0000     8.2608    85.9802     0.0232     0.1208     2.4391
  700.5000     8.2621    82.6112     0.0064     0.1087     2.4857
