~VERSION INFORMATION
 VERS.                2.0:   CWLS LOG ASCII STANDARD - VERSION 2.0
 WRAP.                 NO:   ONE LINE PER DEPTH STEP
~WELL INFORMATION
#MNEM.UNIT      DATA TYPE    INFORMATION
#----------   ------------   ------------------------------
 STRT.F            0.0000:   START DEPTH
 STOP.F         2230.0000:   STOP DEPTH
 STEP.F            0.5000:   STEP LENGTH
 NULL.          -999.2500:   NO VALUE
 COMP. LAWRENCE/ALLISON INC:   COMPANY
 WELL. NPR 3 SH X 34 #48-34:   WELL
 FLD .            WILDCAT:   FIELD
 LOC .      S34 T39N R78W:   LOCATION
 CNTY.            NATRONA:   COUNTY
 STAT.            WYOMING:   STATE
 CTRY. UNITED STATES OF AMERICA:   COUNTRY
 SRVC.            Unknown:   SERVICE COMPANY
 DATE.        02-SEP-1991:   LOGDATE
 API .       490251110600:   API NUMBER
~CURVE INFORMATION
#MNEM.UNIT       API CODE    CURVE DESCRIPTION
#----------   ------------   ------------------------------
 DEPT.F                  :   
 ROP .MIN/FT 91 810 01 00:   RAT OF DRILLING PENETRATION
 TGAS.UNITS  91 830 01 00:   TOTAL GAS FROM HOTWIRE
 C1  .VF     91 831 01 00:   METHANE
 C2  .VF     91 832 01 00:   ETHANE
 C3  .VF     91 833 01 00:   PROPANE
 C4  .VF     91 834 01 00:   BUTANE
 TT  .US/F   81 520 00 00:   TRANSIT TIME
 GR  .GAPI   81 310 01 00:   GAMMA RAY FROM CEMENT BOND LOG
~PARAMETER INFORMATION
#MNEM.UNIT          VALUE    DESCRIPTION
#----------   ------------   ------------------------------
 EKB .F              5145:   KELLING BUSHING
 EGL .F              5135:   GROUND LEVEL
 DATE.          09-2-1991:   RUN DATE
 RUN .                  1:   RUN NUMBER
 BLI .F              2400:   BOTTOM LOG INTERVAL
 TLI .F              2200:   TOP LOG INTERVAL
 ENGI.           C. TOWER:   RECORDING ENGINEER
 WITN.            R. HUSK:   WITNESSED BY
 CLNT.            A2DTECH:   CLIENT CODE
 ORIG.           5" PRINT:   ORIGIN OF DATA
 UWI .       490251110600:   UNIQUE WELL ID
 DICO. A2D Technologies, Inc.:   DIGITIZING COMPANY
~OTHER INFORMATION
~A    DEPT     ROP       TGAS         C1         C2         C3         C4          TT         GR  
# ...
  972.0000     0.8073     3.3640     9.2500     1.7560  -999.2500  -999.2500  -999.2500  -999.2500
  972.5000     0.8079     3.3713     9.2500     1.7527  -999.2500  -999.2500  -999.2500  -999.2500
  973.0000     0.8085     3.3786     9.2500     1.7495  -999.2500  -999.2500  -999.2500  -999.2500
  973.5000     0.8091     3.3859     9.2500     1.7463  -999.2500  -999.2500  -999.2500  -999.2500
  974.0000     0.8098     3.3932     9.2500     1.7430  -999.2500  -999.2500  -999.2500  -999.2500
  974.5000     0.8102     3.4005     9.2500     1.7398  -999.2500  -999.2500  -999.2500  -999.2500
  975.0000     0.8094     3.4078     9.2500     1.7365  -999.2500  -999.2500  -999.2500  -999.2500
  975.5000     0.8086     3.4151     9.2500     1.7333  -999.2500  -999.2500  -999.2500  -999.2500
  976.0000     0.8077     3.4225     9.2500     1.7301  -999.2500  -999.2500  -999.2500  -999.2500
  976.5000     0.8069     3.4298     9.2500     1.7268  -999.2500  -999.2500  -999.2500  -999.2500
  977.0000     0.8061     3.4371     9.2500     1.7236  -999.2500  -999.2500  -999.2500  -999.2500
  977.5000     0.8053     3.4444     9.2500     1.7204  -999.2500  -999.2500  -999.2500  -999.2500
  978.0000     0.8045     3.4517     9.2500     1.7171  -999.2500  -999.2500  -999.2500  -999.2500
  978.5000     0.8037     3.4590     9.2500     1.7139  -999.2500  -999.2500  -999.2500  -999.2500
  979.0000     0.8029     3.4663     9.2500     1.7106  -999.2500  -999.2500  -999.2500  -999.2500
  979.5000     0.8021     3.4736     9.2500     1.7074  -999.2500  -999.2500  -999.2500  -999.2500
  980.0000     0.8012     3.4809     9.2500     1.7042  -999.2500  -999.2500  -999.2500  -999.2500
  980.5000     0.8004     3.4882     9.2502     1.7009  -999.2500  -999.2500  -999.2500  -999.2500
  981.0000     0.7996     3.4955     9.2498     1.6976  -999.2500  -999.2500  -999.2500  -999.2500
  981.5000     0.7988     3.5029     9.2076     1.6942  -999.2500  -999.2500  -999.2500  -999.2500
  982.0000     0.7980     3.5102     9.1597     1.6909  -999.2500  -999.2500  -999.2500  -999.2500
  982.5000     0.7977     3.5175     9.1118     1.6875  -999.2500  -999.2500  -999.2500  -999.2500
  983.0000     0.7977     3.5248     9.0639     1.6841  -999.2500  -999.2500  -999.2500  -999.2500
  983.5000     0.7977     3.5321     9.0161     1.6808  -999.2500  -999.2500  -999.2500  -999.2500
  984.0000     0.7977     3.5394     8.9683     1.6774  -999.2500  -999.2500  -999.2500  -999.2500
  984.5000     0.7977     3.5467     8.9204     1.6740  -999.2500  -999.2500  -999.2500  -999.2500
  985.0000     0.7977     3.5540     8.8725     1.6707  -999.2500  -999.2500  -999.2500  -999.2500
  985.5000     0.7977     3.5613     8.8249     1.6673  -999.2500  -999.2500  -999.2500  -999.2500
  986.0000     0.7977     3.5686     8.7774     1.6639  -999.2500  -999.2500  -999.2500  -999.2500
  986.5000     0.7977     3.5759     8.7502     1.6606  -999.2500  -999.2500  -999.2500  -999.2500
  987.0000     0.7977     3.5833     8.7501     1.6572  -999.2500  -999.2500  -999.2500  -999.2500
  987.5000     0.7977     3.5906     8.7500     1.6538  -999.2500  -999.2500  -999.2500  -999.2500
  988.0000     0.7977     3.5979     8.7500     1.6505  -999.2500  -999.2500  -999.2500  -999.2500
  988.5000     0.7977     3.6052     8.7500     1.6471  -999.2500  -999.2500  -999.2500  -999.2500
  989.0000     0.7977     3.6125     8.7500     1.6437  -999.2500  -999.2500  -999.2500  -999.2500
  989.5000     0.7977     3.6198     8.7500     1.6404  -999.2500  -999.2500  -999.2500  -999.2500
  990.0000     0.7977     3.6271     8.7500     1.6370  -999.2500  -999.2500  -999.2500  -999.2500
  990.5000     0.7977     3.6344     8.7500     1.6336  -999.2500  -999.2500  -999.2500  -999.2500
  991.0000     0.7977     3.6417     8.7500     1.6303  -999.2500  -999.2500  -999.2500  -999.2500
  991.5000     0.7977     3.6490     8.7500     1.6269  -999.2500  -999.2500  -999.2500  -999.2500
  992.0000     0.7977     3.6563     8.7500     1.6235  -999.2500  -999.2500  -999.2500  -999.2500
  992.5000     0.7977     3.6637     8.7500     1.6202  -999.2500  -999.2500  -999.2500  -999.2500
  993.0000     0.7976     3.6710     8.7500     1.6168  -999.2500  -999.2500  -999.2500  -999.2500
  993.5000     0.7977     3.6783     8.7500     1.6134  -999.2500  -999.2500  -999.2500  -999.2500
  994.0000     0.8069     3.6856     8.7500     1.6101  -999.2500  -999.2500  -999.2500  -999.2500
  994.5000     0.8656     3.6929     8.7500     1.6067  -999.2500  -999.2500  -999.2500  -999.2500
  995.0000     0.9244     3.7002     8.7500     1.6033  -999.2500  -999.2500  -999.2500  -999.2500
  995.5000     0.9862     3.7075     8.7500     1.6000  -999.2500  -999.2500  -999.2500  -999.2500
  996.0000     0.9620     3.7148     8.7500     1.5966  -999.2500  -999.2500  -999.2500  -999.2500
  996.5000     0.8962     3.7221     8.7500     1.5932  -999.2500  -999.2500  -999.2500  -999.2500
  997.0000     0.8303     3.7294     8.7500     1.5899  -999.2500  -999.2500  -999.2500  -999.2500
  997.5000     0.7841     3.7367     8.7500     1.5865  -999.2500  -999.2500  -999.2500  -999.2500
  998.0000     0.7909     3.7441     8.7500     1.5831  -999.2500  -999.2500  -999.2500  -999.2500
  998.5000     0.7987     3.7514     8.7500     1.5798  -999.2500  -999.2500  -999.2500  -999.2500
  999.0000     0.8063     3.7587     8.7500     1.5764  -999.2500  -999.2500  -999.2500  -999.2500
  999.5000     0.8068     3.7660     8.7500     1.5730  -999.2500  -999.2500  -999.2500  -999.2500
 1000.0000     0.7937     3.7733     8.7500     1.5697  -999.2500  -999.2500  -999.2500  -999.2500
 1000.5000     0.7811     3.7806     8.7500     1.5663  -999.2500  -999.2500  -999.2500  -999.2500
 1001.0000     0.7691     3.7879     8.7500     1.5629  -999.2500  -999.2500  -999.2500  -999.2500
 1001.5000     0.7695     3.7952     8.7500     1.5596  -999.2500  -999.2500  -999.2500  -999.2500
 1002.0000     0.7932     3.8025     8.7500     1.5562  -999.2500  -999.2500  -999.2500  -999.2500
 1002.5000     0.8205     3.8098     8.7500     1.5528  -999.2500  -999.2500  -999.2500  -999.2500
 1003.0000     0.8481     3.8172     8.7500     1.5495  -999.2500  -999.2500  -999.2500  -999.2500
 1003.5000     0.8757     3.8245     8.7498     1.5461  -999.2500  -999.2500  -999.2500  -999.2500
 1004.0000     0.8984     3.8318     8.7506     1.5427  -999.2500  -999.2500  -999.2500  -999.2500
 1004.5000     0.8673     3.8391     8.7784     1.5394  -999.2500  -999.2500  -999.2500  -999.2500
 1005.0000     0.8355     3.8464     8.8077     1.5360  -999.2500  -999.2500  -999.2500  -999.2500
 1005.5000     0.8041     3.8537     8.8369     1.5326  -999.2500  -999.2500  -999.2500  -999.2500
 1006.0000     0.7853     3.8610     8.8661     1.5293  -999.2500  -999.2500  -999.2500  -999.2500
 1006.5000     0.7876     3.8683     8.8953     1.5259  -999.2500  -999.2500  -999.2500  -999.2500
 1007.0000     0.7930     3.8756     8.9244     1.5225  -999.2500  -999.2500  -999.2500  -999.2500
 1007.5000     0.7985     3.8829     8.9536     1.5192  -999.2500  -999.2500  -999.2500  -999.2500
 1008.0000     0.8041     3.8902     8.9828     1.5158  -999.2500  -999.2500  -999.2500  -999.2500
 1008.5000     0.8097     3.8976     9.0120     1.5124  -999.2500  -999.2500  -999.2500  -999.2500
 1009.0000     0.8042     3.9049     9.0411     1.5091  -999.2500  -999.2500  -999.2500  -999.2500
 1009.5000     0.7950     3.9122     9.0703     1.5057  -999.2500  -999.2500  -999.2500  -999.2500
 1010.0000     0.7854     3.9195     9.0995     1.5024  -999.2500  -999.2500  -999.2500  -999.2500
 1010.5000     0.7622     3.9268     9.1286     1.5019  -999.2500  -999.2500  -999.2500  -999.2500
 1011.0000     0.7174     3.9341     9.1578     1.5091  -999.2500  -999.2500  -999.2500  -999.2500
 1011.5000     0.6727     3.9414     9.1870     1.5160  -999.2500  -999.2500  -999.2500  -999.2500
 1012.0000     0.6277     3.9487     9.2162     1.5230  -999.2500  -999.2500  -999.2500  -999.2500
