~VERSION INFORMATION
 VERS.                2.0:   CWLS LOG ASCII STANDARD - VERSION 2.0
 WRAP.                 NO:   ONE LINE PER DEPTH STEP
~WELL INFORMATION
#MNEM.UNIT      DATA TYPE    INFORMATION
#----------   ------------   ------------------------------
 STRT.F            0.0000:   START DEPTH
 STOP.F          537.0000:   STOP DEPTH
 STEP.F            0.5000:   STEP LENGTH
 NULL.          -999.2500:   NO VALUE
 COMP.   FLUOR DANIEL INC:   COMPANY
 WELL. NAVAL PETROLEUM RESERVE 73 X-10 #8-10:   WELL
 FLD .             TEAPOT:   FIELD
 LOC .      S10 T37N R78W:   LOCATION
 CNTY.            NATRONA:   COUNTY
 STAT.            WYOMING:   STATE
 CTRY. UNITED STATES OF AMERICA:   COUNTRY
 SRVC.      Western Atlas:   SERVICE COMPANY
 DATE.        01-MAY-1996:   LOGDATE
 API .       490252278200:   API NUMBER
~CURVE INFORMATION
#MNEM.UNIT       API CODE    CURVE DESCRIPTION
#----------   ------------   ------------------------------
 DEPT.F                  :   
 GRR .GAPI   07 310 01 00:   GAMMA RAY FROM RES. LOG.
 ILM .OHMM   07 120 44 00:   INDUCTION LOG MEDIUM
 ILD .OHMM   07 120 46 00:   INDUCTION LOG DEEP
~PARAMETER INFORMATION
#MNEM.UNIT          VALUE    DESCRIPTION
#----------   ------------   ------------------------------
 PD  .                 GL:   PERMANENT DATUM
 EPD .F              5161:   ELEVATION PERMANENT DATUM
 LMF .                 KB:   LOG MEASURED FROM
 DAPD.F                10:   FEET ABOVE PERMANENT DATUM
 DMF .                 KB:   DRILLING MEASURED FROM
 EKB .F              5171:   KELLING BUSHING
 EDF .F              5170:   DRILLING FLOOR
 EGL .F              5161:   GROUND LEVEL
 DATE.         MAY-1-1996:   RUN DATE
 RUN .                  1:   RUN NUMBER
 DD  .F               545:   DEPTH DRILLER
 DL  .F               542:   DEPTH LOGGER
 BLI .F               542:   BOTTOM LOG INTERVAL
 CS  .IN            9.625:   CASING SIZE
 CBD .F                95:   CASING BOTTOM DRILLER
 BS  .IN             8.75:   BIT SIZE
 BSD .F               545:   BIT SIZE AT DEPTH
 DFT .                AIR:   DRILLING FLUID TYPE
 BHT .F                80:   BOTTOM HOLE TEMPERATURE
 MRT .F                80:   MAXIMUM RECORDED TEMPERATURE
 LUN .            HL-6530:   LOGGING UNIT NUMBER
 LUL .             CASPER:   LOGGING UNIT LOCATION
 ENGI.           BROWNLOW:   RECORDING ENGINEER
 WITN.             LEBEAU:   WITNESSED BY
 CLNT.            A2DTECH:   CLIENT CODE
 ORIG.       2"  5" PRINT:   ORIGIN OF DATA
 UWI .       490252278200:   UNIQUE WELL ID
 DICO. A2D Technologies, Inc.:   DIGITIZING COMPANY
~OTHER INFORMATION
~A    DEPT       GRR      ILM        ILD   
# ...
  364.0000   103.9607    12.4460    11.5615
  364.5000   107.7332    12.6807    11.7438
  365.0000   108.6103    13.0927    11.8974
  365.5000   107.0640    13.5182    12.3098
  366.0000   102.0780    14.0839    13.1153
  366.5000    99.0990    15.6864    14.0615
  367.0000    96.5547    17.4532    15.4414
  367.5000    92.6008    19.4028    16.9445
  368.0000    85.9096    21.8353    18.8194
  368.5000    79.7513    24.5819    21.2015
  369.0000    76.2264    27.6978    23.8853
  369.5000    73.5594    30.6193    26.4853
  370.0000    72.3009    31.8550    28.7760
  370.5000    72.3697    30.9614    28.6820
  371.0000    73.0393    30.1794    28.5489
  371.5000    74.1702    29.4171    28.0164
  372.0000    75.6444    28.6478    27.3447
  372.5000    77.9263    27.7400    26.6891
  373.0000    81.0625    26.8610    26.0492
  373.5000    84.1732    26.3877    25.4539
  374.0000    84.0239    26.2129    25.0138
  374.5000    82.7518    26.0393    24.5813
  375.0000    81.4375    25.8669    24.1563
  375.5000    80.7430    25.4596    23.6436
  376.0000    79.2488    24.7225    23.1412
  376.5000    77.6732    24.0069    22.6495
  377.0000    77.3165    23.3119    22.1677
  377.5000    79.4767    22.7464    21.6998
  378.0000    83.2241    22.2539    21.2555
  378.5000    85.7761    21.7721    20.8290
  379.0000    85.5774    21.4304    20.4094
  379.5000    85.4187    21.4304    20.2160
  380.0000    88.3332    21.4304    20.1252
  380.5000    91.0893    21.4304    20.0348
  381.0000    92.3888    21.2283    19.9448
  381.5000    92.3355    20.9481    19.8552
  382.0000    91.5880    20.6715    19.7661
  382.5000    90.1318    20.3986    19.6149
  383.0000    88.6713    20.2782    19.4119
  383.5000    88.4099    20.2782    19.3088
  384.0000    89.1895    20.2782    19.2324
  384.5000    90.2688    20.2763    19.1883
  385.0000    93.1396    20.5670    19.3433
  385.5000    95.7413    20.8667    19.4561
  386.0000    94.1195    21.0435    19.5447
  386.5000    88.7549    20.7420    19.4598
  387.0000    84.6371    20.4546    19.3903
  387.5000    84.7394    20.1711    19.3210
  388.0000    90.3637    19.9081    19.2520
  388.5000    96.3260    19.9081    19.1880
  389.0000    97.2230    19.9081    18.9771
  389.5000    95.3293    19.9084    18.7820
  390.0000    93.4474    19.9088    18.5888
  390.5000    92.9424    19.7287    18.4018
  391.0000    92.9864    19.4754    18.1046
  391.5000    93.9117    19.2261    17.8123
  392.0000    95.5017    18.9339    17.5247
  392.5000    98.4338    18.3820    17.2436
  393.0000   101.3944    17.8250    16.9653
  393.5000   102.1050    17.5836    16.6932
  394.0000   100.7208    17.2718    16.4254
  394.5000   100.4469    17.0228    16.1618
  395.0000   103.2469    16.9516    16.0758
  395.5000   106.8700    16.8667    16.0225
  396.0000   107.6334    17.0013    15.9599
  396.5000   102.3541    17.1686    16.0540
  397.0000    97.9085    17.3376    16.1691
  397.5000    96.1606    17.4997    16.2855
  398.0000    95.2176    17.6714    16.4026
  398.5000    93.8099    17.8365    16.5202
  399.0000    92.3833    17.9900    16.5588
  399.5000    91.1615    17.9201    16.5588
  400.0000    90.4175    17.8415    16.7121
  400.5000    89.6661    17.7629    16.6163
  401.0000    89.5110    17.6839    16.5107
  401.5000    89.7668    17.5334    16.4057
  402.0000    89.3529    17.3541    16.3015
  402.5000    88.5979    17.1768    16.1978
  403.0000    89.3330    17.0012    16.0658
  403.5000    90.7704    16.8274    15.7317
  404.0000    92.2934    16.5223    15.4045
  404.5000    93.2948    16.2468    15.0842
  405.0000    93.9149    15.9599    14.7684
  405.5000    94.1732    15.6989    14.5071
  406.0000    94.1756    15.4260    14.2607
  406.5000    94.1742    15.1578    14.0189
  407.0000    94.1853    14.8943    13.7749
  407.5000    94.9814    14.6353    13.6651
  408.0000    97.7143    14.4076    13.5266
  408.5000    98.1328    14.3191    13.3884
  409.0000    96.1730    14.2311    13.2749
  409.5000    95.0604    14.1556    13.2445
  410.0000    95.7234    14.1369    13.2129
  410.5000    96.5050    14.1183    13.1816
  411.0000    95.0517    14.0996    13.1504
  411.5000    94.1869    14.0810    13.1193
  412.0000    95.0742    14.0624    13.0882
  412.5000    97.2239    14.0438    13.0572
  413.0000    99.4082    14.0213    13.0209
  413.5000   100.4592    13.9819    12.9637
  414.0000   100.6145    13.9428    12.9067
  414.5000    99.7522    13.9037    12.8500
  415.0000    99.0878    13.8648    12.7947
  415.5000   100.7632    13.8266    12.6945
  416.0000   102.4026    13.7865    12.5971
  416.5000   102.7834    13.6293    12.5004
  417.0000   102.8093    13.3995    12.4044
  417.5000   104.2514    13.2755    12.3092
  418.0000   105.7438    13.3970    12.2188
  418.5000   104.7612    13.2212    12.1176
  419.0000   102.7959    13.0809    12.0214
  419.5000   101.5576    12.9420    11.9259
  420.0000   102.9306    12.8047    11.8312
  420.5000   104.3143    12.6774    11.7371
  421.0000   104.8031    12.6083    11.6634
  421.5000   105.2581    12.5437    11.6435
  422.0000   107.1880    12.4794    11.6237
  422.5000   109.6038    12.4460    11.6038
  423.0000   110.2292    12.5236    11.5839
  423.5000   110.5243    12.5763    11.5641
  424.0000   109.8060    12.6293    11.5443
  424.5000   107.2336    12.6774    11.5246
  425.0000   105.9024    12.5957    11.5049
  425.5000   107.3843    12.5215    11.4853
  426.0000   107.3252    12.4479    11.4658
  426.5000   104.6472    12.3746    11.4069
  427.0000   103.4865    12.3018    11.3115
  427.5000   106.2263    12.2294    11.2167
  428.0000   109.9908    12.1575    11.1228
  428.5000   112.7371    12.0863    11.0320
  429.0000   113.7636    12.0141    10.9576
  429.5000   113.4250    11.9123    10.8837
  430.0000   112.0313    11.7556    10.8103
  430.5000   109.1296    11.6001    10.7375
  431.0000   109.6121    11.4634    10.6650
  431.5000   110.9975    11.3308    10.5931
  432.0000   111.2429    11.1805    10.5217
  432.5000   108.6627    10.9936    10.4481
  433.0000   106.1182    10.8103    10.2694
  433.5000   104.3067    10.6301    10.0865
  434.0000   104.1353    10.4528     9.9050
  434.5000   106.5793    10.2785     9.7525
  435.0000   110.3072    10.1072     9.4957
  435.5000   114.1827     9.8899     9.2488
  436.0000   115.2508     9.6638     9.0073
  436.5000   114.9699     9.4413     8.7706
  437.0000   114.1688     8.9337     8.2503
  437.5000   116.0151     8.5413     7.7028
  438.0000   118.5700     8.0710     6.9916
  438.5000   118.2690     6.9898     6.3461
  439.0000   118.2607     6.0507     5.7601
  439.5000   121.7788     5.2354     5.2364
  440.0000   135.8506     4.8135     5.1820
  440.5000   149.3125     5.0186     5.1396
  441.0000   152.9949     5.3265     5.2210
  441.5000   147.7543     5.8699     5.2859
  442.0000   132.9909     6.5872     5.5101
  442.5000   116.6336     7.2098     5.9222
  443.0000   108.6952     7.8440     6.6286
  443.5000   107.1438     8.5477     7.4210
  444.0000   110.6062     9.2699     8.2141
  444.5000   114.1977     9.6035     8.8066
  445.0000   115.7659     9.9324     9.2837
  445.5000   116.2942     9.9785     9.3412
  446.0000   117.1173    10.0903     9.3989
  446.5000   119.1901    10.2649     9.4940
  447.0000   120.5259    10.4417     9.6911
  447.5000   120.5039    10.6187     9.9102
  448.0000   120.3221    10.8396    10.1543
  448.5000   121.0873    11.0658    10.4045
  449.0000   121.4346    11.2981    10.6608
  449.5000   121.3284    11.5352    10.8019
  450.0000   121.2293    11.7772    10.8909
  450.5000   121.1292    12.0119    10.9807
  451.0000   119.6894    12.1532    11.1263
  451.5000   113.5070    12.2962    11.3245
  452.0000   109.5856    12.4408    11.4699
  452.5000   110.1724    12.5612    11.5931
  453.0000   116.5147    12.6334    11.6768
  453.5000   117.8053    12.7075    11.7612
  454.0000   112.4560    12.7820    11.8520
  454.5000   107.9952    12.8570    11.9447
