~VERSION INFORMATION
 VERS.                2.0:   CWLS LOG ASCII STANDARD - VERSION 2.0
 WRAP.                 NO:   ONE LINE PER DEPTH STEP
~WELL INFORMATION
#MNEM.UNIT      DATA TYPE    INFORMATION
#----------   ------------   ------------------------------
 STRT.F            0.0000:   START DEPTH
 STOP.F         3030.0000:   STOP DEPTH
 STEP.F            0.5000:   STEP LENGTH
 NULL.          -999.2500:   NO VALUE
 COMP. LAWRENCE/ALLISON INC:   COMPANY
 WELL. NAVAL PETROLEUM RESERVE 3 AX-3 #36  X 34-34:   WELL
 FLD .         N. P. R #3:   FIELD
 LOC .      S34 T39N R78W:   LOCATION
 CNTY.            NATRONA:   COUNTY
 STAT.            WYOMING:   STATE
 CTRY. UNITED STATES OF AMERICA:   COUNTRY
 SRVC.      Dresser Atlas:   SERVICE COMPANY
 DATE.        29-JUN-1985:   LOGDATE
 API .       490251103200:   API NUMBER
~CURVE INFORMATION
#MNEM.UNIT       API CODE    CURVE DESCRIPTION
#----------   ------------   ------------------------------
 DEPT.F                  :   
 RFOC.OHMM   07 220 01 00:   RESISTIVITY FOCUSED LOG
 RILM.OHMM   07 120 44 00:   RESITIVITY LONG MEDIUM
 SPR .MV     07 010 01 00:   SPONTANEOUS POTENTIAL
 RILD.OHMM   07 120 46 00:   INDUCTION LOG DEEP RESITIVITY
 GRR .GAPI   07 310 01 00:   GAMMA RAY
 DT  .US/F   60 520 00 00:   INTERVAL TRANSIT TIME
 CALD.IN     45 280 60 00:   CALIPER FROM DENSITY LOG
 CORR.G/C3   45 356 01 00:   DENSITY CORRECTION
 CNC .DEC    42 890 03 00:   NEUTRON POROSITY SANDSTONE
 DEN .G/C3   45 350 01 00:   COMPENSATED BULK DENSTIY
 PORD.DEC    45 890 12 00:   POROSITY DENSITY SANDSTONE
~PARAMETER INFORMATION
#MNEM.UNIT          VALUE    DESCRIPTION
#----------   ------------   ------------------------------
 PD  .                 GL:   PERMANENT DATUM
 EPD .F              5108:   ELEVATION PERMANENT DATUM
 LMF .                 KB:   LOG MEASURED FROM
 DAPD.F                12:   FEET ABOVE PERMANENT DATUM
 DMF .                 KB:   DRILLING MEASURED FROM
 EKB .F              5120:   KELLING BUSHING
 EGL .F              5108:   GROUND LEVEL
 DATE.       29-JUNE-1985:   RUN DATE
 RUN .                  1:   RUN NUMBER
 DD  .F              3033:   DEPTH DRILLER
 DL  .F              3033:   DEPTH LOGGER
 BLI .F              3030:   BOTTOM LOG INTERVAL
 CS  .IN            8.625:   CASING SIZE
 CBD .F               601:   CASING BOTTOM DRILLER
 CBL .F               601:   CASING BOTTOM LOGGER
 BS  .IN            7.875:   BIT SIZE
 BSD .F              3033:   BIT SIZE AT DEPTH
 DFT .   FOAM & KCL WATER:   DRILLING FLUID TYPE
 MSS .           FLOWLINE:   MUD SAMPLE SOURCE
 RMS .OHMM           0.44:   RESISTIVITY MUD SAMPLE
 MST .F                82:   MUD SAMPLE TEMPERATURE
 RMF .OHMM           0.44:   RESISTIVITY MUD FILTRATE SAMPLE
 MFST.F                82:   MUD FILTRATE SAMPLE TEMPERATURE
 MFSS.               MEAS:   MUD FILTRATE SAMPLE SOURCE
 RMB .OHMM           0.31:   RESISTIVITY MUD AT BHT
 BHT .F               116:   BOTTOM HOLE TEMPERATURE
 TCS .HRS               3:   TIME CURCULATED STOPPED
 MRT .F               116:   MAXIMUM RECORDED TEMPERATURE
 LUN .               6274:   LOGGING UNIT NUMBER
 LUL .               GLTE:   LOGGING UNIT LOCATION
 ENGI.             RAUTIO:   RECORDING ENGINEER
 WITN.       MR. JENNINGS:   WITNESSED BY
 CLNT.            A2DTECH:   CLIENT CODE
 ORIG.        2" 5" PRINT:   ORIGIN OF DATA
 UWI .       490251103200:   UNIQUE WELL ID
 DICO. A2D Technologies, Inc.:   DIGITIZING COMPANY
~OTHER INFORMATION
~A    DEPT    RFOC       RILM        SPR       RILD         GRR        DT       CALD       CORR        CNC        DEN       PORD   
# ...
 2897.5000     4.9443     4.7515    54.6817     4.6549   120.5608    93.5578     7.5527    -0.0398     0.2405     2.4604     0.1140
 2898.0000     5.5673     4.8914    54.6853     4.8215   119.9633    90.5421     7.5524    -0.0067     0.2423     2.4680     0.1035
 2898.5000     5.8881     5.0989    54.8397     4.9604   119.9741    87.0231     7.5521     0.0234     0.2447     2.4860     0.0913
 2899.0000     6.0564     5.3933    55.1455     5.2459   119.6776    85.4135     7.5518     0.0199     0.2453     2.5011     0.0876
 2899.5000     6.1434     5.7847    55.7545     5.6262   118.1732    84.0545     7.5515     0.0026     0.2444     2.5018     0.0879
 2900.0000     6.4080     6.3356    56.3641     6.1188   116.9697    82.3190     7.5512     0.0056     0.2401     2.4981     0.0918
 2900.5000     6.8723     7.2359    57.1245     6.6546   115.7684    80.8847     7.5509     0.0117     0.2338     2.4854     0.1033
 2901.0000     7.4735     7.9249    58.0365     7.2515   101.8376    79.3704     7.5506    -0.0258     0.2271     2.4501     0.1196
 2901.5000     8.1853     8.8014    59.2639     8.0940    98.8159    78.4669     7.5503    -0.0407     0.2253     2.3980     0.1422
 2902.0000     9.7440    10.4953    60.8476     9.2427    93.6730    78.3127     7.5500    -0.0406     0.2382     2.3668     0.1703
 2902.5000    12.6109    11.9894    62.4313    11.2495    74.6190    78.9115     7.5497    -0.0309     0.2412     2.3645     0.1718
 2903.0000    13.0619    12.9938    64.1001    13.3968    68.2357    79.4359     7.5494     0.0196     0.2373     2.3579     0.1739
 2903.5000    12.9756    14.2938    64.7098    15.5312    69.7617    79.3561     7.5491     0.0626     0.2297     2.3293     0.1893
 2904.0000    12.8004    15.0190    65.0124    17.7233    71.5885    79.0452     7.5337     0.1084     0.2216     2.2588     0.2120
 2904.5000    12.8951    15.5715    64.7108    18.3612    71.9001    78.8209     7.5334     0.1010     0.2197     2.2513     0.2422
 2905.0000    12.8088    16.0292    64.2573    18.3709    72.5170    78.8926     7.5331     0.0785     0.2252     2.2746     0.2362
 2905.5000    12.5493    15.6969    63.6530    18.5090    74.6468    79.6420     7.5345    -0.0190     0.2322     2.2987     0.2158
 2906.0000    12.2087    14.8567    63.2003    18.1381    76.1706    80.3914     7.5343    -0.0295     0.2339     2.3151     0.2086
 2906.5000    11.7959    14.3584    62.8987    17.8942    76.4801    81.6573     7.5342    -0.0039     0.2291     2.3371     0.2019
 2907.0000    11.4757    14.1700    62.9001    17.5355    74.3497    82.1802     7.5189     0.0067     0.2139     2.3439     0.1922
 2907.5000    11.2422    14.1827    63.0531    17.3020    72.8652    84.6609     7.5188     0.0173     0.2054     2.3544     0.1862
 2908.0000    11.0135    14.1920    63.8124    16.9530    71.3587    85.6356     7.5149     0.0242     0.2094     2.3657     0.1810
 2908.5000    10.7146    14.2032    65.4805    16.8442    70.1552    84.0490     7.5035     0.0079     0.2226     2.3650     0.1722
 2909.0000    11.9820    14.1047    68.2092    16.8552    68.3457    82.7647     7.5033    -0.0200     0.2266     2.3234     0.1719
 2909.5000    12.7609    13.9296    69.8773    17.2203    66.1284    81.8568     7.5032     0.0221     0.2265     2.2689     0.1795
 2910.0000    12.5886    14.1378    70.7514    17.7185    60.1833    81.1739     7.5030     0.1574     0.2172     2.2021     0.1991
 2910.5000    12.2470    15.2749    71.2442    18.2288    58.9798    80.9437     7.5028     0.1965     0.2057     2.1548     0.2444
 2911.0000    12.4238    16.8743    70.9426    18.4943    57.4732    81.6172     7.5027     0.1636     0.2020     2.1556     0.2834
 2911.5000    13.2315    17.5872    70.9439    18.7637    54.2722    81.9142     7.5025     0.1095     0.1978     2.1519     0.2972
 2912.0000    14.0917    17.2359    71.0972    19.0395    41.4313    81.6830     7.5024     0.1382     0.1917     2.0843     0.2981
 2912.5000    16.2030    16.3133    71.4016    18.3973    38.7127    81.1517     7.5023     0.1262     0.1908     2.1007     0.3253
 2913.0000    14.7031    14.8786    71.7061    17.2883    38.4182    81.0721     7.5344     0.0046     0.2019     2.1595     0.3377
 2913.5000    12.8856    13.2443    72.0106    16.0213    39.9442    82.5450     7.7128     0.0272     0.2243     2.2655     0.3268
 2914.0000    10.6992    11.7045    72.0123    14.6270    42.6801    89.0446     7.9687     0.1009     0.2467     2.2941     0.2899
 2914.5000     9.3615    11.3099    72.0138    14.2486    47.2342    93.4078     8.1040     0.1040     0.2563     2.3001     0.2351
 2915.0000     9.0442    11.3992    71.8637    14.0570    50.2731    96.3403     7.4563     0.0738     0.2533     2.3017     0.2153
 2915.5000     8.6168    11.4872    71.7136    13.8716    55.7831    97.2387     7.3357    -0.0161     0.2394     2.3009     0.2116
 2916.0000     9.1141    11.5780    71.4124    13.7713    58.1713    99.1923     7.3506     0.0080     0.2297     2.2954     0.2101
 2916.5000     9.8426    11.5059    70.9592    13.6940    59.6951   104.9862     7.3655     0.0262     0.2224     2.2882     0.2101
 2917.0000    10.1239    11.2760    70.2031    13.7030    55.7643   106.6393     7.3804     0.0413     0.2218     2.2890     0.2137
 2917.5000    10.1272    11.2058    69.2753    13.6150    55.5338    96.3672     7.3803     0.0353     0.2308     2.2921     0.2197
 2918.0000    10.2021    11.1361    67.9336    13.6224    53.2453    74.0115     7.3952     0.0127     0.2437     2.2884     0.2175
 2918.5000    10.2054    10.8398    66.8744    13.6311    52.3464    50.2989     7.3950     0.0250     0.2514     2.2786     0.2164
 2919.0000    10.1379    10.4035    66.2694    13.5418    51.7325    39.9035     7.3949     0.0476     0.2529     2.2695     0.2185
 2919.5000     9.8635    10.1956    66.1197    13.3615    48.4270    39.9813     7.3646     0.0567     0.2471     2.2479     0.2357
 2920.0000     9.5292    10.1322    66.4245    13.2714    46.9182    40.0028     7.3193     0.0642     0.2389     2.2464     0.2441
 2920.5000     9.3352    10.2123    66.7290    13.0096    47.5396    40.0244     7.3191     0.0688     0.2332     2.2457     0.2450
 2921.0000     9.1453    10.1468    67.7910    12.9261    48.4617    46.1796     7.3039     0.0486     0.2325     2.2465     0.2447
 2921.5000     9.0848    10.2270    69.6106    12.8431    51.9271    89.3535     7.3038    -0.0016     0.2329     2.2526     0.2437
 2922.0000     9.0885    10.3799    71.7336    12.7623    57.2889    96.8790     7.3187     0.0240     0.2425     2.2601     0.2389
 2922.5000     9.2189    10.5331    73.4017    12.6804    59.1214    97.6288     7.3486     0.0511     0.2485     2.2687     0.2326
 2923.0000     9.3587    10.6144    74.1607    12.5131    60.9539    68.9489     7.3485     0.0632     0.2546     2.2820     0.2253
 2923.5000     9.7540    10.6221    74.7682    12.5197    61.2689    42.5731     7.3031     0.0588     0.2642     2.2858     0.2207
 2924.0000    10.1734    10.6317    75.3761    12.5263    60.8931    41.6653     7.2428     0.0543     0.2663     2.2843     0.2204
 2924.5000    10.2517    11.0165    75.8320    12.5345    51.5832    69.9736     7.1974     0.0499     0.2648     2.2783     0.2228
 2925.0000     9.4303    11.4153    76.5910    12.6288    46.7389    77.0477     7.1973     0.0455     0.2593     2.2701     0.2307
 2925.5000     9.0647    11.6648    77.0470    13.0833    46.7505    77.7964     7.2574     0.0425     0.2475     2.2611     0.2373
 2926.0000     8.6200    11.9219    77.5030    13.4601    47.6725    79.7933     7.2874     0.0351     0.2412     2.2597     0.2337
 2926.5000     8.6228    12.0979    77.6563    13.7534    50.1459    83.6604     7.2119     0.0277     0.2427     2.2695     0.2309
 2927.0000     8.8083    12.1066    77.5058    14.0513    50.7334    87.7978     7.1816     0.0217     0.2477     2.2695     0.2310
 2927.5000     9.1233    12.1154    77.6591    14.1570    50.7449    88.2454     7.1664     0.0359     0.2547     2.2628     0.2366
