~VERSION INFORMATION
 VERS.                2.0:   CWLS LOG ASCII STANDARD - VERSION 2.0
 WRAP.                 NO:   ONE LINE PER DEPTH STEP
~WELL INFORMATION
#MNEM.UNIT      DATA TYPE    INFORMATION
#----------   ------------   ------------------------------
 STRT.F           36.0000:   START DEPTH
 STOP.F          493.0000:   STOP DEPTH
 STEP.F            0.5000:   STEP LENGTH
 NULL.          -999.2500:   NO VALUE
 COMP.    FENIX & SCISSON:   COMPANY
 WELL.       NPR #68-S-10:   WELL
 FLD .             TEAPOT:   FIELD
 LOC .      S10 T38N R78W:   LOCATION
 CNTY.            NATRONA:   COUNTY
 STAT.            WYOMING:   STATE
 CTRY. UNITED STATES OF AMERICA:   COUNTRY
 SRVC.              Welex:   SERVICE COMPANY
 DATE.        18-APR-1977:   LOGDATE
 API .       490251033500:   API NUMBER
~CURVE INFORMATION
#MNEM.UNIT       API CODE    CURVE DESCRIPTION
#----------   ------------   ------------------------------
 DEPT.F                  :   
 SPR .MV     07 010 01 00:   SPONTANEOUS POTENTIAL
 ILD .OHMM   07 120 46 00:   INDUCTION LOG DEEP
 ILM .OHMM   07 120 44 00:   INDUCTION LOG MEDIUM
 SGRD.OHMM   07 221 05 00:   SHALLOW SHORT GUARD RESISTIVITY
 CALD.IN     45 280 60 00:   CALIPER FROM DENSITY LOG
 GRD .GAPI   45 310 01 00:   GAMMA RAY FROM DENSITY LOG
 CORR.G/C3   45 356 01 00:   DENSITY CORRECTION
 RHOB.G/C3   45 350 01 00:   BULK DENSITY
 DPHI.DEC    45 890 12 00:   DENSITY POROSITY SANDSTONE
~PARAMETER INFORMATION
#MNEM.UNIT          VALUE    DESCRIPTION
#----------   ------------   ------------------------------
 PD  .                 GL:   PERMANENT DATUM
 EPD .F              5198:   ELEVATION PERMANENT DATUM
 LMF .                 GL:   LOG MEASURED FROM
 DMF .                 GL:   DRILLING MEASURED FROM
 EGL .F              5198:   GROUND LEVEL
 DATE.        18-APR-1977:   RUN DATE
 RUN .                  1:   RUN NUMBER
 DD  .F               505:   DEPTH DRILLER
 DL  .F               492:   DEPTH LOGGER
 BLI .F               490:   BOTTOM LOG INTERVAL
 TLI .F                32:   TOP LOG INTERVAL
 CS  .IN            8.625:   CASING SIZE
 CBD .F                40:   CASING BOTTOM DRILLER
 CBL .F                42:   CASING BOTTOM LOGGER
 BS  .IN            7.875:   BIT SIZE
 BSD .F               505:   BIT SIZE AT DEPTH
 DFT .            KCL MUD:   DRILLING FLUID TYPE
 DFV .                 36:   DRILLING FLUID VISCOSITY
 MSS .           FLOWLINE:   MUD SAMPLE SOURCE
 RMS .OHMM           2.46:   RESISTIVITY MUD SAMPLE
 MST .F                52:   MUD SAMPLE TEMPERATURE
 RMF .OHMM           2.30:   RESISTIVITY MUD FILTRATE SAMPLE
 MFST.F                52:   MUD FILTRATE SAMPLE TEMPERATURE
 RMC .OHMM           2.66:   RESISTIVITY MUD CAKE
 MCST.F                52:   MUD CAKE SAMPLE TEMPERATURE
 MFSS.               MEAS:   MUD FILTRATE SAMPLE SOURCE
 MCSS.               MEAS:   MUD CAKE SAMPLE SOURCE
 RMB .OHMM           1.97:   RESISTIVITY MUD AT BHT
 BHT .F                65:   BOTTOM HOLE TEMPERATURE
 TCS .HRS            0400:   TIME CURCULATED STOPPED
 MRT .F                65:   MAXIMUM RECORDED TEMPERATURE
 LUN .               8611:   LOGGING UNIT NUMBER
 LUL .             CASPER:   LOGGING UNIT LOCATION
 ENGI.               DOAK:   RECORDING ENGINEER
 WITN.            R. LYON:   WITNESSED BY
 CLNT.            A2DTECH:   CLIENT CODE
 ORIG.           5" PRINT:   ORIGIN OF DATA
 UWI .       490251033500:   UNIQUE WELL ID
 DICO. A2D Technologies, Inc.:   DIGITIZING COMPANY
~OTHER INFORMATION
~A   DEPT      SPR        ILD        ILM       SGRD         CALD       GRD      CORR       RHOB       DPHI   
# ...
  474.0000   -42.4540    11.9456    17.0301    18.9249     7.9257    73.4824     0.0252     2.4883     0.0944
  474.5000   -42.4416    11.6285    16.3471    18.9522     7.9269    51.1760     0.0209     2.4734     0.1055
  475.0000   -42.5803    10.5652    15.5836    19.3585     7.9205    51.0421     0.0165     2.4622     0.1090
  475.5000   -42.5648    10.0047    15.6988    19.6511     7.9216    50.9083     0.0182     2.4615     0.1093
  476.0000   -42.7035     9.8745    15.9243    19.0886     7.9301    50.7745     0.0228     2.4601     0.1126
  476.5000   -42.6880     9.8813    16.0419    18.4626     7.9312    50.7895     0.0200     2.4542     0.1176
  477.0000   -42.8267     9.9565    15.0831    18.6100     7.9323    50.9533     0.0171     2.4476     0.1209
  477.5000   -43.1071     9.8949    14.9860    18.8707     7.9631    50.8195     0.0128     2.4432     0.1218
  478.0000   -43.0947     9.6989    14.2864    18.2355     8.0089    50.6856     0.0129     2.4440     0.1215
  478.5000   -42.9344     9.9772    14.4916    17.6282     8.0546    50.4030     0.0161     2.4456     0.1213
  479.0000   -42.0345    10.1929    13.9104    17.3951     8.0408    50.2692     0.0207     2.4449     0.1208
  479.5000   -40.0991    10.7787    13.6302    17.0535     8.0122    50.2842     0.0254     2.4418     0.1226
  480.0000   -33.5778    12.9053    14.0197    16.8294     7.9836    50.2973     0.0270     2.4327     0.1264
  480.5000    -1.6128    19.1361    14.3196    16.7232     7.9699    50.2379     0.0272     2.4270     0.1291
  481.0000    -1.1566    20.5171    14.6258    17.0831     7.9562    50.1785     0.0273     2.4272     0.1291
  481.5000    -1.1443  -999.2500    15.1461    17.9393     7.9573    50.1935     0.0275     2.4280     0.1285
  482.0000    -1.1319  -999.2500    15.6850    17.2213     7.9436    50.2085     0.0277     2.4304     0.1272
  482.5000    -1.1196  -999.2500    15.8009    15.9710     7.9595    50.3722     0.0278     2.4372     0.1239
  483.0000    -1.1072  -999.2500    15.8082    15.9802     7.9607    50.2384     0.0264     2.4313     0.1278
  483.5000    -1.0948  -999.2500    15.7050    16.1002     7.9469    50.4004     0.0251     2.4261     0.1302
  484.0000    -1.0825  -999.2500    15.2846    15.7888     7.9035    50.4154     0.0222     2.4180     0.1343
  484.5000    -1.2211  -999.2500    14.8772  -999.2500     7.8749    50.4303     0.0177     2.4061     0.1463
  485.0000    -1.5015  -999.2500    14.5775  -999.2500     7.8612    50.2965     0.0149     2.3882     0.1550
  485.5000    -1.4892  -999.2500    14.4839  -999.2500     7.8474    50.3115     0.0122     2.3837     0.1528
  486.0000    -1.4793  -999.2500    14.4923  -999.2500     7.8485    50.4753     0.0108     2.3943     0.1450
  486.5000    -1.6155  -999.2500    14.4991  -999.2500     7.8496    50.4903     0.0170     2.4041     0.1389
  487.0000    -1.6025  -999.2500    14.6062  -999.2500     7.8506    50.3565     0.0261     2.4139     0.1342
  487.5000    -1.5903  -999.2500    14.6130  -999.2500     7.8518    50.2227     0.0308     2.4185     0.1320
  488.0000    -1.5779  -999.2500    14.6197  -999.2500     7.8529    50.0888     0.0324     2.4066     0.1352
  488.5000  -999.2500  -999.2500    14.5243  -999.2500     7.8540    50.1038     0.0356     2.4007     0.1352
  489.0000  -999.2500  -999.2500    14.4311  -999.2500     7.8552    50.1188     0.0387     2.4067     0.1323
  489.5000  -999.2500  -999.2500  -999.2500  -999.2500     7.8561    50.1338     0.0449     2.4188     0.1295
  490.0000  -999.2500  -999.2500  -999.2500  -999.2500     7.8573    50.1488     0.0526     2.4263     0.1289
  490.5000  -999.2500  -999.2500  -999.2500  -999.2500     7.8574    50.1638     0.0587     2.4249     0.1304
  491.0000  -999.2500  -999.2500  -999.2500  -999.2500     7.8574    50.1788     0.0649     2.4205     0.1337
  491.5000  -999.2500  -999.2500  -999.2500  -999.2500     7.8425    50.1938     0.0725     2.4161     0.1381
  492.0000  -999.2500  -999.2500  -999.2500  -999.2500     7.8128    50.8040     0.0787     2.4094     0.1423
  492.5000  -999.2500  -999.2500  -999.2500  -999.2500     7.7682    59.7476     0.0834     2.4013     0.1459
  493.0000  -999.2500  -999.2500  -999.2500  -999.2500     7.6881    98.6943     0.0856     2.3991     0.1384
