~VERSION INFORMATION
 VERS.                2.0:   CWLS LOG ASCII STANDARD - VERSION 2.0
 WRAP.                 NO:   ONE LINE PER DEPTH STEP
~WELL INFORMATION
#MNEM.UNIT      DATA TYPE    INFORMATION
#----------   ------------   ------------------------------
 STRT.F          672.0000:   START DEPTH
 STOP.F         2343.5000:   STOP DEPTH
 STEP.F            0.5000:   STEP LENGTH
 NULL.          -999.2500:   NO VALUE
 COMP. FENIX & SCISSON INC:   COMPANY
 WELL.   23 SHX-33 #23-33:   WELL
 FLD .             TEAPOT:   FIELD
 LOC .      S33 T39N R78W:   LOCATION
 CNTY.            NATRONA:   COUNTY
 STAT.            WYOMING:   STATE
 CTRY. UNITED STATES OF AMERICA:   COUNTRY
 SRVC.            Unknown:   SERVICE COMPANY
 DATE.        01-MAY-1978:   LOGDATE
 API .       490251062700:   API NUMBER
~CURVE INFORMATION
#MNEM.UNIT       API CODE    CURVE DESCRIPTION
#----------   ------------   ------------------------------
 DEPT.F                  :   
 IL  .OHMM   05 120 00 00:   INDUCTION LOG
 CIL .MMHO   05 110 00 00:   CONDUCTIVITY INDUCTION LOG
 CALD.IN     45 280 60 00:   CALIPER FROM DENSITY LOG
 GRD .GAPI   45 310 01 00:   GAMMA RAY FROM DENSITY LOG
 DPHI.DEC    45 890 12 00:   DENSITY POROSITY SANDSTONE
 RHOB.G/C3   45 350 01 00:   BULK DENSITY
 CORR.G/C3   45 356 01 00:   DENSITY CORRECTION
~PARAMETER INFORMATION
#MNEM.UNIT          VALUE    DESCRIPTION
#----------   ------------   ------------------------------
 PD  .                 GL:   PERMANENT DATUM
 EPD .F              5163:   ELEVATION PERMANENT DATUM
 LMF .                 KB:   LOG MEASURED FROM
 DAPD.F                10:   FEET ABOVE PERMANENT DATUM
 DMF .                 KB:   DRILLING MEASURED FROM
 EKB .F              5173:   KELLING BUSHING
 EGL .F              5163:   GROUND LEVEL
 DATE.           5-1-1978:   RUN DATE
 RUN .                  1:   RUN NUMBER
 DD  .F              2331:   DEPTH DRILLER
 DL  .F              2260:   DEPTH LOGGER
 BLI .F              2250:   BOTTOM LOG INTERVAL
 TLI .F               690:   TOP LOG INTERVAL
 CS  .IN            9.625:   CASING SIZE
 CBD .F               683:   CASING BOTTOM DRILLER
 CBL .F               690:   CASING BOTTOM LOGGER
 BS  .IN             8.75:   BIT SIZE
 BSD .F              2331:   BIT SIZE AT DEPTH
 DFT .                OIL:   DRILLING FLUID TYPE
 BHT .F               104:   BOTTOM HOLE TEMPERATURE
 TCS .HRS               5:   TIME CURCULATED STOPPED
 MRT .F               104:   MAXIMUM RECORDED TEMPERATURE
 LUN .               2958:   LOGGING UNIT NUMBER
 LUL .               CASP:   LOGGING UNIT LOCATION
 ENGI.             MILLER:   RECORDING ENGINEER
 WITN.           MCGINLEY:   WITNESSED BY
 CLNT.            A2DTECH:   CLIENT CODE
 ORIG.       2", 5" PRINT:   ORIGIN OF DATA
 UWI .       490251062700:   UNIQUE WELL ID
 DICO. A2D Technologies, Inc.:   DIGITIZING COMPANY
~OTHER INFORMATION
~A   DEPT       IL        CIL       CALD         GRD      DPHI       RHOB       CORR   
# ...
  899.5000     5.7250   166.2912     9.7465   134.6907     0.0213     2.5053     0.0572
  900.0000     5.7528   166.0115     9.7457   130.4981     0.0176     2.5076     0.0621
  900.5000     5.7806   165.7319     9.7450   123.2449     0.0196     2.5161     0.0671
  901.0000     5.8084   165.4522     9.7443   119.0683     0.0203     2.5233     0.0720
  901.5000     5.8382   165.1515     9.7436   115.4333     0.0171     2.5155     0.0767
  902.0000     5.8691   162.7980     9.7428   111.8067     0.0139     2.5169     0.0861
  902.5000     5.8839   160.1010     9.7422   108.1740     0.0116     2.5240     0.0976
  903.0000     5.8966   159.7954     9.7406   106.6911     0.0104     2.5256     0.1091
  903.5000     5.9095   159.4704     9.8048   107.7143     0.0096     2.5276     0.1149
  904.0000     5.9226   159.1455     9.8960   108.7615     0.0071     2.5296     0.1135
  904.5000     5.9358   158.8206     9.9612   110.2660     0.0042     2.5319     0.1101
  905.0000     5.9489   158.4956     9.9578   114.8085     0.0072     2.5359     0.1043
  905.5000     5.9620   158.1706     9.9555   119.2956     0.0149     2.5353     0.0987
  906.0000     5.9752   157.8457     9.9529   120.7684     0.0180     2.5232     0.0928
  906.5000     5.9883   157.5207     9.9504   121.8291     0.0062     2.5175     0.0859
  907.0000     6.0015   157.1958     9.9480   121.7995     0.0082     2.5379     0.0720
  907.5000     6.0143   157.0707     9.9455   121.4805     0.0069     2.5325     0.0587
  908.0000     6.0270   155.0505     9.9430   114.9117    -0.0020     2.5295     0.0469
  908.5000     6.0497   148.1737     9.9405   108.7726    -0.0067     2.5465     0.0470
  909.0000     6.1239   141.4848     9.9380   106.2228    -0.0067     2.5531     0.0466
  909.5000     6.4653   134.7916     9.9355   105.0896    -0.0055     2.5582     0.0468
  910.0000     6.8085   128.1001     9.9330   104.4489    -0.0044     2.5606     0.0493
  910.5000     7.1535   121.4076     9.9305   103.8138    -0.0033     2.5539     0.0519
  911.0000     7.4978   114.7310     9.9281   103.1762    -0.0022     2.5538     0.0545
  911.5000     7.8421   108.5392     9.9256   103.1597    -0.0010     2.5573     0.0603
  912.0000     8.1866   103.7640     9.9231   103.9598     0.0035     2.5552     0.0664
  912.5000     8.5312   101.5152     9.9206   102.6599     0.0140     2.5438     0.0728
  913.0000     8.8709   101.5152     9.9181   101.9029     0.0155     2.5324     0.0793
  913.5000     9.1154   101.5152     9.9156   102.0887     0.0144     2.5210     0.0856
  914.0000     9.1106   101.5152     9.9131   103.1333     0.0128     2.5176     0.0858
  914.5000     9.0874   102.0286     9.9107   104.1241     0.0030     2.5355     0.0718
  915.0000     9.0420   102.7357     9.9082   102.0475     0.0021     2.5421     0.0584
  915.5000     8.9967   103.4425     9.9057    98.8467    -0.0006     2.5353     0.0455
  916.0000     8.9503   104.1498     9.9032    99.7235    -0.0055     2.5396     0.0432
  916.5000     8.8947   104.8574     9.9007   100.8228    -0.0104     2.5490     0.0430
  917.0000     8.8375   105.5659     9.8982   100.6163    -0.0119     2.5584     0.0426
  917.5000     8.7802   106.2689     9.8957    98.9056    -0.0107     2.5678     0.0423
  918.0000     8.7229   106.5703     9.8932    97.3268    -0.0095     2.5690     0.0419
  918.5000     8.6657   106.5657     9.8907    96.1986    -0.0082     2.5660     0.0416
  919.0000     8.6079   106.5657     9.8883    95.1084    -0.0075     2.5623     0.0412
  919.5000     8.5862   106.5657     9.8858    93.9260    -0.0082     2.5586     0.0409
  920.0000     8.5857   106.5657     9.8833    96.3557    -0.0095     2.5550     0.0405
  920.5000     8.5855   106.5657     9.8808    99.6807    -0.0094     2.5592     0.0402
  921.0000     8.5986   106.5657     9.8783   103.0332    -0.0082     2.5642     0.0398
  921.5000     8.6140   106.5657     9.8758   106.1945    -0.0075     2.5622     0.0395
  922.0000     8.6295   106.5657     9.8733   106.0856    -0.0147     2.5543     0.0391
  922.5000     8.6449   106.5657     9.8708   105.9506    -0.0222     2.5633     0.0388
  923.0000     8.6604   106.5657     9.8684   107.3710    -0.0234     2.5746     0.0384
  923.5000     8.6758   106.5657     9.8659   108.3542    -0.0214     2.5859     0.0381
  924.0000     8.6912   106.5657     9.8634   108.8887    -0.0143     2.5899     0.0377
  924.5000     8.7066   106.5657     9.8610   109.2848    -0.0066     2.5884     0.0374
  925.0000     8.7221   106.5657     9.8560   108.8548    -0.0011     2.5742     0.0373
  925.5000     8.7375   106.5776     9.8498   107.4985     0.0016     2.5604     0.0373
  926.0000     8.7529   106.6893     9.8437   106.7143     0.0043     2.5511     0.0373
  926.5000     8.7688   106.8013     9.8375   109.4885     0.0049     2.5446     0.0379
  927.0000     8.7818   106.9133     9.8313   112.3309    -0.0041     2.5378     0.0385
  927.5000     8.8307   107.0252     9.8252   116.6819    -0.0131     2.5487     0.0391
  928.0000     8.8182   107.1371     9.8212   121.3373    -0.0158     2.5628     0.0390
  928.5000     8.7891   107.2490     9.8217   125.7080    -0.0096     2.5728     0.0330
  929.0000     8.7601   107.3609     9.8221   128.3389    -0.0059     2.5666     0.0270
  929.5000     8.7310   107.4727     9.8226   128.2747    -0.0035     2.5607     0.0212
  930.0000     8.7019   107.5846     9.8230   126.0757    -0.0010     2.5552     0.0174
  930.5000     8.6728   107.6965     9.8235   123.3396     0.0009     2.5538     0.0174
  931.0000     8.6437   107.8084     9.8239   120.5186     0.0076     2.5500     0.0182
  931.5000     8.6146   107.9203     9.8244   119.0813     0.0112     2.5383     0.0194
  932.0000     8.5855   108.0322     9.8248   117.4399     0.0031     2.5268     0.0206
  932.5000     8.5563   108.1441     9.8253   116.1346    -0.0033     2.5221     0.0218
  933.0000     8.5273   108.2560     9.8257   113.1407    -0.0050     2.5381     0.0231
  933.5000     8.5044   108.3678     9.8262   107.9656    -0.0020     2.5491     0.0243
  934.0000     8.5087   108.4797     9.8266   103.7078     0.0011     2.5547     0.0255
  934.5000     8.5132   108.5859     9.8271   102.3731     0.0009     2.5468     0.0267
  935.0000     8.5176   108.7643     9.8275   102.0011     0.0016     2.5450     0.0279
  935.5000     8.5220   108.9340     9.8280   101.6086     0.0039     2.5496     0.0291
  936.0000     8.5265   109.1037     9.8284   101.3266     0.0062     2.5470     0.0304
  936.5000     8.5309   109.2734     9.8289   101.3687     0.0069     2.5429     0.0316
  937.0000     8.5353   109.4431     9.8293   101.4186     0.0053     2.5386     0.0328
  937.5000     8.5398   109.6128     9.8298   101.4755     0.0008     2.5354     0.0334
  938.0000     8.5444   109.7825     9.8302   101.4556    -0.0009     2.5387     0.0360
  938.5000     8.5455   109.9522     9.8307   100.3129     0.0017     2.5522     0.0387
  939.0000     8.5459   110.1219     9.8311    99.2535     0.0042     2.5467     0.0414
  939.5000     8.5235   110.2916     9.8316    99.1703     0.0068     2.5415     0.0441
  940.0000     8.4935   110.4613     9.8320    99.3072     0.0040     2.5364     0.0468
  940.5000     8.4633   110.6310     9.8325    99.4471     0.0004     2.5331     0.0495
  941.0000     8.4332   110.8007     9.8329    99.7594     0.0005     2.5401     0.0484
  941.5000     8.4031   110.9704     9.8334   100.3350     0.0009     2.5470     0.0410
  942.0000     8.3730   111.1402     9.8338   100.5147     0.0037     2.5479     0.0336
  942.5000     8.3428   111.3102     9.8343   100.5179     0.0066     2.5433     0.0261
  943.0000     8.3127   111.4790     9.8347   100.5168     0.0071     2.5388     0.0303
  943.5000     8.2826   111.5808     9.8352   100.5150     0.0041     2.5340     0.0360
  944.0000     8.2525   111.3990     9.8356   100.5365     0.0062     2.5380     0.0417
  944.5000     8.2223   111.2172     9.8361   100.7615     0.0081     2.5406     0.0474
