~VERSION INFORMATION
 VERS.                2.0:   CWLS LOG ASCII STANDARD - VERSION 2.0
 WRAP.                 NO:   ONE LINE PER DEPTH STEP
~WELL INFORMATION
#MNEM.UNIT      DATA TYPE    INFORMATION
#----------   ------------   ------------------------------
 STRT.F           26.0000:   START DEPTH
 STOP.F          655.0000:   STOP DEPTH
 STEP.F            0.5000:   STEP LENGTH
 NULL.          -999.2500:   NO VALUE
 COMP. FENIX & SCISSON, INCORPORATED:   COMPANY
 WELL. RES 3 TEAPOT DOM #22S-11:   WELL
 FLD .             TEAPOT:   FIELD
 LOC .      S11 T38N R78W:   LOCATION
 CNTY.            NATRONA:   COUNTY
 STAT.            WYOMING:   STATE
 CTRY. UNITED STATES OF AMERICA:   COUNTRY
 SRVC.            Unknown:   SERVICE COMPANY
 DATE.        03-FEB-1978:   LOGDATE
 API .       490251057200:   API NUMBER
~CURVE INFORMATION
#MNEM.UNIT       API CODE    CURVE DESCRIPTION
#----------   ------------   ------------------------------
 DEPT.F                  :   
 ILD .OHMM   05 120 46 00:   INDUCTION LOG DEEP
 SN  .OHMM   05 040 16 00:   SHORT NORMAL 16"
 SPR .MV     05 010 01 00:   SPONTANEOUS POTENTIAL.
 CALD.IN     45 280 60 00:   CALIPER FROM DENSITY LOG
 CORR.G/C3   45 356 01 00:   DENSITY CORRECTION
 DPHI.DEC    45 890 12 00:   DENSITY POROSITY SANDSTONE
 GRD .GAPI   45 310 01 00:   GAMMA RAY FROM DENSITY LOG
 RHOB.G/C3   45 350 01 00:   BULK DENSITY
~PARAMETER INFORMATION
#MNEM.UNIT          VALUE    DESCRIPTION
#----------   ------------   ------------------------------
 PD  .                 GL:   PERMANENT DATUM
 EPD .F              5168:   ELEVATION PERMANENT DATUM
 LMF .                 KB:   LOG MEASURED FROM
 DMF .                 KB:   DRILLING MEASURED FROM
 EKB .F              5171:   KELLING BUSHING
 EGL .F              5168:   GROUND LEVEL
 DATE.        03-FEB-1978:   RUN DATE
 RUN .                  1:   RUN NUMBER
 DD  .F               650:   DEPTH DRILLER
 DL  .F               655:   DEPTH LOGGER
 BLI .F               655:   BOTTOM LOG INTERVAL
 TLI .F                40:   TOP LOG INTERVAL
 CS  .IN            8.625:   CASING SIZE
 CBD .F                39:   CASING BOTTOM DRILLER
 CBL .F                40:   CASING BOTTOM LOGGER
 BS  .IN            7.875:   BIT SIZE
 BSD .F               650:   BIT SIZE AT DEPTH
 DFT .                KCL:   DRILLING FLUID TYPE
 DFD .                8.6:   DRILLING FLUID DENSITY
 DFV .                 31:   DRILLING FLUID VISCOSITY
 DFPH.                9.5:   DRILLING FLUID PH
 DFL .               12.8:   DRILLING FLUID LOSS
 MSS .           FLOWLINE:   MUD SAMPLE SOURCE
 RMS .OHMM           0.38:   RESISTIVITY MUD SAMPLE
 MST .F                62:   MUD SAMPLE TEMPERATURE
 RMF .OHMM            4.4:   RESISTIVITY MUD FILTRATE SAMPLE
 MFST.F                62:   MUD FILTRATE SAMPLE TEMPERATURE
 RMC .OHMM            0.8:   RESISTIVITY MUD CAKE
 MCST.F                62:   MUD CAKE SAMPLE TEMPERATURE
 MFSS.               MEAS:   MUD FILTRATE SAMPLE SOURCE
 RMB .OHMM           0.35:   RESISTIVITY MUD AT BHT
 BHT .F                68:   BOTTOM HOLE TEMPERATURE
 TCS .HRS               1:   TIME CURCULATED STOPPED
 MRT .F                68:   MAXIMUM RECORDED TEMPERATURE
 LUN .               2958:   LOGGING UNIT NUMBER
 LUL .             CASPER:   LOGGING UNIT LOCATION
 ENGI.           REYNOLDS:   RECORDING ENGINEER
 WITN.         HARRINGTON:   WITNESSED BY
 CLNT.            A2DTECH:   CLIENT CODE
 ORIG.           5" PRINT:   ORIGIN OF DATA
 UWI .       490251057200:   UNIQUE WELL ID
 DICO. A2D Technologies, Inc.:   DIGITIZING COMPANY
~OTHER INFORMATION
~A   DEPT      ILD         SN        SPR       CALD       CORR       DPHI         GRD      RHOB   
# ...
  633.5000  -999.2500  -999.2500  -999.2500     7.9343     0.0248     0.1119    91.6120     2.4693
  634.0000  -999.2500  -999.2500  -999.2500     7.9329     0.0248     0.1116    89.1498     2.4640
  634.5000  -999.2500  -999.2500  -999.2500     7.9471     0.0217     0.1117    87.4888     2.4715
  635.0000  -999.2500  -999.2500  -999.2500     7.9422     0.0187     0.1120    86.8820     2.4744
  635.5000  -999.2500  -999.2500  -999.2500     7.9290     0.0186     0.1132    88.6849     2.4721
  636.0000  -999.2500  -999.2500  -999.2500     7.9277     0.0200     0.1144    89.5843     2.4653
  636.5000  -999.2500  -999.2500  -999.2500     7.9206     0.0259     0.1138    89.7304     2.4637
  637.0000  -999.2500  -999.2500  -999.2500     7.9098     0.0318     0.1134    90.9818     2.4652
  637.5000  -999.2500  -999.2500  -999.2500     7.9083     0.0332     0.1126    91.2277     2.4591
  638.0000  -999.2500  -999.2500  -999.2500     7.9070     0.0316     0.1097    92.4270     2.4508
  638.5000  -999.2500  -999.2500  -999.2500     7.9057     0.0301     0.1079    92.8756     2.4755
  639.0000  -999.2500  -999.2500  -999.2500     7.9044     0.0270     0.1076    92.8701     2.4792
  639.5000  -999.2500  -999.2500  -999.2500     7.9030     0.0239     0.1083    92.4139     2.4799
  640.0000  -999.2500  -999.2500  -999.2500     7.9017     0.0239     0.1086    90.9035     2.4851
  640.5000  -999.2500  -999.2500  -999.2500     7.9003     0.0253     0.1086    90.2862     2.4935
  641.0000  -999.2500  -999.2500  -999.2500     7.8989     0.0267     0.1080    89.9901     2.4917
  641.5000  -999.2500  -999.2500  -999.2500     7.8974     0.0266     0.1063    89.8351     2.4841
  642.0000  -999.2500  -999.2500  -999.2500     7.8961     0.0296     0.1051    90.8850     2.4788
  642.5000  -999.2500  -999.2500  -999.2500     7.8949     0.0295     0.1039    92.2360     2.4780
  643.0000  -999.2500  -999.2500  -999.2500     7.8935     0.0294     0.1030    93.4365     2.4765
  643.5000  -999.2500  -999.2500  -999.2500     7.8911     0.0293     0.1024    91.1731     2.4891
  644.0000  -999.2500  -999.2500  -999.2500     7.8754     0.0263     0.1022    90.1104     2.5108
  644.5000  -999.2500  -999.2500  -999.2500     7.8741     0.0232     0.1025    89.8089     2.5145
  645.0000  -999.2500  -999.2500  -999.2500     7.8728     0.0171     0.1049    92.2131     2.4980
  645.5000  -999.2500  -999.2500  -999.2500     7.8716     0.0066     0.1082    93.1134     2.4927
  646.0000  -999.2500  -999.2500  -999.2500     7.8700    -0.0069     0.1124    93.4092     2.4641
  646.5000  -999.2500  -999.2500  -999.2500     7.8688     0.0050     0.1185    93.4048     2.4497
  647.0000  -999.2500  -999.2500  -999.2500     7.8675     0.0139     0.1191    93.0992     2.4475
  647.5000  -999.2500  -999.2500  -999.2500     7.8659     0.0198     0.1176    91.2876     2.4564
  648.0000  -999.2500  -999.2500  -999.2500     7.8626     0.0212     0.1139    87.7291     2.4683
  648.5000  -999.2500  -999.2500  -999.2500     7.8481     0.0196     0.1102    84.6513     2.4706
  649.0000  -999.2500  -999.2500  -999.2500     7.8318     0.0166     0.1096    86.0023     2.4667
  649.5000  -999.2500  -999.2500  -999.2500     7.8304     0.0150     0.1108    87.2028     2.4652
  650.0000  -999.2500  -999.2500  -999.2500     7.8139     0.0164     0.1120    95.1804     2.4621
  650.5000  -999.2500  -999.2500  -999.2500     7.8126     0.0223     0.1126    96.0807     2.4598
  651.0000  -999.2500  -999.2500  -999.2500     7.8029     0.0267     0.1124    91.2560     2.4635
  651.5000  -999.2500  -999.2500  -999.2500     7.7945     0.0328     0.1095    90.0467     2.4642
  652.0000  -999.2500  -999.2500  -999.2500     7.7931     0.0400     0.0992    89.4389     2.4604
  652.5000  -999.2500  -999.2500  -999.2500     7.7918     0.0459     0.0962    88.6815     2.4663
  653.0000  -999.2500  -999.2500  -999.2500     7.7753     0.0533     0.0947    86.5816     2.4790
  653.5000  -999.2500  -999.2500  -999.2500     7.7590     0.0607     0.0917  -999.2500     2.4894
  654.0000  -999.2500  -999.2500  -999.2500     7.7576     0.0696     0.0870  -999.2500     2.4931
  654.5000  -999.2500  -999.2500  -999.2500     7.7563     0.0710     0.0855  -999.2500     2.4998
  655.0000  -999.2500  -999.2500  -999.2500     7.7398     0.0694     0.0858  -999.2500     2.5080
