~VERSION INFORMATION
 VERS.                2.0:   CWLS LOG ASCII STANDARD - VERSION 2.0
 WRAP.                 NO:   ONE LINE PER DEPTH STEP
~WELL INFORMATION
#MNEM.UNIT      DATA TYPE    INFORMATION
#----------   ------------   ------------------------------
 STRT.F           28.0000:   START DEPTH
 STOP.F          636.0000:   STOP DEPTH
 STEP.F            0.5000:   STEP LENGTH
 NULL.          -999.2500:   NO VALUE
 COMP. FENIX & SCISSON INC:   COMPANY
 WELL.    NPR-3 #12S14-14:   WELL
 FLD .             TEAPOT:   FIELD
 LOC .      S14 T38N R78W:   LOCATION
 CNTY.            NATRONA:   COUNTY
 STAT.            WYOMING:   STATE
 CTRY. UNITED STATES OF AMERICA:   COUNTRY
 SRVC.           BIRDWELL:   SERVICE COMPANY
 DATE.        21-JUN-1978:   LOGDATE
 API .       490251065000:   API NUMBER
~CURVE INFORMATION
#MNEM.UNIT       API CODE    CURVE DESCRIPTION
#----------   ------------   ------------------------------
 DEPT.F                  :   
 SPR .MV     07 010 01 00:   SPONTANEOUS POTENTIAL
 ILD .OHMM   07 120 46 00:   INDUCTION LOG DEEP
 SN  .OHMM   07 040 16 00:   SHORT NORMAL 16"
 GRD .GAPI   45 310 01 00:   GAMMA RAY FROM DENSITY LOG
 CORR.G/C3   45 356 01 00:   DENSITY CORRECTION
 DEN .G/C3   45 350 01 00:   COMPENSATED BULK DENSTIY
 DPHI.DEC    45 890 12 00:   DENSITY POROSITY SANDSTONE
~PARAMETER INFORMATION
#MNEM.UNIT          VALUE    DESCRIPTION
#----------   ------------   ------------------------------
 PD  .                 GL:   PERMANENT DATUM
 EPD .F              5237:   ELEVATION PERMANENT DATUM
 LMF .                 KB:   LOG MEASURED FROM
 DMF .                 KB:   DRILLING MEASURED FROM
 EKB .F              5241:   KELLING BUSHING
 EGL .F              5237:   GROUND LEVEL
 DATE.        21-JUN-1978:   RUN DATE
 RUN .                  1:   RUN NUMBER
 DD  .F               637:   DEPTH DRILLER
 DL  .F               642:   DEPTH LOGGER
 BLI .F               636:   BOTTOM LOG INTERVAL
 TLI .F                40:   TOP LOG INTERVAL
 CS  .IN            8.625:   CASING SIZE
 CBD .F                40:   CASING BOTTOM DRILLER
 CBL .F                40:   CASING BOTTOM LOGGER
 BS  .IN            7.875:   BIT SIZE
 BSD .F               637:   BIT SIZE AT DEPTH
 DFT .                KCL:   DRILLING FLUID TYPE
 DFD .                8.7:   DRILLING FLUID DENSITY
 DFV .                 32:   DRILLING FLUID VISCOSITY
 DFPH.                 10:   DRILLING FLUID PH
 MSS .           FLOWLINE:   MUD SAMPLE SOURCE
 RMS .OHMM            .18:   RESISTIVITY MUD SAMPLE
 MST .F                84:   MUD SAMPLE TEMPERATURE
 RMF .OHMM            .17:   RESISTIVITY MUD FILTRATE SAMPLE
 MFST.F                72:   MUD FILTRATE SAMPLE TEMPERATURE
 RMC .OHMM            .28:   RESISTIVITY MUD CAKE
 MCST.F                82:   MUD CAKE SAMPLE TEMPERATURE
 MFSS.               MEAS:   MUD FILTRATE SAMPLE SOURCE
 MCSS.               MEAS:   MUD CAKE SAMPLE SOURCE
 BHT .F                72:   BOTTOM HOLE TEMPERATURE
 TCS .HRS            0230:   TIME CURCULATED STOPPED
 MRT .F                72:   MAXIMUM RECORDED TEMPERATURE
 LUN .               2958:   LOGGING UNIT NUMBER
 LUL .               CASP:   LOGGING UNIT LOCATION
 ENGI.             MILLER:   RECORDING ENGINEER
 WITN.           MCGINLEY:   WITNESSED BY
 CLNT.            A2DTECH:   CLIENT CODE
 ORIG.           5" PRINT:   ORIGIN OF DATA
 UWI .       490251065000:   UNIQUE WELL ID
 DICO. A2D Technologies, Inc.:   DIGITIZING COMPANY
~OTHER INFORMATION
~A   DEPT      SPR        ILD         SN        GRD       CORR        DEN       DPHI   
# ...
  210.0000   -52.2000     6.2630     7.4318    83.6937    -0.0093     2.4501     0.1200
  210.5000   -52.1834     6.2656     7.4354    83.0916    -0.0108     2.4441     0.1403
  211.0000   -52.3196     6.3115     7.4904    83.2623    -0.0153     2.4419     0.1355
  211.5000   -52.3063     6.3141     7.5458    84.9480    -0.0198     2.4426     0.1319
  212.0000   -52.2930     6.3167     7.6073    86.0901    -0.0213     2.4381     0.1415
  212.5000   -52.2795     6.4071     7.6668    85.7758    -0.0213     2.4313     0.1373
  213.0000   -52.2660     6.4541     7.7688    85.8128    -0.0213     2.4276     0.1427
  213.5000   -52.2500     6.5014     7.7724    89.5106    -0.0199     2.4215     0.1475
  214.0000   -52.0872     6.5040     7.8299    89.1391    -0.0169     2.4290     0.1428
  214.5000   -51.9245     6.5971     7.9424    85.8888    -0.0139     2.4387     0.1380
  215.0000   -51.9112     6.6455     7.9462    85.0301    -0.0109     2.4372     0.1355
  215.5000   -51.8979     6.6943     7.9500    86.4420    -0.0094     2.4387     0.1360
  216.0000   -51.7352     6.6971     8.0088    88.5285    -0.0050     2.4424     0.1356
  216.5000   -51.8714     6.7935     8.0126    89.3964    -0.0020     2.4484     0.1344
  217.0000   -52.0076     6.8433     8.0164    89.5286     0.0025     2.4543     0.1308
  217.5000   -51.9944     6.8928     8.0202    89.3769     0.0040     2.4603     0.1264
  218.0000   -51.9811     6.8482     8.0240    88.9069     0.0040     2.4648     0.1228
  218.5000   -51.9678     6.8517     8.0278    88.2672     0.0069     2.4685     0.1201
  219.0000   -51.8051     6.8545     8.0317    85.7117     0.0099     2.4714     0.1186
  219.5000   -51.9417     6.9047     8.0355    84.7162     0.0099     2.4759     0.1129
  220.0000   -51.9280     6.9076     8.0431    89.1292     0.0114     2.4811     0.1078
  220.5000   -51.9148     7.0064     8.2113    90.7397     0.0099     2.4864     0.1070
  221.0000   -51.9013     7.1066     8.2828    91.8108     0.0098     2.4848     0.1070
  221.5000   -51.8879     7.2083     8.4498    92.3679     0.0098     2.4811     0.1085
  222.0000   -52.0244     7.2612     8.5123    91.7658     0.0098     2.4758     0.1106
  222.5000   -51.8584     7.3144     8.6346    92.2597     0.0098     2.4720     0.1131
  223.0000   -51.8451     7.4191     8.7586    93.2643     0.0098     2.4713     0.1169
  223.5000   -51.6824     7.4735     8.7628    92.5211     0.0098     2.4608     0.1151
  224.0000   -51.9681     7.5283     8.8276    89.3093     0.0098     2.4630     0.1175
  224.5000   -52.8517     7.5315     8.8929    87.6583     0.0082     2.4705     0.1199
  225.0000   -53.1407     7.6921     8.9587    84.6497     0.0037     2.4704     0.1205
  225.5000   -53.1241     7.6960     9.0250    84.7237     0.0007     2.4704     0.1205
  226.0000   -53.1108     7.6991     9.0293    85.9759    -0.0038     2.4711     0.1190
  226.5000   -53.0976     7.7022     9.0960    89.9505    -0.0098     2.4689     0.1172
  227.0000   -53.0843     7.7054     9.1633    87.6156    -0.0113     2.4651     0.1185
  227.5000   -53.0710     7.7085     9.1677    86.6166    -0.0128     2.4509     0.1274
  228.0000   -53.0578     7.7117     9.2355    86.0140    -0.0128     2.4463     0.1334
  228.5000   -53.0445     7.6618     9.2399    85.4399    -0.0113     2.4448     0.1355
  229.0000   -53.1809     7.6114     9.1177    86.4554    -0.0113     2.4448     0.1344
  229.5000   -53.1659     7.5622     9.0594    89.7002    -0.0114     2.4485     0.1344
  230.0000   -53.0047     7.5661     9.0647    85.1348    -0.0114     2.4582     0.1320
  230.5000   -53.1409     7.6215     9.0057    81.0793    -0.0114     2.4620     0.1230
  231.0000   -53.1271     7.6247     8.8866    80.0267    -0.0114     2.4559     0.1239
  231.5000   -53.1111     7.6328     8.8297    80.4757    -0.0115     2.4514     0.1266
  232.0000   -53.2506     7.6309     8.8350    81.0748    -0.0114     2.4469     0.1299
  232.5000   -53.2340     7.5815     8.7774    84.5267    -0.0085     2.4379     0.1350
  233.0000   -53.2207     7.5846     8.7826    88.4291    -0.0040     2.4319     0.1398
  233.5000   -53.3603     7.4771     8.7254    90.2294     0.0005     2.4498     0.1314
  234.0000   -53.3437     7.3842     8.7306    86.9246     0.0035     2.4528     0.1285
  234.5000   -53.4832     7.3880     8.6747    82.4186     0.0034     2.4513     0.1279
  235.0000   -53.3172     7.2889     8.6192    80.9156    -0.0025     2.4475     0.1312
  235.5000   -53.3039     7.2418     8.6233    80.6138    -0.0041     2.4438     0.1336
  236.0000   -53.2906     7.1949     8.6274    82.5643    -0.0086     2.4535     0.1279
  236.5000   -53.2774     7.1986     8.6315    83.9141    -0.0086     2.4647     0.1237
  237.0000   -53.4141     7.1513     8.6357    84.5132    -0.0086     2.4624     0.1216
  237.5000   -53.4003     7.0077     8.6399    86.9141    -0.0086     2.4497     0.1255
  238.0000   -53.3871     6.9630     8.6449    88.4141    -0.0056     2.4457     0.1300
  238.5000   -53.3738     6.9173     8.6490    92.0162    -0.0041     2.4541     0.1330
  239.0000   -53.5100     6.9687     8.6531    93.5166    -0.0027     2.4616     0.1235
  239.5000   -53.4962     7.0198     8.5967    93.8154    -0.0027     2.4653     0.1232
  240.0000   -53.4802     7.0227     8.6018    92.0117    -0.0027     2.4675     0.1223
  240.5000   -53.4669     7.0742     8.6059    90.2084    -0.0029     2.4676     0.1160
  241.0000   -53.4536     7.0771     8.6100    88.8556    -0.0042     2.4592     0.1226
  241.5000   -53.4404     7.0313     8.6141    87.8034    -0.0042     2.4532     0.1292
  242.0000   -53.4271     7.0343     8.6182    91.4051    -0.0043     2.4540     0.1262
  242.5000   -53.2644     6.8929     8.6223    96.6589    -0.0043     2.4532     0.1256
  243.0000   -53.2511     6.8964     8.6264    97.4085    -0.0043     2.4509     0.1301
  243.5000   -53.2378     6.8511     8.6305    94.1033    -0.0043     2.4479     0.1316
  244.0000   -53.2246     6.8546     8.6346    91.6994    -0.0043     2.4411     0.1349
  244.5000   -53.2113     6.8574     8.5794    94.2505    -0.0043     2.4366     0.1397
  245.0000   -53.1980     6.8130     8.5207    95.4502    -0.0028     2.4463     0.1349
  245.5000   -53.1848     6.8158     8.4117    94.3976    -0.0029     2.4471     0.1326
  246.0000   -53.1715     6.7251     8.2435    92.1439    -0.0029     2.4500     0.1284
  246.5000   -53.1582     6.6357     8.0795    92.5928     0.0001     2.4567     0.1260
  247.0000   -53.1450     6.5018     8.0269    95.7445     0.0016     2.4500     0.1290
  247.5000   -53.1315     6.3718     7.9765    98.4457     0.0031     2.4477     0.1326
  248.0000   -53.1180     6.2871     7.9245   100.3961     0.0031     2.4410     0.1344
  248.5000   -53.1047     6.2464     7.8197   101.5958     0.0030     2.4432     0.1350
  249.0000   -53.0886     6.2489     7.8244    99.0418     0.0045     2.4469     0.1302
  249.5000   -53.0753     6.2085     7.8822    93.0343     0.0045     2.4671     0.1230
  250.0000   -53.0632     6.2113     7.9959    90.6308     0.0027     2.4731     0.1138
  250.5000   -53.0499     6.3006     8.0556    90.0195    -0.0009     2.4708     0.1141
  251.0000   -52.8872     6.3472     8.1157    88.8093    -0.0046     2.4610     0.1159
  251.5000   -52.8740     6.4830     8.1763    87.5991    -0.0091     2.4468     0.1291
  252.0000   -52.8608     6.4861     8.2373    84.5871    -0.0107     2.4467     0.1330
  252.5000   -52.9970     6.5341     8.2418    83.8295    -0.0107     2.4467     0.1330
  253.0000   -52.9836     6.5826     8.2462    85.9204    -0.0108     2.4497     0.1318
  253.5000   -52.9701     6.5857     8.1929    86.3641    -0.0093     2.4579     0.1300
  254.0000   -52.9540     6.5895     8.1420    85.1516    -0.0064     2.4623     0.1195
  254.5000   -52.9408     6.5926     8.2029    83.4909    -0.0034     2.4556     0.1243
  255.0000   -52.9275     6.5496     8.2074    83.4819     0.0010     2.4585     0.1291
