~VERSION INFORMATION
 VERS.                2.0:   CWLS LOG ASCII STANDARD - VERSION 2.0
 WRAP.                 NO:   ONE LINE PER DEPTH STEP
~WELL INFORMATION
#MNEM.UNIT      DATA TYPE    INFORMATION
#----------   ------------   ------------------------------
 STRT.F           30.0000:   START DEPTH
 STOP.F          468.0000:   STOP DEPTH
 STEP.F            0.1000:   STEP LENGTH
 NULL.          -999.2500:   NO VALUE
 COMP. LAWRENCE/ALLISON INC:   COMPANY
 WELL.    72-12 SX #10-10:   WELL
 FLD .             TEAPOT:   FIELD
 LOC .      S10 T38N R78W:   LOCATION
 CNTY.            NATRONA:   COUNTY
 STAT.            WYOMING:   STATE
 CTRY. UNITED STATES OF AMERICA:   COUNTRY
 SRVC.           Gearhart:   SERVICE COMPANY
 DATE.        17-MAY-1988:   LOGDATE
 API .       490251122400:   API NUMBER
~CURVE INFORMATION
#MNEM.UNIT       API CODE    CURVE DESCRIPTION
#----------   ------------   ------------------------------
 DEPT.F                  :   
 GRR .GAPI   07 310 01 00:   GAMMA RAY
 RILD.OHMM   07 120 46 00:   INDUCTION LOG DEEP RESISTIVITY
 RILM.OHMM   07 120 44 00:   INDUCTION LOG MEDIUM RESISTIVITY
~PARAMETER INFORMATION
#MNEM.UNIT          VALUE    DESCRIPTION
#----------   ------------   ------------------------------
 PD  .                 GL:   PERMANENT DATUM
 EPD .F              5166:   ELEVATION PERMANENT DATUM
 LMF .                 KB:   LOG MEASURED FROM
 DAPD.F              10.2:   FEET ABOVE PERMANENT DATUM
 DMF .                 KB:   DRILLING MEASURED FROM
 EKB .F            5176.2:   KELLING BUSHING
 EGL .F              5166:   GROUND LEVEL
 DATE.        17-MAY-1988:   RUN DATE
 RUN .                  1:   RUN NUMBER
 DD  .F               480:   DEPTH DRILLER
 DL  .F               476:   DEPTH LOGGER
 BLI .F               468:   BOTTOM LOG INTERVAL
 TLI .F                47:   TOP LOG INTERVAL
 CS  .IN            9.625:   CASING SIZE
 CBD .F                43:   CASING BOTTOM DRILLER
 CBL .F                47:   CASING BOTTOM LOGGER
 BS  .IN             8.75:   BIT SIZE
 BSD .F               480:   BIT SIZE AT DEPTH
 DFT .                AIR:   DRILLING FLUID TYPE
 TCS .HRS            0630:   TIME CURCULATED STOPPED
 TLAB.HRS            0930:   TIME LOGGER AT BOTTOM
 LUN .               7597:   LOGGING UNIT NUMBER
 LUL .           GILLETTE:   LOGGING UNIT LOCATION
 ENGI.             SLATKY:   RECORDING ENGINEER
 WITN.             STRONG:   WITNESSED BY
 CLNT.            A2DTECH:   CLIENT CODE
 ORIG.           5" PRINT:   ORIGIN OF DATA
 UWI .       490251122400:   UNIQUE WELL ID
 DICO. A2D Technologies, Inc.:   DIGITIZING COMPANY
~OTHER INFORMATION
~A   DEPT      GRR       RILD       RILM   
# ...
  212.0000   127.1879     8.2830     8.3203
  212.1000   127.2630     8.3243     8.3201
  212.2000   127.3733     8.3402     8.3091
  212.3000   127.5709     8.3398     8.2619
  212.4000   127.5735     8.3395     8.2616
  212.5000   127.8030     8.3391     8.2614
  212.6000   127.8812     8.3388     8.2612
  212.7000   127.9885     8.3384     8.2610
  212.8000   128.1891     8.3381     8.2607
  212.9000   128.1917     8.3377     8.2605
  213.0000   128.1939     8.3373     8.2603
  213.1000   128.0333     8.3370     8.2600
  213.2000   127.8958     8.3367     8.2598
  213.3000   127.8576     8.3363     8.2596
  213.4000   127.5978     8.3360     8.2593
  213.5000   127.3788     8.3356     8.2591
  213.6000   126.9793     8.3353     8.2589
  213.7000   126.4981     8.3350     8.2586
  213.8000   125.9793     8.3525     8.2584
  213.9000   125.1857     8.3925     8.2582
  214.0000   124.5334     8.3920     8.2580
  214.1000   123.4964     8.3917     8.2792
  214.2000   122.2897     8.4210     8.3152
  214.3000   121.2212     8.4496     8.3149
  214.4000   120.9554     8.4493     8.3147
  214.5000   121.1727     8.4489     8.3145
  214.6000   121.5709     8.4900     8.3143
  214.7000   122.0570     8.5072     8.3140
  214.8000   122.5745     8.5068     8.3138
  214.9000   123.3918     8.5065     8.3136
  215.0000   123.8182     8.5061     8.3133
  215.1000   124.4552     8.5058     8.3131
  215.2000   125.0036     8.5054     8.3225
  215.3000   125.2764     8.5050     8.3707
  215.4000   125.8282     8.5047     8.3705
  215.5000   126.4576     8.5043     8.3702
  215.6000   127.0376     8.5040     8.3912
  215.7000   127.4370     8.5036     8.4283
  215.8000   127.6812     8.4859     8.4280
  215.9000   127.9616     8.4440     8.4278
  216.0000   128.3758     8.4436     8.4275
  216.1000   128.5721     8.4027     8.4273
  216.2000   128.5746     8.3844     8.4271
  216.3000   128.5770     8.3671     8.4268
  216.4000   128.5798     8.3256     8.4266
  216.5000   128.3788     8.3252     8.4264
  216.6000   128.1394     8.2851     8.4261
  216.7000   127.9806     8.2668     8.4168
  216.8000   127.9636     8.2500     8.3672
  216.9000   127.6828     8.2088     8.3670
  217.0000   127.4849     8.2084     8.3668
  217.1000   127.2455     8.2081     8.3460
  217.2000   126.9285     8.2078     8.3082
  217.3000   126.4637     8.2074     8.3080
  217.4000   126.1798     8.2071     8.3078
  217.5000   125.9849     8.2067     8.3075
  217.6000   125.7455     8.2064     8.2872
  217.7000   125.4315     8.2061     8.2495
  217.8000   124.9768     8.2057     8.2492
  217.9000   124.9799     8.2054     8.2490
  218.0000   124.7879     8.2050     8.2488
  218.1000   124.5485     8.2047     8.2485
  218.2000   124.3806     8.2044     8.2483
  218.3000   124.3727     8.2040     8.2481
  218.4000   124.1333     8.2037     8.2478
  218.5000   124.0848     8.2033     8.2476
  218.6000   124.2170     8.2030     8.2474
  218.7000   124.4612     8.2027     8.2472
  218.8000   124.6982     8.2023     8.2469
  218.9000   124.7006     8.2020     8.2467
  219.0000   124.8909     8.2016     8.2465
  219.1000   125.0085     8.2013     8.2462
  219.2000   125.0764     8.2009     8.2460
  219.3000   125.3206     8.2006     8.2458
  219.4000   125.5648     8.2003     8.2456
  219.5000   125.8091     8.1999     8.2453
  219.6000   126.0533     8.1996     8.2451
  219.7000   126.2352     8.1992     8.2449
  219.8000   126.2388     8.1989     8.2446
  219.9000   126.4831     8.1947     8.2444
  220.0000   126.5455     8.1413     8.2137
  220.1000   126.6685     8.1410     8.1868
  220.2000   126.9127     8.1407     8.1865
  220.3000   127.1588     8.1404     8.1863
  220.4000   127.1612     8.1400     8.1861
  220.5000   127.1636     8.1396     8.1858
  220.6000   127.1661     8.1019     8.1856
  220.7000   127.1685     8.0826     8.1781
  220.8000   127.1710     8.0822     8.1284
  220.9000   127.1733     8.0819     8.1281
  221.0000   127.0000     8.0815     8.0982
  221.1000   126.7606     8.0812     8.0531
  221.2000   126.5212     8.0809     8.0151
  221.3000   126.2740     8.0805     8.0148
  221.4000   126.0424     8.0770     7.9344
  221.5000   125.6303     8.0238     7.8749
  221.6000   125.1491     8.0235     7.8310
  221.7000   124.7685     7.9979     7.7873
  221.8000   124.7710     7.9532     7.7396
  221.9000   124.7733     7.9087     7.6623
  222.0000   124.9455     7.8564     7.6046
  222.1000   125.2982     7.8562     7.5455
  222.2000   125.7842     7.8068     7.4617
  222.3000   126.2983     7.7335     7.3704
  222.4000   126.7564     7.6876     7.2610
  222.5000   127.2425     7.5863     7.1662
  222.6000   127.6230     7.5519     7.0866
  222.7000   127.9115     7.4864     7.0191
  222.8000   128.4317     7.4160     7.0189
  222.9000   128.6588     7.3721     6.9839
  223.0000   128.9030     7.2746     6.8959
  223.1000   129.1473     7.2418     6.7815
  223.2000   129.3915     7.2014     6.6638
  223.3000   129.6560     7.1491     6.5005
  223.4000   129.8800     7.0717     6.4049
  223.5000   129.9636     7.0245     6.3210
  223.6000   130.1648     6.9619     6.2508
  223.7000   130.6127     6.8846     6.1814
  223.8000   130.8802     6.8195     6.1049
  223.9000   131.3200     6.7814     6.0748
  224.0000   131.9636     6.7435     6.0409
  224.1000   132.7879     6.6762     5.9945
  224.2000   133.7224     6.6222     5.9366
  224.3000   134.5287     6.5852     5.9364
  224.4000   135.1781     6.5467     5.9363
  224.5000   135.9060     6.4741     5.9361
  224.6000   136.7273     6.4305     5.9359
  224.7000   137.6648     6.3946     5.9358
  224.8000   138.4803     6.3589     5.9356
  224.9000   138.6951     6.3233     5.9645
  225.0000   138.9394     6.2880     5.9767
  225.1000   139.0933     6.2529     5.9766
  225.2000   139.0667     6.2180     5.9805
  225.3000   138.7955     6.1832     6.0180
  225.4000   138.5879     6.1500     6.0471
  225.5000   138.3485     6.1497     6.0807
  225.6000   138.1091     6.1495     6.1019
  225.7000   137.8436     6.1676     6.1058
  225.8000   137.2925     6.2017     6.1441
  225.9000   136.8812     6.2360     6.1738
  226.0000   136.4000     6.2705     6.1867
  226.1000   135.8345     6.2778     6.1866
  226.2000   135.1346     6.2962     6.1904
  226.3000   134.5773     6.3211     6.2294
  226.4000   133.9685     6.3209     6.2293
  226.5000   133.5303     6.3206     6.2291
  226.6000   133.2909     6.2931     6.2289
  226.7000   133.0515     6.2397     6.2287
  226.8000   132.7713     6.1798     6.2285
  226.9000   132.5727     6.1452     6.1987
  227.0000   132.3333     6.1109     6.1641
  227.1000   132.0939     6.1030     6.1297
  227.2000   131.8376     6.0850     6.0955
  227.3000   131.2683     6.0510     6.0566
  227.4000   131.0727     6.0179     5.9992
  227.5000   130.8333     6.0177     5.9327
  227.6000   130.5188     5.9917     5.8783
  227.7000   130.0515     5.9583     5.8422
  227.8000   129.7653     5.9338     5.7678
  227.9000   129.5727     5.9335     5.6865
  228.0000   129.6000     5.9333     5.5922
  228.1000   130.4213     5.9078     5.4994
  228.2000   132.5455     5.8917     5.4110
  228.3000   133.5152     5.8914     5.3418
  228.4000   133.7188     5.8912     5.3417
  228.5000   133.7212     5.8909     5.3415
  228.6000   133.6545     5.8907     5.3517
  228.7000   133.4230     5.8904     5.3786
  228.8000   133.4255     5.8902     5.3784
  228.9000   133.2394     5.8899     5.3783
  229.0000   133.0000     5.8897     5.3959
  229.1000   132.6945     5.9144     5.4258
  229.2000   132.2133     5.9303     5.4532
  229.3000   131.7322     5.9385     5.4530
  229.4000   131.2509     5.9714     5.4785
  229.5000   130.6455     6.0045     5.5089
  229.6000   129.8595     6.0377     5.5395
  229.7000   128.8909     6.0711     5.5729
  229.8000   127.4425     6.1047     5.6454
  229.9000   125.8116     6.1385     5.6981
  230.0000   124.2425     6.2070     5.7429
  230.1000   122.8540     6.2499     5.7965
