~VERSION INFORMATION
 VERS.                2.0:   CWLS LOG ASCII STANDARD - VERSION 2.0
 WRAP.                 NO:   ONE LINE PER DEPTH STEP
~WELL INFORMATION
#MNEM.UNIT      DATA TYPE    INFORMATION
#----------   ------------   ------------------------------
 STRT.F           14.0000:   START DEPTH
 STOP.F          500.0000:   STOP DEPTH
 STEP.F            0.1000:   STEP LENGTH
 NULL.          -999.2500:   NO VALUE
 COMP. LAWRENCE/ALLISON INC:   COMPANY
 WELL.    72-46 SX #10-10:   WELL
 FLD .             TEAPOT:   FIELD
 LOC .      S10 T38N R78W:   LOCATION
 CNTY.            NATRONA:   COUNTY
 STAT.            WYOMING:   STATE
 CTRY. UNITED STATES OF AMERICA:   COUNTRY
 SRVC.           Gearhart:   SERVICE COMPANY
 DATE.        22-MAY-1988:   LOGDATE
 API .       490251122600:   API NUMBER
~CURVE INFORMATION
#MNEM.UNIT       API CODE    CURVE DESCRIPTION
#----------   ------------   ------------------------------
 DEPT.F                  :   
 GRR .GAPI   07 310 01 00:   GAMMA RAY
 RILD.OHMM   07 120 46 00:   INDUCTION LOG DEEP RESISTIVITY
 RILM.OHMM   07 120 44 00:   INDUCTION LOG MEDIUM RESISTIVITY
~PARAMETER INFORMATION
#MNEM.UNIT          VALUE    DESCRIPTION
#----------   ------------   ------------------------------
 PD  .                 GL:   PERMANENT DATUM
 EPD .F              5173:   ELEVATION PERMANENT DATUM
 LMF .                 KB:   LOG MEASURED FROM
 DAPD.F              10.2:   FEET ABOVE PERMANENT DATUM
 DMF .                 KB:   DRILLING MEASURED FROM
 EKB .F            5183.2:   KELLING BUSHING
 EGL .F              5173:   GROUND LEVEL
 DATE.        22-MAY-1988:   RUN DATE
 RUN .                  1:   RUN NUMBER
 DD  .F               505:   DEPTH DRILLER
 DL  .F               504:   DEPTH LOGGER
 BLI .F               500:   BOTTOM LOG INTERVAL
 TLI .F                50:   TOP LOG INTERVAL
 CS  .IN            9.625:   CASING SIZE
 CBD .F                52:   CASING BOTTOM DRILLER
 CBL .F                50:   CASING BOTTOM LOGGER
 BS  .IN             8.75:   BIT SIZE
 BSD .F               505:   BIT SIZE AT DEPTH
 DFT .                AIR:   DRILLING FLUID TYPE
 TLAB.HRS            1339:   TIME LOGGER AT BOTTOM
 LUN .               7597:   LOGGING UNIT NUMBER
 LUL .           GILLETTE:   LOGGING UNIT LOCATION
 ENGI.          HUCKFELDT:   RECORDING ENGINEER
 WITN.             STRONG:   WITNESSED BY
 CLNT.            A2DTECH:   CLIENT CODE
 ORIG.           5" PRINT:   ORIGIN OF DATA
 UWI .       490251122600:   UNIQUE WELL ID
 DICO. A2D Technologies, Inc.:   DIGITIZING COMPANY
~OTHER INFORMATION
~A   DEPT       GRR      RILD       RILM   
# ...
  378.0000    70.3927    26.8928    27.2657
  378.1000    70.3951    26.8924    27.2648
  378.2000    70.3979    26.8921    27.3948
  378.3000    70.1866    26.8917    27.4544
  378.4000    70.0980    26.8913    27.4537
  378.5000    70.1004    26.8909    27.4529
  378.6000    70.1029    26.8905    27.4522
  378.7000    70.0995    26.8902    27.6105
  378.8000    69.8038    26.8898    27.6430
  378.9000    69.8058    26.8895    27.7361
  379.0000    69.8082    26.8891    27.8351
  379.1000    69.9129    26.8887    27.8344
  379.2000    70.1175    26.8883    27.8336
  379.3000    70.1200    26.8879    27.6780
  379.4000    70.1224    26.8875    27.5175
  379.5000    70.3237    26.8872    27.4453
  379.6000    70.4316    26.8868    27.3901
  379.7000    70.5290    26.8398    27.2528
  379.8000    70.7839    26.6991    27.2520
  379.9000    71.0479    26.6987    27.1050
  380.0000    71.0502    26.5622    26.9479
  380.1000    71.2442    26.5123    26.7917
  380.2000    71.3595    26.4402    26.6362
  380.3000    71.4496    26.2875    26.4976
  380.4000    71.7046    26.1439    26.4968
  380.5000    71.9758    26.1434    26.3592
  380.6000    71.9781    26.0157    26.3111
  380.7000    71.9805    25.8654    26.2369
  380.8000    71.8507    25.7801    26.0848
  380.9000    71.6007    25.7797    25.9335
  381.0000    71.3787    25.7770    25.7626
  381.1000    71.3817    25.5997    25.7620
  381.2000    71.1549    25.5994    25.7613
  381.3000    70.7280    25.5991    25.6938
  381.4000    70.3504    25.5987    25.5806
  381.5000    70.1003    25.5711    25.5799
  381.6000    69.8713    25.4200    25.5791
  381.7000    69.8743    25.4197    25.5785
  381.8000    69.6548    25.4193    25.5777
  381.9000    69.5744    25.4189    25.5770
  382.0000    69.6946    25.4186    25.5763
  382.1000    69.8837    25.4182    25.5756
  382.2000    69.9000    25.4178    25.5749
  382.3000    70.1934    25.4175    25.5742
  382.4000    70.6240    25.4172    25.5735
  382.5000    70.9690    25.4168    25.5727
  382.6000    71.2239    25.4165    25.5721
  382.7000    71.5375    25.4161    25.5713
  382.8000    72.0448    25.4157    25.5706
  382.9000    72.6434    25.5480    25.5699
  383.0000    72.8523    25.5930    25.5692
  383.1000    73.2625    25.5926    25.5685
  383.2000    73.6667    25.5923    25.5678
  383.3000    73.9214    25.5919    25.5670
  383.4000    74.1772    25.5915    25.5663
  383.5000    74.4312    25.5912    25.5656
  383.6000    74.4865    25.5908    25.5649
  383.7000    74.6366    25.6566    25.6109
  383.8000    74.7957    25.7693    25.7427
  383.9000    74.7982    25.7690    25.7418
  384.0000    74.8007    25.7685    25.7411
  384.1000    74.8030    25.7682    25.7404
  384.2000    74.6131    25.7679    25.8127
  384.3000    74.5035    25.7675    25.9194
  384.4000    74.4175    25.7671    25.9186
  384.5000    74.2036    25.7668    25.9178
  384.6000    74.2065    25.9146    26.0478
  384.7000    74.4458    25.9465    26.0981
  384.8000    74.5157    25.9461    26.1661
  384.9000    74.6511    25.9458    26.2795
  385.0000    74.9061    25.9697    26.2788
  385.1000    75.1318    26.1267    26.2779
  385.2000    75.1345    26.1263    26.2773
  385.3000    75.3664    26.1260    26.3722
  385.4000    75.7990    26.1256    26.4599
  385.5000    76.0548    26.1253    26.4592
  385.6000    76.1312    26.1249    26.4585
  385.7000    76.3860    26.1245    26.4577
  385.8000    76.6712    26.2627    26.4570
  385.9000    76.4509    26.3067    26.5473
  386.0000    76.3714    26.3063    26.6409
  386.1000    76.3738    26.3060    26.6402
  386.2000    76.3096    26.3056    26.6394
  386.3000    76.0741    26.3052    26.6387
  386.4000    76.0771    26.3048    26.6379
  386.5000    76.0791    26.3045    26.6372
  386.6000    76.0816    26.2344    26.6364
  386.7000    76.0840    26.1209    26.6134
  386.8000    76.0271    26.1205    26.4495
  386.9000    75.7844    26.1201    26.4489
  387.0000    75.7873    25.9938    26.3365
  387.1000    75.5815    25.9378    26.2633
  387.2000    75.4874    25.8744    26.2626
  387.3000    75.3860    25.7567    26.2449
  387.4000    75.1878    25.7555    26.0783
  387.5000    75.1903    25.6067    26.0777
  387.6000    75.1927    25.5765    25.9719
  387.7000    75.1951    25.4892    25.8947
  387.8000    75.1976    25.3420    25.8515
  387.9000    75.2000    25.2210    25.7131
  388.0000    75.2024    25.2207    25.7123
  388.1000    75.2049    25.0798    25.5825
  388.2000    75.2073    25.0446    25.5321
  388.3000    75.2097    24.9647    25.5314
  388.4000    75.2122    24.8698    25.5306
  388.5000    75.2147    24.8498    25.5235
  388.6000    75.2171    24.6962    25.3515
  388.7000    75.2196    24.5637    25.3509
  388.8000    75.2219    24.5238    25.2580
  388.9000    75.2244    24.5234    25.1731
  389.0000    75.2268    24.4799    25.1408
  389.1000    75.2292    24.3523    24.9965
  389.2000    75.2317    24.3519    24.9957
  389.3000    75.2343    24.2267    24.8793
  389.4000    75.2365    24.1819    24.8205
  389.5000    75.2390    24.1155    24.7640
  389.6000    75.2414    23.9762    24.6203
  389.7000    75.2438    23.8458    24.4742
  389.8000    75.2462    23.8454    24.3357
  389.9000    75.2490    23.7282    24.1946
  390.0000    75.2511    23.6790    24.0544
  390.1000    75.2536    23.5601    23.9149
  390.2000    75.2560    23.3502    23.7761
  390.3000    75.2584    23.3471    23.6305
  390.4000    75.2608    23.1871    23.5013
  390.5000    75.2637    23.0783    23.2663
  390.6000    75.2658    22.9450    23.0681
  390.7000    75.2682    22.8125    22.9343
  390.8000    75.2706    22.6562    22.7861
  390.9000    75.2731    22.3906    22.4994
  391.0000    75.2755    22.2638    22.2638
  391.1000    75.2784    22.1352    22.0964
  391.2000    75.2804    22.0074    21.9058
  391.3000    75.2828    21.8803    21.6888
  391.4000    75.2852    21.7351    21.5530
  391.5000    75.2877    21.4708    21.2734
  391.6000    75.2901    21.3538    21.1654
  391.7000    75.2925    21.2306    21.0427
  391.8000    75.2950    21.1080    20.9208
  391.9000    75.2974    20.9477    20.7995
  392.0000    75.2998    20.7197    20.6789
  392.1000    75.3023    20.5887    20.5400
  392.2000    75.3048    20.5885    20.4398
  392.3000    75.3071    20.5055    20.3214
  392.4000    75.3096    20.3871    20.2036
  392.5000    75.3120    20.2694    20.1121
  392.6000    75.3145    20.1523    20.1098
  392.7000    75.3169    20.0203    19.9709
  392.8000    75.3195    20.0201    19.9704
  392.9000    75.3218    19.9439    19.9007
  393.0000    75.3242    19.8804    19.8304
  393.1000    75.4614    19.8523    19.8298
  393.2000    75.6335    19.7416    19.8292
  393.3000    75.6667    19.7412    19.8287
  393.4000    75.9430    19.7410    19.8282
  393.5000    76.1766    19.7407    19.8276
  393.6000    76.2521    19.6937    19.7858
  393.7000    76.3820    19.6029    19.6885
  393.8000    76.5613    19.6027    19.6879
  393.9000    76.5638    19.6024    19.6874
  394.0000    76.5665    19.6021    19.6869
  394.1000    76.5686    19.5362    19.6258
  394.2000    76.5711    19.4653    19.5488
  394.3000    76.5735    19.4650    19.5482
  394.4000    76.5760    19.4647    19.5476
  394.5000    76.5784    19.4645    19.5471
  394.6000    76.5812    19.4642    19.5466
  394.7000    76.5833    19.4639    19.4897
  394.8000    76.7505    19.4636    19.4095
  394.9000    76.8926    19.4634    19.4090
  395.0000    76.8950    19.4631    19.4083
  395.1000    76.8974    19.4628    19.4079
  395.2000    76.9003    19.4625    19.4073
  395.3000    76.9023    19.4623    19.4068
  395.4000    76.9047    19.4620    19.4062
  395.5000    76.9071    19.4518    19.4057
  395.6000    76.9096    19.3261    19.4051
  395.7000    76.9120    19.3259    19.3100
  395.8000    76.9149    19.3256    19.2690
  395.9000    76.7147    19.3253    19.2685
  396.0000    76.6149    19.3250    19.2680
  396.1000    76.6173    19.3192    19.2674
