~VERSION INFORMATION
 VERS.                2.0:   CWLS LOG ASCII STANDARD - VERSION 2.0
 WRAP.                 NO:   ONE LINE PER DEPTH STEP
~WELL INFORMATION
#MNEM.UNIT      DATA TYPE    INFORMATION
#----------   ------------   ------------------------------
 STRT.F          779.5000:   START DEPTH
 STOP.F         2194.0000:   STOP DEPTH
 STEP.F            0.5000:   STEP LENGTH
 NULL.          -999.2500:   NO VALUE
 COMP. LAWRENCE/ALLISON INC:   COMPANY
 WELL.        27 X #10-10:   WELL
 FLD .             TEAPOT:   FIELD
 LOC .      S10 T38N R78W:   LOCATION
 CNTY.            NATRONA:   COUNTY
 STAT.            WYOMING:   STATE
 CTRY. UNITED STATES OF AMERICA:   COUNTRY
 SRVC.            Unknown:   SERVICE COMPANY
 DATE.        21-AUG-1987:   LOGDATE
 API .       490251118900:   API NUMBER
~CURVE INFORMATION
#MNEM.UNIT       API CODE    CURVE DESCRIPTION
#----------   ------------   ------------------------------
 DEPT.F                  :   
 ROP .MIN/FT 91 810 01 00:   RATE OF DRILLING PENETRATION
 TGAS.UNITS  91 830 01 00:   TOTAL GAS FROM HOTWIRE
~PARAMETER INFORMATION
#MNEM.UNIT          VALUE    DESCRIPTION
#----------   ------------   ------------------------------
 EKB .F              5237:   KELLING BUSHING
 EGL .F              5236:   GROUND LEVEL
 DATE.        21-AUG-1987:   RUN DATE
 BLI .F              2180:   BOTTOM LOG INTERVAL
 TLI .F               780:   TOP LOG INTERVAL
 LUN .              T-148:   LOGGING UNIT NUMBER
 ENGI.            R. HUSK:   RECORDING ENGINEER
 WITN.           C. TOWER:   WITNESSED BY
 CLNT.            A2DTECH:   CLIENT CODE
 ORIG.           5" PRINT:   ORIGIN OF DATA
 UWI .       490251118900:   UNIQUE WELL ID
 DICO. A2D Technologies, Inc.:   DIGITIZING COMPANY
~OTHER INFORMATION
~A   DEPT      ROP         TGAS 
# ...
 1630.0000     0.5141    61.1001
 1630.5000     0.5360    61.1340
 1631.0000     0.5363    61.1627
 1631.5000     0.5365    61.1940
 1632.0000     0.5368    61.2263
 1632.5000     0.5371    61.2643
 1633.0000     0.5373    61.2956
 1633.5000     0.5376    61.3269
 1634.0000     0.5379    61.3582
 1634.5000     0.5381    61.3905
 1635.0000     0.5384    61.4286
 1635.5000     0.5387    61.4599
 1636.0000     0.5390    61.4911
 1636.5000     0.5392    61.5224
 1637.0000     0.5395    61.5563
 1637.5000     0.5398    61.5928
 1638.0000     0.5509    61.6241
 1638.5000     0.5512    61.5166
 1639.0000     0.5514    61.3395
 1639.5000     0.5517    61.1623
 1640.0000     0.5519    60.9851
 1640.5000     0.5519    60.8633
 1641.0000     0.5537    60.8525
 1641.5000     0.5628    60.8417
 1642.0000     0.5628    60.8309
 1642.5000     0.5628    60.8202
 1643.0000     0.5628    60.8094
 1643.5000     0.5628    60.7986
 1644.0000     0.5628    61.2284
 1644.5000     0.5582    61.2149
 1645.0000     0.5519    61.2042
 1645.5000     0.5519    61.1934
 1646.0000     0.5519    61.1825
 1646.5000     0.5519    61.1715
 1647.0000     0.5454    61.1606
 1647.5000     0.5411    61.1475
 1648.0000     0.5411    61.1367
 1648.5000     0.5411    61.1259
 1649.0000     0.5411    60.6772
 1649.5000     0.5519    60.6664
 1650.0000     0.5519    60.6569
 1650.5000     0.5519    60.6439
 1651.0000     0.5519    60.6331
 1651.5000     0.5519    60.6232
 1652.0000     0.5519    60.1745
 1652.5000     0.5519    60.1642
 1653.0000     0.5519    60.1533
 1653.5000     0.5519    60.1403
 1654.0000     0.5519    60.1313
 1654.5000     0.5519    60.1204
 1655.0000     0.5519    60.0730
 1655.5000     0.5519    59.6606
 1656.0000     0.5519    59.6475
 1656.5000     0.5519    59.6367
 1657.0000     0.5519    59.1879
 1657.5000     0.5519    59.1771
 1658.0000     0.5519    59.6070
 1658.5000     0.5570    59.1556
 1659.0000     0.5628    59.1448
 1659.5000     0.5628    59.1340
 1660.0000     0.5628    59.1241
 1660.5000     0.5617    59.1718
 1661.0000     0.5715    59.2195
 1661.5000     0.5703    59.2673
 1662.0000     0.5679    59.3150
 1662.5000     0.5574    59.3627
 1663.0000     0.5563    59.4104
 1663.5000     0.5552    59.4582
 1664.0000     0.5541    59.5059
 1664.5000     0.5530    59.5536
 1665.0000     0.5519    59.6013
 1665.5000     0.5509    59.6491
 1666.0000     0.5457    59.6968
 1666.5000     0.5291    59.7445
 1667.0000     0.5104    59.7922
 1667.5000     0.4982    59.8400
 1668.0000     0.4913    59.8877
 1668.5000     0.4845    59.9354
 1669.0000     0.4784    59.9831
 1669.5000     0.4708    60.0309
 1670.0000     0.4654    60.0786
 1670.5000     0.4572    60.1263
 1671.0000     0.4524    60.1740
 1671.5000     0.4591    60.2218
 1672.0000     0.4610    60.2695
 1672.5000     0.4600    60.3172
 1673.0000     0.4587    60.3649
 1673.5000     0.4685    60.4127
 1674.0000     0.4782    60.4604
 1674.5000     0.4880    60.5081
 1675.0000     0.5302    60.5558
 1675.5000     0.5725    60.6036
 1676.0000     0.6472    60.6513
 1676.5000     0.6570    60.6990
 1677.0000     0.6328    60.7467
 1677.5000     0.6084    60.7945
 1678.0000     0.5766    60.8321
 1678.5000     0.5643    60.8450
 1679.0000     0.5541    60.8556
 1679.5000     0.5530    60.4256
 1680.0000     0.5737    59.9982
 1680.5000     0.5722    60.0015
 1681.0000     0.5692    60.0000
 1681.5000     0.5587    60.0000
 1682.0000     0.5599    60.0000
 1682.5000     0.5698    60.0000
 1683.0000     0.5763    60.0000
 1683.5000     0.5749    60.0000
 1684.0000     0.5736    60.0000
 1684.5000     0.5722    60.0000
 1685.0000     0.5709    60.0000
 1685.5000     0.5695    60.0000
 1686.0000     0.5682    60.0000
 1686.5000     0.5668    60.0000
 1687.0000     0.5655    60.0000
 1687.5000     0.5641    60.0000
 1688.0000     0.5628    60.0000
 1688.5000     0.5614    60.0000
 1689.0000     0.5601    59.5620
 1689.5000     0.5476    59.5620
 1690.0000     0.5463    59.5620
 1690.5000     0.5450    60.0000
 1691.0000     0.5437    60.0000
 1691.5000     0.5316    60.0000
 1692.0000     0.5303    60.0000
 1692.5000     0.5398    60.0000
 1693.0000     0.5384    59.5620
 1693.5000     0.5371    59.5620
 1694.0000     0.5343    59.5620
 1694.5000     0.5235    59.5620
 1695.0000     0.5222    59.5620
 1695.5000     0.5235    59.5620
 1696.0000     0.5272    59.5620
 1696.5000     0.5216    59.5620
 1697.0000     0.5276    59.5620
 1697.5000     0.5262    59.5620
 1698.0000     0.5390    59.5620
 1698.5000     0.5764    59.5620
 1699.0000     0.6255    59.5620
 1699.5000     0.6704    59.5620
 1700.0000     0.7035    59.1241
 1700.5000     0.6548    59.2116
 1701.0000     0.6115    59.2991
 1701.5000     0.5799    59.3866
 1702.0000     0.5574    59.4741
 1702.5000     0.5380    59.5616
 1703.0000     0.5303    59.6490
 1703.5000     0.5303    59.7365
 1704.0000     0.5303    59.8240
 1704.5000     0.5303    59.9115
 1705.0000     0.5303    59.9990
 1705.5000     0.5303    60.0865
 1706.0000     0.5303    60.1740
 1706.5000     0.5303    60.2615
 1707.0000     0.5303    60.3490
 1707.5000     0.5303    60.4365
 1708.0000     0.5222    60.5240
 1708.5000     0.5195    60.6115
 1709.0000     0.5303    60.6788
 1709.5000     0.5303    60.2299
 1710.0000     0.5303    60.2190
 1710.5000     0.5303    60.2062
 1711.0000     0.5303    60.1722
 1711.5000     0.5299    60.1382
 1712.0000     0.5195    60.1042
 1712.5000     0.5195    60.0702
 1713.0000     0.5195    60.0362
 1713.5000     0.5195    60.0022
 1714.0000     0.5195    59.9682
 1714.5000     0.5195    59.9342
 1715.0000     0.5231    59.9002
 1715.5000     0.5262    59.8662
 1716.0000     0.5150    59.8322
 1716.5000     0.5087    59.7982
 1717.0000     0.5141    59.7642
 1717.5000     0.5136    59.7302
 1718.0000     0.5087    59.6962
 1718.5000     0.5087    59.6622
 1719.0000     0.5087    59.6282
 1719.5000     0.5087    59.5942
 1720.0000     0.5087    59.5598
 1720.5000     0.5731    59.5210
 1721.0000     0.5725    59.4821
 1721.5000     0.5720    59.4433
 1722.0000     0.5700    59.4044
 1722.5000     0.5583    59.3656
 1723.0000     0.5487    59.3268
 1723.5000     0.5482    59.2879
 1724.0000     0.5476    59.2491
 1724.5000     0.5471    59.2103
 1725.0000     0.5465    59.1714
 1725.5000     0.5460    59.1326
 1726.0000     0.5498    59.0937
 1726.5000     0.5557    59.0549
 1727.0000     0.5552    59.0161
 1727.5000     0.5547    58.9772
 1728.0000     0.5483    58.9384
 1728.5000     0.5427    58.8995
 1729.0000     0.5422    58.8607
 1729.5000     0.5485    58.8219
 1730.0000     0.5519    58.7830
 1730.5000     0.5590    58.7442
 1731.0000     0.5617    58.7264
 1731.5000     0.5611    58.7533
 1732.0000     0.5605    58.7748
 1732.5000     0.5708    58.7963
 1733.0000     0.6136    58.8178
 1733.5000     0.6563    58.8394
 1734.0000     0.6883    58.8613
 1734.5000     0.6661    58.8832
 1735.0000     0.6223    58.4658
 1735.5000     0.5777    58.4927
 1736.0000     0.5563    58.5142
 1736.5000     0.5568    58.5357
 1737.0000     0.5703    58.5572
 1737.5000     0.5997    58.5787
 1738.0000     0.6083    59.0381
 1738.5000     0.6077    59.9355
 1739.0000     0.6071    60.3950
 1739.5000     0.6066    60.8544
 1740.0000     0.6060    62.1898
 1740.5000     0.6052    63.9416
 1741.0000     0.5967    65.6934
 1741.5000     0.5928    67.0073
 1742.0000     0.5920    68.7591
 1742.5000     0.5912    70.9489
 1743.0000     0.6010    72.2773
 1743.5000     0.6003    74.0146
 1744.0000     0.5995    74.8905
 1744.5000     0.5987    74.8905
 1745.0000     0.6087    74.8905
 1745.5000     0.6079    74.4526
 1746.0000     0.6071    73.1387
 1746.5000     0.6063    71.8248
 1747.0000     0.6055    69.6350
 1747.5000     0.6047    67.8467
 1748.0000     0.6148    65.6934
 1748.5000     0.6139    63.9416
 1749.0000     0.6132    62.6277
 1749.5000     0.6232    62.1898
 1750.0000     0.6223    62.1898
 1750.5000     0.6215    62.1898
 1751.0000     0.6207    62.1898
