~VERSION INFORMATION
 VERS.                2.0:   CWLS LOG ASCII STANDARD - VERSION 2.0
 WRAP.                 NO:   ONE LINE PER DEPTH STEP
~WELL INFORMATION
#MNEM.UNIT      DATA TYPE    INFORMATION
#----------   ------------   ------------------------------
 STRT.F           30.0000:   START DEPTH
 STOP.F          750.0000:   STOP DEPTH
 STEP.F            0.5000:   STEP LENGTH
 NULL.          -999.2500:   NO VALUE
 COMP. FENIX & SCISSON INC:   COMPANY
 WELL. TEAPOT DOME SX #38-11:   WELL
 FLD .             TEAPOT:   FIELD
 LOC .      S11 T38N R78W:   LOCATION
 CNTY.            NATRONA:   COUNTY
 STAT.            WYOMING:   STATE
 CTRY. UNITED STATES OF AMERICA:   COUNTRY
 SRVC.            Unknown:   SERVICE COMPANY
 DATE.        23-FEB-1978:   LOGDATE
 API .       490251058200:   API NUMBER
~CURVE INFORMATION
#MNEM.UNIT       API CODE    CURVE DESCRIPTION
#----------   ------------   ------------------------------
 DEPT.F                  :   
 CALD.IN     45 280 60 00:   CALIPER FROM DENSITY LOG
 GRD .GAPI   45 310 01 00:   GAMMA RAY FROM DENSITY LOG
 RHOB.G/C3   45 350 01 00:   BULK DENSITY
 DPHI.DEC    45 890 12 00:   DENSITY POROSITY SANDSTONE
 CORR.G/C3   45 356 01 00:   DENSITY CORRECTION
 SPR .MV     07 010 01 00:   SPONTANEOUS POTENTIAL FROM RES. LOG
 SN  .OHMM   07 040 16 00:   SHORT NORMAL 16'
 ILD .OHMM   07 120 46 00:   INDUCTION LOG DEEP
~PARAMETER INFORMATION
#MNEM.UNIT          VALUE    DESCRIPTION
#----------   ------------   ------------------------------
 PD  .                 GL:   PERMANENT DATUM
 EPD .F              5204:   ELEVATION PERMANENT DATUM
 LMF .                 KB:   LOG MEASURED FROM
 DAPD.F                 4:   FEET ABOVE PERMANENT DATUM
 DMF .                 KB:   DRILLING MEASURED FROM
 EKB .F              5208:   KELLING BUSHING
 EGL .F              5204:   GROUND LEVEL
 DATE.            2-23-78:   RUN DATE
 RUN .                  1:   RUN NUMBER
 DD  .F               755:   DEPTH DRILLER
 DL  .F               751:   DEPTH LOGGER
 BLI .F               745:   BOTTOM LOG INTERVAL
 TLI .F                45:   TOP LOG INTERVAL
 CS  .IN            8.625:   CASING SIZE
 CBD .F                40:   CASING BOTTOM DRILLER
 CBL .F                40:   CASING BOTTOM LOGGER
 BS  .IN            7.875:   BIT SIZE
 BSD .F               755:   BIT SIZE AT DEPTH
 DFT .         LIGNO SULF:   DRILLING FLUID TYPE
 DFD .                8.7:   DRILLING FLUID DENSITY
 DFV .                 33:   DRILLING FLUID VISCOSITY
 DFPH.                 10:   DRILLING FLUID PH
 DFL .                  4:   DRILLING FLUID LOSS
 MSS .          FLOW LINE:   MUD SAMPLE SOURCE
 RMS .OHMM              2:   RESISTIVITY MUD SAMPLE
 MST .F                60:   MUD SAMPLE TEMPERATURE
 RMF .OHMM            1.9:   RESISTIVITY MUD FILTRATE SAMPLE
 MFST.F                62:   MUD FILTRATE SAMPLE TEMPERATURE
 RMC .OHMM            3.5:   RESISTIVITY MUD CAKE
 MCST.F                60:   MUD CAKE SAMPLE TEMPERATURE
 MFSS.               MEAS:   MUD FILTRATE SAMPLE SOURCE
 MCSS.               MEAS:   MUD CAKE SAMPLE SOURCE
 RMB .OHMM           1.69:   RESISTIVITY MUD AT BHT
 BHT .F                71:   BOTTOM HOLE TEMPERATURE
 TCS .HRS               3:   TIME CURCULATED STOPPED
 MRT .F                71:   MAXIMUM RECORDED TEMPERATURE
 LUN .               2958:   LOGGING UNIT NUMBER
 LUL .               CASP:   LOGGING UNIT LOCATION
 ENGI.            POINTER:   RECORDING ENGINEER
 WITN.           MCGINLEY:   WITNESSED BY
 CLNT.            A2DTECH:   CLIENT CODE
 ORIG.       2", 5" PRINT:   ORIGIN OF DATA
 UWI .       490251058200:   UNIQUE WELL ID
 DICO. A2D Technologies, Inc.:   DIGITIZING COMPANY
~OTHER INFORMATION
~A   DEPT     CALD         GRD      RHOB       DPHI       CORR        SPR         SN        ILD   
# ...
  394.5000     8.3912    90.4254     2.4565     0.1217     0.0273   -37.0026     9.0909     8.4903
  395.0000     8.3938    91.8836     2.4515     0.1217     0.0298   -37.8768     9.1697     8.4764
  395.5000     8.3964    91.9446     2.4533     0.1172     0.0321   -35.4451     9.1697     8.4624
  396.0000     8.3990    91.3766     2.4564     0.1117     0.0344   -35.8577     9.0610     8.4482
  396.5000     8.4016    91.7364     2.4578     0.1142     0.0349   -36.1872     9.0262     8.4388
  397.0000     8.4042    92.8026     2.4552     0.1173     0.0349   -36.2451     8.9915     8.3343
  397.5000     8.4068    91.3505     2.4528     0.1190     0.0349   -37.1211     8.9570     8.2197
  398.0000     8.4094    89.1476     2.4567     0.1182     0.0351   -37.9094     8.9226     8.2067
  398.5000     8.4085    88.5357     2.4584     0.1174     0.0325   -35.4399     8.8883     8.1916
  399.0000     8.4072    88.4211     2.4578     0.1165     0.0301   -36.8832     8.8542     8.1765
  399.5000     8.4060    88.9345     2.4656     0.1191     0.0276   -35.7222     8.8203     8.1616
  400.0000     8.4048    91.0244     2.4535     0.1220     0.0251   -35.9763     8.7866     8.1469
  400.5000     8.4036    94.6102     2.4538     0.1248     0.0227   -36.6302     8.7397     8.1332
  401.0000     8.4024    98.3042     2.4487     0.1260     0.0202   -36.7727     8.5875     7.9413
  401.5000     8.4012    98.9045     2.4416     0.1258     0.0216   -36.1125     8.4374     7.7351
  402.0000     8.4000    95.7628     2.4417     0.1300     0.0235   -34.7083     8.2902     7.5342
  402.5000     8.3988    93.6593     2.4384     0.1325     0.0254   -35.8551     8.1455     7.3373
  403.0000     8.3976    92.3092     2.4351     0.1281     0.0274   -36.3117     8.0034     7.2135
  403.5000     8.3964    92.1931     2.4429     0.1261     0.0288   -34.9860     7.8638     7.1702
  404.0000     8.3952    92.0229     2.4488     0.1267     0.0267   -35.8177     7.6948     7.1249
  404.5000     8.3940    92.9984     2.4457     0.1273     0.0245   -36.6686     7.7356     7.0795
  405.0000     8.3928    94.2173     2.4429     0.1280     0.0230   -37.0747     7.8004     7.0155
  405.5000     8.3916    94.2251     2.4407     0.1286     0.0258   -36.3371     7.9949     7.0146
  406.0000     8.3904    94.2647     2.4411     0.1274     0.0287   -36.5241     8.1942     7.1913
  406.5000     8.3891    94.3094     2.4413     0.1250     0.0316   -37.8498     8.3985     7.4969
  407.0000     8.3879    94.3561     2.4437     0.1218     0.0344   -36.6781     8.5411     7.8155
  407.5000     8.3867    95.0070     2.4460     0.1182     0.0370   -36.8700     8.5810     8.1490
  408.0000     8.3855    96.5695     2.4541     0.1145     0.0352   -37.6448     8.6210     8.2825
  408.5000     8.3843    98.1424     2.4625     0.1125     0.0335   -36.3847     8.6612     8.3740
  409.0000     8.3831    98.6779     2.4663     0.1115     0.0319   -36.6758     8.6838     8.4662
  409.5000     8.3819    96.2018     2.4626     0.1123     0.0302   -37.3399     8.6964     8.5170
  410.0000     8.3807    94.5473     2.4600     0.1131     0.0286   -36.2696     8.7090     8.5172
  410.5000     8.3795    93.8870     2.4624     0.1139     0.0269   -37.3643     8.7217     8.5170
  411.0000     8.3783    92.0411     2.4589     0.1145     0.0253   -35.9631     8.7344     8.5170
  411.5000     8.3771    91.7677     2.4602     0.1145     0.0240   -35.1089     8.7472     8.5170
  412.0000     8.3759    91.5608     2.4617     0.1145     0.0225   -36.1201     8.7522     8.5171
  412.5000     8.3747    91.4168     2.4608     0.1145     0.0209   -36.8745     8.8245     8.5174
  413.0000     8.3735    93.1164     2.4597     0.1144     0.0194   -37.3768     8.8099     8.5164
  413.5000     8.3723    94.9341     2.4608     0.1138     0.0178   -37.9024     8.7905     8.5199
  414.0000     8.3711    96.1887     2.4595     0.1151     0.0163   -38.0039     8.7715     8.2608
  414.5000     8.3698    96.4284     2.4517     0.1176     0.0154   -38.0056     8.7528     8.0709
  415.0000     8.3675    98.4551     2.4445     0.1201     0.0186   -38.0038     8.7341     7.9109
  415.5000     8.3651    99.6079     2.4410     0.1206     0.0221   -38.0064     8.7154     7.9109
  416.0000     8.3627    98.2414     2.4547     0.1181     0.0227   -37.7639     8.6968     7.9017
  416.5000     8.3603    97.3573     2.4527     0.1170     0.0212   -37.4011     8.6782     7.8759
  417.0000     8.3579   100.0221     2.4543     0.1174     0.0198   -37.6838     8.6597     7.8501
  417.5000     8.3555   102.9840     2.4554     0.1177     0.0205   -38.0151     8.6412     7.8245
  418.0000     8.3531   104.6483     2.4451     0.1247     0.0268   -37.8419     8.6227     7.7989
  418.5000     8.3507   102.9510     2.4433     0.1212     0.0331   -36.1893     8.6043     7.7734
  419.0000     8.3421   101.6829     2.4525     0.1166     0.0343   -36.7927     8.5859     7.7480
  419.5000     8.3307   104.9175     2.4597     0.1138     0.0323   -38.0633     8.5675     7.7226
  420.0000     8.3192   110.2491     2.4627     0.1114     0.0302   -38.1574     8.5493     7.6974
  420.5000     8.3077   108.9679     2.4662     0.1107     0.0281   -38.0840     8.5309     7.6722
  421.0000     8.2962   106.0902     2.4665     0.1119     0.0261   -38.0093     8.5182     7.6471
  421.5000     8.2847   104.9140     2.4622     0.1130     0.0241   -38.1076     8.5616     7.6221
  422.0000     8.2732   104.6627     2.4579     0.1142     0.0234   -38.2103     8.5979     7.5972
  422.5000     8.2617   101.7988     2.4548     0.1153     0.0245   -38.1083     8.6343     7.5723
  423.0000     8.2506    98.5601     2.4610     0.1078     0.0244   -37.9770     8.6749     7.5287
  423.5000     8.2459    97.4044     2.4673     0.1111     0.0219   -37.8454     8.5537     7.4338
  424.0000     8.2414    98.6944     2.4672     0.1152     0.0194   -37.7141     8.4168     7.3401
  424.5000     8.2368    99.7925     2.4613     0.1193     0.0170   -37.5825     8.2811     7.2476
  425.0000     8.2323    98.9018     2.4536     0.1263     0.0170   -37.4522     8.1478     7.1562
  425.5000     8.2122    98.0641     2.4374     0.1352     0.0240   -37.2365     8.0167     7.0660
  426.0000     8.1825    97.4381     2.4186     0.1382     0.0354   -36.9693     7.8877     6.9769
  426.5000     8.1524    97.1699     2.4275     0.1328     0.0450   -36.6998     7.7607     6.9520
  427.0000     8.1219    97.3027     2.4396     0.1302     0.0412   -36.4126     7.6358     6.9772
  427.5000     8.0935    97.4523     2.4444     0.1331     0.0390   -37.1703     7.5527     6.9963
  428.0000     8.1426    97.4423     2.4331     0.1360     0.0462   -36.7946     7.6096     7.0165
  428.5000     8.1959    97.1572     2.4287     0.1390     0.0519   -35.8882     7.6944     6.9172
  429.0000     8.2311    98.1834     2.4237     0.1412     0.0505   -36.3568     7.5477     6.7407
  429.5000     8.2214   100.5547     2.4186     0.1427     0.0615   -37.2101     7.2876     6.5076
  430.0000     8.2050   102.9635     2.4161     0.1440     0.0721   -37.4438     7.0374     6.2646
  430.5000     8.1887   103.4769     2.4112     0.1417     0.0773   -36.1828     6.7963     6.1222
  431.0000     8.1719   102.2580     2.4149     0.1392     0.0809   -36.6215     6.6268     6.0477
  431.5000     8.2073    98.5993     2.4235     0.1354     0.0885   -35.2475     6.5046     5.9741
  432.0000     8.2761    96.1040     2.4341     0.1310     0.0914   -36.2025     6.4573     5.9015
  432.5000     8.3469    96.3567     2.4564     0.1209     0.0816   -37.5143     6.4573     5.8869
  433.0000     8.3505    96.6214     2.4523     0.1349     0.0719   -36.6698     6.7541     5.8908
  433.5000     8.3500    96.4231     2.4402     0.1300     0.0718   -36.1317     7.0583     5.8833
  434.0000     8.3499    95.7669     2.4316     0.1213     0.0905   -37.1971     7.3763     6.2359
  434.5000     8.3499    95.1757     2.4622     0.1039     0.0829   -37.3243     7.6948     6.5328
