~VERSION INFORMATION
 VERS.                2.0:   CWLS LOG ASCII STANDARD - VERSION 2.0
 WRAP.                 NO:   ONE LINE PER DEPTH STEP
~WELL INFORMATION
#MNEM.UNIT      DATA TYPE    INFORMATION
#----------   ------------   ------------------------------
 STRT.F          700.0000:   START DEPTH
 STOP.F         2111.0000:   STOP DEPTH
 STEP.F            0.5000:   STEP LENGTH
 NULL.          -999.2500:   NO VALUE
 COMP. FENIX & SCISSON INC:   COMPANY
 WELL.    35 SAX 34 #3-34:   WELL
 FLD .             TEAPOT:   FIELD
 LOC .      S34 T39N R78W:   LOCATION
 CNTY.            NATRONA:   COUNTY
 STAT.            WYOMING:   STATE
 CTRY. UNITED STATES OF AMERICA:   COUNTRY
 SRVC.            Unknown:   SERVICE COMPANY
 DATE.        29-MAY-1978:   LOGDATE
 API .       490251061700:   API NUMBER
~CURVE INFORMATION
#MNEM.UNIT       API CODE    CURVE DESCRIPTION
#----------   ------------   ------------------------------
 DEPT.F                  :   
 CALD.IN     45 280 60 00:   CALIPER FROM DENSITY LOG
 GRD .GAPI   45 310 01 00:   GAMMA RAY FROM DENSITY LOG
 RHOB.G/C3   45 350 01 00:   BULK DENSITY
 DPHI.DEC    45 890 00 00:   DENSITY POROSITY
 CORR.G/C3   45 356 01 00:   DENSITY CORRECTION
~PARAMETER INFORMATION
#MNEM.UNIT          VALUE    DESCRIPTION
#----------   ------------   ------------------------------
 PD  .                 GL:   PERMANENT DATUM
 EPD .F              5105:   ELEVATION PERMANENT DATUM
 LMF .                 KB:   LOG MEASURED FROM
 DAPD.F                10:   FEET ABOVE PERMANENT DATUM
 DMF .                 KB:   DRILLING MEASURED FROM
 EKB .F              5115:   KELLING BUSHING
 EGL .F              5105:   GROUND LEVEL
 DATE.          5-29-1978:   RUN DATE
 RUN .                  1:   RUN NUMBER
 DD  .F              2111:   DEPTH DRILLER
 DL  .F              2118:   DEPTH LOGGER
 BLI .F              2110:   BOTTOM LOG INTERVAL
 TLI .F               720:   TOP LOG INTERVAL
 CS  .IN            9.625:   CASING SIZE
 CBD .F               711:   CASING BOTTOM DRILLER
 CBL .F               721:   CASING BOTTOM LOGGER
 BS  .IN             8.75:   BIT SIZE
 BSD .F              2111:   BIT SIZE AT DEPTH
 DFT .                OIL:   DRILLING FLUID TYPE
 TCS .HRS               1:   TIME CURCULATED STOPPED
 LUN .               2958:   LOGGING UNIT NUMBER
 LUL .               CASP:   LOGGING UNIT LOCATION
 ENGI.             MILLER:   RECORDING ENGINEER
 WITN.           MCGINLEY:   WITNESSED BY
 CLNT.            A2DTECH:   CLIENT CODE
 ORIG.           5" PRINT:   ORIGIN OF DATA
 UWI .       490251061700:   UNIQUE WELL ID
 DICO. A2D Technologies, Inc.:   DIGITIZING COMPANY
~OTHER INFORMATION
~A   DEPT     CALD         GRD      RHOB       DPHI       CORR   
# ...
 1615.0000     9.5606    68.7539     2.3829     0.1064     0.2642
 1615.5000     9.5725    65.9147     2.3836     0.1082     0.2655
 1616.0000     9.5684    65.1020     2.3826     0.1072     0.2667
 1616.5000     9.4605    65.7914     2.3819     0.1036     0.2680
 1617.0000     9.3496    66.1434     2.3865     0.1001     0.2693
 1617.5000     9.3019    66.0527     2.3913     0.0966     0.2705
 1618.0000     9.2658    64.4515     2.3969     0.0909     0.2699
 1618.5000     9.2324    62.4235     2.4059     0.0874     0.2629
 1619.0000     9.2141    62.2795     2.4141     0.0874     0.2490
 1619.5000     9.1968    62.0519     2.4158     0.0768     0.2278
 1620.0000     9.1795    61.5359     2.4212     0.0722     0.2064
 1620.5000     9.1621    61.0465     2.4296     0.0755     0.1983
 1621.0000     9.1447    61.5532     2.4370     0.0626     0.1908
 1621.5000     9.1274    63.0860     2.4379     0.0520     0.1896
 1622.0000     9.1130    65.2717     2.4579     0.0333     0.1930
 1622.5000     9.1179    67.4585     2.4765    -0.0011     0.1963
 1623.0000     9.1539    69.6524     2.4945    -0.0092     0.1996
 1623.5000     9.2226    72.5443     2.5426    -0.0256     0.1947
 1624.0000     6.2330    73.4793     2.5631    -0.0259     0.1786
 1624.5000     6.8571    73.9449     2.5792    -0.0056     0.1736
 1625.0000     7.2799    74.3805     2.5896     0.0013     0.1589
 1625.5000     6.7499    74.7790     2.5705     0.0055     0.1319
 1626.0000     5.6845    74.8233     2.5515     0.0000     0.1257
 1626.5000     5.0431    74.5728     2.5464     0.0069     0.1300
 1627.0000     5.0292    74.3304     2.5464     0.0154     0.1334
 1627.5000     5.0286    74.6453     2.5461     0.0325     0.1305
 1628.0000     5.0295    75.9865     2.5295     0.0494     0.1277
 1628.5000     5.0289    77.3362     2.5059     0.0598     0.1312
 1629.0000     5.0287    77.3935     2.4822     0.0676     0.1462
 1629.5000     5.3602    77.0276     2.4595     0.0767     0.1718
 1630.0000     5.9219    73.6400     2.4462     0.0905     0.1969
 1630.5000     6.9805    70.2172     2.4339     0.1030     0.2166
 1631.0000     8.1017    66.8210     2.4082     0.0938     0.2298
 1631.5000     8.8991    63.6482     2.3930     0.1117     0.2488
 1632.0000     8.9606    63.6264     2.3944     0.1230     0.2761
 1632.5000     9.0155    66.2795     2.3748     0.1226     0.2681
 1633.0000     9.0689    69.2241     2.3615     0.1151     0.2804
 1633.5000     9.1137    72.0654     2.3672     0.1082     0.2946
 1634.0000     9.1056    71.6432     2.3749     0.1091     0.2975
 1634.5000     9.0984    64.2497     2.3798     0.1112     0.2852
 1635.0000     9.0914    63.8165     2.3786     0.1081     0.2651
 1635.5000     9.0844    65.1125     2.3781     0.1091     0.2483
 1636.0000     9.0778    65.9802     2.3801     0.1125     0.2442
 1636.5000     9.0991    67.6575     2.3797     0.1039     0.2399
 1637.0000     9.1601    68.9825     2.3781     0.0877     0.2439
 1637.5000     9.3144    68.9121     2.3812     0.0715     0.2490
 1638.0000     9.4026    68.3808     2.4127     0.0571     0.2424
 1638.5000     9.4503    67.0546     2.4464     0.0698     0.2240
 1639.0000     9.4397    66.9993     2.4577     0.0836     0.1960
 1639.5000     9.4410    66.2292     2.4417     0.0976     0.1658
 1640.0000     9.5008    64.4734     2.4205     0.1069     0.1561
 1640.5000     9.5619    62.5470     2.3994     0.1078     0.1760
 1641.0000     9.5394    62.5022     2.3850     0.1058     0.1970
 1641.5000     9.4988    62.4400     2.3844     0.1027     0.2181
 1642.0000     9.4854    63.1129     2.3874     0.0984     0.2249
 1642.5000     9.4777    66.5158     2.3915     0.0979     0.2241
 1643.0000     9.4807    67.3754     2.3932     0.1118     0.2232
 1643.5000     9.5191    67.8639     2.3897     0.1215     0.2223
 1644.0000     9.5506    69.5517     2.3769     0.1238     0.2225
 1644.5000     9.5296    69.4120     2.3631     0.1230     0.2319
 1645.0000     9.5091    67.9350     2.3609     0.1149     0.2412
 1645.5000     9.4888    67.0495     2.3630     0.1063     0.2536
 1646.0000     9.4743    66.8936     2.3735     0.0983     0.2682
 1646.5000     9.4917    67.6830     2.3864     0.0944     0.2780
 1647.0000     9.5087    68.0794     2.3994     0.0905     0.2791
 1647.5000     9.5259    67.9291     2.4054     0.0911     0.2804
 1648.0000     9.5176    67.2837     2.4095     0.0940     0.2810
 1648.5000     9.4965    67.5062     2.4052     0.0975     0.2710
 1649.0000     9.4489    67.3635     2.4008     0.1041     0.2645
 1649.5000     9.3982    65.4169     2.3962     0.1108     0.2626
 1650.0000     9.3475    63.5422     2.3844     0.1194     0.2668
 1650.5000     9.2968    62.4141     2.3724     0.1120     0.2777
 1651.0000     9.2448    62.5794     2.3697     0.1016     0.2885
 1651.5000     9.2181    63.7833     2.3708     0.0912     0.2935
 1652.0000     9.1977    64.6378     2.3899     0.0806     0.2898
 1652.5000     9.1775    64.7944     2.4111     0.0798     0.2701
 1653.0000     9.1574    64.9456     2.4238     0.0848     0.2479
 1653.5000     9.1387    65.9863     2.4237     0.0897     0.2257
 1654.0000     9.0557    67.2044     2.4206     0.0918     0.2080
 1654.5000     8.9626    68.4163     2.4161     0.0855     0.2016
 1655.0000     8.8996    69.0241     2.4169     0.0839     0.2016
 1655.5000     8.9476    69.2740     2.4227     0.0666     0.1963
 1656.0000     9.0157    68.7726     2.4258     0.0432     0.1940
 1656.5000     9.0684    68.2781     2.4339     0.0144     0.1946
 1657.0000     8.9932    68.4086     2.4692     0.0258     0.1952
 1657.5000     8.8063    71.9237     2.5031     0.0408     0.1946
 1658.0000     7.7336    75.1880     2.5279     0.0464     0.1782
 1658.5000     6.0348    75.1826     2.5042     0.0448     0.1620
 1659.0000     6.9753    74.7491     2.4868     0.0381     0.1745
 1659.5000     8.4083    74.3336     2.4855     0.0200     0.2030
 1660.0000     8.9785    75.1031     2.4931    -0.0583     0.2245
 1660.5000     6.9113    75.9838     2.5148    -0.0446     0.2453
 1661.0000     7.5575    76.8410     2.5650    -0.0212     0.2557
 1661.5000     7.6381    77.0213     2.6401    -0.0044     0.2197
 1662.0000     7.7664    75.8146     2.6089     0.0058     0.1624
 1662.5000     5.1295    74.5612     2.5722     0.0100     0.1075
 1663.0000     5.0499    71.5480     2.5469    -0.0020     0.1035
 1663.5000     5.0498    69.1473     2.5414    -0.0115     0.1040
 1664.0000     5.0498    69.6463     2.5508    -0.0171     0.1251
 1664.5000     5.0498    70.2198     2.5691    -0.0119     0.1542
 1665.0000     5.0480    70.7719     2.5746    -0.0040     0.1578
 1665.5000     5.0406    70.7982     2.5751     0.0065     0.1577
 1666.0000     5.1020    70.4873     2.5641     0.0191     0.1575
 1666.5000     6.2456    67.5251     2.5465     0.0271     0.1653
 1667.0000     7.3730    64.7585     2.5289     0.0262     0.1755
 1667.5000     8.4987    64.7879     2.5117     0.0246     0.1896
 1668.0000     9.0532    67.5218     2.5110     0.0230     0.2100
 1668.5000     9.0652    69.8689     2.5126     0.0367     0.2259
 1669.0000     9.0831    68.9377     2.5134     0.0347     0.2256
 1669.5000     9.0991    65.2619     2.5028     0.0343     0.2256
 1670.0000     9.1144    64.3467     2.4954     0.0488     0.2226
 1670.5000     9.1298    70.1843     2.4934     0.0990     0.2076
 1671.0000     9.1456    73.4853     2.4703     0.1090     0.1777
 1671.5000     9.1795    72.7536     2.4057     0.1094     0.1576
 1672.0000     9.2372    71.4930     2.3863     0.1055     0.1742
 1672.5000     9.2322    70.5628     2.3809     0.0951     0.1901
 1673.0000     9.2035    71.1108     2.3910     0.0846     0.1996
 1673.5000     9.1752    72.0978     2.4037     0.0790     0.1991
 1674.0000     9.2130    72.1869     2.4164     0.0783     0.1988
 1674.5000     9.2558    70.6051     2.4263     0.0841     0.1984
 1675.0000     9.2984    69.9110     2.4276     0.1022     0.1980
 1675.5000     9.3408    69.6234     2.4158     0.0998     0.1977
