~VERSION INFORMATION
 VERS.                2.0:   CWLS LOG ASCII STANDARD - VERSION 2.0
 WRAP.                 NO:   ONE LINE PER DEPTH STEP
~WELL INFORMATION
#MNEM.UNIT      DATA TYPE    INFORMATION
#----------   ------------   ------------------------------
 STRT.F           95.0000:   START DEPTH
 STOP.F          914.0000:   STOP DEPTH
 STEP.F            0.5000:   STEP LENGTH
 NULL.          -999.2500:   NO VALUE
 COMP. LAWRENCE/ALLISON INC:   COMPANY
 WELL. NPR ##3 31-61 SX 2:   WELL
 FLD .             TEAPOT:   FIELD
 LOC .       S2 T38N R78W:   LOCATION
 CNTY.            NATRONA:   COUNTY
 STAT.            WYOMING:   STATE
 CTRY. UNITED STATES OF AMERICA:   COUNTRY
 SRVC.      Dresser Atlas:   SERVICE COMPANY
 DATE.        30-JAN-1986:   LOGDATE
 API .       490251106800:   API NUMBER
~CURVE INFORMATION
#MNEM.UNIT       API CODE    CURVE DESCRIPTION
#----------   ------------   ------------------------------
 DEPT.F                  :   
 RILD.OHMM   07 120 46 00:   INDUCTION LOG DEEP RESISTIVITY
 RILM.OHMM   07 120 44 00:   INDUCTION LOG MEDIUM RESISTIVITY
 CALD.IN     45 280 60 00:   CALIPER FROM DENSITY
 GRD .GAPI   45 310 01 00:   GAMMA RAY FROM DENSITY LOG
 CORR.G/C3   45 356 01 00:   DENSITY CORRECTION
 PORD.DEC    45 890 10 00:   POROSITY DENSITY LIMESTONE
 DEN .G/C3   45 350 01 00:   COMPENSATED BULK DENSITY
~PARAMETER INFORMATION
#MNEM.UNIT          VALUE    DESCRIPTION
#----------   ------------   ------------------------------
 PD  .                 GL:   PERMANENT DATUM
 EPD .F              5126:   ELEVATION PERMANENT DATUM
 LMF .                 GL:   LOG MEASURED FROM
 DMF .                 GL:   DRILLING MEASURED FROM
 EGL .F              5126:   GROUND LEVEL
 DATE.        30-JAN-1986:   RUN DATE
 RUN .                  1:   RUN NUMBER
 DD  .F               925:   DEPTH DRILLER
 DL  .F               918:   DEPTH LOGGER
 BLI .F               910:   BOTTOM LOG INTERVAL
 CS  .IN            8.625:   CASING SIZE
 CBD .F               127:   CASING BOTTOM DRILLER
 CBL .F               127:   CASING BOTTOM LOGGER
 BS  .IN             6.25:   BIT SIZE
 BSD .F               925:   BIT SIZE AT DEPTH
 DFT .                AIR:   DRILLING FLUID TYPE
 LUN .            HL-6264:   LOGGING UNIT NUMBER
 LUL .           GILLETTE:   LOGGING UNIT LOCATION
 ENGI.     P. M. FAHLSING:   RECORDING ENGINEER
 WITN.        LINOA FIVAS:   WITNESSED BY
 CLNT.            A2DTECH:   CLIENT CODE
 ORIG.           5" PRINT:   ORIGIN OF DATA
 UWI .       490251106800:   UNIQUE WELL ID
 DICO. A2D Technologies, Inc.:   DIGITIZING COMPANY
~OTHER INFORMATION
~A   DEPT     RILD       RILM       CALD         GRD      CORR       PORD        DEN   
# ...
  459.0000     6.8380     6.7057     6.8647   128.1509     0.1578     0.0967     2.5178
  459.5000     6.8371     6.7053     6.8647   129.3623     0.1458     0.1013     2.5140
  460.0000     6.8362     6.7515     6.8496   129.0632     0.1352     0.1046     2.5072
  460.5000     6.8828     6.7510     6.8496   127.8578     0.1336     0.1080     2.5012
  461.0000     6.9296     6.7505     6.8346   129.0693     0.1381     0.1116     2.4966
  461.5000     6.9287     6.7500     6.8195   130.5829     0.1381     0.1131     2.4905
  462.0000     6.9759     6.7496     6.8195   130.5859     0.1283     0.1152     2.4852
  462.5000     6.9749     6.7491     6.8045   127.8698     0.1014     0.1180     2.4807
  463.0000     6.9740     6.7533     6.8045   127.2686     0.1021     0.1201     2.4785
  463.5000     7.0215     6.7951     6.8045   127.8759     0.1153     0.1204     2.4794
  464.0000     7.0205     6.8419     6.8045   129.0873     0.1333     0.1192     2.4824
  464.5000     7.0196     6.8890     6.8045   130.2988     0.1378     0.1138     2.4870
  465.0000     7.0674     6.9364     6.8045   132.1145     0.1332     0.1150     2.4920
  465.5000     7.1156     6.9448     6.8045   133.1753     0.1211     0.1189     2.4863
  466.0000     7.1146     7.0323     6.8195   132.5741     0.1241     0.1193     2.4807
  466.5000     7.2129     7.1298     6.8496   129.7069     0.1331     0.1144     2.4844
  467.0000     7.2621     7.1789     6.8647   128.1994     0.1376     0.1072     2.4942
  467.5000     7.3116     7.2283     6.8647   127.9004     0.1285     0.1033     2.5025
  468.0000     7.3614     7.2781     6.8496   129.4139     0.1224     0.1090     2.5070
  468.5000     7.4115     7.3283     6.8346   133.9486     0.1374     0.1118     2.4979
  469.0000     7.4621     7.4300     6.8195   139.5407     0.1449     0.1118     2.4949
  469.5000     7.5129     7.4295     6.8346   142.5649     0.1449     0.1070     2.5002
  470.0000     7.6167     7.5326     6.8346   137.7341     0.1463     0.1021     2.5084
  470.5000     7.7219     7.5321     6.8346   134.8671     0.1568     0.1000     2.5144
  471.0000     7.8286     7.5841     6.8346   133.6616     0.1387     0.0998     2.5152
  471.5000     7.9368     7.6363     6.8346   134.4199     0.1071     0.1023     2.5069
  472.0000     8.0465     7.7424     6.8346   135.3293     0.0980     0.1077     2.4911
  472.5000     8.1576     7.8497     6.8346   136.0879     0.1085     0.1017     2.4790
  473.0000     8.2703     7.9588     6.8346   136.3930     0.1536     0.0948     2.5106
  473.5000     8.3846     8.0694     6.8357   138.2087     0.1610     0.0881     2.5234
  474.0000     8.5005     8.2955     6.8512   145.4625     0.1429     0.0888     2.5317
  474.5000     8.6179     8.4692     6.8667   148.7888     0.1369     0.0905     2.5279
  475.0000     8.7370     8.6467     6.9098   147.8855     0.1534     0.0919     2.5218
  475.5000     8.8577     8.8276     6.9398   137.9187     0.1398     0.1004     2.5158
  476.0000     8.9801     9.0124     7.0000   128.5561     0.1277     0.1116     2.5007
  476.5000     9.1054     9.1377     7.0150   122.2147     0.1397     0.1243     2.4781
  477.0000     9.2299     9.2646     6.8797   117.6860     0.1637     0.1394     2.4578
  477.5000     9.3596     9.3933     6.7895   118.5954     0.1742     0.1434     2.4450
  478.0000     9.4868     9.5237     6.7594   123.4322     0.1606     0.1377     2.4480
  478.5000     9.6178     9.5229     6.7594   130.6860     0.1275     0.1253     2.4645
  479.0000     9.6165     9.4565     6.7444   134.3144     0.1257     0.1108     2.4818
  479.5000     9.6152     9.3257     6.7444   133.7132     0.1364     0.1024     2.4969
  480.0000     9.6138     9.1332     6.7444   130.3929     0.1499     0.0988     2.5081
  480.5000     9.5461     9.0068     6.7444   128.2811     0.1529     0.1105     2.5005
  481.0000     9.4789     8.9440     6.7444   127.9820     0.1513     0.1187     2.4847
  481.5000     9.4121     9.0057     6.7444   128.5892     0.1332     0.1205     2.4772
  482.0000     9.3458     9.0050     6.7444   131.0092     0.1212     0.1190     2.4812
  482.5000     9.2159     9.0043     6.7444   132.2206     0.1091     0.1115     2.4939
  483.0000     9.1510     9.0037     6.7594   132.2237     0.1015     0.1052     2.5037
  483.5000     9.0865     9.0031     6.7594   133.4351     0.1015     0.1043     2.5058
  484.0000     9.0225     8.9403     6.7594   134.6466     0.1060     0.1100     2.4959
  484.5000     8.9511     8.8779     6.7594   131.9306     0.1197     0.1125     2.4928
  485.0000     8.8344     8.8773     6.7594   132.2357     0.1392     0.1091     2.4922
  485.5000     8.8246     8.8154     6.7594   133.1451     0.1557     0.1058     2.4978
  486.0000     8.7104     8.7539     6.7594   133.4502     0.1569     0.1071     2.5034
  486.5000     8.6999     8.6328     6.7594   133.1511     0.1140     0.1089     2.5004
  487.0000     8.5786     8.5726     6.7744   131.9456     0.1025     0.1107     2.4981
  487.5000     8.4005     8.4540     6.7895   130.7402     0.0979     0.1110     2.4959
  488.0000     8.2933     8.2795     6.7895   130.7432     0.0966     0.1107     2.4943
  488.5000     8.2349     8.1650     6.7895   133.4652     0.1040     0.1135     2.4913
  489.0000     8.1663     8.0520     6.7895   136.4894     0.1130     0.1171     2.4853
  489.5000     8.1193     7.9406     6.7895   137.3988     0.1250     0.1183     2.4822
  490.0000     8.0619     7.9401     6.7895   135.5891     0.1340     0.1177     2.4822
  490.5000     8.0608     7.9396     6.7895   136.8006     0.1384     0.1174     2.4822
  491.0000     8.0040     7.8842     6.7895   139.5658     0.1249     0.1187     2.4807
  491.5000     7.9476     7.8292     6.7895   141.6404     0.1308     0.1208     2.4799
  492.0000     7.9465     7.8286     6.7895   140.7371     0.1579     0.1235     2.4746
  492.5000     7.8905     7.8281     6.7895   140.4380     0.1563     0.1290     2.4671
  493.0000     7.8894     7.8276     6.7895   141.6494     0.1442     0.1317     2.4611
  493.5000     7.8883     7.8270     6.7895   144.6736     0.1231     0.1323     2.4595
  494.0000     7.8872     7.8337     6.7744   146.7914     0.1050     0.1390     2.4475
  494.5000     7.8862     7.9352     6.7744   144.9817     0.1005     0.1556     2.4211
  495.0000     7.8851     7.9898     6.7744   140.1509     0.1110     0.1695     2.4015
  495.5000     7.9391     8.0550     6.7744   132.9032     0.1245     0.1706     2.3910
  496.0000     7.9932     8.1002     6.7744   130.4893     0.0989     0.1565     2.4203
  496.5000     8.1036     8.0995     6.7594   133.2113     0.0943     0.1390     2.4534
  497.0000     8.1022     8.0430     6.7594   135.6312     0.1018     0.1218     2.4700
  497.5000     8.1577     8.0425     6.7594   138.0511     0.1078     0.1191     2.4790
  498.0000     8.1000     7.9864     6.7594   139.2626     0.0987     0.1194     2.4820
  498.5000     8.0429     7.9307     6.7594   140.4741     0.0956     0.1194     2.4790
  499.0000     7.9863     7.8210     6.7594   140.4771     0.0956     0.1158     2.4857
  499.5000     7.9300     7.7664     6.7594   140.7822     0.0970     0.1105     2.4955
  500.0000     7.8418     7.7122     6.7593   141.6916     0.1002     0.1045     2.5039
  500.5000     7.7112     7.7106     6.7589   140.4710     0.1106     0.1045     2.5060
  501.0000     7.7101     7.7090     6.7585   135.3233     0.1239     0.1033     2.5082
  501.5000     7.7091     7.7074     6.7580   132.2888     0.1388     0.1019     2.5097
  502.0000     7.7080     7.6526     6.7727   131.0685     0.1583     0.1013     2.5111
  502.5000     7.7069     7.6510     6.7873   131.9631     0.1492     0.1007     2.5133
  503.0000     7.7059     7.5966     6.8019   134.0660     0.1385     0.0974     2.5186
  503.5000     7.7048     7.5950     6.8013   136.1690     0.1430     0.0923     2.5283
  504.0000     7.6506     7.5935     6.8009   135.8551     0.1549     0.0924     2.5373
