~VERSION INFORMATION
 VERS.                2.0:   CWLS LOG ASCII STANDARD - VERSION 2.0
 WRAP.                 NO:   ONE LINE PER DEPTH STEP
~WELL INFORMATION
#MNEM.UNIT      DATA TYPE    INFORMATION
#----------   ------------   ------------------------------
 STRT.F           18.0000:   START DEPTH
 STOP.F          501.0000:   STOP DEPTH
 STEP.F            0.5000:   STEP LENGTH
 NULL.          -999.2500:   NO VALUE
 COMP. FENIX & SCISSON INC:   COMPANY
 WELL.     NPR-3 SX #34-3:   WELL
 FLD .             TEAPOT:   FIELD
 LOC .       S3 T38N R78W:   LOCATION
 CNTY.            NATRONA:   COUNTY
 STAT.            WYOMING:   STATE
 CTRY. UNITED STATES OF AMERICA:   COUNTRY
 SRVC.            Unknown:   SERVICE COMPANY
 DATE.        13-JUL-1978:   LOGDATE
 API .       490251066600:   API NUMBER
~CURVE INFORMATION
#MNEM.UNIT       API CODE    CURVE DESCRIPTION
#----------   ------------   ------------------------------
 DEPT.F                  :   
 SPR .MV     05 010 01 00:   SPONTANEOUS POTENTIAL FROM RES.
 SN  .OHMM   05 040 16 00:   SHORT NORMAL 16"
 ILD .OHMM   05 120 46 00:   INDUCTION LOG DEEP
 CALD.IN     45 280 60 00:   CALIPER FROM DENSITY LOG
 GRD .GAPI   45 310 01 00:   GAMMA RAY FROM DENSITY LOG
 CORR.G/C3   45 356 01 00:   DENSITY CORRECTION
 DEN .G/C3   45 350 01 00:   COMPENSATED BULK DENSTIY
 DPHI.DEC    45 890 12 00:   DENSITY POROSITY SANDSTONE
~PARAMETER INFORMATION
#MNEM.UNIT          VALUE    DESCRIPTION
#----------   ------------   ------------------------------
 PD  .                 GL:   PERMANENT DATUM
 EPD .F              5209:   ELEVATION PERMANENT DATUM
 LMF .                 KB:   LOG MEASURED FROM
 DAPD.F                 4:   FEET ABOVE PERMANENT DATUM
 DMF .                 KB:   DRILLING MEASURED FROM
 EKB .F              5213:   KELLING BUSHING
 EGL .F              5209:   GROUND LEVEL
 DATE.            7-13-78:   RUN DATE
 RUN .                  1:   RUN NUMBER
 DD  .F               500:   DEPTH DRILLER
 DL  .F               507:   DEPTH LOGGER
 BLI .F               500:   BOTTOM LOG INTERVAL
 TLI .F                30:   TOP LOG INTERVAL
 CS  .IN            8.625:   CASING SIZE
 CBL .F                30:   CASING BOTTOM LOGGER
 BS  .IN            7.875:   BIT SIZE
 BSD .F               500:   BIT SIZE AT DEPTH
 DFT .                KCL:   DRILLING FLUID TYPE
 DFD .                8.6:   DRILLING FLUID DENSITY
 DFV .                 32:   DRILLING FLUID VISCOSITY
 DFPH.                  9:   DRILLING FLUID PH
 DFL .               12.2:   DRILLING FLUID LOSS
 MSS .          FLOW LINE:   MUD SAMPLE SOURCE
 RMS .OHMM            .22:   RESISTIVITY MUD SAMPLE
 MST .F                80:   MUD SAMPLE TEMPERATURE
 RMF .OHMM            .19:   RESISTIVITY MUD FILTRATE SAMPLE
 MFST.F                88:   MUD FILTRATE SAMPLE TEMPERATURE
 RMC .OHMM            .38:   RESISTIVITY MUD CAKE
 MCST.F                84:   MUD CAKE SAMPLE TEMPERATURE
 MFSS.               MEAS:   MUD FILTRATE SAMPLE SOURCE
 BHT .F                76:   BOTTOM HOLE TEMPERATURE
 TCS .HRS               1:   TIME CURCULATED STOPPED
 MRT .F                76:   MAXIMUM RECORDED TEMPERATURE
 LUN .               2958:   LOGGING UNIT NUMBER
 LUL .               CASP:   LOGGING UNIT LOCATION
 ENGI.             MILLER:   RECORDING ENGINEER
 WITN.           MCGINLEY:   WITNESSED BY
 CLNT.            A2DTECH:   CLIENT CODE
 ORIG. 2", 2.5", 5" PRINT:   ORIGIN OF DATA
 UWI .       490251066600:   UNIQUE WELL ID
 DICO. A2D Technologies, Inc.:   DIGITIZING COMPANY
~OTHER INFORMATION
~A   DEPT      SPR         SN        ILD       CALD        GRD       CORR        DEN       DPHI   
# ...
  382.5000   -27.2006    12.9628    18.2931     7.6167    65.9259    -0.0052     2.3785     0.1791
  383.0000   -27.1890    12.9690    18.1761     7.6192    65.6484    -0.0036     2.3838     0.1739
  383.5000   -27.1774    12.8860    17.9359     7.6217    64.3187     0.0025     2.4006     0.1653
  384.0000   -27.1657    12.6299    17.5794     7.6092    64.9351     0.0042     2.4057     0.1596
  384.5000   -27.1541    12.6358    17.3450     7.5967    65.2520     0.0027     2.3973     0.1737
  385.0000   -27.1425    12.5535    17.2340     7.5693    65.1199     0.0014     2.4043     0.1670
  385.5000   -27.4286    12.6478    17.2442     7.5575    64.8298     0.0060     2.4163     0.1553
  386.0000   -27.5656    12.6537    17.2524     7.5600    64.7059     0.0151     2.4404     0.1387
  386.5000   -27.7028    12.5713    17.1400     7.5625    65.9211     0.0213     2.4592     0.1291
  387.0000   -27.6883    12.5787    16.7973     7.5650    64.1467     0.0213     2.4660     0.1288
  387.5000   -27.8284    12.5847    16.4635     7.5675    63.5610     0.0199     2.4796     0.1254
  388.0000   -27.8138    12.5906    16.3580     7.5700    64.0321     0.0215     2.5066     0.1143
  388.5000   -27.8022    12.5966    16.3659     7.5874    64.1994     0.0201     2.4782     0.1113
  389.0000   -27.7905    12.4222    16.3736     7.6048    64.8158     0.0127     2.4617     0.1350
  389.5000   -27.7789    12.2509    16.2689     7.6522    67.0788     0.0038     2.4490     0.1430
  390.0000   -27.9190    12.0220    16.0557     7.6547    69.1922     0.0024     2.4288     0.1534
  390.5000   -27.9045    12.0276    15.8416     7.6401    68.3116    -0.0020     2.4244     0.1567
  391.0000   -27.8928    11.9493    15.6341     7.6148    66.6687    -0.0034     2.4206     0.1600
  391.5000   -27.8810    11.8729    15.7496     7.6024    65.7820    -0.0063     2.4145     0.1632
  392.0000   -27.8690    11.7969    15.5414     7.6055    64.7759    -0.0077     2.4035     0.1680
  392.5000   -28.0067    11.6424    15.5488     7.6080    63.5958    -0.0091     2.4051     0.1689
  393.0000   -27.9922    11.4885    15.3414     7.6104    63.4593    -0.0120     2.4096     0.1660
  393.5000   -27.9806    11.4150    15.1405     7.6129    64.3795    -0.0134     2.4052     0.1658
  394.0000   -27.9689    11.4204    15.0436     7.6154    64.6964    -0.0118     2.4232     0.1540
  394.5000   -27.9573    11.3474    14.8448     7.6179    64.4146    -0.0102     2.4428     0.1435
  395.0000   -28.0974    11.3529    14.7366     7.6204    64.4322    -0.0071     2.4473     0.1435
  395.5000   -28.0828    11.3594    14.3574     7.6229    64.4497    -0.0055     2.4459     0.1446
  396.0000   -28.0712    11.3648    14.2639     7.6254    64.4673    -0.0069     2.4294     0.1458
  396.5000   -28.0595    11.3701    14.0754     7.6280    62.5334    -0.0082     2.4160     0.1469
  397.0000   -28.0476    11.4541    14.0837     7.6310    61.8078    -0.0081     2.4243     0.1457
  397.5000   -28.0334    11.4595    13.9936     7.6335    61.9795    -0.0080     2.4416     0.1412
  398.0000   -27.8729    11.4650    14.0970     7.6204    66.3384    -0.0064     2.4674     0.1366
  398.5000   -27.8613    11.4704    14.1036     7.6235    67.2541    -0.0063     2.4725     0.1333
  399.0000   -27.8497    11.4758    14.1103     7.6260    67.2717    -0.0077     2.4500     0.1335
  399.5000   -27.8380    11.4812    14.2145     7.6285    67.8881    -0.0121     2.4411     0.1446
  400.0000   -27.8293    11.5660    14.3195     7.6304    70.0020    -0.0120     2.4389     0.1413
  400.5000   -27.8406    11.5605    14.4255     7.6266    74.5048    -0.0042     2.4517     0.1364
  401.0000   -27.8503    11.5549    14.5336     7.6234    74.0674     0.0064     2.4624     0.1340
  401.5000   -27.8600    11.5494    14.5404     7.6206    71.6840     0.0096     2.4602     0.1318
  402.0000   -27.8697    11.5439    14.6478     7.6226    68.5520     0.0128     2.4648     0.1273
  402.5000   -27.8794    11.5383    14.7560     7.6242    66.6177     0.0160     2.4664     0.1312
  403.0000   -27.8891    11.5328    14.8650     7.6258    65.7313     0.0162     2.4613     0.1347
  403.5000   -27.8988    11.5366    14.8720     7.6424    67.5394     0.0164     2.4599     0.1410
  404.0000   -27.9085    11.5437    14.8790     7.6440    68.7488     0.0151     2.4435     0.1385
  404.5000   -27.9182    11.5523    14.7836     7.6306    67.8624     0.0108     2.4481     0.1391
  405.0000   -27.9279    11.4782    14.5884     7.6323    66.6716     0.0050     2.4520     0.1418
  405.5000   -27.9376    11.4063    14.3955     7.6189    66.5386     0.0007     2.4453     0.1399
  406.0000   -27.9473    11.3366    14.1094     7.6056    66.5509     0.0008     2.4470     0.1484
  406.5000   -27.9570    11.3434    14.0191     7.6076    66.2657     0.0010     2.4365     0.1516
  407.0000   -27.9666    11.2724    13.9278     7.5943    65.3793     0.0012     2.4314     0.1466
  407.5000   -27.9763    11.2792    13.7437     7.5959    65.9898     0.0014     2.4307     0.1359
  408.0000   -27.9860    11.2860    13.5636     7.5975    68.3968     0.0032     2.4497     0.1277
  408.5000   -27.9957    11.2929    13.3827     7.5991    66.3128     0.0064     2.4633     0.1295
  409.0000   -28.0054    11.2998    13.2971     7.6007    65.5731     0.0065     2.4679     0.1328
  409.5000   -28.0151    11.3850    13.1227     7.5874    65.8872     0.0082     2.4597     0.1297
  410.0000   -28.0248    11.4721    13.0389     7.5890    67.0966     0.0084     2.4667     0.1270
  410.5000   -28.0345    11.5584    13.0452     7.5756    67.5575     0.0071     2.4627     0.1332
  411.0000   -28.0442    11.6453    12.9631     7.5623    67.5692     0.0058     2.4519     0.1437
  411.5000   -27.8942    11.8957    13.0589     7.5188    67.7307     0.0060     2.4422     0.1464
  412.0000   -27.7294    12.1514    13.9007     7.4908    68.0439     0.0046     2.4363     0.1619
  412.5000   -27.4158    12.5849    15.3153     7.4751    68.5154     0.0017     2.4237     0.1706
  413.0000   -26.8046    13.2146    16.7580     7.4492    68.3648    -0.0039     2.4058     0.1904
  413.5000   -26.1934    14.0684    18.7195     7.4359    66.7328    -0.0053     2.3857     0.2074
  414.0000   -25.2845    14.9815    21.0552     7.4379    64.6488    -0.0050     2.3377     0.2245
  414.5000   -25.1197    15.6338    23.1944     7.4395    62.8641    -0.0033     2.3026     0.2290
  415.0000   -24.6573    16.1783    24.6369     7.3963    59.5825     0.0014     2.3012     0.2348
  415.5000   -23.8973    16.6404    26.0793     7.3531    59.7440     0.0061     2.2923     0.2415
  416.0000   -23.5833    17.2340    27.5977     7.3098    59.6031    -0.0013     2.2797     0.2315
  416.5000   -23.4149    17.6045    28.7758     7.2961    58.1208    -0.0011     2.2640     0.2150
  417.0000   -23.1013    17.8595    28.5788     7.3131    55.4380     0.0084     2.3182     0.2026
  417.5000   -22.7877    17.9939    27.9885     7.3446    55.2971     0.0238     2.3408     0.2002
  418.0000   -22.6269    17.8785    27.2745     7.4060    56.3597     0.0326     2.3476     0.1978
  418.5000   -22.7597    17.7623    26.9108     7.4375    56.3715     0.0343     2.3545     0.2001
  419.0000   -22.2933    17.7641    26.9266     7.4541    55.4851     0.0390     2.3591     0.2040
  419.5000   -21.8309    17.7658    26.7512     7.4710    53.9716     0.0376     2.3382     0.2025
  420.0000   -21.6661    17.7675    26.7670     7.4876    53.8619     0.0363     2.3458     0.1988
  420.5000   -21.2037    17.7693    26.5926     7.5191    54.4754     0.0365     2.3407     0.1955
  421.0000   -20.5923    17.7710    26.6082     7.5357    56.4333     0.0352     2.3498     0.1939
  421.5000   -20.5759    17.7727    26.4379     7.5672    59.2894     0.0339     2.3567     0.1990
  422.0000   -20.5565    17.7745    26.4506     7.6136    61.6963     0.0310     2.3508     0.2023
  422.5000   -20.5406    17.7762    26.4634     7.6302    62.3069     0.0266     2.3570     0.2019
