~VERSION INFORMATION
 VERS.                2.0:   CWLS LOG ASCII STANDARD - VERSION 2.0
 WRAP.                 NO:   ONE LINE PER DEPTH STEP
~WELL INFORMATION
#MNEM.UNIT      DATA TYPE    INFORMATION
#----------   ------------   ------------------------------
 STRT.F           80.0000:   START DEPTH
 STOP.F          820.0000:   STOP DEPTH
 STEP.F            0.5000:   STEP LENGTH
 NULL.          -999.2500:   NO VALUE
 COMP. U S NAVY/INTEX OIL CO:   COMPANY
 WELL.      GOVT #15-S-35:   WELL
 FLD .        EAST TEAPOT:   FIELD
 LOC .      S35 T39N R78W:   LOCATION
 CNTY.            NATRONA:   COUNTY
 STAT.            WYOMING:   STATE
 CTRY. UNITED STATES OF AMERICA:   COUNTRY
 SRVC.       Schlumberger:   SERVICE COMPANY
 DATE.        12-FEB-1961:   LOGDATE
 API .       490250654500:   API NUMBER
~CURVE INFORMATION
#MNEM.UNIT       API CODE    CURVE DESCRIPTION
#----------   ------------   ------------------------------
 DEPT.F                  :   
 SPR .MV     05 010 01 00:   SPONTANEOUS POTENTIAL FROM RES.
 ASN .OHMM   05 041 16 00:   AMPLIFIED SHORT NORMAL 16"
 ILD .OHMM   05 120 46 00:   INDUCTION LOG DEEP
 CILD.MMHO   05 110 46 00:   CONDUCTIVITY INDUCTION LOG DEEP
 GR  .GAPI   30 310 01 00:   GAMMA RAY
~PARAMETER INFORMATION
#MNEM.UNIT          VALUE    DESCRIPTION
#----------   ------------   ------------------------------
 PD  .                 GL:   PERMANENT DATUM
 EPD .F              5069:   ELEVATION PERMANENT DATUM
 LMF .                 KB:   LOG MEASURED FROM
 DAPD.F                 4:   FEET ABOVE PERMANENT DATUM
 DMF .                 KB:   DRILLING MEASURED FROM
 EKB .F              5073:   KELLING BUSHING
 EGL .F              5069:   GROUND LEVEL
 DATE.            2-12-61:   RUN DATE
 RUN .                  1:   RUN NUMBER
 DD  .F               820:   DEPTH DRILLER
 DL  .F               820:   DEPTH LOGGER
 BLI .F               819:   BOTTOM LOG INTERVAL
 TLI .F                90:   TOP LOG INTERVAL
 CBD .F                12:   CASING BOTTOM DRILLER
 BS  .IN            7.875:   BIT SIZE
 BSD .F               820:   BIT SIZE AT DEPTH
 DFT .   GEL OIL EMULSION:   DRILLING FLUID TYPE
 DFD .                9.5:   DRILLING FLUID DENSITY
 DFV .                 50:   DRILLING FLUID VISCOSITY
 DFPH.                  8:   DRILLING FLUID PH
 DFL .                  9:   DRILLING FLUID LOSS
 MSS .          FLOW LINE:   MUD SAMPLE SOURCE
 RMS .OHMM           1.04:   RESISTIVITY MUD SAMPLE
 MST .F                56:   MUD SAMPLE TEMPERATURE
 MFSS.                  C:   MUD FILTRATE SAMPLE SOURCE
 MCSS.                  C:   MUD CAKE SAMPLE SOURCE
 RMB .OHMM           2.78:   RESISTIVITY MUD AT BHT
 BHT .F                77:   BOTTOM HOLE TEMPERATURE
 TCS .HRS               1:   TIME CURCULATED STOPPED
 MRT .F                77:   MAXIMUM RECORDED TEMPERATURE
 LUN .               2523:   LOGGING UNIT NUMBER
 LUL .               CSPR:   LOGGING UNIT LOCATION
 ENGI.             KNOBEL:   RECORDING ENGINEER
 WITN.          JORGENSEN:   WITNESSED BY
 CLNT.            A2DTECH:   CLIENT CODE
 ORIG.       2", 5" PRINT:   ORIGIN OF DATA
 UWI .       490250654500:   UNIQUE WELL ID
 DICO. A2D Technologies, Inc.:   DIGITIZING COMPANY
~OTHER INFORMATION
~A   DEPT      SPR          ASN        ILD      CILD        GR   
# ...
  751.0000   -19.2995    18.9308    15.4508    59.4327    58.8104
  751.5000   -19.2859    18.2269    14.5063    63.3068    61.5720
  752.0000   -19.3588    17.7424    14.1849    67.1808    64.3799
  752.5000   -19.4291    17.2337    13.9531    69.5832    66.9684
  753.0000   -19.4991    16.9488    13.7228    70.3448    68.0382
  753.5000   -19.5693    16.7588    13.6006    71.1063    70.5441
  754.0000   -19.6395    16.5664    13.6090    71.0266    72.1756
  754.5000   -19.7096    16.3885    13.6169    70.8065    65.2648
  755.0000   -19.7798    16.4104    13.6258    70.5865    67.1404
  755.5000   -19.8499    16.4377    13.6347    70.3665    60.0300
  756.0000   -19.9204    16.4637    13.6435    70.1465    58.5375
  756.5000   -19.9904    16.4814    13.6522    69.9265    61.3137
  757.0000   -20.0515    16.4646    13.6610    69.7058    59.5907
  757.5000   -20.2383    16.4485    13.6698    69.4845    63.3712
  758.0000   -20.4546    16.4326    13.6785    69.2632    68.8000
  758.5000   -20.6735    16.4165    13.6873    69.4539    66.1828
  759.0000   -20.8921    16.4002    13.6960    69.7481    63.8874
  759.5000   -21.1104    16.3861    13.7048    70.0393    71.6394
  760.0000   -21.3283    16.4349    13.7135    70.2938    68.6969
  760.5000   -21.5475    16.4868    13.7223    70.7063    63.7450
  761.0000   -21.6395    16.5384    13.7311    71.1189    64.1256
  761.5000   -21.6402    16.5900    13.7398    70.8357    68.7091
  762.0000   -21.6405    16.6416    13.7486    70.3406    71.4472
  762.5000   -21.6404    16.6931    13.7574    69.8456    71.6998
  763.0000   -21.6403    16.7447    13.7661    69.3506    71.3576
  763.5000   -21.6403    16.7963    13.7749    68.8556    74.2534
  764.0000   -21.6403    16.8476    13.7836    68.3606    71.7831
  764.5000   -21.6403    16.8832    13.7924    68.3518    66.9854
  765.0000   -21.6403    16.8825    13.8036    68.5225    63.5858
  765.5000   -21.6403    16.8825    13.8156    68.6932    62.7168
  766.0000   -21.6403    16.8825    13.8277    68.8639    66.7205
  766.5000   -21.6403    16.8824    13.8398    69.0346    64.8673
  767.0000   -21.6403    16.8823    13.8519    69.2053    67.0053
  767.5000   -21.6403    16.8828    13.8641    69.3759    64.7809
  768.0000   -21.6403    16.8985    13.8758    69.5466    61.7523
  768.5000   -21.6403    16.9622    13.8874    69.7173    63.7140
  769.0000   -21.6403    17.0250    13.8260    69.8880    67.4294
  769.5000   -21.6403    17.0809    13.6826    70.0587    68.6660
  770.0000   -21.6403    16.8920    13.5395    70.2191    65.1992
  770.5000   -21.6403    16.6719    13.3959    71.0703    67.0209
  771.0000   -21.6403    16.4514    13.2523    71.8730    68.0975
  771.5000   -21.6403    16.2313    13.1089    72.6758    63.7564
  772.0000   -21.6403    16.0112    12.9654    73.4785    65.1083
  772.5000   -21.6403    15.7913    12.8219    74.2812    62.1801
  773.0000   -21.6403    15.5703    12.6784    75.0840    65.3251
  773.5000   -21.6403    15.4225    12.5349    75.8867    69.6541
  774.0000   -21.6403    15.3160    12.3914    76.6895    69.6743
  774.5000   -21.6403    15.2098    12.2479    77.4922    63.6333
  775.0000   -21.6403    15.1039    12.1044    78.2949    64.8781
  775.5000   -21.6403    14.9978    11.9600    79.0976    65.9447
  776.0000   -21.6403    14.8916    11.8704    79.9006    65.7545
  776.5000   -21.6403    14.7851    11.8166    80.7031    68.4222
  777.0000   -21.6403    14.6797    11.7629    81.5059    62.1548
  777.5000   -21.6403    14.5892    11.7091    82.3016    58.3575
  778.0000   -21.6403    14.6292    11.6553    83.0631    61.3988
  778.5000   -21.6403    14.6686    11.6015    83.8247    62.3729
  779.0000   -21.6403    14.7077    11.5472    84.5863    58.1218
  779.5000   -21.6403    14.7468    11.4927    85.3478    54.9699
  780.0000   -21.6403    14.7857    11.4427    86.1554    56.9403
  780.5000   -21.6402    14.8244    11.5049    84.8264    59.5253
  781.0000   -21.6402    14.8648    11.8591    83.4121    56.7212
  781.5000   -21.6465    14.9420    12.1988    81.7333    54.5070
  782.0000   -21.6953    15.1279    12.5698    78.1646    56.3211
  782.5000   -21.7442    15.3590    13.1770    74.5958    58.5878
  783.0000   -21.7909    15.9705    13.8246    71.0270    57.7706
  783.5000   -21.8496    16.5876    14.6439    67.4583    57.0812
  784.0000   -22.1544    17.2031    15.4463    63.8896    61.0280
  784.5000   -22.1556    17.8184    16.2482    60.3208    61.1860
  785.0000   -22.0499    18.4325    17.0494    56.7521    55.5873
  785.5000   -21.9399    19.0509    17.8496    53.1833    51.6303
  786.0000   -21.8300    19.6729    18.5093    50.6592    49.6975
  786.5000   -21.7206    19.8524    18.8331    49.3005    51.3148
  787.0000   -21.6427    19.8384    18.5821    48.6168    55.4488
  787.5000   -21.7778    19.8161    18.2408    49.8885    55.4331
  788.0000   -21.9112    19.7952    17.8980    51.1656    54.7338
  788.5000   -22.0294    19.7818    17.5560    52.4319    58.6224
  789.0000   -21.9174    19.5628    17.2139    53.6982    55.8266
  789.5000   -21.8004    19.3168    16.8857    54.9646    59.0777
  790.0000   -21.6836    19.0695    16.7543    56.2309    61.1427
  790.5000   -21.6408    18.8248    16.6314    57.4972    59.1009
  791.0000   -21.6403    18.7098    16.5118    58.7635    62.4316
  791.5000   -21.6402    18.7927    16.3944    58.8188    64.0247
  792.0000   -21.6403    18.8741    16.2769    58.0862    56.9199
  792.5000   -21.6401    18.9559    16.1594    57.3513    52.7625
  793.0000   -21.6392    19.0387    16.0420    56.6135    54.9209
  793.5000   -21.6441    18.9614    15.9245    55.8747    57.7819
  794.0000   -21.8139    18.7750    15.8070    55.5644    58.6784
  794.5000   -21.9934    18.5872    15.6896    57.2145    60.3251
  795.0000   -22.1718    18.3986    15.5721    58.8645    61.0940
  795.5000   -22.3508    18.2291    15.4547    60.5146    59.0040
  796.0000   -22.4118    18.0976    15.3371    62.1647    59.7888
  796.5000   -22.3799    17.9667    15.2166    63.8147    57.2460
  797.0000   -22.3476    17.8907    15.2028    63.5643    56.2108
  797.5000   -22.3147    17.9407    15.2196    62.6476    58.9673
  798.0000   -22.2817    17.9870    15.2377    61.7309    61.2237
  798.5000   -22.2487    18.0334    15.2558    60.8142    62.1221
  799.0000   -22.1730    18.0801    15.2736    59.8974    60.6928
  799.5000   -22.0572    18.1280    15.2665    59.7036    63.3696
  800.0000   -21.9407    18.1701    15.0708    61.1348    65.6790
  800.5000   -21.8443    17.8621    14.8738    62.5661    61.7296
  801.0000   -21.9748    17.5101    14.6799    63.9974    60.3339
  801.5000   -22.1027    17.1577    14.3582    65.4287    64.7882
  802.0000   -22.2290    16.8064    14.0484    66.8600    61.2907
  802.5000   -22.3551    16.4549    13.7403    68.2913    60.5674
  803.0000   -22.4813    16.0902    13.4324    69.7226    62.1340
  803.5000   -22.6075    15.9582    13.1266    71.1584    59.6631
  804.0000   -22.7335    15.9097    12.8889    72.3342    56.5334
  804.5000   -22.8597    15.8652    12.8814    72.7827    56.2064
  805.0000   -22.9918    15.8211    12.8682    73.2310    56.2154
  805.5000   -22.9396    15.7977    12.8546    73.6803    56.2129
  806.0000   -22.8228    15.8523    12.8414    74.1308    56.2124
  806.5000   -22.7039    15.9050    12.8279    74.5812  -999.2500
  807.0000   -22.5851    15.9574    12.8146    75.0317  -999.2500
  807.5000   -22.4639    16.0100    12.8041    75.4822  -999.2500
  808.0000   -22.3818    16.0626    12.7165    75.9326  -999.2500
  808.5000   -22.3106    16.1151    12.6147    75.8723  -999.2500
  809.0000   -22.2402    16.1677    12.6770    75.0981  -999.2500
  809.5000   -22.1697    16.2202    12.7703    74.3238  -999.2500
  810.0000   -22.0991    16.2728    12.8650    73.5496  -999.2500
  810.5000   -22.0285    16.3254    12.9598    72.7753  -999.2500
  811.0000   -21.9579    16.3783    12.9630    72.0011  -999.2500
  811.5000   -21.8873    16.4327    12.8726    71.2151  -999.2500
