~VERSION INFORMATION
 VERS.                2.0:   CWLS LOG ASCII STANDARD - VERSION 2.0
 WRAP.                 NO:   ONE LINE PER DEPTH STEP
~WELL INFORMATION
#MNEM.UNIT      DATA TYPE    INFORMATION
#----------   ------------   ------------------------------
 STRT.F           36.0000:   START DEPTH
 STOP.F         2324.5000:   STOP DEPTH
 STEP.F            0.5000:   STEP LENGTH
 NULL.          -999.2500:   NO VALUE
 COMP. FENIX & SCISSON INC:   COMPANY
 WELL.           SX #57-3:   WELL
 FLD .             TEAPOT:   FIELD
 LOC .       S3 T38N R78W:   LOCATION
 CNTY.            NATRONA:   COUNTY
 STAT.            WYOMING:   STATE
 CTRY. UNITED STATES OF AMERICA:   COUNTRY
 SRVC.           BIRDWELL:   SERVICE COMPANY
 DATE.        15-JUN-1978:   LOGDATE
 API .       490251028800:   API NUMBER
~CURVE INFORMATION
#MNEM.UNIT       API CODE    CURVE DESCRIPTION
#----------   ------------   ------------------------------
 DEPT.F                  :   
 CALD.IN     45 280 60 00:   CALIPER FROM DENSITY LOG
 GRD .GAPI   45 310 01 00:   GAMMA RAY FROM DENSITY LOG
 CORR.G/C3   45 356 01 00:   DENSITY CORRECTION
 RHOB.G/C3   45 350 01 00:   BULK DENSITY
 DPHI.DEC    45 890 12 00:   DENSITY POROSITY SANDSTONE
 SPR .MV     07 010 01 00:   SPONTANEOUS POTENTIAL
 ILD .OHMM   07 120 46 00:   INDUCTION LOG DEEP
 ILM .OHMM   07 120 44 00:   INDUCTION LOG MEDIUM
 SGRD.OHMM   07 220 05 00:   SHALLOW GUARD RESISTIVITY
~PARAMETER INFORMATION
#MNEM.UNIT          VALUE    DESCRIPTION
#----------   ------------   ------------------------------
 PD  .                 GL:   PERMANENT DATUM
 EPD .F              5184:   ELEVATION PERMANENT DATUM
 LMF .                 KB:   LOG MEASURED FROM
 DAPD.F                10:   FEET ABOVE PERMANENT DATUM
 DMF .                 KB:   DRILLING MEASURED FROM
 EKB .F              5184:   KELLING BUSHING
 EGL .F              5184:   GROUND LEVEL
 DATE.            6-15-78:   RUN DATE
 RUN .                  1:   RUN NUMBER
 DD  .F              2340:   DEPTH DRILLER
 DL  .F              2324:   DEPTH LOGGER
 BLI .F              2324:   BOTTOM LOG INTERVAL
 TLI .F                50:   TOP LOG INTERVAL
 CS  .IN            9.625:   CASING SIZE
 CBD .F               600:   CASING BOTTOM DRILLER
 CBL .F               601:   CASING BOTTOM LOGGER
 BS  .IN             8.75:   BIT SIZE
 BSD .F              2340:   BIT SIZE AT DEPTH
 DFT .           AIR MIST:   DRILLING FLUID TYPE
 BHT .F                68:   BOTTOM HOLE TEMPERATURE
 MRT .F                68:   MAXIMUM RECORDED TEMPERATURE
 LUN .               2958:   LOGGING UNIT NUMBER
 LUL .               CASP:   LOGGING UNIT LOCATION
 ENGI.           REYNOLDS:   RECORDING ENGINEER
 WITN.           MCGINLEY:   WITNESSED BY
 CLNT.            A2DTECH:   CLIENT CODE
 ORIG.   2" 2.5" 5" PRINT:   ORIGIN OF DATA
 UWI .       490251028800:   UNIQUE WELL ID
 DICO. A2D Technologies, Inc.:   DIGITIZING COMPANY
~OTHER INFORMATION
~A   DEPT       CALD      GRD        CORR      RHOB         DPHI      SPR        ILD        ILM       SGRD   
# ...
 1021.5000     8.8194   147.4478     0.0566     2.5370     0.0134  -999.2500  -999.2500  -999.2500  -999.2500
 1022.0000     8.8502   156.0081     0.0546     2.5296     0.0162  -999.2500  -999.2500  -999.2500  -999.2500
 1022.5000     8.8812   164.7724     0.0525     2.5247     0.0191  -999.2500  -999.2500  -999.2500  -999.2500
 1023.0000     8.9130   171.2811     0.0505     2.5204     0.0235  -999.2500  -999.2500  -999.2500  -999.2500
 1023.5000     8.9419   169.7149     0.0484     2.5159     0.0261  -999.2500  -999.2500  -999.2500  -999.2500
 1024.0000     8.9774   166.6093     0.0464     2.5120     0.0269  -999.2500  -999.2500  -999.2500  -999.2500
 1024.5000     8.9586   165.4470     0.0442     2.5081     0.0285  -999.2500  -999.2500  -999.2500  -999.2500
 1025.0000     8.9331   165.1969     0.0442     2.5051     0.0265  -999.2500  -999.2500  -999.2500  -999.2500
 1025.5000     8.9059   165.8855     0.0462     2.5089     0.0245  -999.2500  -999.2500  -999.2500  -999.2500
 1026.0000     8.8754   162.0764     0.0478     2.5128     0.0225  -999.2500  -999.2500  -999.2500  -999.2500
 1026.5000     8.8884   157.4428     0.0528     2.5125     0.0205  -999.2500  -999.2500  -999.2500  -999.2500
 1027.0000     8.9681   155.8899     0.0570     2.5165     0.0186  -999.2500  -999.2500  -999.2500  -999.2500
 1027.5000     9.0390   154.6493     0.0617     2.5241     0.0173  -999.2500  -999.2500  -999.2500  -999.2500
 1028.0000     9.0917   154.6633     0.0629     2.5269     0.0169  -999.2500  -999.2500  -999.2500  -999.2500
 1028.5000     9.0290   157.9028     0.0618     2.5259     0.0166  -999.2500  -999.2500  -999.2500  -999.2500
 1029.0000     8.9735   158.7119     0.0608     2.5252     0.0163  -999.2500  -999.2500  -999.2500  -999.2500
 1029.5000     8.9316   157.2843     0.0601     2.5248     0.0159  -999.2500  -999.2500  -999.2500  -999.2500
 1030.0000     8.9189   156.9975     0.0598     2.5262     0.0166  -999.2500  -999.2500  -999.2500  -999.2500
 1030.5000     8.9031   153.8026     0.0661     2.5275     0.0159  -999.2500  -999.2500  -999.2500  -999.2500
 1031.0000     8.9024   151.7998     0.0711     2.5287     0.0151  -999.2500  -999.2500  -999.2500  -999.2500
 1031.5000     8.8994   151.3793     0.0772     2.5286     0.0142  -999.2500  -999.2500  -999.2500  -999.2500
 1032.0000     8.9257   151.5758     0.0774     2.5275     0.0233  -999.2500  -999.2500  -999.2500  -999.2500
 1032.5000     8.9680   153.7735     0.0737     2.5198     0.0332  -999.2500  -999.2500  -999.2500  -999.2500
 1033.0000     9.0153   157.3416     0.0714     2.5111     0.0332  -999.2500  -999.2500  -999.2500  -999.2500
 1033.5000     8.9957   157.6810     0.0737     2.5025     0.0071  -999.2500  -999.2500  -999.2500  -999.2500
 1034.0000     8.9678   161.7014     0.0755     2.4992     0.0056  -999.2500  -999.2500  -999.2500  -999.2500
 1034.5000     8.9360   159.5803     0.0774     2.5198     0.0041  -999.2500  -999.2500  -999.2500  -999.2500
 1035.0000     8.9051   153.0412     0.0796     2.5406     0.0010  -999.2500  -999.2500  -999.2500  -999.2500
 1035.5000     8.8684   152.3011     0.0813     2.5464     0.0041  -999.2500  -999.2500  -999.2500  -999.2500
 1036.0000     8.9080   151.6425     0.0820     2.5479     0.0149  -999.2500  -999.2500  -999.2500  -999.2500
 1036.5000     8.9508   152.9486     0.0712     2.5410     0.0258  -999.2500  -999.2500  -999.2500  -999.2500
 1037.0000     8.9963   155.4984     0.0617     2.5309     0.0305  -999.2500  -999.2500  -999.2500  -999.2500
 1037.5000     9.0428   157.0056     0.0512     2.5159     0.0319  -999.2500  -999.2500  -999.2500  -999.2500
 1038.0000     9.0516   156.5862     0.0440     2.5041     0.0345  -999.2500  -999.2500  -999.2500  -999.2500
 1038.5000     9.0376   156.4827     0.0486     2.5005     0.0372  -999.2500  -999.2500  -999.2500  -999.2500
 1039.0000     9.0215   157.1640     0.0523     2.4970     0.0386  -999.2500  -999.2500  -999.2500  -999.2500
 1039.5000     9.0712   161.5422     0.0567     2.4937     0.0403  -999.2500  -999.2500  -999.2500  -999.2500
 1040.0000     9.1409   165.3657     0.0604     2.4906     0.0411  -999.2500  -999.2500  -999.2500  -999.2500
 1040.5000     9.1718   167.8229     0.0703     2.4872     0.0440  -999.2500  -999.2500  -999.2500  -999.2500
 1041.0000     9.1392   164.0871     0.0890     2.4889     0.0495  -999.2500  -999.2500  -999.2500  -999.2500
 1041.5000     9.1520   158.4538     0.1068     2.4859     0.0570  -999.2500  -999.2500  -999.2500  -999.2500
 1042.0000     9.1740   153.5500     0.1257     2.4797     0.0609  -999.2500  -999.2500  -999.2500  -999.2500
 1042.5000     9.1457   155.8352     0.1435     2.4681     0.0617  -999.2500  -999.2500  -999.2500  -999.2500
 1043.0000     9.1054   157.0919     0.1562     2.4574     0.0601  -999.2500  -999.2500  -999.2500  -999.2500
 1043.5000     9.0678   155.9478     0.1355     2.4522     0.0429  -999.2500  -999.2500  -999.2500  -999.2500
 1044.0000     9.0238   158.1147     0.1173     2.4695     0.0340  -999.2500  -999.2500  -999.2500  -999.2500
 1044.5000     9.0395   161.7937     0.1041     2.4863     0.0318  -999.2500  -999.2500  -999.2500  -999.2500
 1045.0000     9.0626   162.8963     0.1013     2.4934     0.0282  -999.2500  -999.2500  -999.2500  -999.2500
 1045.5000     9.0895   163.2415     0.0974     2.5007     0.0247  -999.2500  -999.2500  -999.2500  -999.2500
 1046.0000     9.1119   162.5753     0.0855     2.5087     0.0211  -999.2500  -999.2500  -999.2500  -999.2500
 1046.5000     9.1326   156.4604     0.0676     2.5176     0.0192  -999.2500  -999.2500  -999.2500  -999.2500
 1047.0000     9.0822   149.4649     0.0620     2.5210     0.0199  -999.2500  -999.2500  -999.2500  -999.2500
 1047.5000     9.0299   151.2646     0.0590     2.5207     0.0205  -999.2500  -999.2500  -999.2500  -999.2500
 1048.0000     8.9691   156.4538     0.0594     2.5207     0.0213  -999.2500  -999.2500  -999.2500  -999.2500
 1048.5000     8.9507   157.1170     0.0612     2.5208     0.0198  -999.2500  -999.2500  -999.2500  -999.2500
 1049.0000     8.9883   157.5244     0.0637     2.5208     0.0184  -999.2500  -999.2500  -999.2500  -999.2500
 1049.5000     9.0190   161.8059     0.0662     2.5231     0.0171  -999.2500  -999.2500  -999.2500  -999.2500
 1050.0000     9.0513   165.1212     0.0686     2.5257     0.0158  -999.2500  -999.2500  -999.2500  -999.2500
 1050.5000     9.0546   159.6512     0.0712     2.5284     0.0169  -999.2500  -999.2500  -999.2500  -999.2500
 1051.0000     9.0480   155.1864     0.0679     2.5277     0.0182  -999.2500  -999.2500  -999.2500  -999.2500
 1051.5000     9.0417   151.6269     0.0615     2.5234     0.0190  -999.2500  -999.2500  -999.2500  -999.2500
 1052.0000     9.0360   151.5944     0.0546     2.5157     0.0166  -999.2500  -999.2500  -999.2500  -999.2500
 1052.5000     9.0300   151.9346     0.0535     2.5081     0.0097  -999.2500  -999.2500  -999.2500  -999.2500
 1053.0000     9.0229   155.9696     0.0608     2.5219     0.0024  -999.2500  -999.2500  -999.2500  -999.2500
 1053.5000     9.0262   158.9663     0.0675     2.5376     0.0040  -999.2500  -999.2500  -999.2500  -999.2500
 1054.0000     9.0533   160.3566     0.0750     2.5450     0.0079  -999.2500  -999.2500  -999.2500  -999.2500
 1054.5000     9.0460   157.6779     0.0789     2.5415     0.0088  -999.2500  -999.2500  -999.2500  -999.2500
 1055.0000     9.0217   151.7964     0.0763     2.5392     0.0090  -999.2500  -999.2500  -999.2500  -999.2500
 1055.5000     9.0007   147.3368     0.0745     2.5368     0.0093  -999.2500  -999.2500  -999.2500  -999.2500
 1056.0000     8.9819   148.6254     0.0726     2.5346     0.0095  -999.2500  -999.2500  -999.2500  -999.2500
 1056.5000     8.9870   151.3716     0.0705     2.5348     0.0121  -999.2500  -999.2500  -999.2500  -999.2500
 1057.0000     8.9925   153.9152     0.0686     2.5338     0.0158  -999.2500  -999.2500  -999.2500  -999.2500
 1057.5000     8.9992   153.5451     0.0664     2.5324     0.0195  -999.2500  -999.2500  -999.2500  -999.2500
