~VERSION INFORMATION
 VERS.                2.0:   CWLS LOG ASCII STANDARD - VERSION 2.0
 WRAP.                 NO:   ONE LINE PER DEPTH STEP
~WELL INFORMATION
#MNEM.UNIT      DATA TYPE    INFORMATION
#----------   ------------   ------------------------------
 STRT.F           35.0000:   START DEPTH
 STOP.F          977.0000:   STOP DEPTH
 STEP.F            0.5000:   STEP LENGTH
 NULL.          -999.2500:   NO VALUE
 COMP. FENIX & SCISSON INC:   COMPANY
 WELL.  NPR-3 "SX" #52-14:   WELL
 FLD .             TEAPOT:   FIELD
 LOC .      S14 T38N R78W:   LOCATION
 CNTY.            NATRONA:   COUNTY
 STAT.            WYOMING:   STATE
 CTRY. UNITED STATES OF AMERICA:   COUNTRY
 SRVC.            Unknown:   SERVICE COMPANY
 DATE.        13-MAR-1978:   LOGDATE
 API .       490251059900:   API NUMBER
~CURVE INFORMATION
#MNEM.UNIT       API CODE    CURVE DESCRIPTION
#----------   ------------   ------------------------------
 DEPT.F                  :   
 CALD.IN     45 280 60 00:   CALIPER FROM DENSITY LOG
 GRD .GAPI   45 310 01 00:   GAMMA RAY FROM DENSITY LOG
 CORR.G/C3   45 356 01 00:   DENSITY CORRECTION
 RHOB.G/C3   45 350 01 00:   BULK DENSITY
 DPHI.DEC    45 890 12 00:   DENSITY POROSITY SANDSTONE
 SPR .MV     07 010 01 00:   SPONTANEOUS POTENTIAL FROM RES. LOG
 ILD .OHMM   07 120 46 00:   INDUCTION LOG DEEP
 SN  .OHMM   07 040 16 00:   SHORT NORMAL 16'
~PARAMETER INFORMATION
#MNEM.UNIT          VALUE    DESCRIPTION
#----------   ------------   ------------------------------
 PD  .                 GL:   PERMANENT DATUM
 EPD .F              5223:   ELEVATION PERMANENT DATUM
 LMF .                 KB:   LOG MEASURED FROM
 DAPD.F                 4:   FEET ABOVE PERMANENT DATUM
 DMF .                 KB:   DRILLING MEASURED FROM
 EKB .F              5227:   KELLING BUSHING
 EGL .F              5223:   GROUND LEVEL
 DATE.            3-13-78:   RUN DATE
 RUN .                  1:   RUN NUMBER
 DD  .F               975:   DEPTH DRILLER
 DL  .F               977:   DEPTH LOGGER
 BLI .F               971:   BOTTOM LOG INTERVAL
 TLI .F                50:   TOP LOG INTERVAL
 CS  .IN            8.625:   CASING SIZE
 CBD .F                40:   CASING BOTTOM DRILLER
 CBL .F                40:   CASING BOTTOM LOGGER
 BS  .IN            7.875:   BIT SIZE
 BSD .F               975:   BIT SIZE AT DEPTH
 DFT .                KCL:   DRILLING FLUID TYPE
 DFD .                8.6:   DRILLING FLUID DENSITY
 DFV .                 33:   DRILLING FLUID VISCOSITY
 DFPH.               10.5:   DRILLING FLUID PH
 DFL .               11.6:   DRILLING FLUID LOSS
 MSS .          FLOW LINE:   MUD SAMPLE SOURCE
 RMS .OHMM            .34:   RESISTIVITY MUD SAMPLE
 MST .F                60:   MUD SAMPLE TEMPERATURE
 RMF .OHMM            .36:   RESISTIVITY MUD FILTRATE SAMPLE
 MFST.F                62:   MUD FILTRATE SAMPLE TEMPERATURE
 RMC .OHMM            .75:   RESISTIVITY MUD CAKE
 MCST.F                59:   MUD CAKE SAMPLE TEMPERATURE
 MFSS.               MEAS:   MUD FILTRATE SAMPLE SOURCE
 MCSS.               MEAS:   MUD CAKE SAMPLE SOURCE
 RMB .OHMM            .27:   RESISTIVITY MUD AT BHT
 BHT .F                75:   BOTTOM HOLE TEMPERATURE
 TCS .HRS               4:   TIME CURCULATED STOPPED
 MRT .F                75:   MAXIMUM RECORDED TEMPERATURE
 LUN .               2958:   LOGGING UNIT NUMBER
 LUL .               CASP:   LOGGING UNIT LOCATION
 ENGI.             MILLER:   RECORDING ENGINEER
 WITN.            RHOADES:   WITNESSED BY
 CLNT.            A2DTECH:   CLIENT CODE
 ORIG.       2", 5" PRINT:   ORIGIN OF DATA
 UWI .       490251059900:   UNIQUE WELL ID
 DICO. A2D Technologies, Inc.:   DIGITIZING COMPANY
~OTHER INFORMATION
~A   DEPT     CALD         GRD      CORR       RHOB       DPHI        SPR        ILD         SN   
# ...
  642.5000     7.9868    91.3898     0.0199     2.4488     0.1137   -56.1574     7.2828     8.2674
  643.0000     7.9857    90.7180     0.0167     2.4446     0.1156   -56.3231     7.1763     8.0981
  643.5000     7.9847    89.3843     0.0135     2.4429     0.1164   -56.3108     7.0714     7.9324
  644.0000     7.9837    88.3847     0.0107     2.4411     0.1151   -56.1213     6.9680     7.8671
  644.5000     7.9827    89.0605     0.0154     2.4443     0.1130   -55.9321     6.8662     7.8671
  645.0000     7.9817    91.0485     0.0203     2.4523     0.1110   -55.7457     6.7655     7.8671
  645.5000     7.9807    92.0428     0.0205     2.4607     0.1089   -55.6303     6.7234     7.8667
  646.0000     7.9797    92.1528     0.0197     2.4688     0.1083   -55.9198     6.8298     7.9110
  646.5000     7.9787    93.9351     0.0177     2.4705     0.1090   -56.2042     6.9219     7.9691
  647.0000     7.9777    96.6679     0.0169     2.4635     0.1097   -56.4894     7.0150     8.0276
  647.5000     7.9766    97.0160     0.0177     2.4570     0.1094   -56.7747     7.1094     8.0863
  648.0000     7.9740    96.8012     0.0185     2.4592     0.1083   -56.7046     7.1755     8.1454
  648.5000     7.9678    96.1006     0.0196     2.4664     0.1072   -56.6101     7.1948     8.2050
  649.0000     7.9617    95.3725     0.0204     2.4732     0.1048   -56.5873     7.2143     8.2651
  649.5000     7.9560    93.6705     0.0247     2.4702     0.1057   -56.5866     7.2337     8.3255
  650.0000     7.9559    91.9458     0.0293     2.4668     0.1072   -56.5867     7.2765     8.3864
  650.5000     7.9559    90.1781     0.0412     2.4678     0.1042   -56.5868     7.3507     8.5353
  651.0000     7.9559    89.3846     0.0501     2.4712     0.1008   -56.5868     7.4254     8.6968
  651.5000     7.9559    91.4352     0.0526     2.4725     0.1026   -56.5865     7.5009     8.8615
  652.0000     7.9559    93.9763     0.0525     2.4641     0.1079   -56.5854     7.5773     8.9533
  652.5000     7.9561    95.9800     0.0489     2.4600     0.1158   -56.5941     7.6544     8.9533
  653.0000     7.9555    95.6471     0.0413     2.4552     0.1237   -56.7930     7.7323     8.9534
  653.5000     7.9238    95.4735     0.0368     2.4422     0.1316   -56.9654     7.7948     8.9533
  654.0000     7.8887    95.8914     0.0418     2.4292     0.1328   -56.4170     7.7143     8.9542
  654.5000     7.8801    95.8586     0.0591     2.4200     0.1287   -55.8365     7.6481     8.9543
  655.0000     7.8865    94.2532     0.0750     2.4248     0.1236   -55.6274     7.5824     8.7699
  655.5000     7.8933    94.3816     0.0847     2.4334     0.1186   -55.6872     7.5174     8.5855
  656.0000     7.9000    92.4094     0.0855     2.4490     0.1125   -55.7426     7.4529     8.3926
  656.5000     7.9068    93.3966     0.0765     2.4542     0.1056   -55.6597     7.3890     8.3926
  657.0000     7.9133    94.9411     0.0553     2.4629     0.1092   -55.1939     7.3256     8.3926
  657.5000     7.9339    93.9869     0.0362     2.4571     0.1039   -54.7973     7.3004     8.3926
  658.0000     7.9614    91.3483     0.0278     2.4657     0.0968   -55.1177     7.2914     8.3926
  658.5000     7.9901    92.8203     0.0198     2.4777     0.0964   -55.3718     7.2824     8.3926
  659.0000     7.9951    94.7388     0.0118     2.4771     0.0987   -54.8175     7.2734     8.3926
  659.5000     7.9939    94.8222     0.0097     2.4727     0.1016   -54.5172     7.2645     8.3926
  660.0000     7.9925    95.1754     0.0088     2.4700     0.1046   -55.1731     7.2556     8.3926
  660.5000     7.9913    96.8457     0.0078     2.4678     0.1075   -55.8065     7.2466     8.3926
  661.0000     7.9900    96.6891     0.0069     2.4645     0.1092   -56.3690     7.2377     8.3926
  661.5000     7.9888    96.3148     0.0095     2.4600     0.1080   -56.8222     7.2288     8.3926
  662.0000     7.9875    95.8409     0.0144     2.4568     0.1052   -57.2770     7.2199     8.3926
  662.5000     7.9863    94.8587     0.0195     2.4665     0.1003   -57.7325     7.2110     8.3926
  663.0000     7.9850    92.7024     0.0245     2.4711     0.0957   -58.1858     7.2022     8.3926
  663.5000     7.9838    89.5191     0.0268     2.4801     0.0928   -58.5258     7.1933     8.3926
  664.0000     7.9825    90.4180     0.0148     2.4846     0.1022   -58.0962     7.1845     8.3926
  664.5000     7.9813    96.1418     0.0129     2.4500     0.1117   -57.7784     7.1753     8.3928
  665.0000     7.9800    98.6177     0.0180     2.4468     0.1148   -57.8078     7.1664     8.3927
  665.5000     7.9788    97.7184     0.0234     2.4494     0.1160   -57.8294     7.1534     8.3929
  666.0000     7.9775    95.7033     0.0233     2.4448     0.1191   -57.8505     7.1405     8.3381
  666.5000     7.9764    94.8463     0.0217     2.4380     0.1224   -57.8720     7.1275     8.2747
  667.0000     7.9697    94.8859     0.0211     2.4363     0.1209   -57.8934     7.1145     8.2121
  667.5000     7.9615    94.9444     0.0238     2.4454     0.1124   -57.9148     7.0533     8.1501
  668.0000     7.9533    95.0471     0.0263     2.4546     0.1135   -57.9364     6.9260     8.0884
  668.5000     7.9450    95.9272     0.0309     2.4534     0.1113   -57.9575     6.8009     8.0273
  669.0000     7.9369    96.8303     0.0364     2.4559     0.1072   -57.9742     6.6309     7.9666
  669.5000     7.9287    96.6481     0.0374     2.4599     0.1146   -58.1559     6.3883     7.7615
  670.0000     7.9199    95.9894     0.0382     2.4354     0.1219   -58.3785     6.1885     7.4536
  670.5000     7.8854    95.0825     0.0422     2.4315     0.1239   -58.6030     6.1974     7.3252
  671.0000     7.8290    92.5658     0.0568     2.4240     0.1184   -58.8240     6.2062     7.2395
  671.5000     7.8059    90.1164     0.0787     2.4160     0.1135   -58.9412     6.2150     7.2980
  672.0000     7.8012    90.4575     0.0817     2.4445     0.1072   -58.7673     6.2239     7.3816
  672.5000     7.8108    92.4700     0.0660     2.4628     0.1065   -58.6043     6.2327     7.5494
  673.0000     7.8209    92.5974     0.0434     2.4574     0.1186   -58.7527     6.2416     7.9383
  673.5000     7.8305    93.0155     0.0338     2.4545     0.1243   -58.9594     6.4180     7.9836
  674.0000     7.8988    97.4116     0.0275     2.4516     0.1144   -58.5705     6.6936     8.0264
  674.5000     7.9549   101.2784     0.0217     2.4400     0.1273   -58.1828     6.9768     8.0687
  675.0000     7.9559   101.1564     0.0218     2.4281     0.1310   -58.1780     7.0416     8.1112
  675.5000     7.9564    98.2399     0.0328     2.4171     0.1348   -57.5867     7.0416     8.1632
  676.0000     7.9126    94.8347     0.0437     2.4137     0.1369   -56.7600     7.0416     8.0877
  676.5000     7.8566    94.3051     0.0548     2.4171     0.1286   -57.0528     7.0416     7.9921
  677.0000     7.8811    95.2788     0.0573     2.4276     0.1297   -57.3306     6.9582     7.8977
  677.5000     7.9081    96.4848     0.0581     2.4369     0.1294   -57.6052     6.7272     7.8045
  678.0000     7.9413    97.7001     0.0563     2.4360     0.1288   -57.8840     6.4818     7.7196
  678.5000     7.9745    98.8519     0.0386     2.4289     0.1360   -58.1708     6.4567     7.6904
  679.0000     8.0077    98.3366     0.0210     2.4094     0.1489   -58.1182     6.4221     7.6613
  679.5000     8.0354    95.4335     0.0157     2.3869     0.1544   -58.0436     6.3882     7.5506
  680.0000     8.0231    93.3905     0.0230     2.3773     0.1467   -57.9561     6.3546     7.4050
  680.5000     8.0114    92.8843     0.0300     2.3883     0.1358   -57.8506     6.3212     7.2619
  681.0000     7.9998    93.5410     0.0172     2.4233     0.1249   -57.9333     6.1847     7.1216
  681.5000     7.9882    94.4620     0.0153     2.4320     0.1140   -53.8839     5.9235     6.8776
  682.0000     7.9764    99.5002     0.0164     2.4506     0.1074   -54.9389     5.6733     6.5050
  682.5000     7.9750    97.3493     0.0149     2.4584     0.1076   -55.7399     5.4338     6.3228
