~VERSION INFORMATION
 VERS.                2.0:   CWLS LOG ASCII STANDARD - VERSION 2.0
 WRAP.                 NO:   ONE LINE PER DEPTH STEP
~WELL INFORMATION
#MNEM.UNIT      DATA TYPE    INFORMATION
#----------   ------------   ------------------------------
 STRT.F           20.0000:   START DEPTH
 STOP.F          672.0000:   STOP DEPTH
 STEP.F            0.5000:   STEP LENGTH
 NULL.          -999.2500:   NO VALUE
 COMP.              FENIX:   COMPANY
 WELL.    NPR ##3 23-S-11:   WELL
 FLD .        TEAPOT DOME:   FIELD
 LOC .      S11 T38N R78W:   LOCATION
 CNTY.            NATRONA:   COUNTY
 STAT.            WYOMING:   STATE
 CTRY. UNITED STATES OF AMERICA:   COUNTRY
 SRVC.           BIRDWELL:   SERVICE COMPANY
 DATE.        05-FEB-1978:   LOGDATE
 API .       490251057300:   API NUMBER
~CURVE INFORMATION
#MNEM.UNIT       API CODE    CURVE DESCRIPTION
#----------   ------------   ------------------------------
 DEPT.F                  :   
 ILD .OHMM   05 120 46 00:   INDUCTION LOG DEEP
 SN  .OHMM   05 040 16 00:   SHORT NORMAL 16"
 SPR .MV     05 010 01 00:   SPONTANEOUS POTENTIAL FROM RES.
 CALD.IN     45 280 60 00:   CALIPER FROM DENSITY LOG
 CORR.G/C3   45 356 01 00:   DENSITY CORRECTION
 DPHI.DEC    45 890 10 00:   DENSITY POROSITY LIMESTONE
 GRD .GAPI   45 310 01 00:   GAMMA RAY FROM DENSITY LOG
 RHOB.G/C3   45 350 01 00:   BULK DENSITY
~PARAMETER INFORMATION
#MNEM.UNIT          VALUE    DESCRIPTION
#----------   ------------   ------------------------------
 PD  .                 GL:   PERMANENT DATUM
 EPD .F              5175:   ELEVATION PERMANENT DATUM
 LMF .                 KB:   LOG MEASURED FROM
 DMF .                 KB:   DRILLING MEASURED FROM
 EKB .F              5178:   KELLING BUSHING
 EGL .F              5175:   GROUND LEVEL
 DATE.        05-FEB-1978:   RUN DATE
 RUN .                  1:   RUN NUMBER
 DD  .F               670:   DEPTH DRILLER
 DL  .F               675:   DEPTH LOGGER
 BLI .F               670:   BOTTOM LOG INTERVAL
 TLI .F                40:   TOP LOG INTERVAL
 CS  .IN            8.625:   CASING SIZE
 CBD .F                39:   CASING BOTTOM DRILLER
 CBL .F                40:   CASING BOTTOM LOGGER
 BS  .IN            7.875:   BIT SIZE
 BSD .F               670:   BIT SIZE AT DEPTH
 DFT .                KCL:   DRILLING FLUID TYPE
 DFD .                8.4:   DRILLING FLUID DENSITY
 DFV .                 32:   DRILLING FLUID VISCOSITY
 DFPH.                  8:   DRILLING FLUID PH
 DFL .                8.8:   DRILLING FLUID LOSS
 MSS .           FLOWLINE:   MUD SAMPLE SOURCE
 RMS .OHMM           0.58:   RESISTIVITY MUD SAMPLE
 MST .F                62:   MUD SAMPLE TEMPERATURE
 RMF .OHMM           0.58:   RESISTIVITY MUD FILTRATE SAMPLE
 MFST.F                62:   MUD FILTRATE SAMPLE TEMPERATURE
 RMC .OHMM            0.9:   RESISTIVITY MUD CAKE
 MCST.F                66:   MUD CAKE SAMPLE TEMPERATURE
 MFSS.               MEAS:   MUD FILTRATE SAMPLE SOURCE
 RMB .OHMM           0.55:   RESISTIVITY MUD AT BHT
 BHT .F                72:   BOTTOM HOLE TEMPERATURE
 TCS .HRS               1:   TIME CURCULATED STOPPED
 MRT .F                72:   MAXIMUM RECORDED TEMPERATURE
 LUN .               2958:   LOGGING UNIT NUMBER
 LUL .               CASP:   LOGGING UNIT LOCATION
 ENGI.            POINTER:   RECORDING ENGINEER
 WITN.         HARRINGTON:   WITNESSED BY
 CLNT.            A2DTECH:   CLIENT CODE
 ORIG.           5" PRINT:   ORIGIN OF DATA
 UWI .       490251057300:   UNIQUE WELL ID
 DICO. A2D Technologies, Inc.:   DIGITIZING COMPANY
~OTHER INFORMATION
~A   DEPT      ILD         SN        SPR       CALD       CORR       DPHI         GRD      RHOB   
# ...
  506.0000    20.4761    19.0220   -45.9749     7.9349    -0.0012     0.1582    62.1979     2.3638
  506.5000    20.7569    19.5496   -45.6792     7.9348    -0.0035     0.1464    62.9518     2.3706
  507.0000    20.7482    19.9641   -45.3799     7.9346    -0.0042     0.1347    59.8086     2.3856
  507.5000    20.5979    20.5064   -45.2348     7.9345    -0.0027     0.1194    56.2147     2.4292
  508.0000    20.4487    20.6410   -45.2440     7.9343     0.0003     0.1107    54.8696     2.4984
  508.5000    19.8760    20.3462   -45.0989     7.9342     0.0173     0.0776    54.1252     2.5127
  509.0000    19.0641    19.3735   -45.1067     7.9340     0.0422     0.0728    53.9785     2.5202
  509.5000    18.2810    18.5758   -45.2668     7.9339     0.0475     0.0644    55.3331     2.5277
  510.0000    17.4088    18.0110   -45.4277     7.9187     0.0460     0.0665    57.1364     2.5443
  510.5000    16.6937    17.3292   -45.4345     7.9185     0.0353     0.0836    58.6410     2.5044
  511.0000    16.2315    16.7173   -45.7473     7.9183     0.0272     0.0998    62.2434     2.4661
  511.5000    15.7821    16.2530   -45.9077     7.9182     0.0272     0.1194    65.0962     2.4248
  512.0000    15.3451    15.8017   -46.1514     7.9332     0.0257     0.1479    65.2504     2.3738
  512.5000    15.3398    15.3628   -46.5334     7.9330     0.0167     0.1654    64.8059     2.3700
  513.0000    15.4416    15.2505   -46.6932     7.9328     0.0212     0.1702    64.5103     2.3670
  513.5000    15.5438    15.0342   -46.7006     7.9176     0.0234     0.1807    63.9148     2.3565
  514.0000    15.5373    14.9240   -46.7073     7.9024     0.0264     0.1744    64.3688     2.3520
  514.5000    15.2123    14.7111   -46.7149     7.8872     0.0294     0.1702    66.0233     2.3641
  515.0000    14.9977    14.6034   -46.7226     7.8870     0.0376     0.1696    66.4773     2.3686
  515.5000    14.8891    14.4966   -46.7302     7.8718     0.0421     0.1651    64.9823     2.3724
  516.0000    14.7810    14.3906   -46.7392     7.8566     0.0354     0.1624    62.8876     2.3807
  516.5000    14.7750    14.2853   -46.7454     7.8414     0.0324     0.1611    61.3936     2.3799
  517.0000    14.7708    14.2795   -46.7530     7.8262     0.0361     0.1603    60.9470     2.3747
  517.5000    14.7651    14.2736   -46.8128     7.8110     0.0361     0.1627    61.7019     2.3679
  518.0000    14.8641    14.3670   -47.0735     7.8108     0.0361     0.1675    62.0060     2.3703
  518.5000    14.8581    14.4617   -47.3857     7.8107     0.0331     0.1678    61.7104     2.3740
  519.0000    14.9563    14.4544   -47.5457     7.7955     0.0284     0.1687    60.9660     2.3687
  519.5000    14.9512    14.4486   -47.8596     7.7953     0.0271     0.1711    61.1202     2.3575
  520.0000    14.8418    14.4564   -47.8659     7.7952     0.0383     0.1738    62.0240     2.3428
  520.5000    14.5313    14.4357   -48.0268     7.8101     0.0465     0.1960    62.7789     2.3267
  521.0000    14.2273    14.1336   -48.0341     7.8099     0.0503     0.1888    63.0830     2.3327
  521.5000    14.0266    13.8357   -48.0412     7.8098     0.0510     0.1858    63.2369     2.3357
  522.0000    14.0219    13.6394   -48.0488     7.8096     0.0503     0.1819    63.5412     2.3395
  522.5000    14.1148    13.2607   -48.0564     7.8095     0.0503     0.1900    64.1462     2.3418
  523.0000    14.2187    13.4406   -48.0654     7.8093     0.0503     0.1864    63.2509     2.3358
  523.5000    14.1041    13.6232   -48.0409     7.8242     0.0480     0.1801    61.9058     2.3380
  524.0000    13.8091    13.6175   -47.9258     7.8432     0.0307     0.1747    62.0600     2.3524
  524.5000    13.4267    13.3302   -47.9350     7.8992     0.0285     0.1720    62.3651     2.3584
  525.0000    13.2373    13.0503   -47.7896     7.8991     0.0285     0.1720    62.6692     2.3591
  525.5000    12.9604    12.8652   -47.5704     7.8989     0.0225     0.1705    62.5235     2.3606
  526.0000    12.7776    12.6828   -47.4998     7.8988     0.0135     0.1690    61.6282     2.3644
  526.5000    12.5973    12.5029   -47.5090     7.9137     0.0090     0.1691    59.9843     2.3659
  527.0000    12.5051    12.4979   -47.5163     7.9135     0.0060     0.1747    60.2884     2.3660
  527.5000    12.5009    12.4928   -47.5237     7.9285     0.0052     0.1774    60.7424     2.3630
  528.0000    12.4108    12.4866   -47.5311     7.9283     0.0134     0.1750    61.4963     2.3540
  528.5000    12.3904    12.4824   -47.5384     7.9281     0.0209     0.1662    62.4011     2.3652
  529.0000    12.3163    12.4766   -47.5457     7.9581     0.0232     0.1539    63.0050     2.3840
  529.5000    12.3122    12.4716   -47.5534     7.9580     0.0239     0.1425    63.3091     2.3961
  530.0000    12.3080    12.4668   -47.5623     7.9879     0.0232     0.1412    63.3133     2.4059
  530.5000    12.3895    12.5484   -47.5686     7.9878     0.0232     0.1444    63.4686     2.4089
  531.0000    12.3844    12.6307   -47.5762     7.9876     0.0239     0.1497    63.0230     2.4051
  531.5000    12.4674    12.7135   -47.6485     7.9875     0.0239     0.1506    61.2281     2.4006
  532.0000    12.4622    12.7964   -47.8966     7.9873     0.0254     0.1482    59.1334     2.3992
  532.5000    12.5447    12.8796   -48.1701     7.9721     0.0231     0.1458    58.9877     2.3992
  533.0000    12.5405    12.9952   -48.2165     7.9569     0.0156     0.1416    59.2929     2.4060
  533.5000    12.6236    13.1413   -48.6827     7.9567     0.0164     0.1371    59.1461     2.4097
  534.0000    12.5311    13.1347   -48.8425     7.9566     0.0246     0.1305    58.1019     2.4135
  534.5000    12.4403    12.9376   -48.8499     7.9565     0.0268     0.1207    55.8584     2.4283
  535.0000    12.1801    12.5876   -49.0097     7.9639     0.0261     0.1047    55.5617     2.4564
  535.5000    11.9252    12.3233   -49.1695     7.9863     0.0200     0.1086    58.5655     2.4729
  536.0000    11.6758    12.0645   -49.1769     7.9861     0.0051     0.1197    61.1184     2.4459
  536.5000    11.4316    11.7294   -49.1845     7.9860     0.0111     0.1341    62.4731     2.4209
  537.0000    11.1924    11.4831   -49.1934     7.9868     0.0171     0.1395    62.1774     2.4083
  537.5000    11.0984    11.3202   -49.0465     8.0008     0.0148     0.1482    61.2821     2.4001
  538.0000    10.8779    11.0824   -48.9032     8.0006     0.0118     0.1458    61.4363     2.4008
  538.5000    10.7991    11.0770   -48.9106     8.0004     0.0118     0.1461    63.6904     2.4016
  539.0000    10.8106    11.0725   -48.9180     8.0023     0.0118     0.1461    65.0440     2.4024
  539.5000    10.8673    11.0681   -48.7729     8.0001     0.0125     0.1461    65.1982     2.4039
  540.0000    10.8635    11.0636   -48.7805     7.9849     0.0133     0.1395    64.9025     2.4182
  540.5000    10.8597    11.1363   -48.7881     7.9697     0.0133     0.1290    64.7569     2.4295
  541.0000    10.9371    11.1317   -48.7968     7.9696     0.0140     0.1281    64.5367     2.4310
  541.5000    11.0038    11.1271   -48.8034     7.9694     0.0132     0.1323    64.3155     2.4280
  542.0000    10.9994    11.1217   -48.8115     7.9844     0.0132     0.1383    64.4708     2.4235
  542.5000    11.0727    11.1172   -48.8189     7.9842     0.0132     0.1377    64.6260     2.4182
  543.0000    11.0686    11.1913   -48.6738     7.9840     0.0132     0.1389    64.7801     2.4100
  543.5000    11.0649    11.2635   -48.6814     7.9839     0.0132     0.1521    64.9340     2.3995
  544.0000    11.1382    11.3374   -48.6890     7.9837     0.0140     0.1518    65.0510     2.3965
  544.5000    11.1343    11.3328   -48.6977     7.9986     0.0132     0.1482    65.2429     2.3980
  545.0000    11.2081    11.3272   -48.7051     8.0135     0.0064     0.1455    65.3978     2.3996
  545.5000    11.2824    11.3234   -48.7119     8.0134     0.0139     0.1527    65.5520     2.3988
  546.0000    11.1997    11.3187   -48.5671     8.0132     0.0184     0.1528    65.5562     2.3966
