~VERSION INFORMATION
 VERS.                2.0:   CWLS LOG ASCII STANDARD - VERSION 2.0
 WRAP.                 NO:   ONE LINE PER DEPTH STEP
~WELL INFORMATION
#MNEM.UNIT      DATA TYPE    INFORMATION
#----------   ------------   ------------------------------
 STRT.F         1500.0000:   START DEPTH
 STOP.F         3480.0000:   STOP DEPTH
 STEP.F            0.5000:   STEP LENGTH
 NULL.          -999.2500:   NO VALUE
 COMP. FLUOR DANIEL (NOPSR). INC.:   COMPANY
 WELL.   22-STX-26 #22-26:   WELL
 FLD .             NPR #3:   FIELD
 LOC .      S26 T38N R78W:   LOCATION
 CNTY.            NATRONA:   COUNTY
 STAT.            WYOMING:   STATE
 CTRY. UNITED STATES OF AMERICA:   COUNTRY
 SRVC.            Unknown:   SERVICE COMPANY
 DATE.        14-JUN-1995:   LOGDATE
 API .       490252272400:   API NUMBER
~CURVE INFORMATION
#MNEM.UNIT       API CODE    CURVE DESCRIPTION
#----------   ------------   ------------------------------
 DEPT.F                  :   
 ROP .MIN/FT 91 810 01 00:   RATE OF DRILLING PENETRATION
 TGAS.UNITS  91 830 01 00:   TOTAL GAS FROM HOTWIRE
~PARAMETER INFORMATION
#MNEM.UNIT          VALUE    DESCRIPTION
#----------   ------------   ------------------------------
 EKB .F              5348:   KELLING BUSHING
 EGL .F              5338:   GROUND LEVEL
 DATE.            6-14-95:   RUN DATE
 DD  .F              3480:   DEPTH DRILLER
 BLI .F              3480:   BOTTOM LOG INTERVAL
 TLI .F              1500:   TOP LOG INTERVAL
 CS  .IN            9.625:   CASING SIZE
 CBD .F                87:   CASING BOTTOM DRILLER
 ENGI.               HUSK:   RECORDING ENGINEER
 WITN.              TOWER:   WITNESSED BY
 CLNT.            A2DTECH:   CLIENT CODE
 ORIG.           5" PRINT:   ORIGIN OF DATA
 UWI .       490252272400:   UNIQUE WELL ID
 DICO. A2D Technologies, Inc.:   DIGITIZING COMPANY
~OTHER INFORMATION
~A  DEPT         ROP       TGAS 
# ...
 2958.0000     0.7442    10.1886
 2958.5000     0.7442    10.1844
 2959.0000     0.7442    10.1803
 2959.5000     0.7442    10.1761
 2960.0000     0.6289    10.1719
 2960.5000     0.6289    10.1678
 2961.0000     0.6289    10.1636
 2961.5000     0.6289    10.1594
 2962.0000     0.6289    10.1553
 2962.5000     0.6289    10.1511
 2963.0000     0.6289    10.1469
 2963.5000     0.6289    10.1428
 2964.0000     0.8071    10.1386
 2964.5000     0.8281    10.1344
 2965.0000     0.8281    10.1303
 2965.5000     0.8281    10.1261
 2966.0000     0.6289    10.1219
 2966.5000     0.6289    10.1178
 2967.0000     0.6289    10.1136
 2967.5000     0.6289    10.1094
 2968.0000     0.6289    10.1053
 2968.5000     0.6289    10.1011
 2969.0000     0.6289    10.0970
 2969.5000     0.6289    10.0928
 2970.0000     0.6289    10.0886
 2970.5000     0.6289    10.0845
 2971.0000     0.6289    10.0803
 2971.5000     0.6289    10.0761
 2972.0000     0.6289    10.0720
 2972.5000     0.6289    10.0678
 2973.0000     0.6289    10.0636
 2973.5000     0.6289    10.0595
 2974.0000     0.6289    10.0553
 2974.5000     0.6289    10.0511
 2975.0000     0.6289    10.0470
 2975.5000     0.6289    10.0428
 2976.0000     0.6289    10.0386
 2976.5000     0.6289    10.0345
 2977.0000     0.6289    10.0303
 2977.5000     0.6289    10.0261
 2978.0000     0.6289    10.0220
 2978.5000     0.6289    10.0178
 2979.0000     0.6289    10.0137
 2979.5000     0.6289    10.0095
 2980.0000     0.6289    10.0053
 2980.5000     0.6290    10.0012
 2981.0000     0.6293     9.9970
 2981.5000     0.6295     9.9928
 2982.0000     0.6297     9.9887
 2982.5000     0.6299     9.9845
 2983.0000     0.6302     9.9803
 2983.5000     0.6304     9.9762
 2984.0000     0.6306     9.9720
 2984.5000     0.6308     9.9678
 2985.0000     0.6311     9.9637
 2985.5000     0.6313     9.9595
 2986.0000     0.6315     9.9553
 2986.5000     0.6317     9.9512
 2987.0000     0.6320     9.9470
 2987.5000     0.6322     9.9428
 2988.0000     0.6324     9.9387
 2988.5000     0.6326     9.9345
 2989.0000     0.6328     9.9303
 2989.5000     0.6331     9.9262
 2990.0000     0.6333     9.9220
 2990.5000     0.6335     9.9179
 2991.0000     0.6337     9.9137
 2991.5000     0.6340     9.9095
 2992.0000     0.6342     9.9054
 2992.5000     0.6344     9.9012
 2993.0000     0.6346     9.8970
 2993.5000     0.6349     9.8929
 2994.0000     0.6351     9.8887
 2994.5000     0.6353     9.8845
 2995.0000     0.6355     9.8804
 2995.5000     0.6358     9.8762
 2996.0000     0.6360     9.8720
 2996.5000     0.6362     9.8679
 2997.0000     0.6364     9.8637
 2997.5000     0.6367     9.8595
 2998.0000     0.6369     9.8554
 2998.5000     0.6371     9.8512
 2999.0000     0.6373     9.8470
 2999.5000     0.6376     9.8429
 3000.0000     0.6378     9.8380
 3000.5000     0.6380     9.8372
 3001.0000     0.6382     9.8361
 3001.5000     0.6384     9.8351
 3002.0000     0.6387     9.8340
 3002.5000     0.6389     9.8330
 3003.0000     0.6391     9.8320
 3003.5000     0.6393     9.8309
 3004.0000     0.7754     9.8299
 3004.5000     0.7750     9.8288
 3005.0000     0.7745     9.8278
 3005.5000     0.7741     9.8267
 3006.0000     0.7737     9.8257
 3006.5000     0.7732     9.8247
 3007.0000     0.7728     9.8236
 3007.5000     0.7724     9.8226
 3008.0000     0.7719     9.8215
 3008.5000     0.7715     9.8205
 3009.0000     0.7711     9.8194
 3009.5000     0.7706     9.8184
 3010.0000     0.7702     9.8174
 3010.5000     0.7698     9.8163
 3011.0000     0.7693     9.8153
 3011.5000     0.7689     9.8142
 3012.0000     0.7685     9.8132
 3012.5000     0.7681     9.8121
 3013.0000     0.7676     9.8111
 3013.5000     0.7672     9.8101
 3014.0000     0.7668     9.8090
 3014.5000     0.7663     9.8080
 3015.0000     0.7659     9.8069
 3015.5000     0.7655     9.8059
 3016.0000     0.6614     9.8048
 3016.5000     0.6607     9.8038
 3017.0000     0.6601     9.8028
 3017.5000     0.6594     9.8017
 3018.0000     0.6587     9.8007
 3018.5000     0.6580     9.7996
 3019.0000     0.6574     9.7986
 3019.5000     0.6567     9.7975
 3020.0000     0.6560     9.7965
 3020.5000     0.6554     9.7954
 3021.0000     0.6547     9.7944
 3021.5000     0.6540     9.7934
 3022.0000     0.6534     9.7923
 3022.5000     0.6527     9.7913
 3023.0000     0.6520     9.7902
 3023.5000     0.6513     9.7892
 3024.0000     0.6507     9.7881
 3024.5000     0.6500     9.7871
 3025.0000     0.6493     9.7861
 3025.5000     0.6487     9.7850
 3026.0000     0.5537     9.7840
 3026.5000     0.5541     9.7829
 3027.0000     0.5439     9.7819
 3027.5000     0.5443     9.7808
 3028.0000     0.5447     9.7798
 3028.5000     0.5451     9.7788
 3029.0000     0.5454     9.7777
 3029.5000     0.5458     9.7767
 3030.0000     0.5462     9.7756
 3030.5000     0.5466     9.7746
 3031.0000     0.5469     9.7735
 3031.5000     0.5472     9.7725
 3032.0000     0.5477     9.7715
 3032.5000     0.5480     9.7704
 3033.0000     0.5484     9.7694
 3033.5000     0.5488     9.7683
 3034.0000     0.5491     9.7673
 3034.5000     0.5495     9.7662
 3035.0000     0.5498     9.7652
 3035.5000     0.5502     9.7642
 3036.0000     0.5506     9.7631
 3036.5000     0.5509     9.7621
 3037.0000     0.5513     9.7610
 3037.5000     0.5517     9.7600
 3038.0000     0.5520     9.7589
 3038.5000     0.5524     9.7579
 3039.0000     0.5528     9.7569
 3039.5000     0.5531     9.7558
 3040.0000     0.5535     9.7548
 3040.5000     0.5539     9.7537
 3041.0000     0.5542     9.7527
 3041.5000     0.5546     9.7516
 3042.0000     0.5550     9.7506
 3042.5000     0.5553     9.7496
 3043.0000     0.5557     9.7485
 3043.5000     0.5561     9.7475
 3044.0000     0.5565     9.7464
 3044.5000     0.5568     9.7454
 3045.0000     0.5572     9.7443
 3045.5000     0.5576     9.7433
 3046.0000     0.6941     9.7423
 3046.5000     0.6924     9.7412
 3047.0000     0.6906     9.7402
 3047.5000     0.6889     9.7391
 3048.0000     0.6871     9.7381
 3048.5000     0.6854     9.7370
 3049.0000     0.6836     9.7360
 3049.5000     0.6819     9.7350
 3050.0000     0.6801     9.7339
 3050.5000     0.6784     9.7329
 3051.0000     0.6766     9.7318
 3051.5000     0.6749     9.7308
 3052.0000     0.6731     9.7297
 3052.5000     0.6714     9.7287
 3053.0000     0.6696     9.7276
 3053.5000     0.6679     9.7266
 3054.0000     0.6661     9.7256
 3054.5000     0.6644     9.7245
 3055.0000     0.6626     9.7235
 3055.5000     0.6609     9.7224
 3056.0000     0.5337     9.7214
 3056.5000     0.5342     9.7203
 3057.0000     0.5345     9.7193
 3057.5000     0.5349     9.7183
 3058.0000     0.5353     9.7172
 3058.5000     0.5356     9.7162
 3059.0000     0.5360     9.7151
 3059.5000     0.5364     9.7141
 3060.0000     0.5367     9.7130
 3060.5000     0.5371     9.7120
 3061.0000     0.5375     9.7110
 3061.5000     0.5378     9.7099
 3062.0000     0.5382     9.7089
 3062.5000     0.5386     9.7078
 3063.0000     0.5390     9.7068
 3063.5000     0.5393     9.7057
 3064.0000     0.5396     9.7047
 3064.5000     0.6344     9.7037
 3065.0000     0.6348     9.7026
 3065.5000     0.6351     9.7016
 3066.0000     0.6355     9.7005
 3066.5000     0.6358     9.6995
 3067.0000     0.6362     9.6984
 3067.5000     0.6366     9.6974
 3068.0000     0.6369     9.6964
 3068.5000     0.6373     9.6953
 3069.0000     0.6377     9.6943
 3069.5000     0.6380     9.6932
 3070.0000     0.6384     9.6922
 3070.5000     0.6388     9.6911
 3071.0000     0.6392     9.6901
 3071.5000     0.6395     9.6891
 3072.0000     0.7866     9.6880
 3072.5000     0.7870     9.6870
 3073.0000     0.7874     9.6859
 3073.5000     0.7877     9.6849
 3074.0000     0.7881     9.6838
 3074.5000     0.7885     9.6828
 3075.0000     0.7888     9.6818
 3075.5000     0.7892     9.6807
 3076.0000     0.9782     9.6797
 3076.5000     0.9786     9.6786
 3077.0000     0.9790     9.6776
 3077.5000     0.9793     9.6765
 3078.0000     0.7701     9.6755
 3078.5000     0.7809     9.6745
 3079.0000     0.7918     9.6734
