~VERSION INFORMATION
 VERS.                2.0:   CWLS LOG ASCII STANDARD - VERSION 2.0
 WRAP.                 NO:   ONE LINE PER DEPTH STEP
~WELL INFORMATION
#MNEM.UNIT      DATA TYPE    INFORMATION
#----------   ------------   ------------------------------
 STRT.F           26.0000:   START DEPTH
 STOP.F          535.5000:   STOP DEPTH
 STEP.F            0.5000:   STEP LENGTH
 NULL.          -999.2500:   NO VALUE
 COMP. BROWN JOHN E&C INC:   COMPANY
 WELL.       NPR 86 #11-3:   WELL
 FLD .             TEAPOT:   FIELD
 LOC .       S3 T38N R78W:   LOCATION
 CNTY.            NATRONA:   COUNTY
 STAT.            WYOMING:   STATE
 CTRY. UNITED STATES OF AMERICA:   COUNTRY
 SRVC.       Schlumberger:   SERVICE COMPANY
 DATE.        21-SEP-1990:   LOGDATE
 API .       490251130800:   API NUMBER
~CURVE INFORMATION
#MNEM.UNIT       API CODE    CURVE DESCRIPTION
#----------   ------------   ------------------------------
 DEPT.F                  :   
 ILD .OHMM   07 120 46 00:   INDUCTION LOG DEEP
 ILM .OHMM   07 120 44 00:   INDUCTION LOG MEDIUM
 GRD .GAPI   45 310 01 00:   GAMMA RAY FROM DENSITY LOG
 CALD.IN     45 280 60 00:   CALIPER
 DRHO.G/C3   45 356 01 00:   DENSITY CORRECTION
 DPHI.DEC    45 890 00 00:   DENSITY POROSITY
 RHOB.G/C3   45 350 01 00:   BULK DENSITY
~PARAMETER INFORMATION
#MNEM.UNIT          VALUE    DESCRIPTION
#----------   ------------   ------------------------------
 PD  .                 GL:   PERMANENT DATUM
 EPD .F              5144:   ELEVATION PERMANENT DATUM
 LMF .                 KB:   LOG MEASURED FROM
 DAPD.F                10:   FEET ABOVE PERMANENT DATUM
 DMF .                 KB:   DRILLING MEASURED FROM
 EKB .F              5154:   KELLING BUSHING
 EDF .F              5153:   DRILLING FLOOR
 EGL .F              5144:   GROUND LEVEL
 DATE.            9-21-90:   RUN DATE
 RUN .                  1:   RUN NUMBER
 DD  .F               540:   DEPTH DRILLER
 DL  .F               539:   DEPTH LOGGER
 BLI .F               533:   BOTTOM LOG INTERVAL
 TLI .F                49:   TOP LOG INTERVAL
 CS  .IN            8.625:   CASING SIZE
 CBD .F                50:   CASING BOTTOM DRILLER
 CBL .F                48:   CASING BOTTOM LOGGER
 BS  .IN            7.875:   BIT SIZE
 BSD .F               540:   BIT SIZE AT DEPTH
 DFT .                AIR:   DRILLING FLUID TYPE
 TCS .HRS            0315:   TIME CURCULATED STOPPED
 TLAB.HRS            0409:   TIME LOGGER AT BOTTOM
 LUN .               5882:   LOGGING UNIT NUMBER
 LUL .               CODY:   LOGGING UNIT LOCATION
 ENGI.          M. FISHER:   RECORDING ENGINEER
 WITN.          G. STRONG:   WITNESSED BY
 CLNT.            A2DTECH:   CLIENT CODE
 ORIG.   2" 2.5" 5" PRINT:   ORIGIN OF DATA
 UWI .       490251130800:   UNIQUE WELL ID
 DICO. A2D Technologies, Inc.:   DIGITIZING COMPANY
~OTHER INFORMATION
~A   DEPT      ILD        ILM         GRD      CALD       DRHO       DPHI       RHOB   
# ...
  117.0000     9.2287     9.4991   130.1904     7.9017    -0.0037     0.1064     2.4755
  117.5000     9.2760     9.5380   134.1496     7.9000    -0.0050     0.1057     2.4763
  118.0000     9.2487     9.4732   136.2357     7.8983    -0.0060     0.1043     2.4781
  118.5000     9.2175     9.4007   136.8116     7.8967    -0.0060     0.1030     2.4799
  119.0000     9.1905     9.3286   136.1024     7.8950    -0.0060     0.1040     2.4792
  119.5000     9.1905     9.2570   135.4390     7.8933    -0.0055     0.1052     2.4771
  120.0000     9.1554     9.1860   134.7783     7.8917    -0.0031     0.1058     2.4755
  120.5000     9.0937     9.1155   134.3239     7.8900    -0.0007     0.1048     2.4769
  121.0000     9.0325     9.0456   134.3424     7.8883     0.0000     0.1010     2.4834
  121.5000     9.0078     8.9762   133.1483     7.8866    -0.0001     0.0973     2.4896
  122.0000     8.9854     8.9388   130.1590     7.8862    -0.0019     0.0938     2.4958
  122.5000     8.9630     8.9388   127.0007     7.8862    -0.0038     0.0946     2.4952
  123.0000     8.9388     8.9388   124.7056     7.8862    -0.0038     0.0954     2.4935
  123.5000     9.0251     8.9389   126.1524     7.8862    -0.0035     0.0954     2.4935
  124.0000     9.1059     8.9390   130.4170     7.8862    -0.0032     0.0954     2.4929
  124.5000     9.1059     8.9387   136.0450     7.8862    -0.0028     0.0971     2.4911
  125.0000     9.0747     8.8903   139.4986     7.8862    -0.0025     0.0987     2.4882
  125.5000     8.9956     8.8287   141.1158     7.8862    -0.0022     0.1002     2.4852
  126.0000     8.9171     8.7675   139.9061     7.8862    -0.0020     0.1014     2.4845
  126.5000     8.8393     8.7067   138.5674     7.8862    -0.0019     0.1003     2.4859
  127.0000     8.7622     8.6463   137.2262     7.8862    -0.0010     0.0986     2.4876
  127.5000     8.6940     8.5864   135.8840     7.8862     0.0000     0.1016     2.4832
  128.0000     8.7489     8.5345   135.0579     7.8862    -0.0024     0.1074     2.4748
  128.5000     8.7987     8.5485   137.5898     7.8862    -0.0058     0.1110     2.4674
  129.0000     8.8487     8.5635   140.5215     7.8862    -0.0070     0.1118     2.4674
  129.5000     8.8991     8.5786   142.8558     7.8862    -0.0070     0.1088     2.4720
  130.0000     8.9388     8.5937   139.4053     7.8862    -0.0054     0.1021     2.4843
  130.5000     8.9087     8.6087   135.5197     7.8862    -0.0026     0.0933     2.4990
  131.0000     8.8839     8.6412   131.6830     7.8862     0.0003     0.0825     2.5141
  131.5000     8.8565     8.7015   128.6837     7.8862     0.0034     0.0768     2.5230
  132.0000     8.9198     8.7622   128.3116     7.8862     0.0025     0.0765     2.5215
  132.5000     9.0120     8.8234   129.7410     7.8862    -0.0003     0.0829     2.5128
  133.0000     9.1051     8.8850   131.7232     7.8862    -0.0030     0.0898     2.4996
  133.5000     9.1993     8.9470   133.7297     7.8862    -0.0059     0.0967     2.4892
  134.0000     9.2918     9.0255   133.9757     7.8862    -0.0081     0.1038     2.4794
  134.5000     9.3746     9.0173   131.3893     7.8862    -0.0090     0.1034     2.4806
  135.0000     9.4581     9.2917   129.0573     7.8862    -0.0089     0.0991     2.4867
  135.5000     9.5424     9.4967   127.9255     7.8862    -0.0100     0.0948     2.4934
  136.0000     9.6274     9.8009   129.6426     7.8863    -0.0080     0.0930     2.4983
  136.5000     9.7131     9.8970   131.9469     7.8848    -0.0060     0.0920     2.4985
  137.0000     9.8058     9.5255   133.9792     7.8829    -0.0040     0.0875     2.5056
  137.5000     9.7018     9.4328   133.3731     7.8809    -0.0020     0.0787     2.5214
  138.0000     9.5912     9.3409   131.6651     7.8790    -0.0001     0.0695     2.5357
  138.5000     9.4818     9.2499   129.9943     7.8771    -0.0019     0.0793     2.5234
  139.0000     9.3737     9.1599   131.0678     7.8752    -0.0030     0.0915     2.5049
  139.5000     9.2668     9.0707   134.4329     7.8732    -0.0051     0.0987     2.4882
  140.0000     9.1620     8.9626   137.6126     7.8713    -0.0072     0.0999     2.4854
  140.5000     9.0480     8.8320   136.4496     7.8694    -0.0077     0.0981     2.4885
  141.0000     8.9266     8.7032   134.6134     7.8674    -0.0072     0.0964     2.4922
  141.5000     8.7749     8.5764   133.0982     7.8655    -0.0061     0.0958     2.4932
  142.0000     8.8257     8.4514   133.1335     7.8636    -0.0040     0.0993     2.4870
  142.5000     8.8565     8.3283   133.1097     7.8616    -0.0020     0.1026     2.4805
  143.0000     8.3780     8.1498   132.3995     7.8597     0.0000     0.1042     2.4776
  143.5000     8.3766     8.0393   131.6612     7.8578     0.0020     0.1037     2.4791
  144.0000     8.3776     7.9984   131.3819     7.8559     0.0020     0.1034     2.4807
  144.5000     8.3772     7.9976   131.2446     7.8539     0.0010     0.1019     2.4828
  145.0000     8.3785     8.1298   128.2060     7.8520     0.0010     0.1004     2.4855
  145.5000     8.4976     8.2555   124.6995     7.8500    -0.0001     0.0990     2.4882
  146.0000     8.5927     8.3831   122.6813     7.8481    -0.0031     0.0993     2.4861
  146.5000     8.6940     8.5127   124.9819     7.8464    -0.0070     0.1017     2.4825
  147.0000     8.7514     8.6443   127.5471     7.8478    -0.0080     0.1030     2.4805
  147.5000     8.8555     8.7780   129.6823     7.8492    -0.0076     0.1014     2.4840
  148.0000     8.9607     8.9136   131.2135     7.8507    -0.0073     0.0979     2.4890
  148.5000     9.0223     8.9552   129.8074     7.8521    -0.0070     0.0945     2.4940
  149.0000     9.1365     8.9818   127.0582     7.8535    -0.0070     0.0934     2.4934
  149.5000     9.2493     9.0084   124.2513     7.8549    -0.0071     0.0978     2.4890
  150.0000     9.3634     9.1059   123.6425     7.8564    -0.0089     0.1022     2.4846
  150.5000     9.4785     9.2795   123.5290     7.8578    -0.0090     0.1026     2.4812
  151.0000     9.6253     9.4494   123.5616     7.8592    -0.0090     0.1026     2.4804
  151.5000     9.5749     9.3936   124.5347     7.8607    -0.0091     0.1040     2.4783
  152.0000     9.5073     9.2920   128.6660     7.8621    -0.0099     0.1058     2.4762
  152.5000     9.4395     9.1905   132.4679     7.8635    -0.0089     0.1058     2.4744
  153.0000     9.3723     9.1620   135.8525     7.8648    -0.0075     0.1073     2.4732
  153.5000     9.3056     9.1333   138.3858     7.8670    -0.0062     0.1086     2.4720
  154.0000     9.2393     9.1046   140.1216     7.8825    -0.0049     0.1086     2.4730
  154.5000     9.1844     9.0761   141.7543     7.8980    -0.0036     0.1045     2.4791
  155.0000     9.1603     9.0476   140.6402     7.9132    -0.0023     0.1010     2.4846
  155.5000     9.1364     9.0192   136.7975     7.9285    -0.0010     0.1010     2.4818
  156.0000     9.1125     8.9910   132.6744     7.9439     0.0000     0.1032     2.4785
  156.5000     9.0887     8.9628   128.5528     7.9592     0.0000     0.1053     2.4755
  157.0000     9.0649     8.9388   128.8195     7.9744    -0.0005     0.1074     2.4724
  157.5000     9.0412     9.0247   130.8156     7.9839    -0.0016     0.1094     2.4695
  158.0000     9.0220     9.1000   132.1882     7.9718    -0.0027     0.1098     2.4687
  158.5000     9.1732     9.1760   130.8958     7.9603    -0.0038     0.1087     2.4726
  159.0000     9.4327     9.1905   129.4995     7.9488    -0.0050     0.1041     2.4779
  159.5000     9.6999     9.6087   128.6745     7.9372    -0.0059     0.0986     2.4877
  160.0000     9.9748     9.8970   126.2126     7.9269    -0.0036     0.0931     2.4973
  160.5000    10.2571    10.0630   123.6913     7.9397    -0.0013     0.0890     2.5028
  161.0000    10.4941    10.2222   122.7440     7.9532    -0.0010     0.0948     2.4940
  161.5000    10.6046    10.3841   123.7275     7.9667    -0.0007     0.1030     2.4840
  162.0000    10.7676    10.5621   124.9715     7.9802    -0.0002     0.1067     2.4739
