~VERSION INFORMATION
 VERS.                2.0:   CWLS LOG ASCII STANDARD - VERSION 2.0
 WRAP.                 NO:   ONE LINE PER DEPTH STEP
~WELL INFORMATION
#MNEM.UNIT      DATA TYPE    INFORMATION
#----------   ------------   ------------------------------
 STRT.F            8.0000:   START DEPTH
 STOP.F         2320.0000:   STOP DEPTH
 STEP.F            0.5000:   STEP LENGTH
 NULL.          -999.2500:   NO VALUE
 COMP.    FENIX & SCISSON:   COMPANY
 WELL. N.P.R #3 #77-SHX-10:   WELL
 FLD .             TEAPOT:   FIELD
 LOC .      S10 T38N R78W:   LOCATION
 CNTY.            NATRONA:   COUNTY
 STAT.            WYOMING:   STATE
 CTRY. UNITED STATES OF AMERICA:   COUNTRY
 SRVC.              Welex:   SERVICE COMPANY
 DATE.        05-JUN-1980:   LOGDATE
 API .       490251064900:   API NUMBER
~CURVE INFORMATION
#MNEM.UNIT       API CODE    CURVE DESCRIPTION
#----------   ------------   ------------------------------
 DEPT.F                  :   
 GRD .GAPI   45 310 01 00:   GAMMA RAY FROM DENSITY LOG
 CALD.IN     45 280 60 00:   CALIPER FROM DENSITY LOG
 RHOB.G/C3   45 350 01 00:   BULK DENSITY
 DPHI.DEC    45 890 12 00:   DENSITY POROSITY SANDSTONE
 ILD .OHMM   05 120 46 00:   INDUCTION LOG DEEP
 CORR.G/C3   45 356 01 00:   DENSITY CORRECTION
~PARAMETER INFORMATION
#MNEM.UNIT          VALUE    DESCRIPTION
#----------   ------------   ------------------------------
 PD  .                 GL:   PERMANENT DATUM
 EPD .F              5210:   ELEVATION PERMANENT DATUM
 LMF .                 KB:   LOG MEASURED FROM
 DAPD.F                10:   FEET ABOVE PERMANENT DATUM
 DMF .                 KB:   DRILLING MEASURED FROM
 EKB .F              5220:   KELLING BUSHING
 EGL .F              5210:   GROUND LEVEL
 DATE.        05-JUN-1980:   RUN DATE
 RUN .                  1:   RUN NUMBER
 DD  .F              2358:   DEPTH DRILLER
 DL  .F              2322:   DEPTH LOGGER
 BLI .F              2320:   BOTTOM LOG INTERVAL
 TLI .F               900:   TOP LOG INTERVAL
 CS  .IN                7:   CASING SIZE
 BS  .IN             6.25:   BIT SIZE
 BSD .F              2358:   BIT SIZE AT DEPTH
 DFT .        AIR DRILLED:   DRILLING FLUID TYPE
 MRT .F               107:   MAXIMUM RECORDED TEMPERATURE
 ENGI.               REIN:   RECORDING ENGINEER
 WITN.              AMEND:   WITNESSED BY
 CLNT.            A2DTECH:   CLIENT CODE
 ORIG.           5" PRINT:   ORIGIN OF DATA
 UWI .       490251064900:   UNIQUE WELL ID
 DICO. A2D Technologies, Inc.:   DIGITIZING COMPANY
~OTHER INFORMATION
~A    DEPT      GRD      CALD       RHOB       DPHI        ILD       CORR   
# ...
  996.0000    96.0308     7.4995     2.3892     0.1019  -999.2500     0.1196
  996.5000    96.1729     7.5415     2.3562     0.1155  -999.2500     0.1195
  997.0000    96.0147     7.5259     2.3480     0.1257  -999.2500     0.1212
  997.5000    95.5498     7.4955     2.3802     0.1272  -999.2500     0.1346
  998.0000    94.9539     7.4352     2.4161     0.1065  -999.2500     0.1738
  998.5000    94.6483     7.4048     2.4244     0.0878  -999.2500     0.2010
  999.0000    95.2381     7.3444     2.4258     0.0837  -999.2500     0.1964
  999.5000    95.9773     7.2393     2.4345     0.0769  -999.2500     0.1882
 1000.0000    96.4179     7.1641     2.4235     0.0814  -999.2500     0.1616
 1000.5000    96.4975     7.1486     2.4250     0.0821  -999.2500     0.1646
 1001.0000    96.3710     7.2194     2.4272     0.0787  -999.2500     0.1872
 1001.5000    96.2445     7.3379     2.4047     0.0953  -999.2500     0.1766
 1002.0000    96.1179     7.4565     2.4002     0.0986  -999.2500     0.1643
 1002.5000    95.9914     7.5479     2.4429     0.0673  -999.2500     0.1856
 1003.0000    95.9522     7.6193     2.4669     0.0526  -999.2500     0.1992
 1003.5000    95.9492     7.6188     2.4744     0.0459  -999.2500     0.2007
 1004.0000    95.9457     7.6035     2.4796     0.0614  -999.2500     0.1659
 1004.5000    95.9429     7.5733     2.4456     0.0659  -999.2500     0.1368
 1005.0000    95.7907     7.5134     2.4503     0.0680  -999.2500     0.1236
 1005.5000    95.3408     7.4832     2.4533     0.0608  -999.2500     0.1371
 1006.0000    96.5313     7.4530     2.4473     0.0641  -999.2500     0.1401
 1006.5000    96.5284     7.4525     2.4262     0.0743  -999.2500     0.1280
 1007.0000    96.3761     7.4967     2.4202     0.0810  -999.2500     0.1187
 1007.5000    96.2239     7.5260     2.4142     0.0831  -999.2500     0.1113
 1008.0000    96.3698     7.5703     2.4112     0.0894  -999.2500     0.1037
 1008.5000    96.5164     7.6144     2.4179     0.0888  -999.2500     0.1188
 1009.0000    96.8731     7.6289     2.4111     0.0870  -999.2500     0.1233
 1009.5000    97.1075     7.6283     2.4010     0.0990  -999.2500     0.1184
 1010.0000    97.1045     7.6279     2.4111     0.1008  -999.2500     0.1157
 1010.5000    97.1010     7.6275     2.4148     0.0918  -999.2500     0.1217
 1011.0000    97.0981     7.5824     2.4103     0.0889  -999.2500     0.1126
 1011.5000    97.0955     7.5076     2.4073     0.0907  -999.2500     0.1050
 1012.0000    97.0924     7.4178     2.4282     0.0793  -999.2500     0.1171
 1012.5000    97.0896     7.3876     2.4395     0.0709  -999.2500     0.1307
 1013.0000    97.0866     7.4764     2.4080     0.0787  -999.2500     0.0883
 1013.5000    97.0836     7.5653     2.3787     0.1026  -999.2500     0.0717
 1014.0000    97.0802     7.6245     2.3719     0.1148  -999.2500     0.0611
 1014.5000    96.7788     7.6686     2.3622     0.1205  -999.2500     0.0490
 1015.0000    95.8804     7.6681     2.3479     0.1271  -999.2500     0.0399
 1015.5000    95.2805     7.6677     2.3539     0.1256  -999.2500     0.0461
 1016.0000    95.5761     7.6822     2.3696     0.1142  -999.2500     0.0564
 1016.5000    95.5725     7.6817     2.3794     0.1108  -999.2500     0.0640
 1017.0000    95.5697     7.6812     2.3740     0.1133  -999.2500     0.0700
 1017.5000    95.5668     7.6808     2.3808     0.1046  -999.2500     0.0745
 1018.0000    95.7132     7.6803     2.3777     0.1145  -999.2500     0.0790
 1018.5000    95.9786     7.6799     2.3775     0.1113  -999.2500     0.0866
 1019.0000    96.4537     7.6795     2.3837     0.1041  -999.2500     0.1031
 1019.5000    97.0478     7.6789     2.4047     0.0885  -999.2500     0.1242
 1020.0000    96.4472     7.6785     2.4241     0.0810  -999.2500     0.1106
 1020.5000    95.5488     7.6781     2.4271     0.0876  -999.2500     0.1136
 1021.0000    94.6505     7.6776     2.4353     0.0759  -999.2500     0.1211
 1021.5000    94.3498     7.6623     2.4406     0.0774  -999.2500     0.1180
 1022.0000    95.2418     7.6321     2.4158     0.0831  -999.2500     0.1014
 1022.5000    95.8359     7.6168     2.4300     0.0798  -999.2500     0.1119
 1023.0000    96.1308     7.6163     2.4450     0.0707  -999.2500     0.1255
 1023.5000    96.1279     7.6159     2.4502     0.0642  -999.2500     0.1300
 1024.0000    96.2743     7.6154     2.4509     0.0711  -999.2500     0.1300
 1024.5000    96.3053     7.6150     2.4472     0.0694  -999.2500     0.1239
 1025.0000    96.4183     7.6443     2.4427     0.0727  -999.2500     0.1191
 1025.5000    96.5139     7.6737     2.4344     0.0802  -999.2500     0.1102
 1026.0000    96.7104     7.7179     2.4239     0.0856  -999.2500     0.1011
 1026.5000    96.8794     7.7323     2.4163     0.0857  -999.2500     0.0996
 1027.0000    97.0033     7.6871     2.4103     0.0937  -999.2500     0.0981
 1027.5000    97.1490     7.6123     2.4043     0.0923  -999.2500     0.0995
 1028.0000    97.2955     7.5821     2.4133     0.0911  -999.2500     0.0976
 1028.5000    97.4418     7.5519     2.4035     0.0968  -999.2500     0.0874
 1029.0000    97.5881     7.5515     2.3945     0.1007  -999.2500     0.0798
 1029.5000    97.4353     7.6105     2.3937     0.1001  -999.2500     0.0692
 1030.0000    97.2831     7.6696     2.3825     0.1136  -999.2500     0.0662
 1030.5000    97.2803     7.6989     2.3944     0.1037  -999.2500     0.0858
 1031.0000    97.2774     7.7135     2.4019     0.0923  -999.2500     0.1039
 1031.5000    96.9760     7.7279     2.4089     0.0917  -999.2500     0.1099
 1032.0000    96.3761     7.7423     2.4281     0.0885  -999.2500     0.1204
 1032.5000    96.5218     7.7257     2.4566     0.0647  -999.2500     0.1355
 1033.0000    97.1159     7.6818     2.4693     0.0563  -999.2500     0.1581
 1033.5000    97.4123     7.6665     2.4678     0.0552  -999.2500     0.1672
 1034.0000    97.4087     7.6511     2.4490     0.0591  -999.2500     0.1655
 1034.5000    97.4060     7.6061     2.4580     0.0618  -999.2500     0.1535
 1035.0000    97.4030     7.5759     2.4557     0.0600  -999.2500     0.1414
 1035.5000    97.4000     7.5606     2.4459     0.0690  -999.2500     0.1157
 1036.0000    97.5458     7.5452     2.4339     0.0738  -999.2500     0.1232
 1036.5000    97.3936     7.5447     2.4774     0.0513  -999.2500     0.1353
 1037.0000    97.2415     7.5443     2.4901     0.0420  -999.2500     0.1399
 1037.5000    96.3431     7.5439     2.4983     0.0384  -999.2500     0.1276
 1038.0000    96.0417     7.5434     2.4661     0.0418  -999.2500     0.1080
 1038.5000    96.6454     7.5728     2.4428     0.0631  -999.2500     0.0943
 1039.0000    97.3785     7.6180     2.4203     0.0781  -999.2500     0.0837
 1039.5000    97.8234     7.6908     2.4038     0.0880  -999.2500     0.0716
 1040.0000    98.1198     7.7203     2.3955     0.0980  -999.2500     0.0700
 1040.5000    98.4154     7.7197     2.3872     0.0992  -999.2500     0.0655
 1041.0000    98.7104     7.7044     2.3947     0.1058  -999.2500     0.0504
 1041.5000    98.7063     7.7040     2.4172     0.0917  -999.2500     0.0972
 1042.0000    97.3134     7.6887     2.4726     0.0638  -999.2500     0.1243
 1042.5000    96.3129     7.6882     2.4876     0.0451  -999.2500     0.1440
 1043.0000    95.4145     7.6580     2.4906     0.0392  -999.2500     0.1409
 1043.5000    95.5609     7.6575     2.4621     0.0452  -999.2500     0.1258
 1044.0000    96.0058     7.6571     2.4403     0.0665  -999.2500     0.0985
 1044.5000    96.6000     7.6567     2.4178     0.0828  -999.2500     0.0743
 1045.0000    96.8956     7.6562     2.4125     0.0846  -999.2500     0.0683
 1045.5000    97.3595     7.6558     2.4245     0.0867  -999.2500     0.0743
 1046.0000    97.4869     7.6703     2.4507     0.0676  -999.2500     0.1015
 1046.5000    97.7818     7.6995     2.4454     0.0651  -999.2500     0.0924
 1047.0000    98.0781     7.6990     2.4327     0.0750  -999.2500     0.0742
 1047.5000    98.3731     7.7136     2.4162     0.0825  -999.2500     0.0696
