~VERSION INFORMATION
 VERS.                2.0:   CWLS LOG ASCII STANDARD - VERSION 2.0
 WRAP.                 NO:   ONE LINE PER DEPTH STEP
~WELL INFORMATION
#MNEM.UNIT      DATA TYPE    INFORMATION
#----------   ------------   ------------------------------
 STRT.F          103.0000:   START DEPTH
 STOP.F          898.0000:   STOP DEPTH
 STEP.F            0.5000:   STEP LENGTH
 NULL.          -999.2500:   NO VALUE
 COMP. LAWRENCE/ALLISON INC:   COMPANY
 WELL. NPR 3 32-66 SX #2-2:   WELL
 FLD .             TEAPOT:   FIELD
 LOC .       S2 T38N R78W:   LOCATION
 CNTY.            NATRONA:   COUNTY
 STAT.            WYOMING:   STATE
 CTRY. UNITED STATES OF AMERICA:   COUNTRY
 SRVC.      Dresser Atlas:   SERVICE COMPANY
 DATE.        30-JAN-1986:   LOGDATE
 API .       490251106900:   API NUMBER
~CURVE INFORMATION
#MNEM.UNIT       API CODE    CURVE DESCRIPTION
#----------   ------------   ------------------------------
 DEPT.F                  :   
 RILD.OHMM   07 120 46 00:   INDUCTION LOG DEEP RESISTIVITY
 RILM.OHMM   07 120 44 00:   INDUCTION LOG MEDIUM RESISTIVITY
 CALD.IN     45 280 60 00:   CALIPER FROM DENSITY
 GRD .GAPI   45 310 01 00:   GAMMA RAY FROM DENSITY LOG
 CORR.G/C3   45 356 01 00:   DENSITY CORRECTION
 PORD.DEC    45 890 10 00:   POROSITY DENSITY LIMESTONE
 DEN .G/C3   45 350 01 00:   COMPENSATED BULK DENSITY
~PARAMETER INFORMATION
#MNEM.UNIT          VALUE    DESCRIPTION
#----------   ------------   ------------------------------
 PD  .                 GL:   PERMANENT DATUM
 EPD .F              5136:   ELEVATION PERMANENT DATUM
 LMF .                 GL:   LOG MEASURED FROM
 DMF .                 GL:   DRILLING MEASURED FROM
 EGL .F              5136:   GROUND LEVEL
 DATE.        30-JAN-1986:   RUN DATE
 RUN .                  1:   RUN NUMBER
 DD  .F               885:   DEPTH DRILLER
 DL  .F               902:   DEPTH LOGGER
 BLI .F               894:   BOTTOM LOG INTERVAL
 CS  .IN            8.625:   CASING SIZE
 CBD .F               130:   CASING BOTTOM DRILLER
 CBL .F               126:   CASING BOTTOM LOGGER
 BS  .IN             6.25:   BIT SIZE
 BSD .F               885:   BIT SIZE AT DEPTH
 DFT .                AIR:   DRILLING FLUID TYPE
 LUN .            HL-6264:   LOGGING UNIT NUMBER
 LUL .           GILLETTE:   LOGGING UNIT LOCATION
 ENGI.     P. M. FAHLSING:   RECORDING ENGINEER
 WITN.        LINDA FIVAS:   WITNESSED BY
 CLNT.            A2DTECH:   CLIENT CODE
 ORIG.           5" PRINT:   ORIGIN OF DATA
 UWI .       490251106900:   UNIQUE WELL ID
 DICO. A2D Technologies, Inc.:   DIGITIZING COMPANY
 R1  . POROSITY WITH LIMESTONE:   REMARKS 1
~OTHER INFORMATION
~A   DEPT     RILD       RILM       CALD        GRD       CORR       PORD        DEN   
# ...
  831.0000     7.2999     7.6837     6.8675   123.4965     0.0973     0.1068     2.5013
  831.5000     6.7235     7.0190     6.8675   124.7037     0.0989     0.1092     2.5006
  832.0000     6.0600     6.2509     6.8675   126.9776     0.1019     0.1135     2.4968
  832.5000     5.0571     5.0569     6.8675   130.7940     0.1065     0.1153     2.4876
  833.0000     4.8318     4.2276     6.8675   137.6339     0.1080     0.1165     2.4738
  833.5000     4.7052     4.1444     6.8675   142.7449     0.1050     0.1207     2.4515
  834.0000     4.7749     4.2944     6.8675   148.1562     0.1005     0.1436     2.3842
  834.5000     5.4133     4.9368     6.8675   144.8308     0.0945     0.1774     2.3817
  835.0000     5.8064     5.5587     6.8524   133.4328     0.0946     0.1734     2.3968
  835.5000     6.0579     6.0459     6.8675   123.5494     0.0946     0.1588     2.4377
  836.0000     6.4084     6.4854     6.8524   126.9629     0.0946     0.1167     2.5042
  836.5000     7.1159     6.9567     6.8524   129.2684     0.0962     0.0954     2.5246
  837.0000     7.9564     7.6720     6.8675   129.5746     0.1007     0.0936     2.5238
  837.5000     8.5341     8.2868     6.8675   129.8809     0.1053     0.0936     2.5238
  838.0000     8.8423     8.7669     6.8675   131.3883     0.1068     0.0942     2.5223
  838.5000     8.9112     8.8957     6.8675   132.2951     0.1069     0.0948     2.5193
  839.0000     8.9173     8.9037     6.8675   133.2020     0.1022     0.0967     2.5147
  839.5000     8.9867     8.9117     6.8675   134.1088     0.0914     0.1008     2.5071
  840.0000     9.0567     8.9817     6.8675   132.0126     0.0783     0.1033     2.4927
  840.5000     9.1272     9.0524     6.8675   129.0155     0.0768     0.1039     2.4965
  841.0000     9.1984     9.2509     6.8675   128.4194     0.0798     0.0978     2.5162
  841.5000     9.3346     9.5195     6.8675   128.4268     0.0874     0.0921     2.5284
  842.0000     9.6049     9.7282     6.8675   128.4884     0.0965     0.0897     2.5358
  842.5000     9.8148     9.8048     6.8675   128.4384     0.1056     0.0900     2.5310
  843.0000    10.0294     9.8820     6.8675   128.4446     0.1132     0.0912     2.5252
  843.5000    10.1778    10.0987     6.8675   127.8498     0.1132     0.0936     2.5191
  844.0000    10.4003    10.2489     6.8675   126.6386     0.1147     0.0997     2.5085
  844.5000    10.5543    10.4013     6.8675   124.8587     0.1148     0.1102     2.4956
  845.0000    10.7105    10.5561     6.8675   123.5834     0.1148     0.1111     2.4971
  845.5000    10.9446    10.7875     6.8675   121.4555     0.1103     0.1081     2.5016
  846.0000    11.0300    10.9460     6.8675   119.1723     0.0937     0.1030     2.5100
  846.5000    11.1140    11.0422     6.8675   118.2758     0.0651     0.0964     2.5190
  847.0000    11.2006    11.1238     6.8675   119.7848     0.0666     0.0930     2.5251
  847.5000    11.2099    11.2839     6.8675   123.6946     0.0805     0.0937     2.5273
  848.0000    11.2973    11.2942     6.8675   125.8026     0.1019     0.0956     2.5175
  848.5000    11.3069    11.3831     6.8675   126.7094     0.1090     0.1018     2.5099
  849.0000    11.3951    11.4727     6.8675   126.7154     0.0969     0.1075     2.5023
  849.5000    11.4047    11.5630     6.8675   126.4210     0.1000     0.1106     2.4947
  850.0000    11.4131    11.5710     6.8698   124.3248     0.1091     0.1104     2.4932
  850.5000    11.4200    11.4988     6.8841   122.5225     0.1076     0.1090     2.4948
  851.0000    11.4271    11.5076     6.8970   121.6216     0.1016     0.1075     2.4994
  851.5000    11.4338    11.5147     6.8816   121.3213     0.0865     0.1051     2.5039
  852.0000    11.4406    11.4423     6.8662   122.5225     0.0714     0.1018     2.5085
  852.5000    11.4473    11.4493     6.8659   124.9249     0.0775     0.0988     2.5144
  853.0000    11.4541    11.3755     6.8656   130.3303     0.0896     0.0958     2.5197
  853.5000    11.4609    11.3843     6.8653   132.1321     0.1063     0.0945     2.5219
  854.0000    11.3868    11.3899     6.8650   130.9309     0.1018     0.0955     2.5212
  854.5000    11.3938    11.3968     6.8647   129.1291     0.0897     0.0991     2.5000
  855.0000    11.3174    11.3248     6.8644   127.0270     0.0882     0.1106     2.4924
  855.5000    11.1725    11.2536     6.8641   124.9051     0.0973     0.1120     2.4977
  856.0000    11.1017    11.1828     6.8638   123.7237     0.1139     0.1098     2.5076
  856.5000    11.1085    11.1123     6.8635   125.5856     0.1351     0.1037     2.5144
  857.0000    10.8865    10.9664     6.8632   128.0481     0.1382     0.1000     2.5129
  857.5000    10.5954    10.6733     6.8629   129.7297     0.1337     0.0987     2.5083
  858.0000    10.3837    10.4603     6.8626   129.7297     0.1020     0.1024     2.5076
  858.5000    10.2454    10.3212     6.8623   129.7297     0.0807     0.1015     2.5068
  859.0000    10.0407    10.1167     6.8620   129.7297     0.0885     0.0966     2.5129
  859.5000     9.9773     9.9837     6.8617   129.1291     0.1111     0.0930     2.5204
  860.0000     9.9833     9.8525     6.8614   130.3303     0.1263     0.0936     2.5257
  860.5000     9.8517     9.7229     6.8611   131.5315     0.1369     0.0951     2.5250
  861.0000     9.7894     9.5936     6.8608   130.9309     0.1384     0.0954     2.5227
  861.5000     9.5277     9.4036     6.8605   130.3303     0.1293     0.0942     2.5174
  862.0000     9.3373     9.4094     6.8602   130.3303     0.1049     0.0948     2.5159
  862.5000     9.2783     9.4140     6.8599   130.3303     0.0809     0.0969     2.5174
  863.0000     9.2184     9.3545     6.8596   130.9309     0.0676     0.0999     2.5144
  863.5000     9.2252     9.2956     6.8593   131.5315     0.0713     0.1011     2.5121
  864.0000     9.1656     9.3014     6.8590   132.1321     0.0994     0.1002     2.5129
  864.5000     9.1077     9.2429     6.8436   129.7297     0.1477     0.0975     2.5137
  865.0000     9.1131     9.1847     6.8283   128.8288     0.1583     0.0942     2.5175
  865.5000     9.0511     9.1267     6.8280   130.0300     0.1553     0.0900     2.5271
  866.0000     8.9983     9.1326     6.8277   132.1321     0.1402     0.0857     2.5479
  866.5000     9.0037     9.0737     6.8274   133.3333     0.1146     0.0845     2.5386
  867.0000     8.9466     9.0807     6.8120   133.9339     0.0995     0.0857     2.5250
  867.5000     8.9521     9.0222     6.8268   133.9339     0.0950     0.0893     2.5204
  868.0000     9.0183     9.0291     6.8265   134.2342     0.0890     0.0923     2.5234
  868.5000     8.9614     8.8489     6.8262   134.5345     0.0875     0.0905     2.5310
  869.0000     8.8447     8.6723     6.8259   134.5345     0.0921     0.0887     2.5356
  869.5000     8.6081     8.4992     6.8256   133.9339     0.1087     0.0875     2.5386
  870.0000     8.3779     8.3296     6.8253   135.7357     0.1269     0.0869     2.5371
  870.5000     8.2592     8.2201     6.8250   137.5573     0.1239     0.0879     2.5325
  871.0000     8.0993     8.1671     6.8247   138.7387     0.1149     0.0896     2.5295
  871.5000     7.9392     8.1723     6.8244   137.8078     0.1028     0.0929     2.5219
  872.0000     7.8345     8.1207     6.8241   138.1782     0.0817     0.0984     2.5083
  872.5000     7.7841     7.9564     6.8238   140.0399     0.0787     0.0971     2.5076
  873.0000     7.7349     7.7998     6.8235   145.6456     0.0938     0.0935     2.5204
  873.5000     7.7407     7.7507     6.8383   146.5465     0.1180     0.0929     2.5250
  874.0000     7.6906     7.6488     6.8379   141.1411     0.1165     0.0959     2.5204
  874.5000     7.5893     7.5480     6.8376   136.0360     0.1090     0.1074     2.5030
  875.0000     7.2858     7.3466     6.8524   134.8348     0.1181     0.1083     2.5008
  875.5000     7.1392     7.1492     6.8521   136.6366     0.1287     0.1026     2.5053
  876.0000     7.0409     7.0065     6.8518   140.5405     0.1106     0.0986     2.5129
