~VERSION INFORMATION
 VERS.                2.0:   CWLS LOG ASCII STANDARD - VERSION 2.0
 WRAP.                 NO:   ONE LINE PER DEPTH STEP
~WELL INFORMATION
#MNEM.UNIT      DATA TYPE    INFORMATION
#----------   ------------   ------------------------------
 STRT.F           36.0000:   START DEPTH
 STOP.F          521.0000:   STOP DEPTH
 STEP.F            0.5000:   STEP LENGTH
 NULL.          -999.2500:   NO VALUE
 COMP. FENIX & SCISSON INC:   COMPANY
 WELL.        NPR-3 #36-3:   WELL
 FLD .             TEAPOT:   FIELD
 LOC .       S3 T38N R78W:   LOCATION
 CNTY.            NATRONA:   COUNTY
 STAT.            WYOMING:   STATE
 CTRY. UNITED STATES OF AMERICA:   COUNTRY
 SRVC.            Unknown:   SERVICE COMPANY
 DATE.        09-JUL-1978:   LOGDATE
 API .       490251066200:   API NUMBER
~CURVE INFORMATION
#MNEM.UNIT       API CODE    CURVE DESCRIPTION
#----------   ------------   ------------------------------
 DEPT.F                  :   
 CALD.IN     45 280 60 00:   CALIPER FROM DENSITY LOG
 GRD .GAPI   45 310 01 00:   GAMMA RAY FROM DENSITY LOG
 CORR.G/C3   45 356 01 00:   DENSITY CORRECTION
 DPHI.DEC    45 890 12 00:   DENSITY POROSITY SANDSTONE
 RHOB.G/C3   45 350 01 00:   BULK DENSITY
 SPR .MV     07 010 01 00:   SPONTANEOUS POTENTIAL
 ILD .OHMM   07 120 46 00:   INDUCTION LOG DEEP
 SN  .OHMM   07 040 16 00:   SHORT NORMAL 16"
~PARAMETER INFORMATION
#MNEM.UNIT          VALUE    DESCRIPTION
#----------   ------------   ------------------------------
 PD  .                 GL:   PERMANENT DATUM
 EPD .F              5216:   ELEVATION PERMANENT DATUM
 LMF .                 KB:   LOG MEASURED FROM
 DAPD.F                 4:   FEET ABOVE PERMANENT DATUM
 DMF .                 KB:   DRILLING MEASURED FROM
 EKB .F              5220:   KELLING BUSHING
 EGL .F              5216:   GROUND LEVEL
 DATE.        09-JUL-1978:   RUN DATE
 RUN .                  1:   RUN NUMBER
 DD  .F               520:   DEPTH DRILLER
 DL  .F               524:   DEPTH LOGGER
 BLI .F               519:   BOTTOM LOG INTERVAL
 TLI .F                50:   TOP LOG INTERVAL
 CS  .IN            8.625:   CASING SIZE
 CBD .F                40:   CASING BOTTOM DRILLER
 BS  .IN            7.875:   BIT SIZE
 BSD .F               520:   BIT SIZE AT DEPTH
 DFT .                KCL:   DRILLING FLUID TYPE
 DFD .                8.6:   DRILLING FLUID DENSITY
 DFV .                 32:   DRILLING FLUID VISCOSITY
 DFPH.                9.5:   DRILLING FLUID PH
 DFL .               14.4:   DRILLING FLUID LOSS
 MSS .           FLOWLINE:   MUD SAMPLE SOURCE
 RMS .OHMM           0.24:   RESISTIVITY MUD SAMPLE
 MST .F                70:   MUD SAMPLE TEMPERATURE
 RMF .OHMM           0.24:   RESISTIVITY MUD FILTRATE SAMPLE
 MFST.F                70:   MUD FILTRATE SAMPLE TEMPERATURE
 RMC .OHMM           0.42:   RESISTIVITY MUD CAKE
 MCST.F                72:   MUD CAKE SAMPLE TEMPERATURE
 MFSS.               MEAS:   MUD FILTRATE SAMPLE SOURCE
 BHT .F                80:   BOTTOM HOLE TEMPERATURE
 TCS .HRS               3:   TIME CURCULATED STOPPED
 MRT .F                80:   MAXIMUM RECORDED TEMPERATURE
 LUN .               2958:   LOGGING UNIT NUMBER
 LUL .               CASP:   LOGGING UNIT LOCATION
 ENGI.             MILLER:   RECORDING ENGINEER
 WITN.           MCGINLEY:   WITNESSED BY
 CLNT.            A2DTECH:   CLIENT CODE
 ORIG.           5" PRINT:   ORIGIN OF DATA
 UWI .       490251066200:   UNIQUE WELL ID
 DICO. A2D Technologies, Inc.:   DIGITIZING COMPANY
~OTHER INFORMATION
~A   DEPT     CALD        GRD       CORR       DPHI       RHOB        SPR        ILD         SN   
# ...
  238.5000     7.9602    87.7236     0.0264     0.1184     2.4924   -22.0971     8.2698     9.0138
  239.0000     7.9759    89.9678     0.0250     0.1094     2.5014   -22.1086     8.2681     9.0740
  239.5000     7.9917    88.7844     0.0206     0.1091     2.4985   -22.1202     8.2664     9.0716
  240.0000     8.0075    86.4086     0.0102     0.1155     2.4813   -22.1317     8.2648     9.1323
  240.5000     8.0233    81.7975     0.0088     0.1225     2.4791   -21.9931     8.2631     9.1297
  241.0000     8.0242    80.3159     0.0104     0.1198     2.4919   -22.0076     8.2614     9.1907
  241.5000     8.0399    80.4868     0.0105     0.1147     2.4934   -22.0191     8.3170     9.1876
  242.0000     8.0408    81.4963     0.0105     0.1099     2.5002   -22.0307     8.3726     9.1852
  242.5000     8.0417    84.3683     0.0106     0.1087     2.5024   -22.0422     8.3709     9.1193
  243.0000     8.0726    85.8674     0.0107     0.1001     2.5055   -22.0541     8.3116     9.1169
  243.5000     8.0735    87.0684     0.0108     0.0866     2.5369   -22.0682     8.2527     9.1144
  244.0000     8.0743    86.6301    -0.0044     0.0848     2.5301   -22.0798     8.1378     9.0491
  244.5000     8.0752    84.2544    -0.0130     0.1057     2.5045   -22.2415     8.0801     8.8606
  245.0000     8.0761    83.0687     0.0126     0.1105     2.4974   -22.7035     8.0229     8.6701
  245.5000     8.0770    84.1229     0.0246     0.1158     2.4877   -22.7150     7.9660     8.4363
  246.0000     8.0627    81.7472     0.0202     0.1245     2.4750   -22.5764     7.9015     8.3180
  246.5000     8.0638    81.0104     0.0233     0.1271     2.4766   -22.4378     7.7453     8.1448
  247.0000     8.0647    81.9138     0.0264     0.1232     2.4796   -22.9027     7.6905     8.0306
  247.5000     8.0656    84.1580     0.0250     0.1187     2.4834   -23.2146     7.5312     7.8634
  248.0000     8.0665    82.9568     0.0236     0.1307     2.4722   -23.6766     7.3752     7.8070
  248.5000     8.0674    81.7911     0.0222     0.1295     2.4730   -24.2887     7.1727     7.6444
  249.0000     8.0683    84.7827     0.0193     0.1318     2.4715   -24.9009     6.9758     7.4247
  249.5000     8.0544    85.3876     0.0179     0.1533     2.4506   -25.2156     6.7842     7.0306
  250.0000     8.0589    85.6923     0.0165     0.1599     2.4312   -25.5275     6.5980     6.7855
  250.5000     8.0854    85.4086     0.0181     0.1608     2.4201   -25.5390     6.4182     6.6015
  251.0000     8.0859    85.1222     0.0152     0.1721     2.4142   -25.7007     6.0220     6.2391
  251.5000     8.0714    84.9820     0.0033     0.1906     2.3753   -25.7122     5.5452     5.8226
  252.0000     8.0719    86.3379     0.0003     0.2079     2.3470   -25.5736     4.8613     5.4309
  252.5000     8.0573    86.4986     0.0005     0.2190     2.3172   -25.5856     4.0049     4.8931
  253.0000     8.0579    86.6594     0.0005     0.2302     2.2993   -25.4466     3.3222     4.0290
  253.5000     8.0583    87.1182     0.0006     0.2479     2.2679   -25.1579     3.0331     4.1693
  254.0000     8.3866    85.3415     0.0067     0.2750     2.2291   -24.7218     2.7548     3.6032
  254.5000     8.1635    79.3920     0.0203     0.2896     2.2127   -24.4331     2.7349     3.4552
  255.0000     8.0447    77.5857     0.0308     0.2875     2.2188   -24.1441     2.6965     3.5020
  255.5000     8.0605    76.3726     0.0384     0.2711     2.2330   -24.0057     2.6956     3.6240
  256.0000     8.0903    77.1945     0.0417     0.2424     2.3353   -23.8671     2.7327     3.7502
  256.5000     7.8822    83.1675     0.0190     0.2041     2.3699   -23.8816     2.9265     3.9114
  257.0000     8.0466    90.1837     0.0198     0.1784     2.3737   -23.8931     3.1348     4.0715
  257.5000     8.0320    94.6663     0.0358     0.1545     2.4313   -23.7516     3.4283     5.0096
  258.0000     8.7032    94.6780     0.0149     0.1341     2.4381   -23.7661     4.1300     5.7515
  258.5000     8.0329    94.6898     0.0195     0.1308     2.4680   -23.7778     4.9092     6.2474
  259.0000     8.0334    94.7015     0.0196     0.1308     2.4696   -23.7921     5.7500     6.6546
  259.5000     8.0339    92.9248     0.0137     0.1344     2.4576   -23.5946     6.1169     6.9732
  260.0000     8.0492    91.7413     0.0033     0.1414     2.4465   -23.6036     6.2867     7.0196
  260.5000     8.0347    92.2030    -0.0026     0.1489     2.4450   -23.6141     6.3282     7.1140
  261.0000     8.0352    91.6186    -0.0040     0.1498     2.4399   -23.6227     6.2821     7.1112
  261.5000     8.0356    91.4813     0.0021     0.1426     2.4317   -23.6312     6.3236     7.1577
  262.0000     8.0361    92.0891     0.0082     0.1402     2.4482   -23.6398     6.2774     7.1542
  262.5000     8.0216    91.5047     0.0097     0.1426     2.4490   -23.6504     6.1892     7.1514
  263.0000     8.0221    93.4568     0.0083     0.1413     2.4490   -23.6590     6.1446     7.1982
  263.5000     8.0226    93.0214     0.0084     0.1443     2.4476   -23.6675     6.0583     7.1457
  264.0000     8.0081    93.1821     0.0130     0.1524     2.4334   -23.6760     5.8907     7.0936
  264.5000     8.0085    95.4293     0.0161     0.1559     2.4298   -23.6847     5.6496     6.8487
  265.0000     8.0090    96.9313     0.0177     0.1640     2.4141   -23.6953     5.4184     6.4771
  265.5000     8.0094    96.9430     0.0178     0.1744     2.3977   -23.2533     5.1609     6.1681
  266.0000     8.0098    92.9309     0.0086     0.1747     2.3948   -23.1096     5.0884     6.1231
  266.5000     8.3381    91.7474    -0.0015     0.1706     2.4016   -22.9699     5.0866     6.1207
  267.0000     8.0256    91.9111     0.0018     0.1671     2.4188   -22.9790     5.1558     6.1608
  267.5000     8.0262    90.5815     0.0016     0.1713     2.4024   -22.9893     5.1537     6.2011
  268.0000     8.0266    85.3771    -0.0013     0.1623     2.4189   -22.9979     5.2599     6.2845
  268.5000     8.0419    84.1966    -0.0042     0.1524     2.4212   -22.8563     5.3683     6.4585
  269.0000     8.0573    85.9552    -0.0086     0.1411     2.4429   -22.8649     5.5222     6.6834
  269.5000     8.0726    92.8667    -0.0130     0.1404     2.4490   -22.8755     5.7085     6.9235
  270.0000     8.0731    98.2436    -0.0144     0.1437     2.4483   -22.8840     5.9072     7.3064
  270.5000     8.0586    97.8082    -0.0113     0.1434     2.4468   -22.7403     6.1979     7.5608
  271.0000     8.0590    96.0315    -0.0082     0.1410     2.4514   -22.7509     6.5029     7.7701
  271.5000     8.0595    94.8481    -0.0051     0.1368     2.4559   -22.7598     6.7875     7.9309
  272.0000     8.0599    95.6078    -0.0020     0.1335     2.4597   -22.7702     7.1580     8.0375
  272.5000     8.0604    94.4273    -0.0019     0.1337     2.4650   -22.9289     7.3562     8.1464
  273.0000     8.0609    92.3526    -0.0019     0.1361     2.4583   -22.7851     7.5084     8.1997
  273.5000     8.0613    91.3211    -0.0018     0.1403     2.4509   -22.7958     7.6099     8.2534
  274.0000     8.0618    90.5872    -0.0017     0.1369     2.4554   -22.9566     7.3944     8.2493
  274.5000     8.0622    91.3445    -0.0016     0.1336     2.4622   -22.8129     7.6569     8.3034
  275.0000     8.0626    93.7407     0.0075     0.1312     2.4667   -22.8235     7.6543     8.2420
  275.5000     8.0631    95.6898     0.0166     0.1276     2.4705   -22.8321     7.4432     8.2387
  276.0000     8.0635    95.3820     0.0226     0.1252     2.4728   -22.8408     7.1386     8.1222
  276.5000     8.0639    95.1171     0.0242     0.1237     2.4759   -22.8513     7.0339     7.9520
  277.0000     8.0644    95.1317     0.0243     0.1257     2.4789   -22.8598     6.9870     7.7854
  277.5000     8.0648    95.2925     0.0259     0.1302     2.4732   -22.8684     7.0337     7.7223
  278.0000     8.0654    95.4532     0.0260     0.1323     2.4641   -22.8769     7.0801     7.6185
  278.5000     8.0658    95.6139     0.0246     0.1322     2.4656   -22.7353     7.0772     7.4589
