~VERSION INFORMATION
 VERS.                2.0:   CWLS LOG ASCII STANDARD - VERSION 2.0
 WRAP.                 NO:   ONE LINE PER DEPTH STEP
~WELL INFORMATION
#MNEM.UNIT      DATA TYPE    INFORMATION
#----------   ------------   ------------------------------
 STRT.F           90.0000:   START DEPTH
 STOP.F          928.0000:   STOP DEPTH
 STEP.F            0.5000:   STEP LENGTH
 NULL.          -999.2500:   NO VALUE
 COMP.  UNITED STATE NAVY:   COMPANY
 WELL.      NPR 3 #58-S-2:   WELL
 FLD .             TEAPOT:   FIELD
 LOC .       S2 T38N R78W:   LOCATION
 CNTY.            NATRONA:   COUNTY
 STAT.            WYOMING:   STATE
 CTRY. UNITED STATES OF AMERICA:   COUNTRY
 SRVC.       Schlumberger:   SERVICE COMPANY
 DATE.        26-JUN-1962:   LOGDATE
 API .       490250639500:   API NUMBER
~CURVE INFORMATION
#MNEM.UNIT       API CODE    CURVE DESCRIPTION
#----------   ------------   ------------------------------
 DEPT.F                  :   
 ASN .OHMM   05 041 16 00:   AMPLIFIED SHORT NORMAL 16"
 ILD .OHMM   05 120 46 00:   INDUCTION LOG DEEP
 CILD.MMHO   05 110 46 00:   CONDUCTIVITY INDUCTION LOG DEEP
 SPR .MV     05 010 01 00:   SPONTANEOUS POTENTIAL FROM RES.
 GR  .GAPI   30 310 01 00:   GAMMA RAY
~PARAMETER INFORMATION
#MNEM.UNIT          VALUE    DESCRIPTION
#----------   ------------   ------------------------------
 PD  .                 KB:   PERMANENT DATUM
 EKB .F              5189:   KELLING BUSHING
 EGL .F              5184:   GROUND LEVEL
 DATE.        26-JUN-1962:   RUN DATE
 RUN .                  1:   RUN NUMBER
 DD  .F               925:   DEPTH DRILLER
 DL  .F               929:   DEPTH LOGGER
 BLI .F               928:   BOTTOM LOG INTERVAL
 TLI .F                90:   TOP LOG INTERVAL
 BS  .IN             6.75:   BIT SIZE
 BSD .F               925:   BIT SIZE AT DEPTH
 DFT .       OIL EMULSION:   DRILLING FLUID TYPE
 DFD .                 10:   DRILLING FLUID DENSITY
 DFV .                 50:   DRILLING FLUID VISCOSITY
 DFL .                3.7:   DRILLING FLUID LOSS
 RMS .OHMM            4.7:   RESISTIVITY MUD SAMPLE
 MST .F                83:   MUD SAMPLE TEMPERATURE
 RMF .OHMM            3.8:   RESISTIVITY MUD FILTRATE SAMPLE
 MFST.F                83:   MUD FILTRATE SAMPLE TEMPERATURE
 RMC .OHMM            4.4:   RESISTIVITY MUD CAKE
 MCST.F                83:   MUD CAKE SAMPLE TEMPERATURE
 TCS .HRS               1:   TIME CURCULATED STOPPED
 LUN .               2503:   LOGGING UNIT NUMBER
 LUL .               CSPR:   LOGGING UNIT LOCATION
 ENGI.             DANNER:   RECORDING ENGINEER
 WITN.          JORGENSEN:   WITNESSED BY
 CLNT.            A2DTECH:   CLIENT CODE
 ORIG.      2" & 5" PRINT:   ORIGIN OF DATA
 UWI .       490250639500:   UNIQUE WELL ID
 DICO. A2D Technologies, Inc.:   DIGITIZING COMPANY
~OTHER INFORMATION
~A   DEPT        ASN        ILD      CILD       SPR         GR   
# ...
  212.0000     6.4552     6.5217   174.0730   -51.9403  -999.2500
  212.5000     6.5880     6.5217   174.8136   -51.9403  -999.2500
  213.0000     6.6606     6.5217   174.7949   -52.0896  -999.2500
  213.5000     6.6757     6.5217   174.0280   -52.0896  -999.2500
  214.0000     6.6225     6.5217   174.0130   -52.0896  -999.2500
  214.5000     6.4095     6.5217   174.7500   -52.0896  -999.2500
  215.0000     6.2414     6.4343   175.4868   -52.0896  -999.2500
  215.5000     6.1666     6.2969   176.9794   -52.0896  -999.2500
  216.0000     6.1218     6.2219   177.7163   -52.0896  -999.2500
  216.5000     6.1069     6.2219   177.6976   -51.9403  -999.2500
  217.0000     6.1521     6.2969   177.6826   -51.9403  -999.2500
  217.5000     6.2572     6.3718   176.9157   -51.9403  -999.2500
  218.0000     6.3323     6.4468   176.1489   -51.7910  -999.2500
  218.5000     6.3624     6.4468   175.3820   -51.6418  -999.2500
  219.0000     6.3475     6.3718   175.3671   -51.7910  -999.2500
  219.5000     6.3477     6.2969   178.3596   -51.7910  -999.2500
  220.0000     6.3328     6.2219   182.8559   -51.7910  -999.2500
  220.5000     6.1231     6.1469   188.1041   -51.9403  -999.2500
  221.0000     5.8834     5.9220   192.6004   -51.6418  -999.2500
  221.5000     5.6886     5.6972   197.8486   -51.6418  -999.2500
  222.0000     5.4939     5.4723   203.8486   -51.6418  -999.2500
  222.5000     5.3891     5.3223   206.8412   -51.6418  -999.2500
  223.0000     5.3292     5.3223   209.8375   -51.6418  -999.2500
  223.5000     5.3444     5.2474   213.5781   -51.6418  -999.2500
  224.0000     5.3295     5.3223   215.8225   -51.4925  -999.2500
  224.5000     5.3447     5.3223   215.8038   -51.4925  -999.2500
  225.0000     5.3748     5.3223   212.7813   -51.4925  -999.2500
  225.5000     5.4050     5.3973   211.2626   -51.4925  -999.2500
  226.0000     5.4501     5.4723   208.9920   -51.4925  -999.2500
  226.5000     5.4952     5.5472   206.7214   -51.6418  -999.2500
  227.0000     5.5404     5.6222   204.4507   -51.6418  -999.2500
  227.5000     5.5705     5.6972   202.9320   -51.7910  -999.2500
  228.0000     5.6156     5.6972   200.6614   -51.7910  -999.2500
  228.5000     5.6308     5.7721   199.8945   -51.6418  -999.2500
  229.0000     5.6459     5.7721   199.1277   -51.6418  -999.2500
  229.5000     5.6460     5.6972   199.1127   -51.4925  -999.2500
  230.0000     5.6012     5.7721   198.3459   -51.4925  -999.2500
  230.5000     5.5863     5.7721   197.5789   -51.4925  -999.2500
  231.0000     5.6315     5.7721   197.5639   -51.4925  -999.2500
  231.5000     5.6766     5.7721   197.5489   -51.6418  -999.2500
  232.0000     5.7068     5.7721   196.7318   -51.6418  -999.2500
  232.5000     5.7519     5.7721   194.5113   -51.6418  -999.2500
  233.0000     5.7820     5.8471   193.6694   -51.6418  -999.2500
  233.5000     5.8272     5.8471   191.3861   -51.6418  -999.2500
  234.0000     5.8723     5.8471   188.3508   -51.6418  -999.2500
  234.5000     5.9024     5.9220   186.0675   -51.6418  -999.2500
  235.0000     5.9326     5.9970   182.4060   -51.6418  -999.2500
  235.5000     5.9327     6.1469   179.2457   -51.6418  -999.2500
  236.0000     5.9628     6.2219   175.6060   -51.6418  -999.2500
  236.5000     6.0829     6.3718   173.3354   -51.4925  -999.2500
  237.0000     6.2930     6.5217   170.3129   -51.6418  -999.2500
  237.5000     6.4880     6.5217   167.2904   -51.7910  -999.2500
  238.0000     6.5332     6.6717   163.5161   -52.0896  -999.2500
  238.5000     6.5183     6.7466   164.2529   -52.0896  -999.2500
  239.0000     6.4735     6.6717   167.2455   -52.0896  -999.2500
  239.5000     6.4137     6.5967   175.5188   -52.2388  -999.2500
  240.0000     6.2939     6.2969   185.2632   -52.2388  -999.2500
  240.5000     6.0242     5.9207   200.3239   -52.2388  -999.2500
  241.0000     5.5895     5.5421   209.3693   -52.0896  -999.2500
  241.5000     5.1399     5.0150   220.6687   -51.7910  -999.2500
  242.0000     4.8402     4.7226   230.4661   -51.4925  -999.2500
  242.5000     4.6604     4.6477   236.3786   -51.1940  -999.2500
  243.0000     4.5706     4.7301   237.8049   -51.0448  -999.2500
  243.5000     4.6907     4.9562   236.0230   -50.8955  -999.2500
  244.0000     5.3355     5.1824   228.4511   -50.7463  -999.2500
  244.5000     5.5306     5.5585   220.1273   -50.7463  -999.2500
  245.0000     5.5907     5.8596   209.2991   -50.7463  -999.2500
  245.5000     5.9507     6.0857   196.5771   -50.8955  -999.2500
  246.0000     6.1757     6.2969   182.0722   -51.1940  -999.2500
  246.5000     6.3108     6.5217   172.2828   -51.4925  -999.2500
  247.0000     6.3709     6.7466   167.0047   -51.6418  -999.2500
  247.5000     6.4610     6.8966   161.7265   -51.6418  -999.2500
  248.0000     6.7310     7.1214   155.6965   -51.7910  -999.2500
  248.5000     6.7612     7.3463   151.9221   -51.7910  -999.2500
  249.0000     6.7313     7.4963   149.6515   -51.9403  -999.2500
  249.5000     6.7165     7.5712   147.3809   -51.9403  -999.2500
  250.0000     6.8986     7.4869   144.2185   -52.0896  -999.2500
  250.5000     7.1220     7.2722   142.4880   -52.2614  -999.2500
  251.0000     7.1974     7.1978   142.0101   -52.3738  -999.2500
  251.5000     7.2128     7.4985   140.5113   -52.0659  -999.2500
  252.0000     7.1383     7.5743   143.6290   -51.9092  -999.2500
  252.5000     6.9738     7.3501   148.8095   -52.0529  -999.2500
  253.0000     6.7944     7.2759   153.3083   -52.1947  -999.2500
  253.5000     6.5999     7.0517   157.9297   -52.3346  -999.2500
  254.0000     6.4204     6.9026   165.9466   -52.4764  -999.2500
  254.5000     6.2110     6.6784   173.4076   -52.3197  -999.2500
  255.0000     6.0165     6.3793   177.8890   -52.3123  -999.2500
  255.5000     5.8371     6.0802   183.8741   -52.3048  -999.2500
  256.0000     5.7326     5.7021   189.8593   -52.4466  -999.2500
  256.5000     5.5381     5.2529   203.3632   -52.4391  -999.2500
  257.0000     5.3137     4.8765   228.1453   -52.2824  -999.2500
  257.5000     5.0592     4.5839   246.9124   -51.8272  -999.2500
  258.0000     4.8198     4.3598   275.4539   -51.9709  -999.2500
  258.5000     4.3255     4.2856   286.7023   -51.9616  -999.2500
  259.0000     4.0861     4.1366   283.6649   -51.5063  -999.2500
  259.5000     4.3264     4.1373   279.8755   -50.9019  -999.2500
  260.0000     4.5667     4.1381   277.5975   -50.7452  -999.2500
  260.5000     4.2673     4.1388   279.8157   -50.8888  -999.2500
  261.0000     4.0579     4.1396   279.0340   -51.3273  -999.2500
  261.5000     4.4032     4.3652   263.9665   -51.4709  -999.2500
  262.0000     4.7784     5.0406   236.8689   -52.0586  -999.2500
  262.5000     5.1687     5.6410   209.0194   -52.3515  -999.2500
  263.0000     5.2291     6.0916   191.6963   -52.3422  -999.2500
  263.5000     5.2445     6.3172   181.8920   -52.3347  -999.2500
  264.0000     5.2600     6.3179   179.6064   -52.4784  -999.2500
  264.5000     5.2754     6.3187   184.0878   -52.4691  -999.2500
  265.0000     5.2758     6.2443   187.0654   -52.3124  -999.2500
  265.5000     5.2763     6.2452   190.0505   -52.3049  -999.2500
  266.0000     5.2440     6.1708   190.0132   -52.2975  -999.2500
  266.5000     5.2023     6.0218   189.9832   -52.4411  -999.2500
  267.0000     5.0529     5.8724   193.7127   -52.4318  -999.2500
  267.5000     4.8134     5.4986   199.6979   -52.2751  -999.2500
  268.0000     4.6939     4.6747   217.7131   -52.2676  -999.2500
  268.5000     4.4695     4.2257   258.2847   -52.2602  -999.2500
  269.0000     4.0951     4.0015   309.3826   -52.2527  -999.2500
  269.5000     3.7208     3.7024   345.9794   -52.2453  -999.2500
  270.0000     3.4214     3.3284   407.0622   -52.0886  -999.2500
  270.5000     3.1819     3.2541   423.5736   -51.7826  -999.2500
  271.0000     3.2487     3.2549   431.0700   -50.8796  -999.2500
  271.5000     3.3777     3.2556   422.7620   -50.4244  -999.2500
  272.0000     3.3781     3.2564   414.4614   -50.5681  -999.2500
  272.5000     3.1987     3.1822   403.1533   -50.7099  -999.2500
