~VERSION INFORMATION
 VERS.                2.0:   CWLS LOG ASCII STANDARD - VERSION 2.0
 WRAP.                 NO:   ONE LINE PER DEPTH STEP
~WELL INFORMATION
#MNEM.UNIT      DATA TYPE    INFORMATION
#----------   ------------   ------------------------------
 STRT.F           40.0000:   START DEPTH
 STOP.F          490.0000:   STOP DEPTH
 STEP.F            0.5000:   STEP LENGTH
 NULL.          -999.2500:   NO VALUE
 COMP.    FENIX & SCISSON:   COMPANY
 WELL. RES 3 TEAPOT DOM #76-10:   WELL
 FLD .        TEAPOT DOME:   FIELD
 LOC .      S10 T38N R78W:   LOCATION
 CNTY.            NATRONA:   COUNTY
 STAT.            WYOMING:   STATE
 CTRY. UNITED STATES OF AMERICA:   COUNTRY
 SRVC.           BIRDWELL:   SERVICE COMPANY
 DATE.        19-JUN-1978:   LOGDATE
 API .       490251065100:   API NUMBER
~CURVE INFORMATION
#MNEM.UNIT       API CODE    CURVE DESCRIPTION
#----------   ------------   ------------------------------
 DEPT.F                  :   
 CALD.IN     45 280 60 00:   CALIPER FROM DENSITY LOG
 CORR.G/C3   45 356 01 00:   DENSITY CORRECTION
 DPHI.DEC    45 890 12 00:   DENSITY POROSITY SANDSTONE
 GRD .GAPI   45 310 01 00:   GAMMA RAY FROM DENSITY LOG
 RHOB.G/C3   45 350 01 00:   BULK DENSITY
 ILD .OHMM   05 120 46 00:   INDUCTION LOG DEEP
 SN  .OHMM   05 040 16 00:   SHORT NORMAL 16"
 SPR .MV     05 010 01 00:   SPONTANEOUS POTENTIAL FROM RES.
~PARAMETER INFORMATION
#MNEM.UNIT          VALUE    DESCRIPTION
#----------   ------------   ------------------------------
 PD  .                 GL:   PERMANENT DATUM
 EPD .F              5185:   ELEVATION PERMANENT DATUM
 LMF .                 KB:   LOG MEASURED FROM
 DAPD.F                 4:   FEET ABOVE PERMANENT DATUM
 DMF .                 KB:   DRILLING MEASURED FROM
 EKB .F              5189:   KELLING BUSHING
 EGL .F              5185:   GROUND LEVEL
 DATE.        19-JUN-1978:   RUN DATE
 RUN .                  1:   RUN NUMBER
 DD  .F               485:   DEPTH DRILLER
 DL  .F               490:   DEPTH LOGGER
 BLI .F               490:   BOTTOM LOG INTERVAL
 TLI .F                50:   TOP LOG INTERVAL
 CS  .IN            8.625:   CASING SIZE
 CBD .F                30:   CASING BOTTOM DRILLER
 CBL .F                30:   CASING BOTTOM LOGGER
 BS  .IN            7.875:   BIT SIZE
 BSD .F               485:   BIT SIZE AT DEPTH
 DFT .                KCL:   DRILLING FLUID TYPE
 DFD .                8.7:   DRILLING FLUID DENSITY
 DFV .                 34:   DRILLING FLUID VISCOSITY
 DFPH.               10.5:   DRILLING FLUID PH
 MSS .           FLOWLINE:   MUD SAMPLE SOURCE
 RMS .OHMM           0.24:   RESISTIVITY MUD SAMPLE
 MST .F                70:   MUD SAMPLE TEMPERATURE
 RMF .OHMM           0.24:   RESISTIVITY MUD FILTRATE SAMPLE
 MFST.F                72:   MUD FILTRATE SAMPLE TEMPERATURE
 RMC .OHMM           0.28:   RESISTIVITY MUD CAKE
 MCST.F                78:   MUD CAKE SAMPLE TEMPERATURE
 MFSS.               MEAS:   MUD FILTRATE SAMPLE SOURCE
 MCSS.               MEAS:   MUD CAKE SAMPLE SOURCE
 RMB .OHMM           0.27:   RESISTIVITY MUD AT BHT
 BHT .F                74:   BOTTOM HOLE TEMPERATURE
 TCS .HRS               1:   TIME CURCULATED STOPPED
 MRT .F                74:   MAXIMUM RECORDED TEMPERATURE
 LUN .               2958:   LOGGING UNIT NUMBER
 LUL .               CASP:   LOGGING UNIT LOCATION
 ENGI.           REYNOLDS:   RECORDING ENGINEER
 WITN.           MCGINLEY:   WITNESSED BY
 CLNT.            A2DTECH:   CLIENT CODE
 ORIG.           5" PRINT:   ORIGIN OF DATA
 UWI .       490251065100:   UNIQUE WELL ID
 DICO. A2D Technologies, Inc.:   DIGITIZING COMPANY
~OTHER INFORMATION
~A   DEPT     CALD       CORR       DPHI        GRD       RHOB        ILD         SN        SPR   
# ...
  202.0000     7.3119     0.0233     0.1122   114.8932     2.4776     5.8999     7.0252   -46.4508
  202.5000     7.3576     0.0234     0.1139   116.1079     2.4769     5.8586     6.9778   -46.3009
  203.0000     7.3735     0.0234     0.1127   116.8708     2.4777     5.6984     6.8831   -46.6053
  203.5000     7.3742     0.0250     0.1163   114.5045     2.4770     5.6196     6.8364   -46.9093
  204.0000     7.3749     0.0250     0.1181   109.6749     2.4688     5.5419     6.7904   -47.2136
  204.5000     7.4056     0.0251     0.1175   110.5927     2.4688     5.4653     6.7913   -47.2150
  205.0000     7.4214     0.0251     0.1172   113.0137     2.4666     5.3896     6.6528   -47.2164
  205.5000     7.4371     0.0252     0.1240   114.5310     2.4606     5.2786     6.5174   -47.3691
  206.0000     7.4227     0.0237     0.1301   113.9400     2.4516     5.2057     6.4286   -47.9761
  206.5000     7.4013     0.0193     0.1325   112.7494     2.4464     5.1337     6.2544   -47.9775
  207.0000     7.3645     0.0118     0.1373   113.2125     2.4390     5.0976     6.0847   -47.9789
  207.5000     7.3652     0.0059     0.1432   113.9769     2.4274     4.9583     5.9196   -47.9803
  208.0000     7.3959     0.0060     0.1552   114.0201     2.4060     4.8229     5.7592   -48.1334
  208.5000     7.4265     0.0060     0.1655   112.9252     2.3803     4.5008     5.4502   -48.4374
  209.0000     7.4422     0.0060     0.1795   112.8062     2.3514     4.1145     5.0173   -49.0439
  209.5000     7.3832     0.0061     0.1960   113.2722     2.3346     3.7613     4.5239   -49.1967
  210.0000     7.3537     0.0076     0.2071   113.3391     2.3050     3.2991     4.1074   -49.1984
  210.5000     7.3546     0.0092     0.2184   113.4458     2.2937     2.8936     3.6780   -49.3511
  211.0000     7.4154     0.0242     0.2369   113.4597     2.2645     2.6090     3.2709   -49.5038
  211.5000     7.4461     0.0526     0.2507   113.4710     2.2511     2.4687     3.1385   -49.6300
  212.0000     7.4168     0.0571     0.2561   109.2655     2.2578     2.4178     2.9907   -49.5377
  212.5000     7.3876     0.0572     0.2523   101.8600     2.2699     2.4174     2.8895   -49.4455
  213.0000     7.4034     0.0453     0.2374   100.8573     2.2991     2.4507     2.8900   -49.3532
  213.5000     7.4341     0.0348     0.2189   101.7723     2.3351     2.4844     2.8903   -49.2610
  214.0000     7.4648     0.0334     0.1740   112.1752     2.3959     2.5559     2.9309   -49.2103
  214.5000     7.4655     0.0349     0.1562   113.9940     2.4026     2.6793     3.0346   -48.6066
  215.0000     7.4663     0.0305     0.1350   113.6822     2.4559     2.8702     3.2296   -47.8519
  215.5000     7.4671     0.0275     0.1234   114.0194     2.4657     3.1825     3.6075   -47.8534
  216.0000     7.4528     0.0246     0.1204   117.0428     2.4635     3.7545     4.4085   -48.0061
  216.5000     7.4384     0.0232     0.1183   120.0844     2.4605     4.2794     5.0304   -48.0076
  217.0000     7.4094     0.0232     0.1253   122.4900     2.4605     4.7450     5.3881   -48.0093
  217.5000     7.3801     0.0232     0.1291   120.2423     2.4613     5.0481     5.5017   -48.0107
  218.0000     7.3509     0.0233     0.1236   116.0368     2.4613     5.0823     5.6177   -48.0121
  218.5000     7.3366     0.0233     0.1239   115.2952     2.4614     5.0466     5.6184   -48.0139
  219.0000     7.3974     0.0234     0.1251   115.3094     2.4607     4.9427     5.6193   -48.1666
  219.5000     7.4281     0.0160     0.1230   115.4713     2.4599     4.7396     5.5813   -48.1680
  220.0000     7.4288     0.0114     0.1275   117.1393     2.4525     4.5489     5.4675   -48.0181
  220.5000     7.4295     0.0205     0.1491   118.5061     2.4188     4.3640     5.3912   -48.0199
  221.0000     7.4002     0.0280     0.1585   120.0263     2.4113     4.2448     5.2834   -48.0213
  221.5000     7.3860     0.0296     0.1608   122.2967     2.4173     4.1535     5.1401   -48.0227
  222.0000     7.3718     0.0296     0.1581   124.5671     2.4287     4.0716     5.0351   -48.0245
  222.5000     7.3726     0.0312     0.1424   123.3736     2.4331     4.0153     4.8986   -48.0259
  223.0000     7.3734     0.0312     0.1412   116.3095     2.4339     4.0148     4.8656   -48.0273
  223.5000     7.3741     0.0313     0.1403   112.2546     2.4382     4.0700     4.9001   -47.8739
  224.0000     7.3898     0.0268     0.1355   115.1274     2.4464     4.1831     4.9689   -47.4250
  224.5000     7.4217     0.0194     0.1235   122.5183     2.4625     4.2995     5.1310   -46.8216
  225.0000     7.4664     0.0194     0.1198   125.2433     2.4708     4.4805     5.3259   -46.5205
  225.5000     7.4821     0.0195     0.1177   125.4053     2.4760     4.7338     5.4759   -46.2193
  226.0000     7.4528     0.0195     0.1162   125.4166     2.4806     4.9331     5.6301   -46.0695
  226.5000     7.4221     0.0226     0.1144   122.1148     2.4769     5.0704     5.8363   -46.0712
  227.0000     7.3767     0.0241     0.1132   120.8584     2.4716     5.2115     6.1186   -46.0726
  227.5000     7.3350     0.0197     0.1194   118.0740     2.4717     5.3934     6.3345   -46.0744
  228.0000     7.3208     0.0137     0.1185   116.7300     2.4747     5.5053     6.4680   -46.2269
  228.5000     7.3216     0.0121     0.1158   116.8919     2.4717     5.5046     6.6043   -46.2284
  229.0000     7.3225     0.0093     0.1197   117.0539     2.4658     5.5039     6.6054   -46.2300
  229.5000     7.3381     0.0079     0.1218   116.9157     2.4613     5.5030     6.6063   -46.2315
  230.0000     7.3538     0.0049     0.1233   116.9288     2.4613     5.5023     6.6071   -46.2331
  230.5000     7.3695     0.0020     0.1248   116.9402     2.4606     5.5016     6.5625   -46.2346
  231.0000     7.3553     0.0005     0.1257   119.7409     2.4606     5.5007     6.5181   -46.2360
  231.5000     7.3561    -0.0009     0.1271   123.2911     2.4599     5.4622     6.4741   -46.2378
  232.0000     7.3418    -0.0039     0.1277   123.0012     2.4599     5.3867     6.4555   -46.3379
  232.5000     7.3576    -0.0038     0.1256   122.1090     2.4600     5.3123     6.3622   -46.5432
  233.0000     7.3612    -0.0038     0.1265   121.3584     2.4600     5.2027     6.1712   -46.6962
  233.5000     7.3741    -0.0037     0.1274   121.2281     2.4600     5.1663     6.1293   -46.8489
  234.0000     7.3748    -0.0022     0.1356   121.9953     2.4368     5.1656     6.0462   -46.8502
  234.5000     7.3906     0.0024     0.1400   123.2114     2.4369     5.0919     5.9640   -46.8518
  235.0000     7.4064     0.0054     0.1400   123.6746     2.4369     4.7870     5.8022   -46.8535
  235.5000     7.4070     0.0084     0.1397   121.8816     2.4362     4.4063     5.6060   -46.8548
  236.0000     7.4078     0.0117     0.1399   122.1941     2.4339     4.2273     5.3791   -46.8563
  236.5000     7.4387     0.0160     0.1429   124.4645     2.4310     4.2306     5.1973   -46.8578
  237.0000     7.4694     0.0205     0.1468   126.1335     2.4287     4.2848     5.0911   -46.8595
  237.5000     7.4551     0.0206     0.1459   126.4451     2.4423     4.3139     5.0920   -46.8610
  238.0000     7.4258     0.0146     0.1417   121.1882     2.4506     4.3431     5.1279   -46.8624
  238.5000     7.3965     0.0162     0.1357   116.5309     2.4543     4.4028     5.2001   -47.3177
  239.0000     7.3674     0.0177     0.1260   114.7350     2.4666     4.4325     5.3836   -46.2601
  239.5000     7.3530     0.0192     0.1146   118.6649     2.4866     4.4320     5.6903   -45.5051
  240.0000     7.3538     0.0178     0.1110   120.7846     2.4889     4.7150     6.1405   -45.0530
  240.5000     7.3547     0.0148     0.1088   120.7960     2.4889     5.3740     6.5355   -45.0547
  241.0000     7.3254     0.0119     0.1076   120.5062     2.4875     5.6392     6.7195   -45.0562
  241.5000     7.2810     0.0090     0.1076   120.6710     2.4845     5.6775     6.8612   -45.0576
  242.0000     7.2819     0.0060     0.1121   121.2847     2.4785     5.6765     6.9575   -45.0590
