~VERSION INFORMATION
 VERS.                2.0:   CWLS LOG ASCII STANDARD - VERSION 2.0
 WRAP.                 NO:   ONE LINE PER DEPTH STEP
~WELL INFORMATION
#MNEM.UNIT      DATA TYPE    INFORMATION
#----------   ------------   ------------------------------
 STRT.F           90.0000:   START DEPTH
 STOP.F         1032.5000:   STOP DEPTH
 STEP.F            0.5000:   STEP LENGTH
 NULL.          -999.2500:   NO VALUE
 COMP. U S NAVY/INTEX OIL CO:   COMPANY
 WELL. NAVAL PETROLEUM RESERVE 3  #62-S-14:   WELL
 FLD .        TEAPOT DOME:   FIELD
 LOC .      S14 T38N R78W:   LOCATION
 CNTY.            NATRONA:   COUNTY
 STAT.            WYOMING:   STATE
 CTRY. UNITED STATES OF AMERICA:   COUNTRY
 SRVC.       Schlumberger:   SERVICE COMPANY
 DATE.        04-JUL-1962:   LOGDATE
 API .       490250631700:   API NUMBER
~CURVE INFORMATION
#MNEM.UNIT       API CODE    CURVE DESCRIPTION
#----------   ------------   ------------------------------
 DEPT.F                  :   
 GR  .GAPI   30 310 01 00:   GAMMA RAY
 CALM.IN     15 280 01 00:   CALIPER FROM MICRO LOG
 SPR .MV     06 010 01 00:   SPONTANEOUS POTENTIAL FROM RES.
 ASN .OHMM   06 041 16 00:   AMPLIFIED SHORT NORMAL 16"
 ILD .OHMM   06 120 46 00:   INDUCTION LOG DEEP
 CILD.MMHO   06 110 46 00:   CONDUCTIVITY INDUCTION LOG DEEP
~PARAMETER INFORMATION
#MNEM.UNIT          VALUE    DESCRIPTION
#----------   ------------   ------------------------------
 PD  .                 GL:   PERMANENT DATUM
 EPD .F              5246:   ELEVATION PERMANENT DATUM
 LMF .                 KB:   LOG MEASURED FROM
 DAPD.F                 5:   FEET ABOVE PERMANENT DATUM
 DMF .                 KB:   DRILLING MEASURED FROM
 EKB .F              5251:   KELLING BUSHING
 EGL .F              5246:   GROUND LEVEL
 DATE.             7-4-62:   RUN DATE
 RUN .                  1:   RUN NUMBER
 DD  .F              1036:   DEPTH DRILLER
 DL  .F              1033:   DEPTH LOGGER
 BLI .F              1032:   BOTTOM LOG INTERVAL
 TLI .F                90:   TOP LOG INTERVAL
 CBD .F                10:   CASING BOTTOM DRILLER
 BS  .IN             6.75:   BIT SIZE
 BSD .F              1036:   BIT SIZE AT DEPTH
 DFT .                GEL:   DRILLING FLUID TYPE
 DFD .               10.2:   DRILLING FLUID DENSITY
 DFV .                 48:   DRILLING FLUID VISCOSITY
 DFL .                4.8:   DRILLING FLUID LOSS
 MSS .          FLOW LINE:   MUD SAMPLE SOURCE
 RMS .OHMM            5.6:   RESISTIVITY MUD SAMPLE
 MST .F                70:   MUD SAMPLE TEMPERATURE
 RMF .OHMM           5.57:   RESISTIVITY MUD FILTRATE SAMPLE
 MFST.F                70:   MUD FILTRATE SAMPLE TEMPERATURE
 RMC .OHMM           5.32:   RESISTIVITY MUD CAKE
 MCST.F                70:   MUD CAKE SAMPLE TEMPERATURE
 MFSS.                  M:   MUD FILTRATE SAMPLE SOURCE
 MCSS.                  M:   MUD CAKE SAMPLE SOURCE
 RMB .OHMM            4.3:   RESISTIVITY MUD AT BHT
 BHT .F                90:   BOTTOM HOLE TEMPERATURE
 TCS .HRS               1:   TIME CURCULATED STOPPED
 MRT .F                90:   MAXIMUM RECORDED TEMPERATURE
 LUN .               2503:   LOGGING UNIT NUMBER
 LUL .               CSPR:   LOGGING UNIT LOCATION
 ENGI.             KNOBEL:   RECORDING ENGINEER
 WITN.          JORGENSEN:   WITNESSED BY
 CLNT.            A2DTECH:   CLIENT CODE
 ORIG.   1", 2", 5" PRINT:   ORIGIN OF DATA
 UWI .       490250631700:   UNIQUE WELL ID
 DICO. A2D Technologies, Inc.:   DIGITIZING COMPANY
~OTHER INFORMATION
~A   DEPT       GR       CALM        SPR          ASN        ILD      CILD  
# ...
  454.0000  -999.2500  -999.2500   -42.7281     6.2427     5.8683   173.2683
  454.5000  -999.2500  -999.2500   -42.6230     6.1857     5.9423   172.1748
  455.0000  -999.2500  -999.2500   -42.5182     6.2292     6.0146   171.0813
  455.5000  -999.2500  -999.2500   -42.4136     6.3198     6.1005   169.9878
  456.0000  -999.2500  -999.2500   -42.3087     6.4504     6.2140   168.8377
  456.5000  -999.2500  -999.2500   -42.2016     6.6221     6.3272   165.2883
  457.0000  -999.2500  -999.2500   -42.2283     6.6567     6.4404   161.5450
  457.5000  -999.2500  -999.2500   -42.2826     6.6749     6.5536   157.8017
  458.0000  -999.2500  -999.2500   -42.3375     6.7783     6.6668   154.0583
  458.5000  -999.2500  -999.2500   -42.3921     6.9491     6.7800   150.3150
  459.0000  -999.2500  -999.2500   -42.4467     7.0165     6.8930   146.5717
  459.5000  -999.2500  -999.2500   -42.5013     7.0422     7.0114   142.8284
  460.0000  -999.2500  -999.2500   -42.5559     7.0342     7.1418   139.0851
  460.5000  -999.2500  -999.2500   -42.6105     7.0272     7.0856   137.7755
  461.0000  -999.2500  -999.2500   -42.6651     6.9887     6.9857   137.7755
  461.5000  -999.2500  -999.2500   -42.7197     6.8700     6.8847   137.7755
  462.0000  -999.2500  -999.2500   -42.7743     6.7363     6.7840   137.7755
  462.5000  -999.2500  -999.2500   -42.8290     6.6480     6.6838   141.2199
  463.0000  -999.2500  -999.2500   -42.8842     6.5670     6.5862   144.6781
  463.5000  -999.2500  -999.2500   -42.9388     6.4799     6.3626   148.1363
  464.0000  -999.2500  -999.2500   -42.9566     6.3014     6.1105   162.0190
  464.5000  -999.2500  -999.2500   -42.7036     6.0098     5.8048   182.9659
  465.0000  -999.2500  -999.2500   -42.4501     5.6935     4.9744   219.9399
  465.5000  -999.2500  -999.2500   -42.1974     5.2057     4.1571   271.7089
  466.0000  -999.2500  -999.2500   -41.9449     4.7170     3.3411   322.4667
  466.5000  -999.2500  -999.2500   -41.6924     4.1060     2.5590   406.6989
  467.0000  -999.2500  -999.2500   -41.4399     3.5724     2.2458   458.9034
  467.5000  -999.2500  -999.2500   -41.1874     3.3427     2.2535   513.2041
  468.0000  -999.2500  -999.2500   -40.9349     3.1633     2.2117   539.9761
  468.5000  -999.2500  -999.2500   -40.6821     3.0846     2.1640   549.5992
  469.0000  -999.2500  -999.2500   -40.4282     3.0747     2.3719   537.6102
  469.5000  -999.2500  -999.2500   -40.1777     3.1030     2.5881   494.2714
  470.0000  -999.2500  -999.2500   -40.0627     3.3315     2.8374   453.6878
  470.5000  -999.2500  -999.2500   -40.5300     3.6352     3.2515   366.1053
  471.0000  -999.2500  -999.2500   -40.9842     4.0964     3.9690   293.2488
  471.5000  -999.2500  -999.2500   -41.4372     4.9953     5.0760   221.0782
  472.0000  -999.2500  -999.2500   -41.8899     6.1166     6.1766   173.0726
  472.5000  -999.2500  -999.2500   -42.3432     7.1538     7.2798   138.4483
  473.0000  -999.2500  -999.2500   -42.6668     7.8645     8.3742   112.5284
  473.5000  -999.2500  -999.2500   -42.8403     8.5229     9.2225   101.7114
  474.0000  -999.2500  -999.2500   -43.0145     8.8977     9.8983    98.6974
  474.5000  -999.2500  -999.2500   -43.1884     9.0571     9.8110   101.4453
  475.0000  -999.2500  -999.2500   -43.3629     8.9482     9.1833   108.6715
  475.5000  -999.2500  -999.2500   -43.5461     8.7436     8.5240   120.9131
  476.0000  -999.2500  -999.2500   -43.4908     8.3954     7.8645   138.4746
  476.5000  -999.2500  -999.2500   -43.3581     7.9610     7.2094   155.9319
  477.0000  -999.2500  -999.2500   -43.2254     7.2175     6.5354   174.8497
  477.5000  -999.2500  -999.2500   -42.8149     6.6684     6.0583   180.8771
  478.0000  -999.2500  -999.2500   -42.3108     6.1834     5.8347   187.4549
  478.5000  -999.2500  -999.2500   -41.8054     5.6947     5.6103   192.8858
  479.0000  -999.2500  -999.2500   -41.2821     5.4360     5.6416   191.2224
  479.5000  -999.2500  -999.2500   -41.6446     6.1553     5.7900   184.9299
  480.0000  -999.2500  -999.2500   -42.4476     7.2714     6.0962   171.9940
  480.5000  -999.2500  -999.2500   -43.2553     8.1922     6.5600   155.5066
  481.0000  -999.2500  -999.2500   -44.0706     8.6178     7.5099   139.0191
  481.5000  -999.2500  -999.2500   -44.3839     8.8833     8.5206   121.7435
  482.0000  -999.2500  -999.2500   -44.3862     9.0028     9.1838   113.5328
  482.5000  -999.2500  -999.2500   -44.3726     9.2354     9.5938   108.0828
  483.0000  -999.2500  -999.2500   -44.8378     9.5055     9.9451   105.1486
  483.5000  -999.2500  -999.2500   -45.2428     9.7891    10.2608   102.2144
  484.0000  -999.2500  -999.2500   -45.6493    10.0032    10.5724    99.2802
  484.5000  -999.2500  -999.2500   -46.0547    10.0484    10.7659    96.3460
  485.0000  -999.2500  -999.2500   -46.4487    10.1950    10.7397    93.4118
  485.5000  -999.2500  -999.2500   -46.8325    10.5337    10.7174    90.4776
  486.0000  -999.2500  -999.2500   -46.8791    10.8645    10.6944    88.6774
  486.5000  -999.2500  -999.2500   -46.9378    11.0379    10.6715    88.6774
  487.0000  -999.2500  -999.2500   -47.0093    11.2687    10.6487    88.6774
  487.5000  -999.2500  -999.2500   -47.3181    11.5104    10.6257    88.6774
  488.0000  -999.2500  -999.2500   -47.6196    11.6215    10.6031    88.6774
  488.5000  -999.2500  -999.2500   -47.9189    11.7279    10.5788    87.8357
  489.0000  -999.2500  -999.2500   -48.2172    11.8278    10.6588    86.9973
  489.5000  -999.2500  -999.2500   -48.5415    12.0248    10.7996    86.1590
  490.0000  -999.2500  -999.2500   -48.3553    12.1285    10.9417    85.3206
  490.5000  -999.2500  -999.2500   -48.2863    12.2388    11.0838    84.4168
  491.0000  -999.2500  -999.2500   -48.1994    12.3487    11.2258    83.2851
  491.5000  -999.2500  -999.2500   -48.3011    12.4584    11.3678    82.1533
  492.0000  -999.2500  -999.2500   -48.4879    12.5681    11.5099    81.0215
  492.5000  -999.2500  -999.2500   -48.6750    12.6779    11.6519    79.8898
  493.0000  -999.2500  -999.2500   -48.8619    12.7877    11.7939    78.7580
  493.5000  -999.2500  -999.2500   -49.0478    12.8973    11.9359    77.6263
  494.0000  -999.2500  -999.2500   -49.2390    13.0071    12.0780    76.4945
  494.5000  -999.2500  -999.2500   -49.5448    13.1183    12.2200    75.3627
  495.0000  -999.2500  -999.2500   -50.3152    13.2699    12.3620    74.2310
  495.5000  -999.2500  -999.2500   -51.0760    13.4755    12.5040    73.0992
  496.0000  -999.2500  -999.2500   -51.7933    13.6801    12.6461    71.9674
  496.5000  -999.2500  -999.2500   -51.9552    13.8849    12.7885    70.8357
  497.0000  -999.2500  -999.2500   -51.9873    14.0888    12.9296    69.7039
  497.5000  -999.2500  -999.2500   -52.6035    14.2890    13.1055    68.5721
  498.0000  -999.2500  -999.2500   -53.3064    14.5491    13.2929    67.4404
  498.5000  -999.2500  -999.2500   -54.0119    14.8019    13.4819    66.3921
  499.0000  -999.2500  -999.2500   -54.7165    15.0536    13.6709    65.5515
  499.5000  -999.2500  -999.2500   -55.4210    15.3055    13.8599    64.7108
  500.0000  -999.2500  -999.2500   -56.1143    15.5569    14.0489    63.8701
  500.5000  -999.2500  -999.2500   -56.5809    15.8160    14.2379    63.0295
  501.0000  -999.2500  -999.2500   -56.4250    16.0611    14.4269    62.1888
  501.5000  -999.2500  -999.2500   -56.2805    16.3135    14.6160    61.3482
  502.0000  -999.2500  -999.2500   -56.1098    16.5661    14.8045    60.5075
  502.5000  -999.2500  -999.2500   -55.7701    16.8187    14.9947    59.6668
  503.0000  -999.2500  -999.2500   -55.0747    17.0723    15.0456    58.8262
  503.5000  -999.2500  -999.2500   -54.0677    17.3355    14.9867    57.9855
  504.0000  -999.2500  -999.2500   -53.0526    17.1063    14.9262    57.7555
  504.5000  -999.2500  -999.2500   -52.5838    16.7374    14.8654    58.1440
  505.0000  -999.2500  -999.2500   -53.9032    16.6120    14.8052    58.5325
  505.5000  -999.2500  -999.2500   -55.5898    16.9347    14.7013    59.2652
