~VERSION INFORMATION
 VERS.                2.0:   CWLS LOG ASCII STANDARD - VERSION 2.0
 WRAP.                 NO:   ONE LINE PER DEPTH STEP
~WELL INFORMATION
#MNEM.UNIT      DATA TYPE    INFORMATION
#----------   ------------   ------------------------------
 STRT.F            2.0000:   START DEPTH
 STOP.F          670.5000:   STOP DEPTH
 STEP.F            0.5000:   STEP LENGTH
 NULL.          -999.2500:   NO VALUE
 COMP. BROWN JOHN E&C INC:   COMPANY
 WELL. 27-26 STX-11 #26-11:   WELL
 FLD .             TEAPOT:   FIELD
 LOC .      S11 T38N R78W:   LOCATION
 CNTY.            NATRONA:   COUNTY
 STAT.            WYOMING:   STATE
 CTRY. UNITED STATES OF AMERICA:   COUNTRY
 SRVC.           Gearhart:   SERVICE COMPANY
 DATE.        07-JUL-1987:   LOGDATE
 API .       490251114800:   API NUMBER
~CURVE INFORMATION
#MNEM.UNIT       API CODE    CURVE DESCRIPTION
#----------   ------------   ------------------------------
 DEPT.F                  :   
 GRR .GAPI   07 310 01 00:   GAMMA RAY FROM RES. LOG
 RILD.OHMM   07 120 46 00:   INDUCTION LOG DEEP RESISTIVITY
 RILM.OHMM   07 120 44 00:   INDUCTION LOG MEDIUM RESISTIVITY
~PARAMETER INFORMATION
#MNEM.UNIT          VALUE    DESCRIPTION
#----------   ------------   ------------------------------
 PD  .                 GL:   PERMANENT DATUM
 EPD .F              5199:   ELEVATION PERMANENT DATUM
 LMF .                 KB:   LOG MEASURED FROM
 DAPD.F                 8:   FEET ABOVE PERMANENT DATUM
 DMF .                 KB:   DRILLING MEASURED FROM
 EKB .F              5207:   KELLING BUSHING
 EDF .F              5205:   DRILLING FLOOR
 EGL .F              5199:   GROUND LEVEL
 DATE.             7-7-87:   RUN DATE
 RUN .                  1:   RUN NUMBER
 DD  .F               680:   DEPTH DRILLER
 DL  .F               679:   DEPTH LOGGER
 BLI .F               671:   BOTTOM LOG INTERVAL
 CS  .IN            8.625:   CASING SIZE
 CBD .F                50:   CASING BOTTOM DRILLER
 CBL .F                50:   CASING BOTTOM LOGGER
 BS  .IN             7.87:   BIT SIZE
 BSD .F               680:   BIT SIZE AT DEPTH
 DFT .                AIR:   DRILLING FLUID TYPE
 TCS .HRS            1800:   TIME CURCULATED STOPPED
 TLAB.HRS            1954:   TIME LOGGER AT BOTTOM
 LUN .               7597:   LOGGING UNIT NUMBER
 LUL .           GILLETTE:   LOGGING UNIT LOCATION
 ENGI. JOHNSTON/HUCKFELDT:   RECORDING ENGINEER
 WITN.             STRONG:   WITNESSED BY
 CLNT.            A2DTECH:   CLIENT CODE
 ORIG.       2", 5" PRINT:   ORIGIN OF DATA
 UWI .       490251114800:   UNIQUE WELL ID
 DICO. A2D Technologies, Inc.:   DIGITIZING COMPANY
~OTHER INFORMATION
~A    DEPT      GRR      RILD       RILM   
# ...
  184.0000   120.4126    10.0686    10.7372
  184.5000   121.4939    10.0431    10.7100
  185.0000   122.4097    10.0177    10.6828
  185.5000   122.0855     9.9923    10.6558
  186.0000   121.7044     9.9670    10.6288
  186.5000   121.3203     9.9417    10.6019
  187.0000   121.1767     9.9165    10.5750
  187.5000   121.3262     9.8914    10.5482
  188.0000   121.4791     9.8664    10.5215
  188.5000   121.3667     9.8414    10.4949
  189.0000   120.2353     9.8165    10.4683
  189.5000   116.9396     9.7916    10.4418
  190.0000   113.2537     9.7668    10.4153
  190.5000   111.1025     9.7421    10.3889
  191.0000   113.1473     9.7174    10.3626
  191.5000   118.0650     9.6928    10.3364
  192.0000   122.9489     9.6682    10.3103
  192.5000   127.5029     9.6437    10.2846
  193.0000   128.0670     9.6061    10.2333
  193.5000   127.0022     9.5337    10.1567
  194.0000   125.7859     9.4618    10.0800
  194.5000   124.5561     9.3904    10.0039
  195.0000   123.3540     9.3196     9.9284
  195.5000   123.9180     9.2493     9.8535
  196.0000   127.2736     9.1795     9.7792
  196.5000   130.5234     9.1103     9.7055
  197.0000   133.7071     9.0416     9.6322
  197.5000   134.9931     8.9734     9.5596
  198.0000   136.0760     8.8407     9.4763
  198.5000   135.7159     8.6442     9.3888
  199.0000   134.0981     8.4521     9.3022
  199.5000   132.5334     8.2643     9.1586
  200.0000   130.9313     8.0806     8.9925
  200.5000   130.9629     7.9010     8.8295
  201.0000   131.1174     7.7800     8.6694
  201.5000   131.3774     7.8198     8.5123
  202.0000   132.3908     7.8524     8.3780
  202.5000   133.4269     7.9546     8.5105
  203.0000   134.4021     8.0657     8.6293
  203.5000   132.4938     8.1783     8.7498
  204.0000   129.2294     8.2926     8.8721
  204.5000   125.8425     8.4084     8.9960
  205.0000   123.8247     8.5261     9.1216
  205.5000   123.3560     8.6446     9.2490
  206.0000   122.3980     8.6950     9.2760
  206.5000   120.3546     8.6940     9.2760
  207.0000   118.6998     8.6940     9.2533
  207.5000   119.5882     8.5920     9.1460
  208.0000   120.9409     8.4924     9.0399
  208.5000   122.3096     8.3851     8.9228
  209.0000   123.5021     8.2741     8.8046
  209.5000   122.0170     8.1645     8.6940
  210.0000   120.4768     8.1176     8.7517
  210.5000   118.9486     8.0813     8.8079
  211.0000   117.4253     8.0446     8.8636
  211.5000   115.8949     7.9987     8.9210
  212.0000   115.0774     8.2556     9.1362
  212.5000   116.7180     8.6541     9.4315
  213.0000   116.2841     9.0672     9.7364
  213.5000   113.7484     9.6259    10.0540
  214.0000   107.7471     9.5805    10.2740
  214.5000   102.4093     9.4944    10.1576
  215.0000   102.2326     9.4079    10.0583
  215.5000   104.8035     9.3224     9.9600
  216.0000   111.4865     9.2379     9.8627
  216.5000   118.0848     9.1542     9.7664
  217.0000   118.7402     9.0712     9.6711
  217.5000   117.7079     8.9887     9.5761
  218.0000   116.3562     8.9230     9.4075
  218.5000   115.3671     8.8811     9.2750
  219.0000   115.4408     8.8399     9.2645
  219.5000   116.2460     8.7987     9.2558
  220.0000   116.1273     8.7748     9.2466
  220.5000   114.6373     8.7488     9.2375
  221.0000   113.5178     8.7233     9.2283
  221.5000   113.7892     8.6980     9.2192
  222.0000   114.7949     8.6726     9.2099
  222.5000   118.9935     8.6474     9.2008
  223.0000   122.0260     8.6222     9.1928
  223.5000   123.8407     8.5193     9.1019
  224.0000   124.7780     8.3802     9.0017
  224.5000   125.0797     8.2433     8.9023
  225.0000   124.9406     8.0735     8.8039
  225.5000   124.7874     8.0801     8.7694
  226.0000   123.7675     8.0875     8.7605
  226.5000   122.6283     8.0949     8.7523
  227.0000   121.4859     8.1023     8.7440
  227.5000   120.3347     8.1097     8.7357
  228.0000   119.2212     8.1172     8.7274
  228.5000   120.2738     8.1246     8.7191
  229.0000   121.4769     8.1320     8.7107
  229.5000   122.6844     8.1395     8.7023
  230.0000   123.0738     8.1469     8.6946
  230.5000   122.9193     8.1549     8.7090
  231.0000   123.1338     8.1630     8.7244
  231.5000   125.2170     8.1711     8.7398
  232.0000   126.1398     8.1792     8.7552
  232.5000   125.4943     8.1873     8.7706
  233.0000   124.0417     8.1954     8.7860
  233.5000   122.5678     8.2037     8.8015
  234.0000   121.2031     8.2121     8.8170
  234.5000   121.0191     8.2199     8.8325
  235.0000   120.8303     8.2891     8.8481
  235.5000   119.2907     8.4328     8.9441
  236.0000   116.0807     8.5790     9.1358
  236.5000   112.8514     8.7277     9.2772
  237.0000   111.9025     8.8062     9.3701
  237.5000   112.2032     8.8565     9.4497
  238.0000   114.7550     8.8346     9.4171
  238.5000   120.4745     8.7913     9.3708
  239.0000   124.5518     8.7482     9.3247
  239.5000   127.3978     8.7054     9.2760
  240.0000   127.5487     8.6333     9.1938
  240.5000   126.0928     8.5513     9.1065
  241.0000   124.6299     8.4701     9.0200
  241.5000   123.5864     8.3897     8.9344
  242.0000   122.8415     8.3100     8.8495
  242.5000   122.1519     8.2311     8.7655
  243.0000   121.5553     8.1529     8.6822
  243.5000   120.9491     8.0755     8.5998
  244.0000   120.3378     7.9991     8.5269
  244.5000   121.9955     7.9635     8.4891
  245.0000   124.0265     7.9282     8.4514
  245.5000   126.0640     7.8930     8.4140
  246.0000   128.1003     7.8580     8.3780
  246.5000   130.1395     7.7585     8.2885
  247.0000   132.0304     7.6480     8.2243
  247.5000   131.5954     7.5669     8.3131
  248.0000   129.9368     7.6366     8.3848
  248.5000   127.0786     7.6925     8.4572
  249.0000   124.2347     7.7487     8.5302
  249.5000   122.4479     7.8054     8.6038
  250.0000   121.7702     7.8626     8.6780
  250.5000   121.0919     7.9247     8.7529
  251.0000   120.4159     8.0338     8.8307
  251.5000   119.7078     8.1548     8.9101
  252.0000   118.5144     8.2777     8.9902
  252.5000   117.9275     8.4025     9.0711
  253.0000   119.0771     8.5293     9.1527
  253.5000   119.9793     8.6139     9.1905
  254.0000   121.1920     8.6139     9.1905
  254.5000   122.5953     8.6140     9.1905
  255.0000   123.9872     8.6140     9.1905
  255.5000   124.5590     8.6146     9.1911
  256.0000   123.2944     8.6147     9.1916
  256.5000   122.0695     8.4901     9.0316
  257.0000   120.8584     8.3645     8.8980
  257.5000   119.8184     8.2408     8.7664
  258.0000   120.7857     8.1189     8.6368
  258.5000   122.5164     7.9991     8.5345
  259.0000   124.2904     7.9254     8.4559
  259.5000   123.3619     7.9254     8.5860
  260.0000   122.3830     7.9254     8.6798
  260.5000   124.0759     7.9254     8.7746
  261.0000   125.8995     8.0030     8.8705
  261.5000   127.6855     8.1869     8.9674
  262.0000   127.9186     8.3750     9.1201
  262.5000   125.4093     8.5674     9.3463
  263.0000   122.9460     8.7642     9.5782
  263.5000   120.4618     8.9655     9.8158
  264.0000   118.9796     9.1715     9.9806
  264.5000   118.0266     9.3822    10.1093
  265.0000   116.3514     9.5372    10.2104
  265.5000   113.7206     9.6689    10.3426
  266.0000   111.0531     9.7924    10.4744
  266.5000   111.1332     9.9176    10.6082
  267.0000   112.3080    10.0443    10.7568
  267.5000   113.4810    10.3198    11.0832
  268.0000   113.3917    10.6665    11.4555
  268.5000   110.3126    11.0248    11.8404
  269.0000   109.6197    11.3952    12.2381
  269.5000   109.2824    11.7780    12.6493
  270.0000   108.8555    12.1737    13.0742
  270.5000   107.5385    12.4486    13.3171
  271.0000   106.2909    12.5900    13.4345
  271.5000   106.4105    12.5393    13.3682
  272.0000   106.6050    12.4866    13.3113
  272.5000   107.5324    12.4338    13.2549
  273.0000   109.5928    12.3811    13.1995
  273.5000   111.6096    12.2794    13.0440
  274.0000   112.0105    12.1430    12.8630
  274.5000   108.9428    12.0080    12.6846
