~VERSION INFORMATION
 VERS.                2.0:   CWLS LOG ASCII STANDARD - VERSION 2.0
 WRAP.                 NO:   ONE LINE PER DEPTH STEP
~WELL INFORMATION
#MNEM.UNIT      DATA TYPE    INFORMATION
#----------   ------------   ------------------------------
 STRT.F            2.5000:   START DEPTH
 STOP.F         1003.0000:   STOP DEPTH
 STEP.F            0.5000:   STEP LENGTH
 NULL.          -999.2500:   NO VALUE
 COMP. U S NAVY-INTEX OIL:   COMPANY
 WELL.   NPR #3 #87-SX-27:   WELL
 FLD .             TEAPOT:   FIELD
 LOC .      S27 T39N R78W:   LOCATION
 CNTY.            NATRONA:   COUNTY
 STAT.            WYOMING:   STATE
 CTRY. UNITED STATES OF AMERICA:   COUNTRY
 SRVC. Schlumberger Well Surveying Corp:   SERVICE COMPANY
 DATE.        13-AUG-1961:   LOGDATE
 API .       490250659000:   API NUMBER
~CURVE INFORMATION
#MNEM.UNIT       API CODE    CURVE DESCRIPTION
#----------   ------------   ------------------------------
 DEPT.F                  :   
 ASN .OHMM   05 041 16 00:   AMPLIFIER SHORT NORMAL
 SPR .MV     05 010 01 00:   SPONTANEOUS POTENSIAL
 CILD.MMHO   05 110 46 00:   CONDUCTIVITY INDUCTION LOG DEEP
 ILD .OHMM   05 120 46 00:   INDUCTION LOG DEEP
 GRN .MG/TON 35 310 30 00:   GAMMA RAY
 NEUT.NAPI   35 330 01 00:   NEUTRON
~PARAMETER INFORMATION
#MNEM.UNIT          VALUE    DESCRIPTION
#----------   ------------   ------------------------------
 PD  .                 GL:   PERMANENT DATUM
 EPD .F              5082:   ELEVATION PERMANENT DATUM
 LMF .                 KB:   LOG MEASURED FROM
 DAPD.F                 5:   FEET ABOVE PERMANENT DATUM
 DMF .                 KB:   DRILLING MEASURED FROM
 EKB .F              5087:   KELLING BUSHING
 EGL .F              5082:   GROUND LEVEL
 DATE.        13-AUG-1961:   RUN DATE
 RUN .                  1:   RUN NUMBER
 DD  .F              1000:   DEPTH DRILLER
 DL  .F              1003:   DEPTH LOGGER
 BLI .F              1002:   BOTTOM LOG INTERVAL
 TLI .F                90:   TOP LOG INTERVAL
 BS  .IN             6.75:   BIT SIZE
 BSD .F              1000:   BIT SIZE AT DEPTH
 DFT . OIL EMUL (12% OIL):   DRILLING FLUID TYPE
 DFD .                9.3:   DRILLING FLUID DENSITY
 DFV .                 60:   DRILLING FLUID VISCOSITY
 DFL .                  4:   DRILLING FLUID LOSS
 MSS .           FLOWLINE:   MUD SAMPLE SOURCE
 RMS .OHMM           1.29:   RESISTIVITY MUD SAMPLE
 MST .F                80:   MUD SAMPLE TEMPERATURE
 TCS .HRS               1:   TIME CURCULATED STOPPED
 LUN .               2523:   LOGGING UNIT NUMBER
 LUL .               CSPR:   LOGGING UNIT LOCATION
 ENGI.              SCOTT:   RECORDING ENGINEER
 WITN.          JORGENSEN:   WITNESSED BY
 CLNT.            A2DTECH:   CLIENT CODE
 ORIG.       2", 5" PRINT:   ORIGIN OF DATA
 UWI .       490250659000:   UNIQUE WELL ID
 DICO. A2D Technologies, Inc.:   DIGITIZING COMPANY
~OTHER INFORMATION
~A    DEPT     ASN        SPR       CILD        ILD          GRN     NEUT   
# ...
   54.5000  -999.2500  -999.2500  -999.2500  -999.2500     5.9097   148.6215
   55.0000  -999.2500  -999.2500  -999.2500  -999.2500     6.0134   157.9020
   55.5000  -999.2500  -999.2500  -999.2500  -999.2500     6.1240   161.2511
   56.0000  -999.2500  -999.2500  -999.2500  -999.2500     6.1817   160.9082
   56.5000  -999.2500  -999.2500  -999.2500  -999.2500     6.1995   158.6573
   57.0000  -999.2500  -999.2500  -999.2500  -999.2500     5.8830   152.9802
   57.5000  -999.2500  -999.2500  -999.2500  -999.2500     5.7126   140.4417
   58.0000  -999.2500  -999.2500  -999.2500  -999.2500     5.7022   131.9291
   58.5000  -999.2500  -999.2500  -999.2500  -999.2500     5.6183   127.7438
   59.0000  -999.2500  -999.2500  -999.2500  -999.2500     5.5319   122.9813
   59.5000  -999.2500  -999.2500  -999.2500  -999.2500     5.4989   122.3158
   60.0000  -999.2500  -999.2500  -999.2500  -999.2500     5.4804   119.7930
   60.5000  -999.2500  -999.2500  -999.2500  -999.2500     5.5080   115.3899
   61.0000  -999.2500  -999.2500  -999.2500  -999.2500     5.6725   113.1124
   61.5000  -999.2500  -999.2500  -999.2500  -999.2500     5.7287   125.2588
   62.0000  -999.2500  -999.2500  -999.2500  -999.2500     5.7782   133.7308
   62.5000  -999.2500  -999.2500  -999.2500  -999.2500     5.8226   131.3004
   63.0000  -999.2500  -999.2500  -999.2500  -999.2500     5.8425   124.4997
   63.5000  -999.2500  -999.2500  -999.2500  -999.2500     5.8471   119.6980
   64.0000  -999.2500  -999.2500  -999.2500  -999.2500     5.6036   118.0722
   64.5000  -999.2500  -999.2500  -999.2500  -999.2500     5.5374   113.8717
   65.0000  -999.2500  -999.2500  -999.2500  -999.2500     5.6656   117.9710
   65.5000  -999.2500  -999.2500  -999.2500  -999.2500     5.6977   127.5363
   66.0000  -999.2500  -999.2500  -999.2500  -999.2500     5.7343   144.6374
   66.5000  -999.2500  -999.2500  -999.2500  -999.2500     5.7487   160.6691
   67.0000  -999.2500  -999.2500  -999.2500  -999.2500     5.7028   168.5300
   67.5000  -999.2500  -999.2500  -999.2500  -999.2500     5.5755   175.3117
   68.0000  -999.2500  -999.2500  -999.2500  -999.2500     5.4334   186.8406
   68.5000  -999.2500  -999.2500  -999.2500  -999.2500     5.3857   183.7129
   69.0000  -999.2500  -999.2500  -999.2500  -999.2500     5.3873   176.9692
   69.5000  -999.2500  -999.2500  -999.2500  -999.2500     5.4674   173.0849
   70.0000  -999.2500  -999.2500  -999.2500  -999.2500     5.5932   191.2032
   70.5000  -999.2500  -999.2500  -999.2500  -999.2500     5.6287   204.4438
   71.0000  -999.2500  -999.2500  -999.2500  -999.2500     5.6466   192.8226
   71.5000  -999.2500  -999.2500  -999.2500  -999.2500     5.6364   188.6613
   72.0000  -999.2500  -999.2500  -999.2500  -999.2500     5.5827   189.0269
   72.5000  -999.2500  -999.2500  -999.2500  -999.2500     5.5043   188.2678
   73.0000  -999.2500  -999.2500  -999.2500  -999.2500     5.4482   181.5569
   73.5000  -999.2500  -999.2500  -999.2500  -999.2500     5.4869   165.1570
   74.0000  -999.2500  -999.2500  -999.2500  -999.2500     5.5741   153.8633
   74.5000  -999.2500  -999.2500  -999.2500  -999.2500     5.7273   164.0029
   75.0000  -999.2500  -999.2500  -999.2500  -999.2500     5.8046   181.4355
   75.5000  -999.2500  -999.2500  -999.2500  -999.2500     5.8492   192.7504
   76.0000  -999.2500  -999.2500  -999.2500  -999.2500     5.9009   204.8677
   76.5000  -999.2500  -999.2500  -999.2500  -999.2500     5.9405   211.0421
   77.0000  -999.2500  -999.2500  -999.2500  -999.2500     6.0518   207.2388
   77.5000  -999.2500  -999.2500  -999.2500  -999.2500     6.0971   195.3723
   78.0000  -999.2500  -999.2500  -999.2500  -999.2500     5.9127   186.7495
   78.5000  -999.2500  -999.2500  -999.2500  -999.2500     5.8259   186.9886
   79.0000  -999.2500  -999.2500  -999.2500  -999.2500     5.8583   189.0269
   79.5000  -999.2500  -999.2500  -999.2500  -999.2500     6.0056   189.7860
   80.0000  -999.2500  -999.2500  -999.2500  -999.2500     6.0673   178.5506
   80.5000     1.2763   -16.7495   149.2718     5.1640     6.0770   170.0483
   81.0000     1.8569   -16.9955   151.9970     5.0419     6.0147   175.4459
   81.5000     2.5088   -17.0853   158.3272     4.9198     5.9704   181.5000
   82.0000     2.7778   -17.3283   168.3583     4.7224     5.9356   182.9538
   82.5000     2.9242   -17.5938   180.6431     4.6687     5.9312   185.5285
   83.0000     3.1069   -17.6642   191.4292     4.6687     5.9472   201.1732
   83.5000     3.4384   -17.7425   192.9505     4.7440     5.9071   209.9717
   84.0000     3.8689   -17.7416   191.2713     4.8193     5.6308   214.4229
   84.5000     4.2643   -17.5908   183.9906     4.9541     5.5258   216.3561
   85.0000     5.4967   -17.2898   180.0050     5.1217     5.5295   218.9752
   85.5000     6.1856   -17.0503   173.5215     5.2919     5.6988   226.3983
   86.0000     6.6366   -16.8058   167.2372     5.6310     5.7757   240.6487
   86.5000     7.0189   -16.5367   160.8533     6.0994     5.8120   247.6404
   87.0000     7.3949   -16.2477   154.0709     6.5901     5.6628   252.7950
   87.5000     7.5526   -15.9222   147.3349     6.9465     5.5481   254.7878
   88.0000     7.6677   -15.7836   140.2002     7.1536     5.4957   252.0156
   88.5000     7.7778   -15.7830   136.1218     7.0506     5.4736   245.2036
   89.0000     7.8579   -15.7823   134.0390     7.0030     5.5455   233.3533
   89.5000     7.9799   -15.7815   131.6587     6.8817     5.7899   217.7367
   90.0000     8.1081   -15.8108   131.6817     6.8348     5.7892   195.8592
   90.5000     8.1231   -15.9302   134.1066     6.7018     5.7523   196.1591
   91.0000     8.0556   -16.0796   139.2352     6.6659     5.7033   198.1366
   91.5000     7.8829   -16.0893   143.9615     6.5438     5.6771   175.9685
   92.0000     7.7477   -16.3782   148.5886     6.4006     5.8355   159.3292
   92.5000     7.5225   -16.5279   151.3161     6.1985     5.9874   158.5219
   93.0000     7.3436   -16.6771   156.5415     6.0241     6.0015   176.5668
   93.5000     7.2366   -16.6764   159.1667     5.7101     5.7829   184.4720
   94.0000     7.1171   -16.7037   163.3971     5.4814     5.7731   183.3991
   94.5000     7.0145   -16.8251   164.9174     5.2711     5.8782   196.2615
   95.0000     6.9169   -16.8243   166.4415     5.1619     6.0168   202.8054
   95.5000     6.8468   -16.9737   167.9655     5.1205     6.0764   206.4873
   96.0000     6.8318   -16.9728   167.9880     5.3464     6.1753   208.0055
   96.5000     6.8318   -16.9722   168.0119     5.5444     6.4002   206.4873
   97.0000     6.8493   -16.9714   168.0330     5.7229     6.4968   206.0596
   97.5000     6.9225   -16.8206   166.5518     5.7982     6.5373   204.9689
   98.0000     7.0871   -16.7938   165.0778     5.8870     6.5707   211.0421
   98.5000     7.1747   -16.6688   160.7933     5.9488     6.6319   217.6391
   99.0000     7.2710   -16.4550   156.0110     6.1313     6.6883   225.8733
   99.5000     7.3574   -16.0538   153.1348     6.3355     6.6840   237.6121
  100.0000     7.4274   -15.5656   151.1511     6.7018     6.4925   251.0238
  100.5000     7.4625   -15.3146   147.1701     6.9494     6.4283   257.3499
  101.0000     7.5100   -15.3138   143.8889     7.1536     6.4514   257.7978
  101.5000     7.5770   -15.4632   139.0065     7.2337     6.4776   256.4250
  102.0000     7.6727   -15.4865   133.7256     7.3042     6.3741   248.9993
  102.5000     7.7534   -15.7619   128.4910     7.3042     6.1580   229.1286
  103.0000     7.8253   -16.1837   121.1561     7.0939     6.0482   219.1573
  103.5000     7.8679   -16.5158   111.2720     6.8496     6.0010   218.7816
  104.0000     7.8679   -16.7588   122.4024     6.6054     5.9646   223.0366
  104.5000     7.6577   -16.8516   139.9925     6.3218     5.9354   221.6701
  105.0000     7.3473   -16.9595   148.3734     5.7982     5.9231   198.4150
  105.5000     7.1315   -16.8801   153.2508     5.3449     5.8978   189.2281
  106.0000     7.0120   -16.8078   160.9319     5.0452     5.8741   186.7495
