~VERSION INFORMATION
 VERS.                2.0:   CWLS LOG ASCII STANDARD - VERSION 2.0
 WRAP.                 NO:   ONE LINE PER DEPTH STEP
~WELL INFORMATION
#MNEM.UNIT      DATA TYPE    INFORMATION
#----------   ------------   ------------------------------
 STRT.F           41.0000:   START DEPTH
 STOP.F          473.5000:   STOP DEPTH
 STEP.F            0.5000:   STEP LENGTH
 NULL.          -999.2500:   NO VALUE
 COMP. BROWN JOHN E&C INC:   COMPANY
 WELL. SX 10 #54-43-10-10:   WELL
 FLD .             TEAPOT:   FIELD
 LOC .      S10 T38N R78W:   LOCATION
 CNTY.            NATRONA:   COUNTY
 STAT.            WYOMING:   STATE
 CTRY. UNITED STATES OF AMERICA:   COUNTRY
 SRVC.       Schlumberger:   SERVICE COMPANY
 DATE.        13-SEP-1990:   LOGDATE
 API .       490251131600:   API NUMBER
~CURVE INFORMATION
#MNEM.UNIT       API CODE    CURVE DESCRIPTION
#----------   ------------   ------------------------------
 DEPT.F                  :   
 GRR .GAPI   07 310 01 00:   GAMMA RAY
 ILD .OHMM   07 120 46 00:   INDUCTION LOG DEEP
 ILM .OHMM   07 120 44 00:   INDUCTION LOG MEDIUM
~PARAMETER INFORMATION
#MNEM.UNIT          VALUE    DESCRIPTION
#----------   ------------   ------------------------------
 PD  .                 GL:   PERMANENT DATUM
 EPD .F            5193.0:   ELEVATION PERMANENT DATUM
 LMF .                 KB:   LOG MEASURED FROM
 DAPD.F              10.0:   FEET ABOVE PERMANENT DATUM
 DMF .                 KB:   DRILLING MEASURED FROM
 EKB .F            5203.0:   KELLING BUSHING
 EDF .F            5202.0:   DRILLING FLOOR
 EGL .F            5193.0:   GROUND LEVEL
 DATE.        13-SEP-1990:   RUN DATE
 RUN .                  1:   RUN NUMBER
 DD  .F               480:   DEPTH DRILLER
 DL  .F               479:   DEPTH LOGGER
 BLI .F               473:   BOTTOM LOG INTERVAL
 TLI .F                47:   TOP LOG INTERVAL
 CS  .IN            8.625:   CASING SIZE
 CBD .F                50:   CASING BOTTOM DRILLER
 CBL .F                47:   CASING BOTTOM LOGGER
 BS  .IN            7.875:   BIT SIZE
 BSD .F               480:   BIT SIZE AT DEPTH
 DFT .          AIR/ FOAM:   DRILLING FLUID TYPE
 MSS .           MUD TANK:   MUD SAMPLE SOURCE
 MFSS.               MEAS:   MUD FILTRATE SAMPLE SOURCE
 MCSS.               CALC:   MUD CAKE SAMPLE SOURCE
 TCS .HRS            0700:   TIME CURCULATED STOPPED
 TLAB.HRS            0730:   TIME LOGGER AT BOTTOM
 LUN .               8168:   LOGGING UNIT NUMBER
 LUL .           GILLETTE:   LOGGING UNIT LOCATION
 ENGI.          M. FISHER:   RECORDING ENGINEER
 WITN.          G. STRONG:   WITNESSED BY
 CLNT.            A2DTECH:   CLIENT CODE
 ORIG.           5" PRINT:   ORIGIN OF DATA
 UWI .       490251131600:   UNIQUE WELL ID
 DICO. A2D Technologies, Inc.:   DIGITIZING COMPANY
~OTHER INFORMATION
~A   DEPT       GRR       ILD        ILM   
# ...
  314.0000   105.0708    16.4607    16.5758
  314.5000    99.9252    16.4563    16.4559
  315.0000   101.1145    16.3384    16.3380
  315.5000   102.6055    15.9822    15.9979
  316.0000   103.7949    15.7729    15.7736
  316.5000   105.0327    15.5519    15.5524
  317.0000   106.1734    15.4404    15.4401
  317.5000   106.4577    15.2240    15.2237
  318.0000   105.8328    15.1121    15.1146
  318.5000   105.5138    15.0057    15.0063
  319.0000   105.1946    14.7953    14.8988
  319.5000   105.4791    14.5880    14.5876
  320.0000   107.2674    14.5841    14.4831
  320.5000   111.1716    14.4796    14.4793
  321.0000   114.4725    14.3758    14.4754
  321.5000   115.6618    14.2729    14.4716
  322.0000   114.9441    14.3682    14.4677
  322.5000   111.7013    14.4642    14.5644
  323.0000   109.5723    14.5609    14.5596
  323.5000   107.1417    14.5561    14.7597
  324.0000   106.2194    14.8577    14.8584
  324.5000   105.9004    15.0599    14.9566
  325.0000   107.0854    15.1616    15.0566
  325.5000   108.2747    15.2629    15.2615
  326.0000   109.4683    15.3639    15.3645
  326.5000   109.7526    15.3598    15.2534
  327.0000   106.4127    15.1435    15.1441
  327.5000   101.2215    14.9312    14.9267
  328.0000    99.4399    14.5194    14.6200
  328.5000   104.2448    14.2171    14.3156
  329.0000   107.8473    14.1153    14.1150
  329.5000   106.9250    13.8127    13.8211
  330.0000   107.2094    13.4393    13.6274
  330.5000   108.4648    13.2510    13.3333
  331.0000   110.7903    12.9751    12.9748
  331.5000   107.4547    13.0618    12.9713
  332.0000   105.9291    13.2404    13.2401
  332.5000   105.0067    13.7174    13.7030
  333.0000   103.4811    14.7830    14.8864
  333.5000    99.2362    15.8388    16.7407
  334.0000    95.9006    17.9367    18.6973
  334.5000    88.6435    19.8948    20.8825
  335.0000    84.4029    21.6281    22.8437
  335.5000    82.2740    24.3052    24.4752
  336.0000    80.4467    26.7725    26.0518
  336.5000    81.9333    28.6846    27.9003
  337.0000    84.6309    30.7333    29.6867
  337.5000    86.1262    31.5883    31.1530
  338.0000    87.0139    31.5795    32.2420
  338.5000    83.9756    31.3514    33.1388
  339.0000    82.7516    30.6987    33.1297
  339.5000    86.9532    30.9038    32.6635
  340.0000    90.2541    31.5442    32.4294
  340.5000    90.8444    32.1978    33.1014
  341.0000    88.7111    33.0934    33.5542
  341.5000    88.3921    33.0824    34.0131
  342.0000    89.5771    33.0736    34.7156
  342.5000    89.5598    33.2968    34.9499
  343.0000    87.7325    33.2858    34.9391
  343.5000    85.3019    33.0472    35.1726
  344.0000    81.0613    33.0364    35.1609
  344.5000    78.6307    32.1253    34.6681
  345.0000    82.5306    31.2393    32.7910
  345.5000    85.5299    30.8015    31.6666
  346.0000    89.4341    30.1602    30.7933
  346.5000    93.0367    29.5123    29.9239
  347.0000    95.7343    28.7159    29.3187
  347.5000    98.5014    28.3134    28.9077
  348.0000    96.6003    27.7239    28.3059
  348.5000    93.2647    26.9593    27.7165
  349.0000    92.0407    26.3980    27.1394
  349.5000    91.1184    25.8203    26.5453
  350.0000    91.7044    25.4608    25.9160
  350.5000    94.9973    25.1277    24.9344
  351.0000    97.3871    24.9476    24.6070
  351.5000    99.4974    24.4280    24.4323
  352.0000   100.9602    24.5912    24.2588
  352.5000   101.2326    25.0990    24.5934
  353.0000   101.2092    25.6191    25.8084
  353.5000   101.1858    26.3316    26.8980
  354.0000    98.7491    26.5092    28.8261
  354.5000    88.7709    26.8699    29.4200
  355.0000    86.0326    27.0494    28.4116
  355.5000    86.0092    27.0419    27.4391
  356.0000    89.4359    27.0331    26.6841
  356.5000    91.3922    26.8393    26.6787
  357.0000    91.3630    26.2805    25.9446
  357.5000    91.6412    25.2041    25.4061
  358.0000    94.3327    24.1718    24.7025
  358.5000    97.3259    23.5052    23.8611
  359.0000   100.0174    23.1648    23.3649
  359.5000   101.2066    22.6915    23.1989
  360.0000   103.0267    22.5289    22.5606
  360.5000   104.4721    22.3674    21.9398
  361.0000   105.3537    22.0539    21.7840
  361.5000   104.7211    21.8958    21.7796
  362.0000   104.3960    21.8899    21.6250
  362.5000   104.3726    21.7330    21.3230
  363.0000   104.3492    21.5573    21.3179
  363.5000   104.9291    20.9807    21.4617
  364.0000   102.9862    20.8304    21.4574
  364.5000    98.2399    20.6811    21.7522
  365.0000    95.8032    20.1107    21.4487
  365.5000    94.2715    19.6919    20.5716
  366.0000    93.6448    19.4158    20.1299
  366.5000    94.5264    19.1347    19.3199
  367.0000    95.4079    18.6144    18.7883
  367.5000    97.4961    18.3534    18.3983
  368.0000    98.9810    18.0961    17.6459
  368.5000    96.5385    17.8424    17.2796
  369.0000    95.6101    17.5923    17.1569
  369.5000    93.1734    17.4662    17.0351
  370.0000    95.5633    17.2214    16.9140
  370.5000    97.6515    16.9798    16.7932
  371.0000    98.2785    16.8571    16.6739
  371.5000    96.0964    16.6208    16.5555
  372.0000    95.4409    16.5017    16.4380
  372.5000    94.8371    16.4972    16.2086
  373.0000    96.3219    16.2660    16.0935
  373.5000    99.3151    16.0379    15.7594
  374.0000   103.8166    15.8130    15.6474
  374.5000   106.5081    15.5904    15.5356
  375.0000   105.2781    15.4786    15.4253
  375.5000   103.7464    15.2616    15.2101
  376.0000   102.7934    15.0477    15.1021
  376.5000   102.1854    14.8367    14.8913
  377.0000   101.5587    14.6287    14.7856
  377.5000    99.7253    14.5239    14.6806
  378.0000    96.6853    14.3202    14.6775
  378.5000    94.5503    14.3155    14.5727
  379.0000    93.6219    14.5112    14.4692
  379.5000    93.5985    14.4072    14.3664
  380.0000    97.5767    14.4034    14.2644
  380.5000   106.2155    14.3995    14.2616
  381.0000   109.5103    14.3956    14.2587
  381.5000   110.6994    14.2924    14.3549
  382.0000   110.6701    14.2877    14.3519
  382.5000   108.2334    14.2838    14.3484
  383.0000   106.7017    14.2800    14.3455
  383.5000   104.5667    14.2762    14.2436
  384.0000   104.6076    14.1739    14.1425
  384.5000   109.3406    14.1701    14.0420
  385.0000   108.1105    14.0685    13.9423
  385.5000   104.4672    13.9676    13.8433
  386.0000   101.7289    13.8666    13.6501
  386.5000   100.8063    13.7672    13.5526
  387.0000   104.6986    13.6686    13.5498
  387.5000   109.2001    13.5706    13.5471
  388.0000   113.7502    13.4733    13.4509
  388.5000   118.8547    13.3768    13.2632
  389.0000   118.4755    13.3670    13.1690
  389.5000   117.5471    13.2764    13.1658
  390.0000   116.3170    13.2729    13.0728
  390.5000   110.5621    13.2693    13.0696
  391.0000   105.7121    13.2658    13.2492
  391.5000   102.9738    13.1707    13.3393
  392.0000   106.6100    13.0763    13.2439
  392.5000   112.6245    13.0728    13.3332
  393.0000   111.3442    12.9790    13.2385
  393.5000   110.7233    12.9747    13.2359
  394.0000   113.1073    12.8818    13.2331
  394.5000   115.4972    12.8783    13.2299
  395.0000   116.3846    12.8748    13.2272
  395.5000   114.8470    12.8714    13.1333
  396.0000   114.5219    12.7791    13.1306
  396.5000   116.6920    12.7756    12.9474
  397.0000   120.5024    12.7714    12.8555
  397.5000   123.7973    12.6799    12.7642
  398.0000   122.8689    12.5021    12.7474
  398.5000   117.4156    12.3269    12.4961
  399.0000   114.6773    12.2385    12.4073
  399.5000   113.4472    11.9837    12.2342
  400.0000   114.6305    11.8157    12.1250
  400.5000   114.9117    11.6504    11.9761
  401.0000   114.8861    11.6481    11.6450
  401.5000   115.4690    11.4063    11.3965
  402.0000   117.2585    11.1695    11.1627
  402.5000   121.7629    11.0136    11.0054
  403.0000   127.1723    10.8545    10.7755
  403.5000   128.9623    10.6340    10.4776
  404.0000   127.7345    10.4133    10.3301
  404.5000   127.4126    10.1267    10.1846
