~VERSION INFORMATION
 VERS.                2.0:   CWLS LOG ASCII STANDARD - VERSION 2.0
 WRAP.                 NO:   ONE LINE PER DEPTH STEP
~WELL INFORMATION
#MNEM.UNIT      DATA TYPE    INFORMATION
#----------   ------------   ------------------------------
 STRT.F          566.5000:   START DEPTH
 STOP.F         2065.5000:   STOP DEPTH
 STEP.F            0.5000:   STEP LENGTH
 NULL.          -999.2500:   NO VALUE
 COMP. LAWRENCE/ALLISON INC:   COMPANY
 WELL.      NPR 3 #25-X-3:   WELL
 FLD .             TEAPOT:   FIELD
 LOC .       S3 T38N R78W:   LOCATION
 CNTY.            NATRONA:   COUNTY
 STAT.            WYOMING:   STATE
 CTRY. UNITED STATES OF AMERICA:   COUNTRY
 SRVC.            Unknown:   SERVICE COMPANY
 DATE.        26-SEP-1987:   LOGDATE
 API .       490251119000:   API NUMBER
~CURVE INFORMATION
#MNEM.UNIT       API CODE    CURVE DESCRIPTION
#----------   ------------   ------------------------------
 DEPT.F                  :   
 ROP .MIN/FT 91 810 01 00:   RATE OF DRILLING PENETRATION
 TGAS.UNITS  91 830 01 00:   TOTAL GAS FROM HOTWIRE
~PARAMETER INFORMATION
#MNEM.UNIT          VALUE    DESCRIPTION
#----------   ------------   ------------------------------
 DATE.        26-SEP-1987:   RUN DATE
 RUN .                  1:   RUN NUMBER
 DD  .F              2066:   DEPTH DRILLER
 TLI .F               566:   TOP LOG INTERVAL
 WITN. R. HUSK/R. PETERSON:   WITNESSED BY
 CLNT.            A2DTECH:   CLIENT CODE
 ORIG.           5" PRINT:   ORIGIN OF DATA
 UWI .       490251119000:   UNIQUE WELL ID
 DICO. A2D Technologies, Inc.:   DIGITIZING COMPANY
~OTHER INFORMATION
~A   DEPT        ROP       TGAS 
# ...
 1052.5000     0.3966   201.5738
 1053.0000     0.3967   201.4391
 1053.5000     0.3969   201.3044
 1054.0000     0.3971   201.1697
 1054.5000     0.3973   201.0350
 1055.0000     0.3975   200.9003
 1055.5000     0.3977   200.7656
 1056.0000     0.3979   200.6309
 1056.5000     0.4085   200.4962
 1057.0000     0.4086   200.3615
 1057.5000     0.4087   200.2269
 1058.0000     0.3983   200.0922
 1058.5000     0.3880   199.9575
 1059.0000     0.3776   199.8244
 1059.5000     0.3673   189.9398
 1060.0000     0.3465   177.0982
 1060.5000     0.3362   166.7615
 1061.0000     0.3259   154.4572
 1061.5000     0.3051   154.6230
 1062.0000     0.3052   154.7888
 1062.5000     0.2949   154.9546
 1063.0000     0.2950   155.1204
 1063.5000     0.2951   155.2862
 1064.0000     0.2952   155.4520
 1064.5000     0.2953   155.6178
 1065.0000     0.2954   155.7836
 1065.5000     0.2954   155.9494
 1066.0000     0.2953   156.1152
 1066.5000     0.2953   156.2810
 1067.0000     0.2952   156.4468
 1067.5000     0.2952   156.6126
 1068.0000     0.2952   156.7784
 1068.5000     0.2951   156.9442
 1069.0000     0.2951   157.1100
 1069.5000     0.2950   157.2758
 1070.0000     0.2950   157.4416
 1070.5000     0.2950   157.6074
 1071.0000     0.2949   157.7732
 1071.5000     0.2949   157.9390
 1072.0000     0.2949   158.1048
 1072.5000     0.2948   158.2706
 1073.0000     0.2948   158.4364
 1073.5000     0.2947   158.6022
 1074.0000     0.2947   158.7680
 1074.5000     0.2947   158.9338
 1075.0000     0.2946   159.0996
 1075.5000     0.2946   159.2654
 1076.0000     0.2946   159.4312
 1076.5000     0.2945   159.5970
 1077.0000     0.2945   159.7628
 1077.5000     0.2944   159.9286
 1078.0000     0.2944   160.0943
 1078.5000     0.2944   160.2601
 1079.0000     0.2943   160.4259
 1079.5000     0.2943   160.5918
 1080.0000     0.2943   160.7576
 1080.5000     0.2942   160.9233
 1081.0000     0.2942   161.0891
 1081.5000     0.2941   161.2549
 1082.0000     0.2941   161.4207
 1082.5000     0.2941   161.5865
 1083.0000     0.2940   161.7523
 1083.5000     0.2940   161.9181
 1084.0000     0.2940   162.0839
 1084.5000     0.2939   162.2497
 1085.0000     0.2939   162.4155
 1085.5000     0.2938   162.5813
 1086.0000     0.2938   162.7471
 1086.5000     0.2938   162.9129
 1087.0000     0.2937   163.0787
 1087.5000     0.2937   163.2445
 1088.0000     0.2937   163.4103
 1088.5000     0.2936   163.5761
 1089.0000     0.2936   163.7419
 1089.5000     0.2935   163.9077
 1090.0000     0.2935   164.0735
 1090.5000     0.2935   164.2393
 1091.0000     0.2934   164.4051
 1091.5000     0.2934   164.5709
 1092.0000     0.2933   164.7367
 1092.5000     0.2933   164.9025
 1093.0000     0.2933   165.0683
 1093.5000     0.2932   165.2341
 1094.0000     0.2932   165.3999
 1094.5000     0.2932   165.5657
 1095.0000     0.2931   165.7315
 1095.5000     0.2931   165.8973
 1096.0000     0.2930   166.0631
 1096.5000     0.2930   166.2289
 1097.0000     0.2930   166.3947
 1097.5000     0.2929   166.5605
 1098.0000     0.2929   166.7263
 1098.5000     0.2929   166.8921
 1099.0000     0.2928   167.0579
 1099.5000     0.2928   167.2237
 1100.0000     0.2927   167.3895
 1100.5000     0.2927   167.5553
 1101.0000     0.2927   167.7211
 1101.5000     0.2926   167.8869
 1102.0000     0.2928   168.0527
 1102.5000     0.2931   168.2185
 1103.0000     0.2934   168.3843
 1103.5000     0.2936   168.5501
 1104.0000     0.2939   168.7159
 1104.5000     0.2942   168.8817
 1105.0000     0.2945   169.0475
 1105.5000     0.2947   169.2133
 1106.0000     0.2950   169.3791
 1106.5000     0.2953   169.5449
 1107.0000     0.2955   169.7107
 1107.5000     0.2958   169.8765
 1108.0000     0.2961   170.0423
 1108.5000     0.2964   170.2081
 1109.0000     0.2966   170.3739
 1109.5000     0.2969   170.5397
 1110.0000     0.2972   170.7055
 1110.5000     0.2975   170.8713
 1111.0000     0.2977   171.0370
 1111.5000     0.2980   171.2029
 1112.0000     0.2983   171.3687
 1112.5000     0.2986   171.5345
 1113.0000     0.2988   171.7002
 1113.5000     0.2991   171.8660
 1114.0000     0.2994   172.0318
 1114.5000     0.2997   172.1976
 1115.0000     0.2999   172.3634
 1115.5000     0.3002   172.5292
 1116.0000     0.3005   172.6950
 1116.5000     0.3008   172.8608
 1117.0000     0.3010   173.0266
 1117.5000     0.3013   173.1924
 1118.0000     0.3016   173.3582
 1118.5000     0.3018   173.5240
 1119.0000     0.3021   173.6898
 1119.5000     0.3024   173.8556
 1120.0000     0.3027   174.0214
 1120.5000     0.3029   174.1872
 1121.0000     0.3032   174.3530
 1121.5000     0.3035   174.5188
 1122.0000     0.3038   174.6846
 1122.5000     0.3041   174.8504
 1123.0000     0.3043   175.0162
 1123.5000     0.3046   175.1820
 1124.0000     0.3048   175.3478
 1124.5000     0.3469   175.5136
 1125.0000     0.3889   175.6794
 1125.5000     0.4413   175.8452
 1126.0000     0.4729   176.0110
 1126.5000     0.4836   176.1768
 1127.0000     0.4733   176.3426
 1127.5000     0.4737   190.7290
 1128.0000     0.4425   243.2758
 1128.5000     0.4429   295.8225
 1129.0000     0.4327   277.2410
 1129.5000     0.4330   242.8617
 1130.0000     0.4332   201.6165
 1130.5000     0.4335   197.6280
 1131.0000     0.4338   197.9657
 1131.5000     0.4340   202.3516
 1132.0000     0.4343   215.0523
 1132.5000     0.4345   236.0280
 1133.0000     0.4348   261.1711
 1133.5000     0.4351   258.5956
 1134.0000     0.3936   238.0640
 1134.5000     0.3624   217.5324
 1135.0000     0.3941   199.8663
 1135.5000     0.4570   199.8183
 1136.0000     0.5094   199.7704
 1136.5000     0.5201   199.7224
 1137.0000     0.4891   199.6744
 1137.5000     0.4685   199.6264
 1138.0000     0.4373   199.5784
 1138.5000     0.4063   199.5304
 1139.0000     0.3961   199.4824
 1139.5000     0.3859   199.4344
 1140.0000     0.3653   199.3864
 1140.5000     0.3657   199.3384
 1141.0000     0.3670   199.2905
 1141.5000     0.3683   199.2425
 1142.0000     0.3696   203.0559
 1142.5000     0.3710   226.0305
 1143.0000     0.3723   249.0050
 1143.5000     0.3736   271.9796
 1144.0000     0.3749   277.6618
 1144.5000     0.3762   249.0489
 1145.0000     0.3775   220.4361
 1145.5000     0.3789   204.6924
 1146.0000     0.3802   203.9843
 1146.5000     0.3815   203.2762
 1147.0000     0.3828   202.5681
 1147.5000     0.3841   201.8601
 1148.0000     0.3855   201.1520
 1148.5000     0.3868   200.4439
 1149.0000     0.3881   199.7359
 1149.5000     0.3894   199.0278
 1150.0000     0.3907   198.3197
 1150.5000     0.3917   197.6116
 1151.0000     0.3710   196.9036
 1151.5000     0.3610   196.1955
 1152.0000     0.3612   195.4874
 1152.5000     0.3406   194.7794
 1153.0000     0.3199   194.0713
 1153.5000     0.3202   193.3632
 1154.0000     0.2891   192.6552
 1154.5000     0.2894   191.9471
 1155.0000     0.2792   191.2390
 1155.5000     0.2795   190.5309
 1156.0000     0.2798   189.8229
 1156.5000     0.2800   189.1148
 1157.0000     0.2698   188.4067
 1157.5000     0.2701   187.6987
 1158.0000     0.2704   186.9906
 1158.5000     0.2811   186.2825
 1159.0000     0.2708   185.5744
 1159.5000     0.2815   184.8664
 1160.0000     0.2817   184.1583
 1160.5000     0.2818   191.8712
 1161.0000     0.2820   207.1024
 1161.5000     0.2821   229.7348
 1162.0000     0.2822   234.1207
 1162.5000     0.2824   230.1520
 1163.0000     0.2825   213.8602
 1163.5000     0.2827   201.6364
 1164.0000     0.2828   197.7074
 1164.5000     0.2830   198.0055
 1165.0000     0.2831   197.5282
 1165.5000     0.2832   197.0402
 1166.0000     0.2834   196.5522
 1166.5000     0.2835   196.0642
 1167.0000     0.2837   195.5762
 1167.5000     0.2838   195.0882
 1168.0000     0.2839   194.6002
 1168.5000     0.2841   194.1122
 1169.0000     0.2842   193.6242
 1169.5000     0.2844   193.1362
 1170.0000     0.2845   192.6482
 1170.5000     0.2847   188.5234
 1171.0000     0.2848   205.4311
 1171.5000     0.2849   238.8493
 1172.0000     0.2851   247.3628
 1172.5000     0.2852   231.0511
 1173.0000     0.2854   206.4245
 1173.5000     0.2855   202.4361
