~VERSION INFORMATION
 VERS.                2.0:   CWLS LOG ASCII STANDARD - VERSION 2.0
 WRAP.                 NO:   ONE LINE PER DEPTH STEP
~WELL INFORMATION
#MNEM.UNIT      DATA TYPE    INFORMATION
#----------   ------------   ------------------------------
 STRT.F            2.0000:   START DEPTH
 STOP.F          518.0000:   STOP DEPTH
 STEP.F            0.5000:   STEP LENGTH
 NULL.          -999.2500:   NO VALUE
 COMP. LAWRENCE/ALLISON INC:   COMPANY
 WELL.    54-51 SX #10-10:   WELL
 FLD .             TEAPOT:   FIELD
 LOC .      S10 T38N R78W:   LOCATION
 CNTY.            NATRONA:   COUNTY
 STAT.            WYOMING:   STATE
 CTRY. UNITED STATES OF AMERICA:   COUNTRY
 SRVC.            Unknown:   SERVICE COMPANY
 DATE.        14-AUG-1984:   LOGDATE
 API .       490251098800:   API NUMBER
~CURVE INFORMATION
#MNEM.UNIT       API CODE    CURVE DESCRIPTION
#----------   ------------   ------------------------------
 DEPT.F                  :   
 CALD.IN     45 280 60 00:   CALIPER
 DEN .G/C3   45 350 01 00:   COMPENSATED BULK DENSTIY
 CORR.G/C3   45 356 01 00:   DENSITY CORRECTION
 CNC .DEC    42 890 03 00:   NEUTRON POROSITY SANDSTONE
 PORD.DEC    45 890 12 00:   POROSITY DENSITY SANDSTONE
 GRR .GAPI   07 310 01 00:   GAMMA RAY FROM RES. LOG.
 RFOC.OHMM   07 220 04 00:   RESISTIVITY FOCUSED LOG
 RILD.OHMM   07 120 46 00:   INDUCTION LOG DEEP RESISTIVITY
 RILM.OHMM   07 120 44 00:   INDUCTION LOG MEDIUM RESISTIVITY
 AC  .US/F   60 520 00 00:   ACOUSTIC SONIC
 SPR .MV     07 010 01 00:   SPONTANEOUS POTENTIAL
~PARAMETER INFORMATION
#MNEM.UNIT          VALUE    DESCRIPTION
#----------   ------------   ------------------------------
 PD  .                 GL:   PERMANENT DATUM
 EPD .F              5197:   ELEVATION PERMANENT DATUM
 LMF .                 GL:   LOG MEASURED FROM
 DMF .                 GL:   DRILLING MEASURED FROM
 EGL .F              5197:   GROUND LEVEL
 DATE.        14-AUG-1984:   RUN DATE
 RUN .                  1:   RUN NUMBER
 DD  .F               530:   DEPTH DRILLER
 DL  .F               520:   DEPTH LOGGER
 BLI .F               518:   BOTTOM LOG INTERVAL
 CS  .IN            9.625:   CASING SIZE
 CBD .F                40:   CASING BOTTOM DRILLER
 CBL .F                42:   CASING BOTTOM LOGGER
 BS  .IN            7.875:   BIT SIZE
 BSD .F               530:   BIT SIZE AT DEPTH
 DFT .          KCL WATER:   DRILLING FLUID TYPE
 MSS .           FLOWLINE:   MUD SAMPLE SOURCE
 RMS .OHMM            .19:   RESISTIVITY MUD SAMPLE
 MST .F                80:   MUD SAMPLE TEMPERATURE
 RMB .OHMM            .17:   RESISTIVITY MUD AT BHT
 BHT .F                90:   BOTTOM HOLE TEMPERATURE
 TCS .HRS               4:   TIME CURCULATED STOPPED
 MRT .F                90:   MAXIMUM RECORDED TEMPERATURE
 LUN .               6274:   LOGGING UNIT NUMBER
 LUL .               GLTE:   LOGGING UNIT LOCATION
 ENGI.             RAUTIO:   RECORDING ENGINEER
 WITN.              FIVAS:   WITNESSED BY
 CLNT.            A2DTECH:   CLIENT CODE
 ORIG.       2", 5" PRINT:   ORIGIN OF DATA
 UWI .       490251098800:   UNIQUE WELL ID
 DICO. A2D Technologies, Inc.:   DIGITIZING COMPANY
~OTHER INFORMATION
~A    DEPT    CALD        DEN       CORR        CNC       PORD         GRR      RFOC       RILD       RILM         AC        SPR   
# ...
  337.5000     7.8281     2.3928     0.0240     0.2512     0.1631    59.4897    29.8700    33.6901    27.4232    90.1863    85.8254
  338.0000     7.8268     2.3475     0.0246     0.2742     0.1858    60.4457    28.2432    33.4472    27.1103    95.2557    85.6427
  338.5000     7.8254     2.3312     0.0197     0.2818     0.2058    61.4976    27.9308    33.7558    26.8008    98.5499    85.4684
  339.0000     7.8240     2.3287     0.0147     0.2702     0.2079    62.0417    27.3991    32.3635    26.5864    98.5572    85.2941
  339.5000     7.8226     2.3342     0.0097     0.2608     0.2068    61.1523    26.8775    31.4782    27.7444    96.9843    85.1194
  340.0000     7.8213     2.3409     0.0045     0.2566     0.2030    60.3079    26.3659    30.6146    29.1434    95.9702    84.9457
  340.5000     7.8199     2.3476     0.0118     0.2535     0.1993    59.9264    25.8640    29.6835    28.8770    95.9702    84.7721
  341.0000     7.8185     2.3498     0.0248     0.2531     0.1974    60.0799    25.3716    29.8963    27.3559    96.8800    84.7343
  341.5000     7.8172     2.3469     0.0372     0.2669     0.1980    60.2095    24.8886    30.2337    26.0427    98.3211    84.8324
  342.0000     7.8158     2.3402     0.0347     0.2764     0.1985    61.4220    24.4148    29.1434    25.0541    99.7614    84.9305
  342.5000     7.8144     2.3313     0.0253     0.2870     0.2061    63.0391    23.9501    28.6001    24.7006   101.1444    85.0295
  343.0000     7.8130     2.3253     0.0161     0.2818     0.2106    64.1575    23.5859    28.1151    24.3520   101.7586    85.1223
  343.5000     7.8117     2.3193     0.0109     0.2758     0.2138    61.5468    23.2662    27.6383    24.0084   102.3508    85.2091
  344.0000     7.8103     2.3141     0.0119     0.2723     0.2170    60.1352    22.9506    27.1695    23.6696   102.9444    85.2958
  344.5000     7.8089     2.3129     0.0160     0.2803     0.2181    59.9255    22.6396    26.7087    23.3356   103.5361    85.3824
  345.0000     7.8076     2.3174     0.0200     0.2807     0.2142    60.8569    22.3325    26.2558    23.0068   103.2935    85.4691
  345.5000     7.8062     2.3296     0.0239     0.2747     0.2084    61.8290    22.0295    25.8104    22.6833   102.0504    85.5558
  346.0000     7.8048     2.3416     0.0279     0.2711     0.2014    64.1373    21.7307    25.3734    22.3268   100.3801    85.6425
  346.5000     7.8035     2.3534     0.0318     0.2782     0.1943    65.4069    21.5240    24.9446    22.3624    99.4527    85.7291
  347.0000     7.8021     2.3549     0.0357     0.2807     0.1930    65.7768    21.6454    24.4803    22.4059   100.0670    85.8162
  347.5000     7.8007     2.3500     0.0325     0.2837     0.1958    64.0430    21.7562    24.5833    22.4503   100.7330    85.9042
  348.0000     7.7993     2.3433     0.0231     0.2864     0.2004    61.9592    21.8677    24.6978    22.4954   100.6730    85.9891
  348.5000     7.7980     2.3365     0.0137     0.2876     0.2045    62.0587    21.9809    24.8139    22.5359   100.0577    85.9663
  349.0000     7.7965     2.3370     0.0048     0.2818     0.2026    62.4120    22.0948    24.9312    23.0744    98.4725    85.6425
  349.5000     7.7906     2.3534     0.0207     0.2751     0.1976    62.7598    22.4326    25.0487    23.6877    96.7141    85.3838
  350.0000     7.7698     2.3772     0.0321     0.2684     0.1778    62.1697    23.0592    25.1671    24.3175    92.4200    85.1291
  350.5000     7.7498     2.4029     0.0243     0.2612     0.1546    58.8258    23.7033    25.2859    25.1612    88.5890    84.8742
  351.0000     7.7297     2.4193     0.0341     0.2603     0.1617    55.9279    24.0320    25.5102    24.5901    87.5008    84.6188
  351.5000     7.7099     2.3803     0.0584     0.2609     0.1694    58.9781    23.1011    25.6275    23.7968    89.2072    84.3555
  352.0000     7.7084     2.3469     0.0710     0.2641     0.1662    64.1749    22.2949    25.3403    23.0290    91.6560    84.3006
  352.5000     7.8080     2.3245     0.0586     0.2655     0.2101    68.1865    21.5142    25.0250    22.2860    94.0951    84.3137
  353.0000     7.9086     2.3363     0.0458     0.2659     0.2027    68.7645    20.8706    24.7136    21.5670    95.9609    84.3295
  353.5000     7.9437     2.3414     0.0431     0.2663     0.2015    67.7064    20.3550    24.4061    20.9397    96.5702    84.3450
  354.0000     7.9266     2.3438     0.0469     0.2751     0.2003    65.9913    19.9967    24.1034    20.6532    96.9940    84.3602
  354.5000     7.9146     2.3493     0.0512     0.2843     0.1968    64.3084    19.6315    23.8061    20.1845    97.2433    84.3755
  355.0000     7.9139     2.3548     0.0556     0.2935     0.1932    65.2231    19.4599    23.1726    20.1942    97.2139    84.3907
  355.5000     7.9130     2.3602     0.0608     0.3027     0.1897    66.1795    19.5187    23.2327    20.2135    96.7466    84.4059
  356.0000     7.9122     2.3655     0.0523     0.3098     0.1878    66.0382    19.5835    23.3790    20.2328    96.2792    84.4212
  356.5000     7.9113     2.3691     0.0411     0.2957     0.1847    65.8814    19.6498    22.8834    20.2522    95.7766    84.4365
  357.0000     7.9105     2.3667     0.0297     0.2893     0.1864    65.5228    19.7183    22.3299    20.2716    95.0289    84.4519
  357.5000     7.9096     2.3628     0.0247     0.2830     0.1893    64.9597    19.7835    21.7897    20.2910    94.2811    84.4664
  358.0000     7.9088     2.3587     0.0192     0.2781     0.1897    64.3204    19.8172    21.2789    20.3102    93.4826    84.4815
  358.5000     7.9079     2.3676     0.0189     0.2755     0.1827    66.0584    18.9900    20.7483    20.3287    93.2110    84.3524
  359.0000     7.9070     2.3787     0.0174     0.2763     0.1789    68.0657    18.3774    21.0071    20.3486    92.9140    84.1064
  359.5000     7.9062     2.3832     0.0082     0.2771     0.1770    70.0912    18.0785    21.3278    20.3657    91.5170    83.8597
  360.0000     7.9053     2.3865     0.0199     0.2712     0.1798    70.9592    18.3540    20.7886    19.9227    88.9475    83.6114
  360.5000     7.9045     2.4018     0.0342     0.2439     0.1643    70.6123    18.7549    20.2088    19.4363    84.9978    83.3620
  361.0000     7.9036     2.4279     0.0255     0.2340     0.1510    69.6035    19.1645    19.8201    18.9611    81.0382    83.1194
  361.5000     7.9028     2.4596     0.0159     0.2316     0.1379    69.9049    19.4618    20.4193    18.4969    78.8230    82.8227
  362.0000     7.9019     2.4680     0.0064     0.2418     0.1270    70.0511    18.7918    20.7483    18.0466    79.7588    82.4561
  362.5000     7.9011     2.4659     0.0078     0.2551     0.1259    68.2879    18.2119    19.6925    17.6907    83.0784    82.0836
  363.0000     7.9002     2.4433     0.0140     0.2548     0.1408    66.5611    17.5922    19.3755    17.3776    86.5174    81.9184
  363.5000     7.8994     2.4213     0.0210     0.2578     0.1523    66.9948    17.4309    19.2144    17.0701    88.8567    81.9173
  364.0000     7.8985     2.4046     0.0299     0.2621     0.1620    68.0509    17.2100    18.9279    16.7980    91.3136    81.9168
  364.5000     7.8977     2.3958     0.0387     0.2661     0.1691    69.0929    16.9919    18.3573    16.5593    93.5534    81.9165
  365.0000     7.8968     2.3952     0.0469     0.2679     0.1698    69.6467    16.7980    17.8039    16.3453    94.6766    81.9163
  365.5000     7.8959     2.3971     0.0402     0.2696     0.1694    69.5381    16.6254    17.4265    16.1340    94.3660    81.8227
  366.0000     7.8951     2.4021     0.0279     0.2688     0.1662    68.6654    16.4356    17.1911    15.9255    93.8120    81.6591
  366.5000     7.8954     2.4055     0.0153     0.2634     0.1633    66.6503    16.2480    16.9799    15.7197    93.1099    81.4947
  367.0000     7.8964     2.4057     0.0088     0.2576     0.1627    64.6863    16.0626    16.7713    15.5165    92.5506    81.3294
  367.5000     7.8975     2.4091     0.0268     0.2514     0.1610    64.5881    15.8793    16.5653    15.3160    92.2886    81.1644
