~VERSION INFORMATION
 VERS.                2.0:   CWLS LOG ASCII STANDARD - VERSION 2.0
 WRAP.                 NO:   ONE LINE PER DEPTH STEP
~WELL INFORMATION
#MNEM.UNIT      DATA TYPE    INFORMATION
#----------   ------------   ------------------------------
 STRT.F           44.0000:   START DEPTH
 STOP.F          666.0000:   STOP DEPTH
 STEP.F            0.5000:   STEP LENGTH
 NULL.          -999.2500:   NO VALUE
 COMP. FENIX & SCISSON INC:   COMPANY
 WELL.     NPR-3 #22SX-10:   WELL
 FLD .             TEAPOT:   FIELD
 LOC .      S10 T38N R78W:   LOCATION
 CNTY.            NATRONA:   COUNTY
 STAT.            WYOMING:   STATE
 CTRY. UNITED STATES OF AMERICA:   COUNTRY
 SRVC.            Unknown:   SERVICE COMPANY
 DATE.        11-JUL-1978:   LOGDATE
 API .       490251065600:   API NUMBER
~CURVE INFORMATION
#MNEM.UNIT       API CODE    CURVE DESCRIPTION
#----------   ------------   ------------------------------
 DEPT.F                  :   
 CALD.IN     45 280 60 00:   CALIPER FROM DENSITY LOG
 GRD .GAPI   45 310 01 00:   GAMMA RAY FROM DENSITY LOG
 CORR.G/C3   45 356 01 00:   DENSITY CORRECTION
 DPHI.DEC    45 890 12 00:   DENSITY POROSITY SANDSTONE
 RHOB.G/C3   45 350 01 00:   BULK DENSITY
 SPR .MV     05 010 01 00:   SPONTANEOUS POTENTIAL FROM RES.
 SN  .OHMM   05 040 16 00:   SHORT NORMAL 16"
 ILD .OHMM   05 120 46 00:   INDUCTION LOG DEEP
~PARAMETER INFORMATION
#MNEM.UNIT          VALUE    DESCRIPTION
#----------   ------------   ------------------------------
 PD  .                 GL:   PERMANENT DATUM
 EPD .F              5263:   ELEVATION PERMANENT DATUM
 LMF .                 KB:   LOG MEASURED FROM
 DAPD.F                 4:   FEET ABOVE PERMANENT DATUM
 DMF .                 KB:   DRILLING MEASURED FROM
 EKB .F              5267:   KELLING BUSHING
 EGL .F              5263:   GROUND LEVEL
 DATE.        11-JUL-1978:   RUN DATE
 RUN .                  1:   RUN NUMBER
 DD  .F               657:   DEPTH DRILLER
 DL  .F               666:   DEPTH LOGGER
 BLI .F               660:   BOTTOM LOG INTERVAL
 TLI .F                50:   TOP LOG INTERVAL
 CS  .IN            8.625:   CASING SIZE
 CBD .F                40:   CASING BOTTOM DRILLER
 BS  .IN            7.875:   BIT SIZE
 BSD .F               657:   BIT SIZE AT DEPTH
 DFT .                KCL:   DRILLING FLUID TYPE
 DFD .                8.6:   DRILLING FLUID DENSITY
 DFV .                 33:   DRILLING FLUID VISCOSITY
 DFPH.                9.0:   DRILLING FLUID PH
 DFL .                 14:   DRILLING FLUID LOSS
 MSS .           FLOWLINE:   MUD SAMPLE SOURCE
 RMS .OHMM            .16:   RESISTIVITY MUD SAMPLE
 MST .F                89:   MUD SAMPLE TEMPERATURE
 RMF .OHMM            .15:   RESISTIVITY MUD FILTRATE SAMPLE
 MFST.F                89:   MUD FILTRATE SAMPLE TEMPERATURE
 RMC .OHMM            .32:   RESISTIVITY MUD CAKE
 MCST.F                88:   MUD CAKE SAMPLE TEMPERATURE
 MFSS.               MEAS:   MUD FILTRATE SAMPLE SOURCE
 BHT .F                76:   BOTTOM HOLE TEMPERATURE
 TCS .HRS            0200:   TIME CURCULATED STOPPED
 MRT .F                76:   MAXIMUM RECORDED TEMPERATURE
 LUN .               2958:   LOGGING UNIT NUMBER
 LUL .               CASP:   LOGGING UNIT LOCATION
 ENGI.             MILLER:   RECORDING ENGINEER
 WITN.           MCGINLEY:   WITNESSED BY
 CLNT.            A2DTECH:   CLIENT CODE
 ORIG.           5" PRINT:   ORIGIN OF DATA
 UWI .       490251065600:   UNIQUE WELL ID
 DICO. A2D Technologies, Inc.:   DIGITIZING COMPANY
~OTHER INFORMATION
~A   DEPT     CALD         GRD      CORR       DPHI       RHOB        SPR         SN        ILD   
# ...
  246.5000     7.7153    86.5972    -0.0061     0.1305     2.4787   -72.5074     7.5589     8.6093
  247.0000     7.6997    84.7772    -0.0058     0.1315     2.4697   -72.4926     7.5639     8.6741
  247.5000     7.6992    84.7727    -0.0056     0.1315     2.4644   -72.4750     7.5680     8.6804
  248.0000     7.6987    89.3067    -0.0053     0.1315     2.4689   -72.3121     7.5721     8.6857
  248.5000     7.6983    90.6638    -0.0050     0.1330     2.4576   -72.2976     7.5762     8.6910
  249.0000     7.7130    90.5079    -0.0048     0.1249     2.4711   -72.2830     7.5803     8.6354
  249.5000     7.7125    88.2341    -0.0045     0.1228     2.4786   -72.2685     7.5844     8.6419
  250.0000     7.7122    85.5065    -0.0043     0.1228     2.4785   -72.2576     7.5881     8.6056
  250.5000     7.7145    85.1961    -0.0040     0.1225     2.4778   -72.3980     7.5923     8.3595
  251.0000     7.7164    85.7938    -0.0039     0.1222     2.4770   -72.5246     7.5436     8.1856
  251.5000     7.7183    88.2087    -0.0040     0.1213     2.4778   -72.5114     7.4969     7.9751
  252.0000     7.7203    88.0481    -0.0041     0.1213     2.4785   -72.4983     7.5014     7.8704
  252.5000     7.7222    88.0406    -0.0042     0.1138     2.4852   -72.4852     7.4537     7.7682
  253.0000     7.7388    88.1846    -0.0043     0.1030     2.4987   -72.3234     7.4066     7.7724
  253.5000     7.7382    88.1769    -0.0044     0.1178     2.4965   -72.3101     7.4108     7.7223
  254.0000     7.7376    87.1104    -0.0045     0.1259     2.4814   -72.2941     7.3638     7.7276
  254.5000     7.7521    86.7998    -0.0046     0.1241     2.4731   -72.2810     7.3688     7.7317
  255.0000     7.7818    91.6640    -0.0047     0.1304     2.4671   -72.2678     7.3728     7.7893
  255.5000     7.8570    92.8472    -0.0048     0.1307     2.4611   -72.2547     7.3768     7.7935
  256.0000     7.7806    94.3903    -0.0048     0.1256     2.4670   -72.2416     7.4317     7.7436
  256.5000     7.7343    95.2423    -0.0049     0.1214     2.4760   -72.3801     7.4357     7.7485
  257.0000     7.7036    94.6717    -0.0050     0.1221     2.4798   -72.3637     7.4913     7.7530
  257.5000     7.7030    85.9970    -0.0051     0.1284     2.4752   -72.3505     7.5471     7.7569
  258.0000     7.7024    81.2997    -0.0052     0.1240     2.4700   -72.3374     7.6029     7.8147
  258.5000     7.7018    82.5025    -0.0053     0.1155     2.4737   -72.1759     7.6595     7.8190
  259.0000     7.7012    85.0668    -0.0054     0.1109     2.4834   -72.1628     7.6636     7.8234
  259.5000     7.7006    88.3876    -0.0055     0.1139     2.4924   -72.1496     7.7207     7.8283
  260.0000     7.6999    90.3468    -0.0056     0.1133     2.4969   -72.1365     7.7782     7.8866
  260.5000     7.6993    91.0976    -0.0057     0.1103     2.4999   -71.9748     7.8370     7.8905
  261.0000     7.6987    91.0883    -0.0058     0.1118     2.4939   -72.1102     7.8953     7.9018
  261.5000     7.7284    90.9295    -0.0058     0.1161     2.4916   -72.0938     7.8996     7.9539
  262.0000     7.7884    90.1656    -0.0044     0.1116     2.5096   -72.2323     7.9039     8.0131
  262.5000     7.8332    88.3426    -0.0015     0.1086     2.4924   -72.2159     7.9081     8.0174
  263.0000     7.8479    88.1839    -0.0001     0.1077     2.4885   -72.2028     7.9124     8.0218
  263.5000     7.8775    88.1764     0.0013     0.1068     2.5021   -72.1896     7.9167     8.0261
  264.0000     7.8769    89.2279     0.0042     0.1134     2.4964   -72.1765     7.8660     8.0304
  264.5000     7.8763    91.1871     0.0041     0.1140     2.4877   -72.1634     7.8710     8.0348
  265.0000     7.8757    91.0283     0.0041     0.1122     2.4847   -72.1502     7.8212     8.0391
  265.5000     7.8599    89.8105     0.0010     0.1239     2.4982   -72.1371     7.7718     7.9848
  266.0000     7.8593    89.6517    -0.0021     0.1284     2.4756   -72.1240     7.7221     7.9309
  266.5000     7.8436    88.2827    -0.0037     0.1296     2.4673   -72.1108     7.6696     7.8349
  267.0000     7.8430    86.9136    -0.0038     0.1308     2.4635   -72.0977     7.5734     7.8391
  267.5000     7.8272    87.2087    -0.0039     0.1317     2.4605   -72.2329     7.5256     7.7363
  268.0000     7.7357    87.6550    -0.0039     0.1320     2.4612   -72.2196     7.5180     7.6874
  268.5000     7.6593    87.1937    -0.0039     0.1321     2.4627   -72.2062     7.4821     7.6916
  269.0000     7.6284    85.6642    -0.0040     0.1309     2.4642   -72.1902     7.4348     7.6420
  269.5000     7.6127    85.3631    -0.0040     0.1294     2.4664   -72.3255     7.3882     7.5938
  270.0000     7.6121    85.7185    -0.0040     0.1270     2.4754   -72.3123     7.3926     7.5458
  270.5000     7.6115    89.3586    -0.0041     0.1231     2.4784   -72.2992     7.3452     7.4982
  271.0000     7.6262    89.5768    -0.0041     0.1237     2.4784   -72.2861     7.3500     7.5033
  271.5000     7.6254    89.2648    -0.0041     0.1258     2.4739   -72.2729     7.3545     7.5073
  272.0000     7.6400    89.2574    -0.0041     0.1306     2.4648   -72.2598     7.3585     7.5114
  272.5000     7.6394    89.4030    -0.0042     0.1369     2.4565   -72.2456     7.3624     7.5155
  273.0000     7.6388    92.5706    -0.0042     0.1354     2.4528   -72.0852     7.3661     7.5196
  273.5000     7.6382    93.9247    -0.0042     0.1382     2.4527   -72.0720     7.3702     7.5237
  274.0000     7.6527    93.6147    -0.0043     0.1387     2.4520   -72.0589     7.3750     7.5287
  274.5000     7.6673    89.6737    -0.0043     0.1359     2.4512   -72.0458     7.4299     7.5847
  275.0000     7.6818    88.7585    -0.0043     0.1328     2.4557   -71.8843     7.4852     7.5881
  275.5000     7.6812    87.3895    -0.0044     0.1294     2.4609   -71.8709     7.5929     7.5929
  276.0000     7.6806    82.9947    -0.0044     0.1285     2.4676   -71.8576     7.5970     7.6494
  276.5000     7.6800    82.3839    -0.0044     0.1370     2.4692   -71.8416     7.6535     7.7063
  277.0000     7.6642    84.4925    -0.0045     0.1406     2.4616   -71.6801     7.7637     7.7637
  277.5000     7.6485    87.9646    -0.0045     0.1430     2.4533   -71.5186     7.8214     7.8215
  278.0000     7.6152    89.1674    -0.0045     0.1385     2.4443   -71.5054     7.9340     7.9340
  278.5000     7.6018    88.4035    -0.0046     0.1337     2.4451   -71.4923     7.9930     7.9931
  279.0000     7.6164    86.7318    -0.0046     0.1322     2.4549   -71.3308     8.0525     7.9974
  279.5000     7.6309    85.5141    -0.0046     0.1307     2.4624   -71.3177     8.1124     8.0017
  280.0000     7.6150    84.7501    -0.0047     0.1295     2.4662   -71.3045     8.2292     8.0613
  280.5000     7.6144    84.8939    -0.0048     0.1334     2.4689   -71.2914     8.2338     8.0657
  281.0000     7.6138    85.3403    -0.0018     0.1358     2.4608   -71.2783     8.2960     8.1258
  281.5000     7.6132    85.4841     0.0026     0.1244     2.4524   -71.2651     8.3005     8.2437
  282.0000     7.5975    85.6279     0.0055     0.1193     2.4734   -71.2520     8.3611     8.3050
  282.5000     7.5969    86.8609     0.0069     0.1214     2.4839   -71.2389     8.3083     8.4246
  283.0000     7.5963    89.2697     0.0083     0.1238     2.4824   -71.3741     8.3139     8.4872
  283.5000     7.5807    89.8414     0.0082     0.1199     2.4726   -71.3605     8.2048     8.5504
  284.0000     7.7011    86.9349     0.0066     0.1154     2.4771   -71.4962     8.1519     8.5550
  284.5000     7.8217    87.1014     0.0066     0.1142     2.4883   -71.4798     8.1008     8.4999
  285.0000     7.9121    87.3983     0.0065     0.1160     2.4898   -71.3205     8.0493     8.4462
  285.5000     7.9268    87.5421     0.0064     0.1187     2.4852   -71.3071     7.9995     8.3929
  286.0000     7.8957    87.3815     0.0063     0.1215     2.4800   -71.2920     7.9490     8.3399
  286.5000     7.8951    87.2227     0.0062     0.1248     2.4739   -71.2789     7.9534     8.2882
