~VERSION INFORMATION
 VERS.                2.0:   CWLS LOG ASCII STANDARD - VERSION 2.0
 WRAP.                 NO:   ONE LINE PER DEPTH STEP
~WELL INFORMATION
#MNEM.UNIT      DATA TYPE    INFORMATION
#----------   ------------   ------------------------------
 STRT.F           28.0000:   START DEPTH
 STOP.F          494.0000:   STOP DEPTH
 STEP.F            0.5000:   STEP LENGTH
 NULL.          -999.2500:   NO VALUE
 COMP.    FENIX & SCISSON:   COMPANY
 WELL.        67-S-3 #3-3:   WELL
 FLD .             TEAPOT:   FIELD
 LOC .       S3 T38N R78W:   LOCATION
 CNTY.            NATRONA:   COUNTY
 STAT.            WYOMING:   STATE
 CTRY. UNITED STATES OF AMERICA:   COUNTRY
 SRVC.           BIRDWELL:   SERVICE COMPANY
 DATE.        15-OCT-1978:   LOGDATE
 API .       490251072100:   API NUMBER
~CURVE INFORMATION
#MNEM.UNIT       API CODE    CURVE DESCRIPTION
#----------   ------------   ------------------------------
 DEPT.F                  :   
 ILD .OHMM   05 120 46 00:   INDUCTION LOG DEEP
 SN  .OHMM   05 040 16 00:   SHORT NORMAL 16"
 SPR .MV     05 010 01 00:   SPONTANEOUS POTENTIAL FROM RES.
 CALD.IN     45 280 60 00:   CALIPER FROM DENSITY LOG
 CORR.G/C3   45 356 01 00:   DENSITY CORRECTION
 DPHI.DEC    45 890 12 00:   DENSITY POROSITY SANDSTONE
 GRD .GAPI   45 310 01 00:   GAMMA RAY FROM DENSITY LOG
 RHOB.G/C3   45 350 01 00:   BULK DENSITY
~PARAMETER INFORMATION
#MNEM.UNIT          VALUE    DESCRIPTION
#----------   ------------   ------------------------------
 PD  .                 GL:   PERMANENT DATUM
 EPD .F              5173:   ELEVATION PERMANENT DATUM
 LMF .                 KB:   LOG MEASURED FROM
 DAPD.F                 4:   FEET ABOVE PERMANENT DATUM
 DMF .                 KB:   DRILLING MEASURED FROM
 EKB .F              5177:   KELLING BUSHING
 EGL .F              5173:   GROUND LEVEL
 DATE.        15-OCT-1978:   RUN DATE
 RUN .                  1:   RUN NUMBER
 DD  .F               492:   DEPTH DRILLER
 DL  .F               494:   DEPTH LOGGER
 BLI .F               488:   BOTTOM LOG INTERVAL
 TLI .F                46:   TOP LOG INTERVAL
 CS  .IN            8.625:   CASING SIZE
 CBD .F                40:   CASING BOTTOM DRILLER
 BS  .IN            7.875:   BIT SIZE
 BSD .F               492:   BIT SIZE AT DEPTH
 DFT .                KCL:   DRILLING FLUID TYPE
 DFD .                8.7:   DRILLING FLUID DENSITY
 DFV .                 35:   DRILLING FLUID VISCOSITY
 DFPH.                  9:   DRILLING FLUID PH
 LUN .               2958:   LOGGING UNIT NUMBER
 LUL .               CASP:   LOGGING UNIT LOCATION
 ENGI.             MILLER:   RECORDING ENGINEER
 WITN.           DINSMORE:   WITNESSED BY
 CLNT.            A2DTECH:   CLIENT CODE
 ORIG.           5" PRINT:   ORIGIN OF DATA
 UWI .       490251072100:   UNIQUE WELL ID
 DICO. A2D Technologies, Inc.:   DIGITIZING COMPANY
~OTHER INFORMATION
~A   DEPT      ILD         SN        SPR       CALD       CORR       DPHI         GRD      RHOB   
   28.0000  -999.2500  -999.2500  -999.2500  -999.2500  -999.2500  -999.2500    80.5133  -999.2500
   28.5000  -999.2500  -999.2500  -999.2500  -999.2500  -999.2500  -999.2500    80.5119  -999.2500
   29.0000  -999.2500  -999.2500  -999.2500  -999.2500  -999.2500  -999.2500    80.6597  -999.2500
   29.5000  -999.2500  -999.2500  -999.2500  -999.2500  -999.2500  -999.2500    81.2552  -999.2500
   30.0000  -999.2500  -999.2500  -999.2500  -999.2500  -999.2500  -999.2500    83.3532  -999.2500
   30.5000  -999.2500  -999.2500  -999.2500  -999.2500  -999.2500  -999.2500    84.1348  -999.2500
   31.0000  -999.2500  -999.2500  -999.2500  -999.2500  -999.2500  -999.2500    86.3251  -999.2500
   31.5000  -999.2500  -999.2500  -999.2500  -999.2500  -999.2500  -999.2500    88.2639  -999.2500
   32.0000  -999.2500  -999.2500  -999.2500  -999.2500  -999.2500  -999.2500    89.3073  -999.2500
   32.5000  -999.2500  -999.2500  -999.2500  -999.2500  -999.2500  -999.2500    89.7536  -999.2500
   33.0000  -999.2500  -999.2500  -999.2500  -999.2500  -999.2500  -999.2500    89.4536  -999.2500
   33.5000  -999.2500  -999.2500  -999.2500  -999.2500  -999.2500  -999.2500    87.9596  -999.2500
   34.0000  -999.2500  -999.2500  -999.2500  -999.2500  -999.2500  -999.2500    86.0178  -999.2500
   34.5000  -999.2500  -999.2500  -999.2500  -999.2500  -999.2500  -999.2500    87.6582  -999.2500
   35.0000  -999.2500  -999.2500  -999.2500  -999.2500  -999.2500  -999.2500    88.4030  -999.2500
   35.5000  -999.2500  -999.2500  -999.2500  -999.2500  -999.2500  -999.2500    87.1736  -999.2500
   36.0000  -999.2500  -999.2500  -999.2500  -999.2500  -999.2500  -999.2500    84.5811  -999.2500
   36.5000  -999.2500  -999.2500  -999.2500  -999.2500  -999.2500  -999.2500    83.3236  -999.2500
   37.0000  -999.2500  -999.2500  -999.2500  -999.2500  -999.2500  -999.2500    84.0684  -999.2500
   37.5000  -999.2500  -999.2500  -999.2500  -999.2500  -999.2500  -999.2500    84.6643  -999.2500
   38.0000  -999.2500  -999.2500  -999.2500  -999.2500  -999.2500  -999.2500    85.2599  -999.2500
   38.5000  -999.2500  -999.2500  -999.2500  -999.2500  -999.2500  -999.2500    86.4521  -999.2500
   39.0000  -999.2500  -999.2500  -999.2500  -999.2500  -999.2500  -999.2500    94.6596  -999.2500
   39.5000  -999.2500  -999.2500  -999.2500  -999.2500  -999.2500  -999.2500    98.2402  -999.2500
   40.0000  -999.2500  -999.2500  -999.2500  -999.2500  -999.2500  -999.2500    96.7462  -999.2500
   40.5000  -999.2500  -999.2500  -999.2500  -999.2500  -999.2500  -999.2500    94.0582  -999.2500
   41.0000  -999.2500  -999.2500  -999.2500  -999.2500  -999.2500  -999.2500    89.9572  -999.2500
   41.5000  -999.2500  -999.2500  -999.2500  -999.2500  -999.2500  -999.2500    86.4025  -999.2500
   42.0000  -999.2500  -999.2500  -999.2500    15.9230    -0.0941     0.2265    86.5908     2.1838
   42.5000  -999.2500  -999.2500  -999.2500    15.9232    -0.0281     0.2262    88.8281     2.1852
   43.0000  -999.2500  -999.2500  -999.2500    14.2964     0.0965     0.1965    94.7968     2.2721
   43.5000  -999.2500  -999.2500  -999.2500    12.5354     0.2166     0.1617   103.3028     2.4865
   44.0000  -999.2500  -999.2500  -999.2500    10.5952     0.1749     0.1338   114.3461     2.4708
   44.5000  -999.2500  -999.2500  -999.2500     9.6252     0.0724     0.1324   114.6435     2.4708
   45.0000  -999.2500  -999.2500  -999.2500     8.1627     0.0408     0.1379   110.3133     2.4685
   45.5000  -999.2500  -999.2500  -999.2500     8.1628     0.0348     0.1402   108.6701     2.4610
   46.0000  -999.2500    10.7078   -28.9167     8.1928     0.0363     0.1390   108.0716     2.4535
   46.5000  -999.2500    11.3155   -29.0597     8.1930     0.0422     0.1339   108.0701     2.4536
   47.0000  -999.2500    12.2929   -29.0525     8.1932     0.0437     0.1270   108.0498     2.4628
   47.5000  -999.2500    13.1714   -28.8979     8.1933     0.0482     0.1174   107.4702     2.4760
   48.0000     6.6983    13.5396   -32.7612     8.1785     0.0482     0.1126   108.9609     2.4865
   48.5000     6.6056    13.5387   -34.2435     8.1787     0.0481     0.1123   112.2431     2.4955
   49.0000     6.6973    13.5378   -34.5368     8.1937     0.0447     0.1126   112.8390     2.5045
   49.5000     6.7903    13.5367   -34.8274     8.2088     0.0120     0.1147   112.6879     2.5060
   50.0000     6.8845    13.5358   -34.8214     8.2090     0.0030     0.1213   107.7611     2.4948
   50.5000     6.8840    13.4417   -34.9826     8.1926     0.0030     0.1321   106.7152     2.4820
   51.0000     6.7888    13.4408   -36.5942     8.1645     0.0029     0.1426   113.2805     2.4753
   51.5000     6.7883    13.4399   -36.8874     8.0154     0.0044     0.1465   116.2642     2.4558
   52.0000     6.6945    13.5322   -37.1793     7.8961     0.0089     0.1447   116.5612     2.4505
   52.5000     6.6941    13.6251   -37.1721     7.8217     0.0179     0.1420   113.4975     2.4535
   53.0000     6.6936    13.8265   -37.0175     7.7770     0.0253     0.1426   109.8415     2.4565
   53.5000     6.7398    14.1996   -37.1607     7.7324     0.0298     0.1429   110.2878     2.4528
   54.0000     6.8807    14.6978   -38.9405     7.7176     0.0283     0.1426   111.4804     2.4505
   54.5000     7.0735    15.1089   -39.2323     7.7327     0.0252     0.1417   111.9270     2.4505
   55.0000     7.2716    15.5310   -39.0777     7.7478     0.0252     0.1399   110.7312     2.4528
   55.5000     7.3726    15.8553   -42.4931     7.7649     0.0267     0.1339   109.2372     2.4550
   56.0000     7.5790    15.9641   -42.9352     7.8675     0.0282     0.1243   109.6839     2.4625
   56.5000     7.6842    15.9630   -42.6304     8.0020     0.0281     0.1066   108.9358     2.4858
   57.0000     7.7912    15.9617   -43.0710     8.1066     0.0296     0.1042   107.7403     2.5037
   57.5000     7.8990    15.7416   -46.0415     8.1814     0.0296     0.1045   109.1045     2.5136
   58.0000     8.0086    15.6322   -46.3333     8.1964     0.0295     0.1069   113.3234     2.5211
   58.5000     8.0080    15.4166   -46.3274     8.2115     0.0235     0.1255   115.0490     2.5172
   59.0000     8.0632    15.3094   -46.3203     8.2116     0.0114     0.1303   115.4953     2.4858
   59.5000     8.0625    14.8911   -46.6121     8.1969     0.0067     0.1334   116.8371     2.4760
   60.0000     8.0064    14.3845   -46.7566     8.1821     0.0054     0.1346   118.7759     2.4715
   60.5000     7.8407    13.8696   -46.8997     8.1822     0.0054     0.1354   118.0282     2.4678
   61.0000     7.6795    12.9663   -47.1915     8.1824     0.0053     0.1354   117.1312     2.4648
   61.5000     7.5210    12.0999   -47.1843     8.1975     0.0068     0.1298   115.6372     2.4625
   62.0000     7.4686    11.2913   -47.3273     8.1976     0.0068     0.1247   110.2626     2.4723
   62.5000     7.4681    10.6834   -47.3214     8.1828     0.0068     0.1259   108.1716     2.4820
   63.0000     7.5196    10.2489   -47.4631     8.1979     0.0067     0.1283   105.4756     2.4865
   63.5000     7.5189     9.8320   -47.4574     8.1831     0.0067     0.1322   101.8567     2.4805
   64.0000     7.4659     9.5546   -47.4516     8.1833     0.0067     0.1334   101.3012     2.4745
   64.5000     7.2542     9.1742   -47.4458     8.1685     0.0083     0.1340   103.6878     2.4723
   65.0000     7.0143     8.9235   -47.4400     8.1687     0.0126     0.1346   109.8057     2.4715
   65.5000     6.9174     8.6797   -47.4343     8.1688     0.0171     0.1359   111.2968     2.4685
   66.0000     6.8692     8.5600   -47.4285     8.1690     0.0231     0.1412   112.6386     2.4603
   66.5000     6.8687     8.4420   -47.4226     8.1094     0.0275     0.1424   113.8312     2.4535
   67.0000     6.8683     8.3833   -47.7146     8.0946     0.0305     0.1367   115.4715     2.4535
   67.5000     6.8678     8.3250   -48.0064     8.0500     0.0350     0.1310   116.3656     2.4543
   68.0000     6.9631     8.2671   -48.4456     8.0502     0.0410     0.1364   116.6627     2.4731
