~VERSION INFORMATION
 VERS.                2.0:   CWLS LOG ASCII STANDARD - VERSION 2.0
 WRAP.                 NO:   ONE LINE PER DEPTH STEP
~WELL INFORMATION
#MNEM.UNIT      DATA TYPE    INFORMATION
#----------   ------------   ------------------------------
 STRT.F           50.0000:   START DEPTH
 STOP.F          854.0000:   STOP DEPTH
 STEP.F            0.5000:   STEP LENGTH
 NULL.          -999.2500:   NO VALUE
 COMP. FENIX & SCISSON INC:   COMPANY
 WELL.    45 SX 11 #45-11:   WELL
 FLD .             TEAPOT:   FIELD
 LOC .      S11 T38N R78W:   LOCATION
 CNTY.            NATRONA:   COUNTY
 STAT.            WYOMING:   STATE
 CTRY. UNITED STATES OF AMERICA:   COUNTRY
 SRVC.           BIRDWELL:   SERVICE COMPANY
 DATE.        01-MAR-1978:   LOGDATE
 API .       490251058600:   API NUMBER
~CURVE INFORMATION
#MNEM.UNIT       API CODE    CURVE DESCRIPTION
#----------   ------------   ------------------------------
 DEPT.F                  :   
 CALD.IN     45 280 60 00:   CALIPER
 CORR.G/C3   45 356 01 00:   DENSITY CORRECTION
 RHOB.G/C3   45 350 01 00:   BULK DENSITY
 DPOR.DEC    45 890 12 00:   DENSITY POROSITY SANDSTONE
 GRD .GAPI   45 310 01 00:   GAMMA RAY FROM DENSITY LOG
 SPR .MV     05 010 01 00:   SPONTANEOUS POTENTIAL FROM RES.
 SN  .OHMM   05 040 16 00:   SHORT NORMAL 16"
 ILD .OHMM   05 120 46 00:   INDUCTION LOG DEEP
~PARAMETER INFORMATION
#MNEM.UNIT          VALUE    DESCRIPTION
#----------   ------------   ------------------------------
 PD  .                 GL:   PERMANENT DATUM
 EPD .F              5186:   ELEVATION PERMANENT DATUM
 LMF .                 KB:   LOG MEASURED FROM
 DAPD.F                 4:   FEET ABOVE PERMANENT DATUM
 DMF .                 KB:   DRILLING MEASURED FROM
 EKB .F              5190:   KELLING BUSHING
 EGL .F              5186:   GROUND LEVEL
 DATE.           3-1-1978:   RUN DATE
 RUN .                  1:   RUN NUMBER
 DD  .F               848:   DEPTH DRILLER
 DL  .F               856:   DEPTH LOGGER
 BLI .F               851:   BOTTOM LOG INTERVAL
 TLI .F                50:   TOP LOG INTERVAL
 CS  .IN            8.625:   CASING SIZE
 CBD .F                40:   CASING BOTTOM DRILLER
 CBL .F                40:   CASING BOTTOM LOGGER
 BS  .IN            7.875:   BIT SIZE
 BSD .F               848:   BIT SIZE AT DEPTH
 DFT .          LIGNOSULF:   DRILLING FLUID TYPE
 DFD .                8.5:   DRILLING FLUID DENSITY
 DFV .                 30:   DRILLING FLUID VISCOSITY
 DFPH.               11.5:   DRILLING FLUID PH
 MSS .                PIT:   MUD SAMPLE SOURCE
 RMS .OHMM              2:   RESISTIVITY MUD SAMPLE
 MST .F                59:   MUD SAMPLE TEMPERATURE
 RMF .OHMM            1.8:   RESISTIVITY MUD FILTRATE SAMPLE
 MFST.F                60:   MUD FILTRATE SAMPLE TEMPERATURE
 RMC .OHMM            2.2:   RESISTIVITY MUD CAKE
 MCST.F                60:   MUD CAKE SAMPLE TEMPERATURE
 MFSS.               MEAS:   MUD FILTRATE SAMPLE SOURCE
 MCSS.               MEAS:   MUD CAKE SAMPLE SOURCE
 RMB .OHMM           1.69:   RESISTIVITY MUD AT BHT
 BHT .F                70:   BOTTOM HOLE TEMPERATURE
 TCS .HRS               3:   TIME CURCULATED STOPPED
 MRT .F                70:   MAXIMUM RECORDED TEMPERATURE
 LUN .               2959:   LOGGING UNIT NUMBER
 LUL .               CASP:   LOGGING UNIT LOCATION
 ENGI.            POINTER:   RECORDING ENGINEER
 WITN.         HARRINGTON:   WITNESSED BY
 CLNT.            A2DTECH:   CLIENT CODE
 ORIG.       2", 5" PRINT:   ORIGIN OF DATA
 UWI .       490251058600:   UNIQUE WELL ID
 DICO. A2D Technologies, Inc.:   DIGITIZING COMPANY
~OTHER INFORMATION
~A   DEPT       CALD      CORR      RHOB       DPOR        GRD        SPR         SN        ILD   
# ...
  414.5000     7.6700     0.1144     2.4402     0.1409   115.7845   -21.5580     7.7461     7.1944
  415.0000     7.6051     0.1096     2.4261     0.1443   115.6395   -21.5771     7.6262     7.1734
  415.5000     7.6002     0.1022     2.4142     0.1185   115.5230   -21.5976     7.5650     7.1525
  416.0000     7.6047     0.0969     2.4356     0.1213   115.3884   -21.5516     7.5650     7.1316
  416.5000     7.6771     0.0974     2.4556     0.1234   114.1154   -21.4804     7.5650     7.1108
  417.0000     7.7479     0.0730     2.4595     0.1207   111.5792   -21.4018     7.5650     7.0880
  417.5000     7.8190     0.0496     2.4654     0.1174   108.9920   -21.1117     7.5494     7.0227
  418.0000     7.8440     0.0483     2.4685     0.1217   109.1431   -20.7922     7.4991     6.9512
  418.5000     7.8427     0.0402     2.4511     0.1307   109.3013   -20.4571     7.4492     6.8804
  419.0000     7.8413     0.0389     2.4341     0.1287   113.1086   -20.5708     7.3978     6.8103
  419.5000     7.8397     0.0427     2.4425     0.1269   117.3998   -20.8235     7.2856     6.7409
  420.0000     7.8382     0.0467     2.4417     0.1292   119.6264   -21.0816     7.2863     6.6411
  420.5000     7.8367     0.0486     2.4367     0.1315   118.1500   -21.4752     7.3282     6.6663
  421.0000     7.8351     0.0463     2.4318     0.1292   115.8678   -21.3822     7.3582     6.7131
  421.5000     7.8336     0.0488     2.4383     0.1285   113.5875   -21.2836     7.3882     6.7601
  422.0000     7.8321     0.0518     2.4447     0.1297   111.7850   -20.9505     7.4179     6.8075
  422.5000     7.8306     0.0495     2.4399     0.1303   112.1812   -20.5777     7.5359     6.8552
  423.0000     7.8291     0.0448     2.4342     0.1303   112.8021   -20.5900     7.6825     6.9033
  423.5000     7.8275     0.0489     2.4469     0.1303   112.7387   -20.5889     7.8319     6.9517
  424.0000     7.8261     0.0538     2.4579     0.1327   112.2147   -20.5882     7.9272     7.0004
  424.5000     7.8245     0.0629     2.4354     0.1362   112.0872   -20.5358     7.9419     7.0494
  425.0000     7.8127     0.0827     2.4257     0.1397   113.4784   -20.2353     7.9554     7.0988
  425.5000     7.7046     0.1080     2.4224     0.1430   114.0341   -20.2484     7.9691     7.1486
  426.0000     7.5428     0.1364     2.4228     0.1463   113.5309   -20.6149     7.9829     7.1987
  426.5000     7.3782     0.1428     2.4093     0.1496   113.0200   -20.9776     7.9968     7.2492
  427.0000     7.3178     0.1659     2.3929     0.1484   112.5395   -21.3412     8.0106     7.2885
  427.5000     7.3228     0.1789     2.4232     0.1484   112.4295   -21.4043     8.0245     7.2738
  428.0000     7.4560     0.1314     2.4110     0.1401   112.3210   -21.0982     8.0385     7.2617
  428.5000     7.5678     0.0757     2.4490     0.1269   112.2057   -20.6283     8.0526     7.2495
  429.0000     7.5795     0.0427     2.4875     0.1223   111.9371   -20.1829     8.0661     7.2374
  429.5000     7.5882     0.0425     2.4721     0.1346   111.0621   -20.4717     8.0752     7.2253
  430.0000     7.7488     0.0436     2.4410     0.1391   110.2036   -20.5859     7.9273     7.2132
  430.5000     7.8243     0.0449     2.4249     0.1333   110.5259   -20.5928     7.8122     7.2012
  431.0000     7.8166     0.0461     2.4348     0.1244   110.8928   -20.4393     7.7069     7.1892
  431.5000     7.8009     0.0448     2.4423     0.1190   110.7706   -20.3871     7.7068     7.1771
  432.0000     7.7852     0.0374     2.4498     0.1169   110.1499   -20.3812     7.7070     7.1652
  432.5000     7.7694     0.0324     2.4541     0.1243   110.8888   -20.6235     7.7071     7.1532
  433.0000     7.7541     0.0355     2.4521     0.1287   110.4088   -20.9566     7.7071     7.1413
  433.5000     7.7555     0.0351     2.4382     0.1290   114.3088   -21.1337     7.7071     7.1293
  434.0000     7.8018     0.0306     2.4364     0.1293   114.6336   -20.8911     7.7069     7.1175
  434.5000     7.8235     0.0333     2.4355     0.1315   112.2565   -20.6553     7.7079     7.1055
  435.0000     7.8239     0.0366     2.4330     0.1417   109.8430   -20.4189     7.7114     7.0937
  435.5000     7.8240     0.0405     2.4214     0.1478   109.2870   -20.1836     7.7008     7.0880
  436.0000     7.8280     0.0393     2.4095     0.1457   109.2912   -19.9768     7.8377     7.2440
  436.5000     7.8413     0.0373     2.4135     0.1411   109.2932   -20.0053     7.9035     7.3640
  437.0000     7.8441     0.0365     2.4155     0.1403   109.2778   -20.0297     7.9691     7.4862
  437.5000     7.8442     0.0423     2.4214     0.1425   110.4130   -20.0532     8.1302     7.6103
  438.0000     7.8441     0.0466     2.4182     0.1436   112.4084   -20.0766     8.3763     7.7365
  438.5000     7.8441     0.0435     2.4179     0.1380   113.3266   -20.1001     8.6295     7.8647
  439.0000     7.8441     0.0395     2.4288     0.1324   112.0881   -20.1235     8.8904     7.9993
  439.5000     7.8441     0.0356     2.4397     0.1268   111.4746   -20.1470     9.1285     8.1914
  440.0000     7.8441     0.0322     2.4495     0.1218   111.9622   -20.1704     9.2239     8.3947
  440.5000     7.8441     0.0323     2.4538     0.1206   112.4019   -20.1939     9.3581     8.6030
  441.0000     7.8441     0.0322     2.4508     0.1249   113.0397   -20.2173     9.5560     8.8176
  441.5000     7.8441     0.0358     2.4445     0.1287   113.2962   -20.2408     9.7582     8.9228
  442.0000     7.8441     0.0403     2.4393     0.1283   109.6729   -20.2642     9.9646     9.0016
  442.5000     7.8441     0.0448     2.4394     0.1222   106.1696   -20.2877    10.1754     9.0811
  443.0000     7.8441     0.0443     2.4442     0.1156   106.2790   -20.3112    10.3909     9.2505
  443.5000     7.8441     0.0410     2.4582     0.1093   106.5334   -20.3348    10.6106     9.4812
  444.0000     7.8441     0.0376     2.4720     0.1085   106.8033   -20.3603    10.8738     9.7176
  444.5000     7.8441     0.0360     2.4785     0.1178   105.3673   -20.3688    10.8682    10.0005
  445.0000     7.8441     0.0353     2.4638     0.1182   103.0350   -20.5994    10.8613     9.9907
  445.5000     7.8441     0.0346     2.4631     0.1172   100.8403   -20.4734    10.8545     9.9791
  446.0000     7.8441     0.0340     2.4655     0.1165   101.5226   -20.2176    10.8476     9.9675
  446.5000     7.8441     0.0333     2.4607     0.1190   100.3516   -20.1822    10.8408     9.9559
  447.0000     7.8441     0.0327     2.4548     0.1218    98.8885   -20.1820    10.8339     9.9443
  447.5000     7.8442     0.0327     2.4514     0.1224    97.9598   -20.1825    10.8271     9.9327
  448.0000     7.8447     0.0347     2.4462     0.1263    98.0376   -20.1828    10.8203     9.9211
  448.5000     7.8232     0.0365     2.4405     0.1292   101.3670   -20.1838    10.8134     9.9096
  449.0000     7.7992     0.0384     2.4413     0.1311   105.2399   -20.1749    10.8066     9.8980
  449.5000     7.7752     0.0402     2.4385     0.1287   104.4640   -20.0209    10.7998     9.8865
  450.0000     7.7631     0.0400     2.4382     0.1250   103.4236   -19.8698    10.7930     9.8750
  450.5000     7.7654     0.0392     2.4449     0.1246   104.3075   -19.7198    10.7861     9.8635
  451.0000     7.7686     0.0384     2.4477     0.1285   105.8237   -19.5689    10.7789     9.8520
  451.5000     7.7718     0.0377     2.4420     0.1316   107.3896   -19.4144    10.7725     9.8405
  452.0000     7.7750     0.0369     2.4360     0.1293   108.3336   -19.4221    10.8346     9.8290
  452.5000     7.7782     0.0365     2.4356     0.1269   105.6005   -19.5678    10.8923     9.8176
  453.0000     7.7813     0.0432     2.4460     0.1258   102.4767   -19.5756    10.9501     9.8161
  453.5000     7.7858     0.0505     2.4476     0.1270    99.3680   -19.5762    11.0081     9.8161
  454.0000     7.7926     0.0568     2.4473     0.1258    97.5612   -19.5645    11.0665     9.8161
  454.5000     7.7993     0.0587     2.4640     0.1212    97.0570   -19.3151    11.1252     9.8161
