~VERSION INFORMATION
 VERS.                2.0:   CWLS LOG ASCII STANDARD - VERSION 2.0
 WRAP.                 NO:   ONE LINE PER DEPTH STEP
~WELL INFORMATION
#MNEM.UNIT      DATA TYPE    INFORMATION
#----------   ------------   ------------------------------
 STRT.F           11.5000:   START DEPTH
 STOP.F          697.0000:   STOP DEPTH
 STEP.F            0.5000:   STEP LENGTH
 NULL.          -999.2500:   NO VALUE
 COMP. FENIX & SCISSON INC:   COMPANY
 WELL.    NPR3 SX-2 #12-2:   WELL
 FLD .             TEAPOT:   FIELD
 LOC .       S2 T38N R78W:   LOCATION
 CNTY.            NATRONA:   COUNTY
 STAT.            WYOMING:   STATE
 CTRY. UNITED STATES OF AMERICA:   COUNTRY
 SRVC.           BIRDWELL:   SERVICE COMPANY
 DATE.        13-JAN-1978:   LOGDATE
 API .       490251055000:   API NUMBER
~CURVE INFORMATION
#MNEM.UNIT       API CODE    CURVE DESCRIPTION
#----------   ------------   ------------------------------
 DEPT.F                  :   
 CALD.IN     45 280 60 00:   CALIPER FROM DENSITY LOG
 CORR.G/C3   45 356 01 00:   DENSITY CORRECTION
 RHOB.G/C3   45 350 01 00:   BULK DENSITY
 GRD .GAPI   45 310 01 00:   GAMMA RAY FROM DENSITY LOG
 DPHI.DEC    45 890 12 00:   DENSITY POROSITY SANDSTONE
 ILD .OHMM   05 120 46 00:   INDUCTION LOG DEEP
 SN  .OHMM   05 040 16 00:   SHORT NORMAL 16"
 SPR .MV     05 010 01 00:   SPONTANEOUS POTENTIAL FROM RES.
~PARAMETER INFORMATION
#MNEM.UNIT          VALUE    DESCRIPTION
#----------   ------------   ------------------------------
 PD  .                 GL:   PERMANENT DATUM
 EPD .F              5094:   ELEVATION PERMANENT DATUM
 LMF .                 KB:   LOG MEASURED FROM
 DAPD.F                 4:   FEET ABOVE PERMANENT DATUM
 DMF .                 KB:   DRILLING MEASURED FROM
 EKB .F              5098:   KELLING BUSHING
 EGL .F              5094:   GROUND LEVEL
 DATE.        13-JAN-1978:   RUN DATE
 RUN .                  1:   RUN NUMBER
 DD  .F               695:   DEPTH DRILLER
 DL  .F               697:   DEPTH LOGGER
 BLI .F               692:   BOTTOM LOG INTERVAL
 TLI .F                30:   TOP LOG INTERVAL
 CS  .IN            8.625:   CASING SIZE
 CBD .F                35:   CASING BOTTOM DRILLER
 CBL .F                35:   CASING BOTTOM LOGGER
 BS  .IN            7.875:   BIT SIZE
 BSD .F               695:   BIT SIZE AT DEPTH
 DFT .                KCL:   DRILLING FLUID TYPE
 DFD .                8.6:   DRILLING FLUID DENSITY
 DFV .                 32:   DRILLING FLUID VISCOSITY
 DFPH.                9.5:   DRILLING FLUID PH
 DFL .                 12:   DRILLING FLUID LOSS
 MSS .           FLOWLINE:   MUD SAMPLE SOURCE
 RMS .OHMM            0.3:   RESISTIVITY MUD SAMPLE
 MST .F                59:   MUD SAMPLE TEMPERATURE
 RMF .OHMM           0.24:   RESISTIVITY MUD FILTRATE SAMPLE
 MFST.F                70:   MUD FILTRATE SAMPLE TEMPERATURE
 RMC .OHMM           0.56:   RESISTIVITY MUD CAKE
 MCST.F                63:   MUD CAKE SAMPLE TEMPERATURE
 MFSS.               MEAS:   MUD FILTRATE SAMPLE SOURCE
 MCSS.               MEAS:   MUD CAKE SAMPLE SOURCE
 RMB .OHMM           0.26:   RESISTIVITY MUD AT BHT
 BHT .F                72:   BOTTOM HOLE TEMPERATURE
 TCS .HRS               2:   TIME CURCULATED STOPPED
 MRT .F                72:   MAXIMUM RECORDED TEMPERATURE
 LUN .               2958:   LOGGING UNIT NUMBER
 LUL .             CASPER:   LOGGING UNIT LOCATION
 ENGI.           MARTINEZ:   RECORDING ENGINEER
 WITN.       MR. MCGINLEY:   WITNESSED BY
 CLNT.            A2DTECH:   CLIENT CODE
 ORIG.           5" PRINT:   ORIGIN OF DATA
 UWI .       490251055000:   UNIQUE WELL ID
 DICO. A2D Technologies, Inc.:   DIGITIZING COMPANY
~OTHER INFORMATION
~A   DEPT     CALD       CORR       RHOB         GRD      DPHI        ILD         SN        SPR   
# ...
  457.0000     8.4502     0.3945     2.4893   106.3253     0.0958     7.6268     9.9277   -24.3202
  457.5000     8.4496     0.3734     2.4750    96.6041     0.1015     7.5727     9.5230   -24.6224
  458.0000     8.4791     0.3359     2.5450    94.6664     0.0943     7.6241     9.0091   -24.9245
  458.5000     8.5086     0.2957     2.5930    97.2244     0.0892     7.7819     8.8233   -25.0755
  459.0000     8.5381     0.2533     2.6321    97.5280     0.0823     8.0540     9.0079   -24.7734
  459.5000     8.5674     0.2027     2.6209    94.0800     0.0745     8.5694     9.6027   -24.3202
  460.0000     8.5668     0.1757     2.6102    92.2815     0.0743     9.8383    10.6750   -23.7160
  460.5000     8.5663     0.1305     2.6334    94.6894     0.0823    11.1556    11.7983   -23.5629
  461.0000     8.5506     0.1137     2.6057    94.6977     0.0756    11.9573    12.5562   -23.4139
  461.5000     8.5501     0.0871     2.5630    93.9473     0.0777    12.6108    12.9977   -23.3877
  462.0000     8.5495     0.0480     2.5307    93.8016     0.0813    13.0517    13.1781   -23.2628
  462.5000     8.5489     0.0285     2.5075    97.5608     0.0840    13.3226    13.0863   -22.9607
  463.0000     8.5482     0.0210     2.5030   101.1677     0.0891    13.5061    12.9951   -22.6586
  463.5000     8.5628     0.0150     2.4938    96.8188     0.0984    13.5963    12.9942   -22.2054
  464.0000     8.5620     0.0090     2.4744    94.4208     0.1077    13.6878    13.2661   -21.2991
  464.5000     8.5765     0.0060     2.4475    87.5182     0.1134    13.9719    13.7325   -20.8459
  465.0000     8.5759     0.0045     2.4273    74.7598     0.1218    14.4604    14.3142   -20.5438
  465.5000     8.5905     0.0045     2.4153    67.2948     0.1319    15.0699    15.0241   -20.2417
  466.0000     8.5898     0.0045     2.3958    56.2222     0.1464    15.8141    15.8833   -19.7885
  466.5000     8.5892     0.0075     2.3606    57.9572     0.1620    16.7101    16.9193   -19.0332
  467.0000     8.5885     0.0150     2.3321    62.6163     0.1740    18.1521    17.6539   -18.4129
  467.5000     8.5879     0.0390     2.3163    67.5756     0.1914    20.4122    18.6164   -17.5025
  468.0000     8.5873     0.0691     2.3140    66.3788     0.1907    23.1343    19.0059   -16.4653
  468.5000     8.5867     0.0811     2.3111    57.9747     0.1784    24.8084    19.6081   -15.8610
  469.0000     8.5861     0.0931     2.3096    56.0271     0.1754    26.3458    20.3660   -15.5589
  469.5000     8.5855     0.1051     2.3058    55.1246     0.1748    27.6468    20.9399   -15.1057
  470.0000     8.5850     0.1216     2.2998    53.2733     0.1760    28.4163    21.5232   -14.5015
  470.5000     8.5844     0.1366     2.2961    52.1364     0.1789    29.2073    21.9735   -14.0483
  471.0000     8.5686     0.1489     2.2954    56.6463     0.1859    29.4054    22.5892   -13.5952
  471.5000     8.5530     0.1626     2.3081    59.9540     0.1925    30.0141    22.9027   -13.1420
  472.0000     8.5073     0.1787     2.3021    59.8082     0.1973    30.6370    23.5443   -12.5378
  472.5000     8.4315     0.1802     2.2894    58.3111     0.2045    31.7083    24.0370   -11.9335
  473.0000     8.3708     0.1652     2.3246    55.9131     0.1976    33.0447    24.5467   -11.4783
  473.5000     8.3852     0.1787     2.3021    52.4640     0.2000    34.4375    25.0730   -11.0131
  474.0000     8.3997     0.1937     2.2939    47.6076     0.1966    35.6417    25.7548   -10.6989
  474.5000     8.4298     0.2087     2.3096    46.4667     0.1936    36.1306    26.1122   -10.4230
  475.0000     8.4612     0.2102     2.3051    48.4242     0.1984    35.8743    26.2924   -10.1208
  475.5000     8.5031     0.2102     2.3238    51.1312     0.2053    35.8669    26.2901    -9.8187
  476.0000     8.5177     0.1935     2.3013    55.3398     0.2128    35.8594    26.2883    -9.6677
  476.5000     8.5470     0.1419     2.2721    58.1970     0.2191    36.0993    26.2865    -9.6677
  477.0000     8.5616     0.1021     2.2639    57.7510     0.2152    36.5945    26.1034    -9.3656
  477.5000     8.5759     0.1006     2.3066    57.3049     0.2044    37.0966    26.1016    -9.3656
  478.0000     8.5904     0.1111     2.3171    57.0089     0.1948    38.1291    26.0998    -9.3656
  478.5000     8.5898     0.1111     2.3141    57.4900     0.1915    38.9204    25.9179    -9.3656
  479.0000     8.5892     0.1036     2.3006    58.3701     0.1948    39.1845    25.9162    -9.5166
  479.5000     8.5885     0.1006     2.2856    60.1763     0.2036    38.6364    25.7356    -9.5166
  480.0000     8.5879     0.1036     2.2811    64.2347     0.2049    37.8355    25.5444    -9.5166
  480.5000     8.5873     0.1156     2.2871    63.9388     0.1995    37.3083    25.3536    -9.5166
  481.0000     8.5867     0.1351     2.3022    61.9912     0.1920    37.5595    25.0269    -9.5166
  481.5000     8.5711     0.1537     2.3214    59.2929     0.1821    38.6049    24.8525    -9.4884
  482.0000     8.5555     0.1802     2.3351    58.5465     0.1776    39.4062    24.6793    -9.3656
  482.5000     8.5322     0.1832     2.3351    60.0726     0.1764    38.3233    24.6777    -9.3656
  483.0000     8.5092     0.1733     2.3291    59.4573     0.1800    36.7413    24.6760    -9.3656
  483.5000     8.4784     0.1607     2.3133    56.0082     0.1888    35.7152    24.5040    -9.3656
  484.0000     8.4628     0.1441     2.2916    52.2588     0.2062    35.2483    24.5024    -9.3656
  484.5000     8.4471     0.1291     2.2684    51.3612     0.2205    36.9888    24.5007    -9.3656
  485.0000     8.4315     0.1471     2.2519    54.3697     0.2313    41.8829    24.3300    -9.3656
  485.5000     8.4309     0.1562     2.2421    58.7284     0.2369    45.4971    24.3283    -9.2145
  486.0000     8.4304     0.1682     2.2369    61.8859     0.2384    45.8058    24.1588    -9.2145
  486.5000     8.4448     0.1866     2.2519    62.7913     0.2372    43.6303    23.9871    -9.3656
  487.0000     8.4743     0.2137     2.2804    63.2471     0.2354    41.2739    23.4804    -9.5166
  487.5000     8.4886     0.2252     2.2924    63.8521     0.2324    39.0448    22.9844    -9.5166
  488.0000     8.4880     0.2282     2.2961    65.8084     0.2245    34.4683    22.2259    -9.5166
  488.5000     8.5026     0.2417     2.2939    67.6146     0.2153    30.6394    21.7674    -9.5166
  489.0000     8.4869     0.2568     2.2946    67.4688     0.2039    28.7849    21.1713    -9.6677
  489.5000     8.4863     0.2778     2.3171    66.1218     0.1937    27.9940    20.4494    -9.8681
  490.0000     8.4857     0.3664     2.3327    63.1232     0.1792    27.6039    20.0276   -10.1208
  490.5000     8.4851     0.4024     2.3666    60.8514     0.1606    26.8207    19.7507   -10.4230
  491.0000     8.4845     0.4159     2.3628    60.1289     0.1471    25.3488    19.4778   -10.8761
  491.5000     8.4838     0.4204     2.3981    61.9362     0.1390    23.6928    19.0760   -11.3293
  492.0000     8.5133     0.4105     2.3763    64.9436     0.1615    23.3626    18.6825   -11.7906
  492.5000     8.5279     0.3724     2.3576    66.1492     0.1717    23.1969    18.5523   -12.2558
  493.0000     8.5422     0.3829     2.3846    66.7541     0.1588    23.1922    18.5510   -12.6888
  493.5000     8.5416     0.3904     2.3906    67.8096     0.1513    23.1874    18.5498   -12.8399
  494.0000     8.5410     0.3964     2.3981    68.8650     0.1438    23.1827    18.5485   -12.8399
  494.5000     8.5555     0.3979     2.4163    70.5270     0.1381    23.1780    18.4189   -12.8399
  495.0000     8.5549     0.3904     2.4265    71.4264     0.1281    23.1732    18.2906   -12.6888
  495.5000     8.5542     0.3739     2.4355    70.6810     0.1236    23.3305    18.0378   -12.6888
  496.0000     8.5536     0.3498     2.4438    73.2379     0.1200    23.0042    17.9121   -12.6888
  496.5000     8.5531     0.2973     2.4535    73.9920     0.1164    22.6836    17.9109   -12.8399
  497.0000     8.5676     0.2485     2.4648    73.6960     0.1143    22.5227    17.7860   -12.6888
