~VERSION INFORMATION
 VERS.                2.0:   CWLS LOG ASCII STANDARD - VERSION 2.0
 WRAP.                 NO:   ONE LINE PER DEPTH STEP
~WELL INFORMATION
#MNEM.UNIT      DATA TYPE    INFORMATION
#----------   ------------   ------------------------------
 STRT.F           39.0000:   START DEPTH
 STOP.F          478.0000:   STOP DEPTH
 STEP.F            0.5000:   STEP LENGTH
 NULL.          -999.2500:   NO VALUE
 COMP. FENIX & SCISSON, INC.:   COMPANY
 WELL.  S-3 NPR #3 #46S-3:   WELL
 FLD .              NPR-3:   FIELD
 LOC .       S3 T38N R78W:   LOCATION
 CNTY.            NATRONA:   COUNTY
 STAT.            WYOMING:   STATE
 CTRY. UNITED STATES OF AMERICA:   COUNTRY
 SRVC.      Dresser Atlas:   SERVICE COMPANY
 DATE.        28-MAR-1977:   LOGDATE
 API .       490251034100:   API NUMBER
~CURVE INFORMATION
#MNEM.UNIT       API CODE    CURVE DESCRIPTION
#----------   ------------   ------------------------------
 DEPT.F                  :   
 ILD .OHMM   07 120 46 00:   INDUCTION LOG DEEP
 ILM .OHMM   07 120 44 00:   INDUCTION LOG MEDIUM
 SFL .OHMM   07 220 01 00:   SHALLOW FOCUSED LOG RESISTIVITY
 SPR .MV     07 010 01 00:   SPONTANEOUS POTENTIAL
 CALD.IN     45 280 60 00:   CALIPER FROM DENSITY LOG
 GRD .GAPI   45 310 01 00:   GAMMA RAY FROM DENSITY LOG
 DPHI.DEC    45 890 12 00:   DENSITY POROSITY SANDSTONE
 RHOB.G/C3   45 350 01 00:   BULK DENSITY
 DRHO.G/C3   45 356 01 00:   DENSITY CORRECTION
~PARAMETER INFORMATION
#MNEM.UNIT          VALUE    DESCRIPTION
#----------   ------------   ------------------------------
 PD  .                 GL:   PERMANENT DATUM
 EPD .F              5186:   ELEVATION PERMANENT DATUM
 LMF .                 KB:   LOG MEASURED FROM
 DAPD.F                 3:   FEET ABOVE PERMANENT DATUM
 DMF .                 KB:   DRILLING MEASURED FROM
 EKB .F              5189:   KELLING BUSHING
 EGL .F              5186:   GROUND LEVEL
 DATE.        28-MAR-1977:   RUN DATE
 RUN .                  1:   RUN NUMBER
 DD  .F               480:   DEPTH DRILLER
 DL  .F               480:   DEPTH LOGGER
 BLI .F               478:   BOTTOM LOG INTERVAL
 TLI .F                40:   TOP LOG INTERVAL
 CS  .IN            8.625:   CASING SIZE
 CBD .F                40:   CASING BOTTOM DRILLER
 CBL .F                40:   CASING BOTTOM LOGGER
 BS  .IN            7.875:   BIT SIZE
 BSD .F               480:   BIT SIZE AT DEPTH
 DFT .           CHEM GEL:   DRILLING FLUID TYPE
 DFD .                8.9:   DRILLING FLUID DENSITY
 DFV .                 39:   DRILLING FLUID VISCOSITY
 DFPH.                 11:   DRILLING FLUID PH
 DFL .                 16:   DRILLING FLUID LOSS
 MSS .           FLOWLINE:   MUD SAMPLE SOURCE
 RMS .OHMM           0.41:   RESISTIVITY MUD SAMPLE
 MST .F                40:   MUD SAMPLE TEMPERATURE
 RMF .OHMM           0.29:   RESISTIVITY MUD FILTRATE SAMPLE
 MFST.F                62:   MUD FILTRATE SAMPLE TEMPERATURE
 RMC .OHMM           0.28:   RESISTIVITY MUD CAKE
 MCST.F                62:   MUD CAKE SAMPLE TEMPERATURE
 MFSS.               MEAS:   MUD FILTRATE SAMPLE SOURCE
 MCSS.               MEAS:   MUD CAKE SAMPLE SOURCE
 RMB .OHMM           0.26:   RESISTIVITY MUD AT BHT
 BHT .F                62:   BOTTOM HOLE TEMPERATURE
 TCS .HRS               6:   TIME CURCULATED STOPPED
 MRT .F                62:   MAXIMUM RECORDED TEMPERATURE
 LUN .               6145:   LOGGING UNIT NUMBER
 LUL .              GLTTE:   LOGGING UNIT LOCATION
 ENGI.              RANCK:   RECORDING ENGINEER
 WITN.     MR. STUEBINGER:   WITNESSED BY
 CLNT.            A2DTECH:   CLIENT CODE
 ORIG.           5" PRINT:   ORIGIN OF DATA
 UWI .       490251034100:   UNIQUE WELL ID
 DICO. A2D Technologies, Inc.:   DIGITIZING COMPANY
~OTHER INFORMATION
~A   DEPT      ILD        ILM        SFL        SPR       CALD         GRD      DPHI       RHOB       DRHO   
# ...
  221.5000     5.8682     6.7907     7.8729   -34.6791     7.8958   113.0172     0.0931     2.4984     0.0151
  222.0000     6.3708     6.9900     7.9899   -34.5084     7.8979   113.9378     0.0955     2.4947     0.0093
  222.5000     6.7880     7.1952     7.4582   -34.3377     7.9000   114.8536     0.0977     2.4888     0.0080
  223.0000     7.0335     7.3548     7.2073   -34.3172     7.9021   115.4705     0.1000     2.4851     0.0067
  223.5000     7.1372     7.5706     7.7352   -34.2967     7.9042   115.3400     0.0957     2.4867     0.0039
  224.0000     7.2423     7.6846     8.0159   -34.2761     7.9063   115.2047     0.0924     2.4942     0.0041
  224.5000     7.3490     7.8003     8.1350   -34.2553     7.9084   116.7232     0.0891     2.5011     0.0043
  225.0000     7.3540     7.8077     8.1986   -34.2342     7.9104   118.3864     0.0872     2.5041     0.0045
  225.5000     7.4105     7.7555     8.2628   -34.2094     7.9126   120.0497     0.0890     2.5033     0.0047
  226.0000     7.3640     7.5557     8.2710   -34.1889     7.9122   120.3676     0.0896     2.5005     0.0068
  226.5000     7.2165     7.3543     8.2778   -34.1684     7.9119   118.4828     0.0877     2.5021     0.0081
  227.0000     7.0731     7.2085     8.2845   -34.1479     7.9115   115.0291     0.0846     2.5067     0.0098
  227.5000     6.9787     7.2153     8.2913   -34.1273     7.9111   113.8523     0.0823     2.5105     0.0100
  228.0000     6.8401     7.2222     8.2986   -34.1068     7.9108   112.0775     0.0807     2.5143     0.0117
  228.5000     6.8447     7.2291     8.3053   -34.2372     7.9104   110.4475     0.0804     2.5152     0.0104
  229.0000     6.8494     7.1856     8.3121   -34.2159     7.9101   110.6207     0.0843     2.5137     0.0090
  229.5000     6.8064     7.1925     8.3189   -34.3455     7.9097   110.7892     0.0875     2.5093     0.0078
  230.0000     6.8110     7.1994     8.3257   -34.6253     7.9093   110.6539     0.0887     2.5056     0.0064
  230.5000     6.8157     7.2064     8.3324   -34.5997     7.9090   112.6208     0.0875     2.5041     0.0067
  231.0000     6.8204     7.2149     8.3392   -34.5791     7.9086   113.2377     0.0868     2.5020     0.0069
  231.5000     6.8249     7.2205     8.3461   -34.5586     7.9083   112.9577     0.0899     2.4991     0.0100
  232.0000     6.7821     7.2287     8.3531   -34.5381     7.9079   113.2756     0.0907     2.4969     0.0132
  232.5000     6.7879     7.2347     8.3613   -34.5176     7.9075   112.2530     0.0885     2.5000     0.0164
  233.0000     6.8879     7.2425     8.3681   -34.4970     7.9072   112.7204     0.0867     2.5046     0.0174
  233.5000     6.9893     7.2494     8.3168   -34.3264     7.9068   113.7857     0.0876     2.5062     0.0168
  234.0000     7.0923     7.1555     8.2641   -34.3058     7.9065   114.4026     0.0908     2.5025     0.0140
  234.5000     6.8540     6.8681     8.1564   -34.2853     7.9061   115.1690     0.0971     2.4935     0.0112
  235.0000     6.5319     6.5462     8.1647   -34.2643     7.9075   116.8322     0.1046     2.4821     0.0054
  235.5000     6.2681     5.8388     8.0583   -34.3944     7.8946   117.2996     0.1100     2.4675    -0.0004
  236.0000     5.8827     5.5067     7.8418   -34.5240     7.8967   115.0764     0.1149     2.4540    -0.0047
  236.5000     5.4992     5.5519     7.3998   -34.6537     7.8843   113.7419     0.1237     2.4458    -0.0060
  237.0000     5.4258     5.5572     6.5102   -34.6280     7.8863   113.1490     0.1255     2.4422    -0.0043
  237.5000     5.4304     5.5625     6.2041   -34.7628     7.8884   112.7417     0.1215     2.4400    -0.0026
  238.0000     5.3217     5.4905     7.2898   -34.8924     7.8750   112.3170     0.1170     2.4528     0.0006
  238.5000     5.1071     5.3817     6.9484   -35.1670     7.8621   111.7381     0.1140     2.4641     0.0023
  239.0000     4.8333     5.0937     6.9541   -35.2966     7.8646   111.3039     0.1118     2.4732     0.0040
  239.5000     4.4484     4.5271     7.0574   -35.4264     7.8667   111.7760     0.1124     2.4724     0.0042
  240.0000     4.2393     4.4064     7.0762   -35.7060     7.8538   113.1403     0.1170     2.4591     0.0028
  240.5000     4.2128     4.4448     6.8269   -35.8357     7.8558   114.2056     0.1270     2.4412     0.0001
  241.0000     4.3049     4.5730     5.8709   -36.1154     7.8579   114.3740     0.1456     2.4203    -0.0042
  241.5000     4.4303     4.7403     4.5978   -36.2451     7.8604   113.7883     0.1552     2.4038    -0.0086
  242.0000     4.5587     4.9136     5.0028   -35.9191     7.8624   111.9851     0.1597     2.3904    -0.0129
  242.5000     4.7236     5.0934     5.9182   -35.5983     7.8645   111.7404     0.1503     2.3845    -0.0142
  243.0000     4.9287     5.2797     7.8265   -35.5778     7.8665   112.0583     0.1416     2.4296    -0.0125
  243.5000     5.2150     5.5498     8.1656   -35.4071     7.8685   110.1388     0.1275     2.4536    -0.0091
  244.0000     5.4037     5.7932     7.7308   -35.3866     7.8761   110.9052     0.1139     2.4727    -0.0061
  244.5000     5.8384     6.0051     7.6831   -35.3664     7.8875   112.7179     0.1048     2.4863    -0.0044
  245.0000     6.0076     6.2684     7.7434   -35.3453     7.8896   113.3348     0.1009     2.4884    -0.0042
  245.5000     6.0538     6.3186     7.8585   -35.3243     7.8916   111.5600     0.1006     2.4854    -0.0040
  246.0000     6.0158     6.1932     7.9755   -35.2993     7.8937   109.7853     0.1030     2.4840    -0.0053
  246.5000     5.9375     5.9875     8.0954   -35.4341     7.8962   109.0568     0.1068     2.4833    -0.0051
  247.0000     5.7781     5.7469     8.1020   -35.4084     7.8982   110.1614     0.1104     2.4842    -0.0049
  247.5000     5.5840     5.5161     8.1086   -35.8384     7.9003   111.9396     0.1146     2.4805    -0.0062
  248.0000     5.2114     5.1845     7.8373   -35.9731     7.9021   110.1649     0.1206     2.4678    -0.0045
  248.5000     4.7631     4.7717     7.1645   -36.1027     7.9043   109.2822     0.1259     2.4506    -0.0043
  249.0000     4.4764     4.4226     6.5953   -36.2324     7.9064   110.5017     0.1334     2.4282    -0.0041
  249.5000     4.3867     4.5844     5.5455   -36.3574     7.9225   112.6134     0.1415     2.4013    -0.0039
  250.0000     4.3897     5.0608     5.0695   -36.1862     7.9212   113.5292     0.1423     2.3893    -0.0068
  250.5000     4.4267     5.1013     5.4144   -35.8649     7.9199   112.6562     0.1366     2.4067    -0.0057
  251.0000     4.6163     5.1073     7.9879   -35.6896     7.9186   111.4821     0.1313     2.4173    -0.0049
  251.5000     4.8845     5.2572     6.9546   -35.5189     7.9173   110.6070     0.1235     2.4339    -0.0033
  252.0000     5.1682     5.6041     7.1569   -35.3482     7.9159   109.4330     0.1125     2.4602    -0.0016
  252.5000     5.5066     6.2298     7.9518   -35.3155     7.9146   108.6771     0.1028     2.4776     0.0016
  253.0000     6.1179     6.8293     8.6522   -35.1575     7.9133   110.0907     0.0959     2.4913     0.0063
  253.5000     6.5641     7.1788     8.7198   -35.1371     7.9120   110.9940     0.0897     2.5020     0.0109
  254.0000     6.8016     7.1856     8.7269   -35.1166     7.9107   109.8245     0.0850     2.5094     0.0171
  254.5000     6.9501     7.2430     8.7951   -35.0961     7.9093   109.5418     0.0829     2.5132     0.0232
  255.0000     6.9684     7.2499     8.8644   -34.9249     7.9080   109.8680     0.0810     2.5148     0.0324
  255.5000     7.0007     7.2570     8.9334   -34.9001     7.9067   110.4877     0.0774     2.5156     0.0416
  256.0000     7.0329     7.2655     8.9421   -34.8796     7.9055   111.1074     0.0785     2.5149     0.0494
  256.5000     7.0652     7.2724     8.8855   -35.0144     7.9230   110.9797     0.0809     2.5135     0.0599
  257.0000     7.0975     7.2794     8.7715   -34.9889     7.9250   108.4484     0.0818     2.5144     0.0690
  257.5000     7.1266     7.2863     8.7159   -34.9684     7.9419   104.2377     0.0827     2.5152     0.0752
