~VERSION INFORMATION
 VERS.                2.0:   CWLS LOG ASCII STANDARD - VERSION 2.0
 WRAP.                 NO:   ONE LINE PER DEPTH STEP
~WELL INFORMATION
#MNEM.UNIT      DATA TYPE    INFORMATION
#----------   ------------   ------------------------------
 STRT.F           64.0000:   START DEPTH
 STOP.F          795.0000:   STOP DEPTH
 STEP.F            0.5000:   STEP LENGTH
 NULL.          -999.2500:   NO VALUE
 COMP. LAWRENCE/ALLISON INC:   COMPANY
 WELL.      23-61 SX #2-2:   WELL
 FLD .             TEAPOT:   FIELD
 LOC .       S2 T38N R78W:   LOCATION
 CNTY.            NATRONA:   COUNTY
 STAT.            WYOMING:   STATE
 CTRY. UNITED STATES OF AMERICA:   COUNTRY
 SRVC.              Welex:   SERVICE COMPANY
 DATE.        14-AUG-1985:   LOGDATE
 API .       490251103800:   API NUMBER
~CURVE INFORMATION
#MNEM.UNIT       API CODE    CURVE DESCRIPTION
#----------   ------------   ------------------------------
 DEPT.F                  :   
 SPR .MV     07 010 01 00:   SPONTANEOUS POTENTIAL
 ILD .OHMM   07 120 46 00:   INDUCTION LOG DEEP
 ILM .OHMM   07 120 44 00:   INDUCTION LOG MEDIUM
 SGRD.OHMM   07 221 05 00:   SHALLOW SHORT GUARD RESISTIVITY
 DPHI.DEC    45 890 12 00:   DENSITY POROSITY SANDSTONE
 NPHI.DEC    42 890 03 00:   NEUTRON POROSITY SANDSTONE
 GRD .GAPI   45 310 01 00:   GAMMA RAY FROM DENSITY LOG
 CALD.IN     45 280 60 00:   CALIPER FROM DENSITY
 CORR.G/C3   45 356 01 00:   DENSITY CORRECTION
 RHOB.G/C3   45 350 01 00:   BULK DENSITY
~PARAMETER INFORMATION
#MNEM.UNIT          VALUE    DESCRIPTION
#----------   ------------   ------------------------------
 PD  .                 GL:   PERMANENT DATUM
 EPD .F              5112:   ELEVATION PERMANENT DATUM
 LMF .                 GL:   LOG MEASURED FROM
 DMF .                 GL:   DRILLING MEASURED FROM
 EGL .F              5112:   GROUND LEVEL
 DATE.        14-AUG-1985:   RUN DATE
 RUN .                  1:   RUN NUMBER
 DD  .F               800:   DEPTH DRILLER
 DL  .F               797:   DEPTH LOGGER
 BLI .F               795:   BOTTOM LOG INTERVAL
 TLI .F                76:   TOP LOG INTERVAL
 CS  .IN            8.625:   CASING SIZE
 CBD .F                76:   CASING BOTTOM DRILLER
 CBL .F                76:   CASING BOTTOM LOGGER
 BS  .IN            7.875:   BIT SIZE
 BSD .F               800:   BIT SIZE AT DEPTH
 DFT .                KCL:   DRILLING FLUID TYPE
 MSS .               TANK:   MUD SAMPLE SOURCE
 RMS .OHMM           0.22:   RESISTIVITY MUD SAMPLE
 MST .F                64:   MUD SAMPLE TEMPERATURE
 MFSS.               MEAS:   MUD FILTRATE SAMPLE SOURCE
 TCS .HRS            2230:   TIME CURCULATED STOPPED
 TLAB.HRS            0200:   TIME LOGGER AT BOTTOM
 LUN .               1892:   LOGGING UNIT NUMBER
 LUL .             CASPER:   LOGGING UNIT LOCATION
 ENGI.         T. QUINLAN:   RECORDING ENGINEER
 WITN.        N. JENNINGS:   WITNESSED BY
 CLNT.            A2DTECH:   CLIENT CODE
 ORIG.        2" 5" PRINT:   ORIGIN OF DATA
 UWI .       490251103800:   UNIQUE WELL ID
 DICO. A2D Technologies, Inc.:   DIGITIZING COMPANY
 R1  . POROSITY WITH SANDSTONE:   REMARKS 1
~OTHER INFORMATION
~A   DEPT      SPR        ILD        ILM       SGRD       DPHI       NPHI         GRD      CALD       CORR       RHOB   
# ...
  298.5000   -44.5441     9.5663     9.8326    12.6390     0.1287     0.3138   104.4029     8.0238     0.0275     2.4670
  299.0000   -43.9462     9.5580     9.9652    12.9895     0.1287     0.3115   101.5096     8.0089     0.0252     2.4593
  299.5000   -43.3483     9.5514     9.9596    13.4432     0.1306     0.3088   100.0098     7.9792     0.0251     2.4524
  300.0000   -43.1667     9.5686    10.0237    13.2100     0.1358     0.3064    98.7415     7.9791     0.0271     2.4466
  300.5000   -42.9733     9.8105    10.1576    12.7883     0.1415     0.3088    97.9107     7.9785     0.0307     2.4423
  301.0000   -43.1960     9.8029    10.0799    12.6041     0.1446     0.3115    98.5516     7.9779     0.0324     2.4369
  301.5000   -44.8384     9.7969     9.8628    12.4226     0.1458     0.3131   101.8454     7.9774     0.0323     2.4361
  302.0000   -45.5847     9.7227     9.8560    12.0740     0.1449     0.3140   104.2974     7.9768     0.0330     2.4413
  302.5000   -45.7327     9.5154     9.6453    11.9835     0.1362     0.3140   105.9229     8.0059     0.0336     2.4473
  303.0000   -45.7309     9.3777     9.5716    11.9769     0.1329     0.3125   105.0227     8.0054     0.0367     2.4525
  303.5000   -45.5799     9.1778     9.4325    11.9703     0.1314     0.3092   104.1240     8.0197     0.0425     2.4577
  304.0000   -45.4290     8.9821     9.3605    12.0491     0.1323     0.3059   103.8219     8.0191     0.0409     2.4630
  304.5000   -45.7336     8.9765     9.2890    12.0408     0.1351     0.3038   106.4932     8.0183     0.0401     2.4576
  305.0000   -46.1734     9.0970     9.3476    12.1187     0.1363     0.3051   109.4635     8.0178     0.0392     2.4552
  305.5000   -45.8465     9.2193     9.4741    12.1967     0.1391     0.3100   111.8385     8.0172     0.0384     2.4506
  306.0000   -45.1238     9.2134     9.5339    12.1899     0.1439     0.3124   113.6198     8.0166     0.0360     2.4445
  306.5000   -44.9729     9.2077     9.5257    12.1831     0.1473     0.3114   107.3624     8.0160     0.0329     2.4383
  307.0000   -45.1212     9.2019     9.5192    12.2618     0.1497     0.3099   105.2732     8.0154     0.0305     2.4329
  307.5000   -45.1194     9.0603     9.5127    11.9022     0.1501     0.3088   103.7793     8.0148     0.0304     2.4298
  308.0000   -45.4169     8.9374     9.2444    11.6628     0.1474     0.3079   101.6900     8.0142     0.0326     2.4297
  308.5000   -46.1628     8.8070     9.1652    11.6564     0.1425     0.3103    98.4103     8.0137     0.0363     2.4343
  309.0000   -47.0582     8.6796     8.9762    11.6500     0.1353     0.3109    95.7259     7.9833     0.0415     2.4432
  309.5000   -47.5052     8.6742     8.9700    11.8088     0.1280     0.3082    94.5295     7.9678     0.0453     2.4560
  310.0000   -46.9058     8.6688     8.9015    11.6371     0.1220     0.3067    95.7141     7.9673     0.0504     2.4674
  310.5000   -46.1569     8.6634     8.9577    11.3106     0.1181     0.3080   100.4701     8.0113     0.0534     2.4801
  311.0000   -45.4020     8.6581     8.9516    11.1477     0.1148     0.3116   105.2261     8.0256     0.0510     2.4854
  311.5000   -44.9582     8.6527     8.9454    11.2982     0.1130     0.3125   110.2798     8.0697     0.0464     2.4900
  312.0000   -45.1062     8.6473     8.9393    11.9402     0.1185     0.3119   113.5713     8.0635     0.0418     2.4859
  312.5000   -45.2542     8.7038     8.9332    11.9336     0.1246     0.3101   114.7323     7.9791     0.0394     2.4752
  313.0000   -45.2524     8.7594     8.9270    11.8441     0.1270     0.3093   114.3531     8.0082     0.0385     2.4705
  313.5000   -46.2972     8.8152     8.9209    11.6736     0.1280     0.3096   111.5924     8.0076     0.0392     2.4674
  314.0000   -49.4348     8.8703     9.0401    11.5055     0.1295     0.3117   109.9512     8.0221     0.0475     2.4643
  314.5000   -49.7323     8.8646     9.0744    11.3398     0.1325     0.3157   111.4334     8.0214     0.0398     2.4605
  315.0000   -50.7771     8.8591     9.1099    11.1739     0.1368     0.3199   112.0242     8.0505     0.0359     2.4528
  315.5000   -52.1213     8.7920     9.1477    10.9388     0.1380     0.3230   111.4216     8.0650     0.0335     2.4520
  316.0000   -52.1195     8.7841     9.3364    10.9327     0.1432     0.3236   111.1181     8.0047     0.0365     2.4488
  316.5000   -51.9686     8.7143     9.3939    11.0019     0.1490     0.3206   112.3027     7.9744     0.0288     2.4344
  317.0000   -50.9208     8.5937     9.3873    11.1504     0.1472     0.3187   115.8683     7.9887     0.0249     2.4275
  317.5000   -50.3214     8.4683     9.1226    11.2238     0.1457     0.3192   118.2433     8.0178     0.0226     2.4335
  318.0000   -50.3477     8.3457     8.6777    11.2161     0.1442     0.3203   120.3223     8.0321     0.0240     2.4357
  318.5000   -52.7608     8.2826     8.1401    10.9014     0.1394     0.3188   115.8506     8.0314     0.0247     2.4393
  319.0000   -53.0076     8.1060     7.6988    10.3038     0.1370     0.3170   113.1662     8.0161     0.0253     2.4453
  319.5000   -52.8563     7.9887     7.4818     9.7391     0.1373     0.3159   111.0769     8.0155     0.0269     2.4514
  320.0000   -52.8548     7.8731     7.2709     9.4658     0.1425     0.3159   110.7734     8.0148     0.0304     2.4421
  320.5000   -52.8533     7.6517     7.1154     9.2646     0.1443     0.3183   112.2556     8.0142     0.0296     2.4390
  321.0000   -52.8519     7.4364     7.0610     9.1951     0.1444     0.3201   114.0354     8.0136     0.0303     2.4389
  321.5000   -52.8504     7.3802     7.1056     9.0627     0.1383     0.3205   114.0296     8.0130     0.0332     2.4422
  322.0000   -53.1479     7.5843     7.2522     9.1212     0.1326     0.3196   114.6190     8.0124     0.0361     2.4539
  322.5000   -53.2959     7.7942     7.4510     9.1801     0.1296     0.3187   116.1011     7.9970     0.0368     2.4599
  323.0000   -53.2944     8.0098     7.4459     9.7016     0.1287     0.3181   116.6905     7.9815     0.0383     2.4643
  323.5000   -53.2929     8.2314     7.4408    10.2529     0.1306     0.3181   115.4616     7.9660     0.0374     2.4658
  324.0000   -53.1381     8.2840     7.4357    10.8437     0.1424     0.3172   112.1191     7.9805     0.0274     2.4445
  324.5000   -50.8448     8.3952     7.6410    10.9818     0.1482     0.3148   107.4096     7.9797     0.0213     2.4345
  325.0000   -49.7010     8.2736     8.0179    10.6610     0.1494     0.3124   106.8452     7.9791     0.0212     2.4284
  325.5000   -51.7920     8.0408     8.4763    10.5185     0.1458     0.3097   106.8381     7.9786     0.0234     2.4313
  326.0000   -53.7337     7.9800     8.7671    10.5127     0.1361     0.3073   106.8322     7.9780     0.0263     2.4532
  326.5000   -53.8821     7.9195     9.0091    10.6546     0.1195     0.3055   106.2311     7.9625     0.0520     2.4759
  327.0000   -53.8802     7.9135     9.1934    10.8740     0.1122     0.3049   105.0347     7.9470     0.0693     2.4872
  327.5000   -54.3272     7.9653     9.2514    11.0994     0.1098     0.3040   101.7551     7.9465     0.0783     2.5015
  328.0000   -54.4756     8.0161     8.9890    11.3279     0.1138     0.3022    99.6658     7.9457     0.0858     2.4946
  328.5000   -54.6236     8.1237     8.6749    10.5572     0.1284     0.3047    99.0647     7.9451     0.0660     2.4771
  329.0000   -53.8744     8.1755     8.1983    10.1896     0.1423     0.3062    99.0588     7.9445     0.0470     2.4497
  329.5000   -52.0792     8.1691     8.0229    10.1132     0.1484     0.3074   100.2449     7.9737     0.0325     2.4398
  330.0000   -50.8819     7.9950     8.0174    10.1077     0.1490     0.3075   102.3208     8.0029     0.0211     2.4344
  330.5000   -49.0809     7.9900     8.0119    10.1021     0.1460     0.3081   104.1007     8.0172     0.0187     2.4313
  331.0000   -47.5646     7.9295     8.0064    10.0965     0.1406     0.3111   105.8805     8.0316     0.0201     2.4369
  331.5000   -46.3444     7.9246     8.0009    10.0844     0.1343     0.3148   107.0666     8.0309     0.0231     2.4497
