~VERSION INFORMATION
 VERS.                2.0:   CWLS LOG ASCII STANDARD - VERSION 2.0
 WRAP.                 NO:   ONE LINE PER DEPTH STEP
~WELL INFORMATION
#MNEM.UNIT      DATA TYPE    INFORMATION
#----------   ------------   ------------------------------
 STRT.F           36.0000:   START DEPTH
 STOP.F          521.0000:   STOP DEPTH
 STEP.F            0.5000:   STEP LENGTH
 NULL.          -999.2500:   NO VALUE
 COMP. FENIX & SCISSON INC:   COMPANY
 WELL.        NPR-3 #36-3:   WELL
 FLD .             TEAPOT:   FIELD
 LOC .       S3 T38N R78W:   LOCATION
 CNTY.            NATRONA:   COUNTY
 STAT.            WYOMING:   STATE
 CTRY. UNITED STATES OF AMERICA:   COUNTRY
 SRVC.            Unknown:   SERVICE COMPANY
 DATE.        09-JUL-1978:   LOGDATE
 API .       490251066200:   API NUMBER
~CURVE INFORMATION
#MNEM.UNIT       API CODE    CURVE DESCRIPTION
#----------   ------------   ------------------------------
 DEPT.F                  :   
 CALD.IN     45 280 60 00:   CALIPER FROM DENSITY LOG
 GRD .GAPI   45 310 01 00:   GAMMA RAY FROM DENSITY LOG
 CORR.G/C3   45 356 01 00:   DENSITY CORRECTION
 DPHI.DEC    45 890 12 00:   DENSITY POROSITY SANDSTONE
 RHOB.G/C3   45 350 01 00:   BULK DENSITY
 SPR .MV     07 010 01 00:   SPONTANEOUS POTENTIAL
 ILD .OHMM   07 120 46 00:   INDUCTION LOG DEEP
 SN  .OHMM   07 040 16 00:   SHORT NORMAL 16"
~PARAMETER INFORMATION
#MNEM.UNIT          VALUE    DESCRIPTION
#----------   ------------   ------------------------------
 PD  .                 GL:   PERMANENT DATUM
 EPD .F              5216:   ELEVATION PERMANENT DATUM
 LMF .                 KB:   LOG MEASURED FROM
 DAPD.F                 4:   FEET ABOVE PERMANENT DATUM
 DMF .                 KB:   DRILLING MEASURED FROM
 EKB .F              5220:   KELLING BUSHING
 EGL .F              5216:   GROUND LEVEL
 DATE.        09-JUL-1978:   RUN DATE
 RUN .                  1:   RUN NUMBER
 DD  .F               520:   DEPTH DRILLER
 DL  .F               524:   DEPTH LOGGER
 BLI .F               519:   BOTTOM LOG INTERVAL
 TLI .F                50:   TOP LOG INTERVAL
 CS  .IN            8.625:   CASING SIZE
 CBD .F                40:   CASING BOTTOM DRILLER
 BS  .IN            7.875:   BIT SIZE
 BSD .F               520:   BIT SIZE AT DEPTH
 DFT .                KCL:   DRILLING FLUID TYPE
 DFD .                8.6:   DRILLING FLUID DENSITY
 DFV .                 32:   DRILLING FLUID VISCOSITY
 DFPH.                9.5:   DRILLING FLUID PH
 DFL .               14.4:   DRILLING FLUID LOSS
 MSS .           FLOWLINE:   MUD SAMPLE SOURCE
 RMS .OHMM           0.24:   RESISTIVITY MUD SAMPLE
 MST .F                70:   MUD SAMPLE TEMPERATURE
 RMF .OHMM           0.24:   RESISTIVITY MUD FILTRATE SAMPLE
 MFST.F                70:   MUD FILTRATE SAMPLE TEMPERATURE
 RMC .OHMM           0.42:   RESISTIVITY MUD CAKE
 MCST.F                72:   MUD CAKE SAMPLE TEMPERATURE
 MFSS.               MEAS:   MUD FILTRATE SAMPLE SOURCE
 BHT .F                80:   BOTTOM HOLE TEMPERATURE
 TCS .HRS               3:   TIME CURCULATED STOPPED
 MRT .F                80:   MAXIMUM RECORDED TEMPERATURE
 LUN .               2958:   LOGGING UNIT NUMBER
 LUL .               CASP:   LOGGING UNIT LOCATION
 ENGI.             MILLER:   RECORDING ENGINEER
 WITN.           MCGINLEY:   WITNESSED BY
 CLNT.            A2DTECH:   CLIENT CODE
 ORIG.           5" PRINT:   ORIGIN OF DATA
 UWI .       490251066200:   UNIQUE WELL ID
 DICO. A2D Technologies, Inc.:   DIGITIZING COMPANY
~OTHER INFORMATION
~A   DEPT     CALD        GRD       CORR       DPHI       RHOB        SPR        ILD         SN   
# ...
  198.0000     7.7833    84.4660     0.0028     0.1465     2.4460   -19.7429     9.0739     9.2184
  198.5000     7.7991    87.1575     0.0103     0.1444     2.4426   -19.7613     9.0096     9.2160
  199.0000     7.8449    85.9741     0.0194     0.1408     2.4558   -19.7844     9.0079     9.1500
  199.5000     7.8607    81.8101     0.0179     0.1366     2.4611   -19.8029     9.0060     9.1474
  200.0000     7.8317    80.9225     0.0225     0.1327     2.4619   -19.8167     8.9377     9.0760
  200.5000     7.8922    81.3910     0.0196     0.1362     2.4589   -19.7171     8.8798     8.9998
  201.0000     7.9228    82.0070     0.0197     0.1401     2.4522   -19.8448     8.8156     8.9517
  201.5000     7.8939    83.4861     0.0272     0.1371     2.4538   -20.1567     8.7531     8.9493
  202.0000     7.8948    87.0716     0.0288     0.1329     2.4620   -20.6187     8.6312     8.8238
  202.5000     7.9568    88.5707     0.0259     0.1335     2.4651   -20.9309     8.5701     8.7001
  203.0000     8.0475    87.5362     0.0260     0.1377     2.4569   -21.0951     8.5684     8.6978
  203.5000     8.1212    86.2038     0.0246     0.1410     2.4524   -21.1067     8.6308     8.6949
  204.0000     8.1072    85.4652     0.0262     0.1377     2.4525   -21.1182     8.8045     8.9367
  204.5000     8.0780    85.7742     0.0278     0.1329     2.4623   -21.1298     8.8642     8.9970
  205.0000     8.0195    86.6772     0.0293     0.1302     2.4667   -21.1413     8.6204     8.7482
  205.5000     8.0053    89.3685     0.0294     0.1284     2.4677   -21.1532     8.3837     8.6256
  206.0000     7.9763    90.2715     0.0280     0.1271     2.4735   -21.1673     8.2100     8.3877
  206.5000     7.9623    88.1938     0.0281     0.1307     2.4706   -21.1789     8.0400     8.2701
  207.0000     7.9483    84.7511     0.0282     0.1279     2.4684   -21.1904     7.9830     8.2108
  207.5000     7.9344    82.8463     0.0268     0.1244     2.4781   -21.2020     8.0925     8.1514
  208.0000     7.9204    83.6002     0.0239     0.1280     2.4707   -21.2135     8.1469     8.2064
  208.5000     7.9064    81.5247     0.0210     0.1316     2.4692   -21.2253     8.2586     8.3180
  209.0000     7.8924    80.4881     0.0211     0.1315     2.4633   -21.2395     8.3142     8.3742
  209.5000     7.8784    85.7152     0.0182     0.1318     2.4663   -21.2511     8.3121     8.4301
  210.0000     7.8643    88.4065     0.0093     0.1399     2.4567   -21.2626     8.2532     8.3691
  210.5000     7.8654    87.5211     0.0019     0.1521     2.4402   -21.2742     8.1383     8.2518
  211.0000     7.8663    84.5493     0.0020     0.1506     2.4373   -21.2857     8.0250     8.1926
  211.5000     7.8821    81.7265     0.0055     0.1449     2.4388   -21.1471     7.8588     8.1903
  212.0000     7.8830    80.6920     0.0251     0.1386     2.4464   -21.1615     7.6960     8.1877
  212.5000     7.8838    80.8498     0.0262     0.1377     2.4568   -21.1731     7.3820     8.1290
  213.0000     7.8847    82.6470     0.0248     0.1380     2.4576   -21.1846     7.0808     8.1268
  213.5000     7.8856    84.4442     0.0249     0.1393     2.4547   -21.1962     7.0302     8.0685
  214.0000     7.8865    85.8341     0.0310     0.1404     2.4517   -21.2077     7.0288     8.0664
  214.5000     7.8874    87.5914     0.0370     0.1382     2.4525   -21.0690     7.0765     8.0085
  215.0000     7.9031    86.5591     0.0431     0.1317     2.4623   -21.0811     7.1241     8.0064
  215.5000     7.9040    84.3324     0.0432     0.1239     2.4735   -21.0951     7.2218     8.0041
  216.0000     7.9049    82.5528     0.0283     0.1280     2.4758   -21.1067     7.3208     8.0016
  216.5000     7.9060    82.4104     0.0284     0.1244     2.4757   -20.9652     7.4208     7.9994
  217.0000     7.9069    82.4214     0.0270     0.1229     2.4788   -20.9796     7.5225     8.1088
  217.5000     7.9077    82.8773     0.0151     0.1361     2.4690   -20.8408     7.6291     8.1635
  218.0000     7.9086    85.4196     0.0016     0.1471     2.4399   -20.8529     7.7302     8.2180
  218.5000     7.9244    86.3203     0.0003     0.1513     2.4364   -21.0172     7.7822     8.3299
  219.0000     7.9402    85.5862     0.0064     0.1507     2.4379   -21.0287     7.7267     8.3276
  219.5000     7.9709    84.9988     0.0095     0.1482     2.4469   -21.1904     7.6719     8.3253
  220.0000     8.0015    85.3057     0.0111     0.1444     2.4522   -21.2020     7.6176     8.2651
  220.5000     8.0322    87.1058     0.0112     0.1402     2.4462   -21.2135     7.6160     8.2629
  221.0000     8.0480    88.1550     0.0113     0.1390     2.4545   -21.2332     7.6145     8.2037
  221.5000     8.0489    85.8947     0.0098     0.1395     2.4553   -21.3897     7.4568     8.1449
  222.0000     8.0498    81.3191     0.0084     0.1383     2.4523   -21.5514     7.3530     8.1427
  222.5000     8.0506    80.1335     0.0070     0.1374     2.4553   -21.5629     7.4024     8.0285
  223.0000     8.0366    82.0819     0.0071     0.1380     2.4591   -21.5745     7.5036     8.0264
  223.5000     8.0377    82.3865     0.0057     0.1392     2.4577   -21.7362     7.4504     7.9687
  224.0000     8.0386    84.7820     0.0043     0.1419     2.4532   -21.7477     7.3976     7.9662
  224.5000     8.0094    85.2357     0.0014     0.1466     2.4471   -21.7621     7.2444     7.9091
  225.0000     8.0105    85.0954     0.0000     0.1532     2.4398   -21.7737     7.1435     7.8524
  225.5000     8.0114    87.6399     0.0001     0.1583     2.4219   -21.7852     6.9474     7.7423
  226.0000     8.0123    92.2687     0.0017     0.1620     2.4190   -21.7968     6.5724     7.4768
  226.5000     8.0132    90.3400     0.0003     0.1654     2.4116   -21.6553     6.0483     7.1706
  227.0000     8.0141    86.9211     0.0004     0.1740     2.3989   -21.6697     5.8379     6.9728
  227.5000     8.0000    86.9300     0.0020     0.1824     2.3870   -21.6817     5.8000     6.6871
  228.0000     8.0009    86.1460     0.0050     0.1839     2.3810   -21.6957     5.8798     6.6849
  228.5000     8.0018    87.7198     0.0096     0.1725     2.3982   -21.7073     5.8783     6.7764
  229.0000     8.0027    88.5978     0.0082     0.1581     2.4207   -21.7188     5.8771     6.8690
  229.5000     7.9886    89.4985     0.0068     0.1417     2.4424   -21.5773     5.9167     6.9629
  230.0000     7.9897    87.4209     0.0024     0.1453     2.4477   -21.5918     5.9981     7.2063
  230.5000     8.0055    89.8164     0.0010     0.1417     2.4507   -21.6036     6.0382     7.5100
  231.0000     8.0064    91.6135     0.0011     0.1452     2.4460   -21.4647     6.4688     7.9357
  231.5000     8.0073    88.6417     0.0049     0.1485     2.4381   -21.4792     7.1297     8.1681
  232.0000     8.0081    86.1169     0.0177     0.1270     2.4740   -21.4907     7.4410     8.4409
  232.5000     8.0090    86.2725     0.0193     0.1276     2.4710   -21.5023     7.6835     8.4987
  233.0000     8.0099    85.5384     0.0194     0.1290     2.4696   -21.5138     7.8972     8.6822
  233.5000     8.0108    84.8020     0.0195     0.1269     2.4778   -21.5256     8.0610     8.9144
  234.0000     8.0117    86.1520     0.0196     0.1200     2.4831   -21.5398     8.1157     8.9745
  234.5000     8.0125    89.1594     0.0197     0.1275     2.4719   -21.5514     8.2265     8.9715
  235.0000     8.0134    89.8957     0.0182     0.1287     2.4682   -21.5629     8.2249     8.9691
  235.5000     8.0143    90.0554     0.0153     0.1284     2.4743   -21.7246     8.2802     8.9667
  236.0000     8.0003    90.2110     0.0140     0.1269     2.4706   -21.7362     8.3360     8.9643
  236.5000     7.9713    86.1981     0.0140     0.1304     2.4653   -21.7497     8.3342     8.9619
  237.0000     7.9575    84.1205     0.0141     0.1265     2.4714   -21.9123     8.3322     9.0217
  237.5000     7.9584    83.5309     0.0142     0.1223     2.4804   -22.0740     8.3305     9.0187
  238.0000     7.9593    84.4361     0.0175     0.1211     2.4797   -22.0855     8.3288     9.0163
