~VERSION INFORMATION
 VERS.                2.0:   CWLS LOG ASCII STANDARD - VERSION 2.0
 WRAP.                 NO:   ONE LINE PER DEPTH STEP
~WELL INFORMATION
#MNEM.UNIT      DATA TYPE    INFORMATION
#----------   ------------   ------------------------------
 STRT.F           38.0000:   START DEPTH
 STOP.F          846.0000:   STOP DEPTH
 STEP.F            0.5000:   STEP LENGTH
 NULL.          -999.2500:   NO VALUE
 COMP. FENIX & SCISSON INC:   COMPANY
 WELL.    NPR 3 #34-SX-14:   WELL
 FLD .        TEAPOT DOME:   FIELD
 LOC .      S14 T38N R78W:   LOCATION
 CNTY.            NATRONA:   COUNTY
 STAT.            WYOMING:   STATE
 CTRY. UNITED STATES OF AMERICA:   COUNTRY
 SRVC.           BIRDWELL:   SERVICE COMPANY
 DATE.        26-APR-1978:   LOGDATE
 API .       490251063500:   API NUMBER
~CURVE INFORMATION
#MNEM.UNIT       API CODE    CURVE DESCRIPTION
#----------   ------------   ------------------------------
 DEPT.F                  :   
 NEUT.CPS    81 330 30 00:   NEUTRON
 TT  .US/F   81 520 00 00:   TRANSIT TIME
 GRD .GAPI   45 310 01 00:   GAMMA RAY FROM DENSITY LOG
 RHOB.G/C3   45 350 01 00:   BULK DENSITY
 DPOR.DEC    45 890 10 00:   DENSITY POROSITY
 CALD.IN     45 280 60 00:   CALIPER FROM DENSITY LOG
 CORR.G/C3   45 356 01 00:   DENSITY CORRECTION
~PARAMETER INFORMATION
#MNEM.UNIT          VALUE    DESCRIPTION
#----------   ------------   ------------------------------
 PD  .                 GL:   PERMANENT DATUM
 EPD .F              5232:   ELEVATION PERMANENT DATUM
 LMF .                 KB:   LOG MEASURED FROM
 DMF .                 KB:   DRILLING MEASURED FROM
 EKB .F              5236:   KELLING BUSHING
 EGL .F              5232:   GROUND LEVEL
 DATE.          4-26-1978:   RUN DATE
 RUN .                  1:   RUN NUMBER
 DD  .F               855:   DEPTH DRILLER
 DL  .F               853:   DEPTH LOGGER
 BLI .F               846:   BOTTOM LOG INTERVAL
 TLI .F                40:   TOP LOG INTERVAL
 CS  .IN            8.625:   CASING SIZE
 CBD .F                40:   CASING BOTTOM DRILLER
 CBL .F                40:   CASING BOTTOM LOGGER
 BS  .IN            7.875:   BIT SIZE
 BSD .F               855:   BIT SIZE AT DEPTH
 DFT .                KCL:   DRILLING FLUID TYPE
 DFD .                8.5:   DRILLING FLUID DENSITY
 DFV .                 31:   DRILLING FLUID VISCOSITY
 DFPH.                 10:   DRILLING FLUID PH
 DFL .               10.4:   DRILLING FLUID LOSS
 MSS .          FLUID PIT:   MUD SAMPLE SOURCE
 RMS .OHMM            .36:   RESISTIVITY MUD SAMPLE
 MST .F                68:   MUD SAMPLE TEMPERATURE
 RMF .OHMM            .28:   RESISTIVITY MUD FILTRATE SAMPLE
 MFST.F                74:   MUD FILTRATE SAMPLE TEMPERATURE
 RMC .OHMM            .48:   RESISTIVITY MUD CAKE
 MCST.F                79:   MUD CAKE SAMPLE TEMPERATURE
 MFSS.               MEAS:   MUD FILTRATE SAMPLE SOURCE
 RMB .OHMM            .33:   RESISTIVITY MUD AT BHT
 BHT .F                75:   BOTTOM HOLE TEMPERATURE
 TCS .HRS               1:   TIME CURCULATED STOPPED
 MRT .F                75:   MAXIMUM RECORDED TEMPERATURE
 LUN .               3006:   LOGGING UNIT NUMBER
 LUL .              CASP.:   LOGGING UNIT LOCATION
 ENGI.             MILLER:   RECORDING ENGINEER
 WITN.           MCGINLEY:   WITNESSED BY
 CLNT.            A2DTECH:   CLIENT CODE
 ORIG.      2" , 5" PRINT:   ORIGIN OF DATA
 UWI .       490251063500:   UNIQUE WELL ID
 DICO. A2D Technologies, Inc.:   DIGITIZING COMPANY
~OTHER INFORMATION
~A   DEPT     NEUT         TT         GRD      RHOB       DPOR       CALD       CORR   
# ...
  675.0000   416.4164   375.1917    63.1430     2.4050     0.1295    10.1458     0.0326
  675.5000   428.6689   377.5996    65.0047     2.4094     0.1296    10.1387     0.0341
  676.0000   440.9756   380.5931    66.5072     2.4088     0.1303    10.1316     0.0356
  676.5000   453.8651   382.4644    65.4057     2.4073     0.1311    10.1244     0.0372
  677.0000   436.2927   382.2782    64.0476     2.4058     0.1319    10.1173     0.0387
  677.5000   409.6812   382.1285    64.4696     2.4043     0.1327    10.1102     0.0402
  678.0000   389.6904   380.9708    65.5834     2.4069     0.1305    10.1031     0.0418
  678.5000   369.5487   379.8132    66.7021     2.4103     0.1282    10.0959     0.0415
  679.0000   349.5514   378.6555    67.4546     2.4138     0.1259    10.0888     0.0407
  679.5000   334.6343   377.4978    67.5048     2.4172     0.1239    10.0815     0.0400
  680.0000   346.4047   376.6338    67.4998     2.4207     0.1235    10.0666     0.0392
  680.5000   365.7873   376.0752    67.4826     2.4221     0.1230    10.0428     0.0385
  681.0000   385.1421   374.8625    68.1363     2.4231     0.1231    10.0190     0.0377
  681.5000   397.8902   372.3417    68.9216     2.4241     0.1232     9.9951     0.0370
  682.0000   396.5969   369.7828    68.8169     2.4244     0.1233     9.9712     0.0362
  682.5000   396.2986   371.6465    67.9911     2.4244     0.1234     9.9474     0.0355
  683.0000   406.5873   374.6468    67.1686     2.4244     0.1232     9.9235     0.0347
  683.5000   414.0502   377.6636    66.3402     2.4243     0.1222     9.8997     0.0340
  684.0000   409.3246   380.1437    65.5322     2.4260     0.1212     9.8759     0.0341
  684.5000   399.7704   381.9763    65.6233     2.4283     0.1202     9.8521     0.0341
  685.0000   419.1563   383.8089    66.5195     2.4306     0.1192     9.8272     0.0341
  685.5000   434.4618   385.6415    67.4918     2.4328     0.1178     9.7749     0.0341
  686.0000   425.4321   385.5243    68.4720     2.4351     0.1161     9.6772     0.0340
  686.5000   415.8643   383.9313    69.4513     2.4374     0.1145     9.4645     0.0357
  687.0000   433.7130   382.3382    70.4370     2.4397     0.1138     9.0563     0.0378
  687.5000   453.0944   380.7452    71.4593     2.4419     0.1138     9.0192     0.0399
  688.0000   472.4569   381.1580    70.9455     2.4442     0.1120     9.3806     0.0420
  688.5000   491.6273   381.3554    69.8444     2.4465     0.1103     9.7658     0.0440
  689.0000   493.5320   379.5633    68.7408     2.4488     0.1086     8.7805     0.0426
  689.5000   469.5341   379.4212    67.6350     2.4511     0.1086     9.3147     0.0410
  690.0000   472.8170   379.5417    66.7220     2.4490     0.1112     9.7063     0.0395
  690.5000   475.9678   379.6622    67.4501     2.4467     0.1121     8.7769     0.0379
  691.0000   468.4301   382.1285    69.5731     2.4444     0.1102     9.0916     0.0364
  691.5000   460.0998   381.7430    71.6649     2.4467     0.1131     9.6331     0.0348
  692.0000   467.8221   381.3253    73.7718     2.4440     0.1158     9.8836     0.0346
  692.5000   482.1099   380.1205    74.7143     2.4374     0.1186     8.8150     0.0356
  693.0000   482.9023   383.6044    73.4567     2.4330     0.1189     9.0768     0.0360
  693.5000   470.6957   385.3414    71.9069     2.4324     0.1190     9.4712     0.0361
  694.0000   464.7192   385.7430    71.4278     2.4356     0.1141     9.5152     0.0378
  694.5000   467.8793   385.7430    73.2796     2.4433     0.1095     9.5049     0.0438
  695.0000   467.1207   385.7430    75.0846     2.4508     0.1058     9.4942     0.0497
  695.5000   478.9554   385.7430    76.4236     2.4565     0.1058     9.4841     0.0534
  696.0000   491.7602   385.7428    78.2882     2.4564     0.1085     9.4812     0.0497
  696.5000   498.5254   385.7430    77.7806     2.4540     0.1111     9.4734     0.0462
  697.0000   487.1944   385.7961    77.5704     2.4496     0.1126     9.4631     0.0427
  697.5000   481.0762   385.8516    79.8099     2.4452     0.1126     9.4519     0.0392
  698.0000   507.4143   385.9070    79.6444     2.4406     0.1130     9.4396     0.0357
  698.5000   528.3082   385.9625    76.8857     2.4404     0.1164     9.4161     0.0322
  699.0000   528.5199   386.0179    76.8293     2.4405     0.1198     9.4752     0.0260
  699.5000   532.1376   386.0733    79.7987     2.4347     0.1230     9.7862     0.0154
  700.0000   551.2958   386.1287    81.7124     2.4278     0.1230     9.8463     0.0150
  700.5000   569.8638   386.0764    78.6392     2.4255     0.1208     9.5408     0.0162
  701.0000   588.5118   385.9810    78.2800     2.4291     0.1182     9.2145     0.0174
  701.5000   591.4058   385.8849    78.0519     2.4328     0.1182     9.2542     0.0187
  702.0000   564.2342   385.7904    77.7665     2.4330     0.1190     9.3135     0.0199
  702.5000   572.9737   385.8342    76.2626     2.4319     0.1202     9.3710     0.0173
  703.0000   564.6133   386.0180    72.5043     2.4204     0.1277     9.4229     0.0140
  703.5000   553.0673   386.2013    72.5952     2.4091     0.1358     9.4217     0.0107
  704.0000   569.0789   386.3835    73.8169     2.3978     0.1439     9.4172     0.0073
  704.5000   595.9199   386.5200    75.0574     2.3827     0.1520     9.3146     0.0080
  705.0000   606.7114   386.2800    76.3298     2.3665     0.1601     9.1719     0.0114
  705.5000   610.0056   386.0402    75.2835     2.3503     0.1682     9.0287     0.0231
  706.0000   626.4868   385.7999    73.1714     2.3341     0.1763     8.8856     0.0387
  706.5000   635.9543   385.5612    72.7161     2.3179     0.1845     8.7420     0.0609
  707.0000   601.5402   385.3224    72.8096     2.3016     0.1916     8.6216     0.0895
  707.5000   570.9924   385.1102    72.8913     2.2943     0.1916     8.5572     0.1180
  708.0000   551.7877   382.8984    72.1725     2.2923     0.1729     8.3940     0.1467
  708.5000   569.8113   378.0482    69.8637     2.3213     0.1595     8.1701     0.1693
  709.0000   584.6380   373.1841    67.6324     2.3556     0.1461     7.9437     0.1857
  709.5000   575.2779   368.3200    65.3944     2.3674     0.1327     7.7220     0.1735
  710.0000   563.6743   342.6808    65.1960     2.3912     0.1193     7.6394     0.1668
  710.5000   599.5532   311.3846    66.9020     2.4190     0.1059     8.0402     0.1638
  711.0000   678.1298   306.2437    68.6134     2.4468     0.0924     8.3583     0.1611
  711.5000   832.4875   302.3235    70.3100     2.4747     0.0907     8.5863     0.1576
  712.0000   903.4034   303.0201    70.7294     2.5046     0.1104     8.5772     0.1426
  712.5000   843.0097   313.6044    68.4349     2.4465     0.1403     8.5631     0.1275
  713.0000   779.9586   329.3574    67.0286     2.3935     0.1458     8.5480     0.1277
  713.5000   716.9212   345.9839    71.3133     2.3871     0.1515     8.5334     0.1368
  714.0000   653.8970   347.3065    74.8639     2.3785     0.1573     8.5289     0.1321
  714.5000   590.8353   386.9478    77.3645     2.3617     0.1612     8.5509     0.1034
  715.0000   539.6996   386.8239    77.5578     2.3468     0.1631     8.5724     0.0752
  715.5000   545.3790   386.7038    77.8348     2.3471     0.1655     8.5940     0.0542
  716.0000   543.8362   386.5838    78.6345     2.3421     0.1704     8.6155     0.0388
  716.5000   535.6464   386.4638    79.4736     2.3367     0.1752     8.6371     0.0235
  717.0000   521.4062   386.3438    80.3199     2.3313     0.1754     8.6586     0.0148
  717.5000   503.0224   386.2238    81.1637     2.3258     0.1755     8.6802     0.0095
  718.0000   495.8565   385.0326    82.0107     2.3205     0.1733     8.7018     0.0084
  718.5000   463.4828   381.7653    82.6812     2.3258     0.1712     8.7220     0.0089
  719.0000   433.1379   378.4980    81.6192     2.3322     0.1691     8.7193     0.0094
  719.5000   366.8595   375.2307    80.8488     2.3407     0.1671     8.7158     0.0100
  720.0000   336.9870   359.4846    82.4082     2.3435     0.1673     8.7125     0.0069
