~VERSION INFORMATION
 VERS.                2.0:   CWLS LOG ASCII STANDARD - VERSION 2.0
 WRAP.                 NO:   ONE LINE PER DEPTH STEP
~WELL INFORMATION
#MNEM.UNIT      DATA TYPE    INFORMATION
#----------   ------------   ------------------------------
 STRT.F           94.0000:   START DEPTH
 STOP.F          939.0000:   STOP DEPTH
 STEP.F            0.5000:   STEP LENGTH
 NULL.          -999.2500:   NO VALUE
 COMP. U S NAVY/INTEX OIL CO:   COMPANY
 WELL.    NPR #3 #88-S-27:   WELL
 FLD .             TEAPOT:   FIELD
 LOC .      S27 T39N R78W:   LOCATION
 CNTY.            NATRONA:   COUNTY
 STAT.            WYOMING:   STATE
 CTRY. UNITED STATES OF AMERICA:   COUNTRY
 SRVC.       Schlumberger:   SERVICE COMPANY
 DATE.        30-JUL-1963:   LOGDATE
 API .       490250658100:   API NUMBER
~CURVE INFORMATION
#MNEM.UNIT       API CODE    CURVE DESCRIPTION
#----------   ------------   ------------------------------
 DEPT.F                  :   
 SPR .MV     05 010 01 00:   SPONTANEOUS POTENTIAL FROM RES.
 CILD.MMHO   05 110 46 00:   CONDUCTIVITY INDUCTION LOG DEEP
 ASN .OHMM   05 041 16 00:   AMPLIFIED SHORT NORMAL 16"
 ILD .OHMM   05 120 46 00:   INDUCTION LOG DEEP
 GR  .GAPI   30 310 01 00:   GAMMA RAY
~PARAMETER INFORMATION
#MNEM.UNIT          VALUE    DESCRIPTION
#----------   ------------   ------------------------------
 PD  .                 GL:   PERMANENT DATUM
 EPD .F              5069:   ELEVATION PERMANENT DATUM
 LMF .                 KB:   LOG MEASURED FROM
 DAPD.F                 5:   FEET ABOVE PERMANENT DATUM
 DMF .                 KB:   DRILLING MEASURED FROM
 EKB .F              5074:   KELLING BUSHING
 EGL .F              5069:   GROUND LEVEL
 DATE.          7-30-1969:   RUN DATE
 RUN .                  1:   RUN NUMBER
 DD  .F               940:   DEPTH DRILLER
 DL  .F               940:   DEPTH LOGGER
 BLI .F               939:   BOTTOM LOG INTERVAL
 TLI .F                94:   TOP LOG INTERVAL
 CS  .IN            8.625:   CASING SIZE
 CBD .F                10:   CASING BOTTOM DRILLER
 BS  .IN             6.75:   BIT SIZE
 BSD .F               940:   BIT SIZE AT DEPTH
 DFT .            GEL/OIL:   DRILLING FLUID TYPE
 DFD .                9.6:   DRILLING FLUID DENSITY
 DFV .                 40:   DRILLING FLUID VISCOSITY
 DFPH.                  9:   DRILLING FLUID PH
 DFL .                  6:   DRILLING FLUID LOSS
 MSS .          FLOW LINE:   MUD SAMPLE SOURCE
 RMS .OHMM           2.94:   RESISTIVITY MUD SAMPLE
 MST .F                89:   MUD SAMPLE TEMPERATURE
 RMF .OHMM           2.19:   RESISTIVITY MUD FILTRATE SAMPLE
 MFST.F                87:   MUD FILTRATE SAMPLE TEMPERATURE
 MFSS.           MEASURED:   MUD FILTRATE SAMPLE SOURCE
 TCS .HRS               1:   TIME CURCULATED STOPPED
 LUN .               4507:   LOGGING UNIT NUMBER
 LUL .               CSPR:   LOGGING UNIT LOCATION
 ENGI.            WINKLER:   RECORDING ENGINEER
 WITN.          JORGENSEN:   WITNESSED BY
 CLNT.            A2DTECH:   CLIENT CODE
 ORIG.           5" PRINT:   ORIGIN OF DATA
 UWI .       490250658100:   UNIQUE WELL ID
 DICO. A2D Technologies, Inc.:   DIGITIZING COMPANY
~OTHER INFORMATION
~A   DEPT      SPR        CILD         ASN        ILD       GR   
# ...
  216.0000   -47.9062   153.6013     7.7284     6.8241  -999.2500
  216.5000   -48.0509   148.0179     7.9202     7.0251  -999.2500
  217.0000   -48.0534   142.4344     8.1100     7.2261  -999.2500
  217.5000   -47.9181   136.8509     8.5271     7.4272  -999.2500
  218.0000   -47.7858   132.9374     8.8141     7.6283  -999.2500
  218.5000   -47.7528   129.7396     8.9753     7.8321  -999.2500
  219.0000   -47.9806   128.1407     9.0551     7.8902  -999.2500
  219.5000   -48.0924   128.1407     8.9753     7.8884  -999.2500
  220.0000   -48.0923   133.4171     8.8832     7.6225  -999.2500
  220.5000   -48.0934   139.2797     8.7699     7.3242  -999.2500
  221.0000   -48.1058   145.1414     8.5780     7.0258  -999.2500
  221.5000   -47.7210   151.0105     8.3530     6.7281  -999.2500
  222.0000   -47.3910   156.8829     7.9331     6.4310  -999.2500
  222.5000   -47.0540   162.7441     7.4931     6.2795  -999.2500
  223.0000   -46.7204   162.3116     7.3040     6.3885  -999.2500
  223.5000   -46.5065   162.1105     7.2236     6.3821  -999.2500
  224.0000   -46.7497   160.1005     7.3327     6.3802  -999.2500
  224.5000   -46.9916   157.7889     7.4819     6.4622  -999.2500
  225.0000   -47.2325   155.7510     7.5642     6.5759  -999.2500
  225.5000   -47.4764   152.6801     7.4289     6.6904  -999.2500
  226.0000   -47.7996   149.5993     7.6626     6.8042  -999.2500
  226.5000   -47.3775   146.5252     7.9869     6.8880  -999.2500
  227.0000   -46.6510   146.6121     7.8698     6.7820  -999.2500
  227.5000   -46.3273   150.5743     7.9417     6.6367  -999.2500
  228.0000   -46.7253   154.5226     7.7547     6.4906  -999.2500
  228.5000   -47.1290   158.4709     7.5365     6.3446  -999.2500
  229.0000   -47.5339   162.4207     7.3697     6.1988  -999.2500
  229.5000   -47.8859   166.3700     7.2549     6.0528  -999.2500
  230.0000   -47.3327   169.8532     7.1399     5.9539  -999.2500
  230.5000   -46.8818   172.8643     7.0250     5.9019  -999.2500
  231.0000   -46.8838   175.1653     6.9097     5.8499  -999.2500
  231.5000   -46.5502   176.7522     6.7959     5.7979  -999.2500
  232.0000   -46.3460   178.3416     6.7835     5.7459  -999.2500
  232.5000   -46.8887   179.9304     6.8005     5.6933  -999.2500
  233.0000   -46.5036   180.4068     6.8347     5.6785  -999.2500
  233.5000   -45.9605   180.4020     6.8439     5.6785  -999.2500
  234.0000   -45.8925   179.8995     6.8240     5.6766  -999.2500
  234.5000   -46.6099   178.9593     6.7520     5.7786  -999.2500
  235.0000   -46.4427   177.5004     6.6806     5.8004  -999.2500
  235.5000   -46.1646   176.0415     6.6101     5.8418  -999.2500
  236.0000   -46.0853   174.5826     6.6140     5.8789  -999.2500
  236.5000   -46.0839   173.1237     6.7205     5.8799  -999.2500
  237.0000   -46.0842   171.6648     6.8284     5.9440  -999.2500
  237.5000   -46.0843   170.3518     6.9241     6.0166  -999.2500
  238.0000   -46.0846   171.1055     6.9531     6.0794  -999.2500
  238.5000   -46.0857   173.8596     7.0099     5.9412  -999.2500
  239.0000   -46.0828   178.8876     7.0244     5.7852  -999.2500
  239.5000   -45.8068   183.9175     6.8920     5.6294  -999.2500
  240.0000   -45.4989   188.9447     6.6379     5.4738  -999.2500
  240.5000   -45.2769   193.9698     6.3432     5.3183  -999.2500
  241.0000   -45.2807   198.9958     6.0505     5.1626  -999.2500
  241.5000   -45.2811   204.0201     5.9427     5.0072  -999.2500
  242.0000   -45.2811   209.0452     5.8584     4.8516  -999.2500
  242.5000   -45.4070   213.5678     5.7978     4.7738  -999.2500
  243.0000   -45.6585   213.5678     5.7989     4.7739  -999.2500
  243.5000   -45.8823   213.0025     5.8157     4.7737  -999.2500
  244.0000   -45.8846   211.1181     5.8497     4.7736  -999.2500
  244.5000   -45.8837   209.2337     5.8592     4.7812  -999.2500
  245.0000   -45.8835   207.5377     5.8593     4.8503  -999.2500
  245.5000   -45.9194   207.5377     5.8988     4.9204  -999.2500
  246.0000   -45.9912   205.4209     5.9778     4.9902  -999.2500
  246.5000   -46.0638   201.7153     6.0577     5.0600  -999.2500
  247.0000   -46.0843   198.0096     6.0802     5.1298  -999.2500
  247.5000   -46.0844   194.3039     6.0805     5.1996  -999.2500
  248.0000   -46.0845   190.5982     6.1551     5.2694  -999.2500
  248.5000   -45.9409   186.8925     6.3047     5.3410  -999.2500
  249.0000   -45.6538   183.1868     6.4542     5.4124  -999.2500
  249.5000   -45.3634   179.4811     6.6039     5.4777  -999.2500
  250.0000   -45.2821   175.7754     6.7537     5.5962  -999.2500
  250.5000   -45.2821   172.0697     6.9018     5.7284  -999.2500
  251.0000   -45.2093   168.3640     7.0284     5.8608  -999.2500
  251.5000   -45.1049   166.1139     7.0261     5.9914  -999.2500
  252.0000   -45.0716   164.6482     6.9816     6.0820  -999.2500
  252.5000   -44.9983   165.2638     6.9232     6.0807  -999.2500
  253.0000   -44.9271   166.5327     6.8840     6.0788  -999.2500
  253.5000   -44.9336   167.8015     6.8846     5.9974  -999.2500
  254.0000   -45.3403   169.0703     6.8737     5.9683  -999.2500
  254.5000   -45.7449   170.3518     6.8072     5.8946  -999.2500
  255.0000   -46.0937   174.1206     6.7416     5.8210  -999.2500
  255.5000   -46.0857   177.9271     6.6780     5.6908  -999.2500
  256.0000   -46.0844   184.0703     6.5329     5.4701  -999.2500
  256.5000   -46.0844   191.6834     6.3716     5.2509  -999.2500
  257.0000   -46.0847   199.2629     6.1977     5.0314  -999.2500
  257.5000   -46.0869   206.5831     6.0065     4.8119  -999.2500
  258.0000   -45.9801   217.3300     5.7776     4.5923  -999.2500
  258.5000   -45.8487   227.6834     5.5333     4.3731  -999.2500
  259.0000   -45.7166   238.0034     5.2870     4.1667  -999.2500
  259.5000   -45.5849   248.3233     5.0451     4.0340  -999.2500
  260.0000   -45.4531   258.6432     4.9242     3.9069  -999.2500
  260.5000   -45.3214   268.6683     4.8231     3.7799  -999.2500
  261.0000   -45.1896   276.2814     4.7136     3.6547  -999.2500
  261.5000   -45.0578   279.8995     4.5703     3.5658  -999.2500
  262.0000   -44.9248   274.0100     4.4269     3.6730  -999.2500
  262.5000   -44.8811   264.8744     4.4036     3.8686  -999.2500
  263.0000   -44.9302   255.7536     4.9270     4.0622  -999.2500
  263.5000   -45.0438   246.6153     5.4371     4.0736  -999.2500
  264.0000   -45.0478   233.4016     5.4018     4.2013  -999.2500
  264.5000   -44.9042   217.1457     5.3960     4.5596  -999.2500
  265.0000   -44.7646   200.9045     5.8760     4.9145  -999.2500
  265.5000   -44.6252   186.5025     6.3337     5.2696  -999.2500
  266.0000   -44.4863   176.3442     6.4976     5.5731  -999.2500
  266.5000   -44.3464   168.3417     6.6478     5.8008  -999.2500
  267.0000   -44.2774   162.6801     6.8334     6.0292  -999.2500
  267.5000   -44.2786   157.1817     7.0354     6.2582  -999.2500
  268.0000   -44.4699   153.4673     7.1387     6.4515  -999.2500
  268.5000   -44.6836   150.6989     7.0028     6.6037  -999.2500
  269.0000   -44.8965   147.7990     7.1751     6.7558  -999.2500
  269.5000   -45.0856   144.7538     7.3728     6.9081  -999.2500
  270.0000   -45.0811   141.7085     7.5780     7.0599  -999.2500
  270.5000   -45.0801   138.6633     7.6957     7.2134  -999.2500
  271.0000   -45.0778   137.1548     7.8130     7.2872  -999.2500
  271.5000   -45.1894   139.3035     7.8345     7.2643  -999.2500
  272.0000   -45.3341   143.3706     7.7269     7.0553  -999.2500
  272.5000   -45.4765   147.4372     7.6198     6.8700  -999.2500
  273.0000   -45.4833   151.4975     7.5076     6.6880  -999.2500
  273.5000   -45.4833   155.5578     7.3026     6.5059  -999.2500
  274.0000   -45.4761   161.2884     7.0887     6.3237  -999.2500
  274.5000   -45.3314   168.2705     6.8749     6.1417  -999.2500
  275.0000   -45.2752   175.2563     6.6640     5.9604  -999.2500
  275.5000   -45.1386   181.4573     6.4670     5.7730  -999.2500
  276.0000   -44.7791   186.5327     6.2695     5.4383  -999.2500
  276.5000   -44.4185   195.5695     6.0726     5.0990  -999.2500
