~VERSION INFORMATION
 VERS.                2.0:   CWLS LOG ASCII STANDARD - VERSION 2.0
 WRAP.                 NO:   ONE LINE PER DEPTH STEP
~WELL INFORMATION
#MNEM.UNIT      DATA TYPE    INFORMATION
#----------   ------------   ------------------------------
 STRT.F            8.0000:   START DEPTH
 STOP.F          513.0000:   STOP DEPTH
 STEP.F            0.5000:   STEP LENGTH
 NULL.          -999.2500:   NO VALUE
 COMP. LAWRENCE-ALLISON &AS:   COMPANY
 WELL. NPR 3 #51-63SX10UP3:   WELL
 FLD .             TEAPOT:   FIELD
 LOC .      S10 T38N R78W:   LOCATION
 CNTY.            NATRONA:   COUNTY
 STAT.            WYOMING:   STATE
 CTRY. UNITED STATES OF AMERICA:   COUNTRY
 SRVC.      Dresser Atlas:   SERVICE COMPANY
 DATE.        09-DEC-1984:   LOGDATE
 API .       490251099400:   API NUMBER
~CURVE INFORMATION
#MNEM.UNIT       API CODE    CURVE DESCRIPTION
#----------   ------------   ------------------------------
 DEPT.F                  :   
 RFOC.OHMM   07 220 01 00:   RESISTIVITY FOCUSED LOG
 RILD.OHMM   07 120 46 00:   INDUCTION LOG DEEP RESISTIVITY
 RILM.OHMM   07 120 44 00:   RESITIVITY LONG MEDIUM
 SPR .MV     07 010 01 00:   SPONTANEOUS POTENTIAL
 CALD.IN     45 280 60 00:   CALIPER FROM DENSITY LOG
 CORR.none               :   
 DEN .G/C3   45 350 01 00:   COMPENSATED BULK DENSTIY
 GRD .GAPI   45 310 01 00:   GAMMA RAY FROM DENSITY LOG
 PORD.DEC    45 890 12 00:   POROSITY DENSITY SANDSTONE
 CNC .DEC    42 890 03 00:   NEUTRON POROSITY SANDSTONE
~PARAMETER INFORMATION
#MNEM.UNIT          VALUE    DESCRIPTION
#----------   ------------   ------------------------------
 PD  .                 GL:   PERMANENT DATUM
 EPD .F              5162:   ELEVATION PERMANENT DATUM
 LMF .                 GL:   LOG MEASURED FROM
 DMF .                 GL:   DRILLING MEASURED FROM
 EGL .F              5162:   GROUND LEVEL
 DATE.        09-DEC-1984:   RUN DATE
 RUN .                  1:   RUN NUMBER
 DD  .F               510:   DEPTH DRILLER
 DL  .F               515:   DEPTH LOGGER
 BLI .F               513:   BOTTOM LOG INTERVAL
 TLI .F                20:   TOP LOG INTERVAL
 CS  .IN            8.625:   CASING SIZE
 CBD .F                20:   CASING BOTTOM DRILLER
 CBL .F                20:   CASING BOTTOM LOGGER
 BS  .IN            7.875:   BIT SIZE
 BSD .F               510:   BIT SIZE AT DEPTH
 DFT .          KCL-WATER:   DRILLING FLUID TYPE
 MSS .            MUDTANK:   MUD SAMPLE SOURCE
 RMS .OHMM           0.41:   RESISTIVITY MUD SAMPLE
 MST .F                45:   MUD SAMPLE TEMPERATURE
 RMF .OHMM           0.31:   RESISTIVITY MUD FILTRATE SAMPLE
 MFST.F                45:   MUD FILTRATE SAMPLE TEMPERATURE
 RMC .OHMM           0.51:   RESISTIVITY MUD CAKE
 MCST.F                45:   MUD CAKE SAMPLE TEMPERATURE
 MFSS.               CALC:   MUD FILTRATE SAMPLE SOURCE
 MCSS.               CALC:   MUD CAKE SAMPLE SOURCE
 RMB .OHMM           0.22:   RESISTIVITY MUD AT BHT
 BHT .F                85:   BOTTOM HOLE TEMPERATURE
 TCS .HRS               2:   TIME CURCULATED STOPPED
 MRT .F               100:   MAXIMUM RECORDED TEMPERATURE
 LUN .               6270:   LOGGING UNIT NUMBER
 LUL .                 FM:   LOGGING UNIT LOCATION
 ENGI.          E. GOVETT:   RECORDING ENGINEER
 WITN.              LUERS:   WITNESSED BY
 CLNT.            A2DTECH:   CLIENT CODE
 ORIG.           5" PRINT:   ORIGIN OF DATA
 UWI .       490251099400:   UNIQUE WELL ID
 DICO. A2D Technologies, Inc.:   DIGITIZING COMPANY
~OTHER INFORMATION
~A    DEPT    RFOC       RILD       RILM        SPR       CALD       CORR        DEN        GRD       PORD          CNC 
# ...
  175.5000     5.8073     4.6250     5.2137   -52.6586     8.1257     0.0512     2.4013    99.1444     0.1683     0.3287
  176.0000     5.9747     4.6304     5.3636   -52.6387     8.1373     0.0450     2.3982    98.8633     0.1701     0.3235
  176.5000     6.0621     4.7316     5.6734   -52.4742     8.1367     0.0389     2.3959   105.2165     0.1717     0.3150
  177.0000     6.5478     4.9363     6.0011   -52.3096     8.1361     0.0327     2.4035   109.6803     0.1720     0.3029
  177.5000     7.0234     5.2220     6.2601   -52.1451     8.1355     0.0373     2.4133   110.7296     0.1647     0.2916
  178.0000     7.2259     5.5242     6.4923   -52.1308     8.1349     0.0479     2.4186   107.1150     0.1580     0.2843
  178.5000     7.3827     5.8848     6.8290   -51.9658     8.1394     0.0411     2.4262   105.0053     0.1538     0.2905
  179.0000     7.5009     6.1822     7.2065   -51.8001     8.1488     0.0218     2.4330   105.0009     0.1505     0.2788
  179.5000     7.7703     6.4947     7.5175   -51.4870     8.1481     0.0065     2.4368   105.2972     0.1478     0.2685
  180.0000     8.0970     6.8230     7.8419   -51.3224     8.1529    -0.0057     2.4375   105.5946     0.1456     0.2642
  180.5000     8.3885     7.0688     8.1236   -51.3061     8.1621    -0.0149     2.4392   106.1905     0.1447     0.2791
  181.0000     8.5705     7.3235     8.3572   -51.4532     8.1674    -0.0104     2.4438   106.6372     0.1429     0.2870
  181.5000     8.6958     7.5348     8.4201   -51.5718     8.1759     0.0032     2.4481   107.2342     0.1405     0.2930
  182.0000     8.7618     7.6452     8.3661   -51.7044     8.1752     0.0168     2.4448   108.5832     0.1372     0.3088
  182.5000     8.6462     7.6509     8.3708   -51.8371     8.1747     0.0243     2.4404   109.9321     0.1439     0.3024
  183.0000     8.6279     7.5498     8.3174   -51.6685     8.1741     0.0288     2.4366   112.0329     0.1466     0.2976
  183.5000     8.5966     7.4501     8.3219   -51.5040     8.1734     0.0302     2.4358   113.3819     0.1463     0.2830
  184.0000     8.4833     7.2501     8.1315   -51.3395     8.1729     0.0317     2.4373   113.6902     0.1448     0.2769
  184.5000     8.3133     7.0065     8.0463   -51.1749     8.1723     0.0378     2.4403   110.2070     0.1430     0.2720
  185.0000     8.1971     6.8660     7.9396   -50.8618     8.1717     0.0421     2.4431   108.3860     0.1412     0.2842
  185.5000     7.9847     6.7284     7.8342   -50.6152     8.1560     0.0299     2.4464   107.9505     0.1394     0.2957
  186.0000     7.8793     6.6395     7.6777   -50.4874     8.1403     0.0222     2.4486   109.7303     0.1382     0.3049
  186.5000     7.8283     6.5516     7.5223   -50.3642     8.1247     0.0161     2.4456   113.2037     0.1422     0.3124
  187.0000     7.7789     6.4652     7.3210   -50.2021     8.1241     0.0115     2.4410   112.4473     0.1446     0.3172
  187.5000     7.6242     6.2480     7.1241   -50.1837     8.1235     0.0083     2.4394   107.6308     0.1452     0.3206
  188.0000     7.4714     6.0315     6.8839   -50.0179     8.1229     0.0083     2.4387   105.3708     0.1452     0.3124
  188.5000     7.3217     5.7421     6.6480   -50.0033     8.1223     0.0067     2.4371   107.9227     0.1459     0.3078
  189.0000     7.1750     5.4474     6.4292   -50.1399     8.1216     0.0066     2.4331   110.1739     0.1474     0.3427
  189.5000     6.9825     5.3011     6.2138   -50.2689     8.1265     0.0065     2.4254   110.6217     0.1513     0.3719
  190.0000     6.2081     5.1588     6.0889   -50.5498     8.1355     0.0095     2.4143   110.4657     0.1623     0.3479
  190.5000     5.3606     5.0899     6.2640   -50.6820     8.1349     0.0170     2.4036   111.0628     0.1671     0.3269
  191.0000     5.1520     5.0577     6.4890   -50.8111     8.1343     0.0276     2.3975   114.0658     0.1699     0.3038
  191.5000     5.8432     5.0969     6.8638   -50.9477     8.1336     0.0290     2.4013   115.1151     0.1650     0.2992
  192.0000     7.1031     5.2806     7.2603   -50.9278     8.1331     0.0241     2.4165   110.7487     0.1556     0.3068
  192.5000     7.9989     5.5862     7.5736   -50.9118     8.1325     0.0228     2.4354   108.0374     0.1426     0.3135
  193.0000     8.2869     5.9508     7.7913   -50.7473     8.1319     0.0257     2.4498   107.5819     0.1350     0.3190
  193.5000     8.4667     6.3391     7.9642   -50.7313     8.1164     0.0257     2.4582   107.5774     0.1320     0.3175
  194.0000     8.3537     6.7098     8.0759   -50.7154     8.1308     0.0241     2.4597   107.2722     0.1323     0.3083
  194.5000     8.2434     7.0510     8.1375   -50.6999     8.1301     0.0225     2.4558   107.4301     0.1336     0.3062
  195.0000     8.2497     7.3509     8.1419   -50.6835     8.1295     0.0345     2.4535   108.8070     0.1342     0.3065
  195.5000     8.3123     7.4585     8.1464   -50.6672     8.1288     0.0512     2.4550   109.2137     0.1330     0.3004
  196.0000     8.4339     7.5238     7.9273   -50.6476     8.1283     0.0587     2.4580   107.8548     0.1318     0.2971
  196.5000     8.6814     7.6251     7.8210   -50.3345     8.1277     0.0465     2.4581   107.0985     0.1340     0.2906
  197.0000     8.8041     7.7367     7.6638   -50.1700     8.1271     0.0373     2.4550   109.6504     0.1360     0.2873
  197.5000     8.8720     7.7955     7.5105   -50.0054     8.1114     0.0296     2.4549   110.6997     0.1367     0.2846
  198.0000     8.8775     7.8543     7.3597   -49.5437     8.1108     0.0265     2.4596   107.8370     0.1339     0.2821
  198.5000     8.8821     7.9141     7.2620   -49.2306     8.1102     0.0328     2.4650   104.6746     0.1297     0.2864
  199.0000     8.8877     7.9193     7.2088   -49.0661     8.1096     0.0461     2.4700   103.6176     0.1267     0.3031
  199.5000     8.8938     7.9240     7.1199   -48.6044     8.1090     0.0536     2.4723   107.0718     0.1252     0.3062
  200.0000     8.8363     7.8740     7.0264   -48.4398     8.1059     0.0516     2.4730   112.9323     0.1255     0.2940
  200.5000     9.0299     7.9875     7.0798   -48.0684     8.0977     0.0442     2.4725   115.1940     0.1246     0.2728
  201.0000     8.8489     7.8263     7.0841   -47.6755     8.0890     0.0425     2.4714   115.4799     0.1252     0.2581
  201.5000     8.7321     7.7227     7.1379   -47.6652     8.0604     0.0439     2.4691   115.0232     0.1271     0.2675
  202.0000     8.6156     7.6197     7.2423   -47.8039     8.0595     0.0437     2.4653   113.9661     0.1283     0.2788
  202.5000     8.5611     7.5172     7.2467   -47.6447     8.0587     0.0404     2.4606   112.0068     0.1298     0.2918
  203.0000     8.5677     7.4177     7.3018   -47.6344     8.0578     0.0357     2.4558   110.0475     0.1323     0.3040
  203.5000     8.5730     7.3698     7.3572   -47.4730     8.0569     0.0295     2.4507   108.8400     0.1369     0.3049
  204.0000     8.5783     7.3742     7.3617   -47.3167     8.0560     0.0202     2.4469   110.1890     0.1420     0.2995
  204.5000     8.6434     7.3778     7.4204   -47.6206     8.0551     0.0124     2.4430   115.8988     0.1417     0.2982
  205.0000     8.7091     7.3807     7.4223   -47.8905     8.0542     0.0077     2.4460   114.5410     0.1371     0.2973
  205.5000     8.6540     7.3843     7.3753   -47.8776     8.0533     0.0060     2.4536   111.6794     0.1338     0.2960
  206.0000     8.6596     7.3363     7.2286   -47.5702     8.0524     0.0119     2.4588   110.8511     0.1306     0.2937
  206.5000     8.6047     7.2889     6.9376   -47.4113     8.0515     0.0362     2.4618   113.7758     0.1288     0.2910
  207.0000     8.6113     7.0439     6.7047   -47.2525     8.0657     0.0373     2.4648   113.4707     0.1291     0.2885
  207.5000     8.6166     6.7124     6.5248   -47.3933     8.0648     0.0280     2.4632   113.0150     0.1312     0.2955
  208.0000     8.0429     6.3964     6.3058   -47.5291     8.0637     0.0232     2.4556   113.9669     0.1382     0.3223
  208.5000     6.6245     6.0953     6.2216   -47.5188     8.0780     0.0276     2.4387   116.3134     0.1534     0.3420
