~VERSION INFORMATION
 VERS.                2.0:   CWLS LOG ASCII STANDARD - VERSION 2.0
 WRAP.                 NO:   ONE LINE PER DEPTH STEP
~WELL INFORMATION
#MNEM.UNIT      DATA TYPE    INFORMATION
#----------   ------------   ------------------------------
 STRT.F           28.0000:   START DEPTH
 STOP.F          791.0000:   STOP DEPTH
 STEP.F            0.5000:   STEP LENGTH
 NULL.          -999.2500:   NO VALUE
 COMP. LAWRENCE/ALLISON INC:   COMPANY
 WELL.    34-61 SX #11-11:   WELL
 FLD .             TEAPOT:   FIELD
 LOC .      S11 T38N R78W:   LOCATION
 CNTY.            NATRONA:   COUNTY
 STAT.            WYOMING:   STATE
 CTRY. UNITED STATES OF AMERICA:   COUNTRY
 SRVC.           Gearhart:   SERVICE COMPANY
 DATE.        29-JUL-1987:   LOGDATE
 API .       490251112500:   API NUMBER
~CURVE INFORMATION
#MNEM.UNIT       API CODE    CURVE DESCRIPTION
#----------   ------------   ------------------------------
 DEPT.F                  :   
 GRR .GAPI   07 310 01 00:   GAMMA RAY FROM RESISTIVITY
 RILD.OHMM   07 120 46 00:   RESISTIVITY INDUCTION LOG DEEP
 RILM.OHMM   07 120 44 00:   RESISTIVITY INDUCTION LOG MEDIUM
 RLL .OHMM   07 220 00 00:   RESISTIVITY LATEROLOG
~PARAMETER INFORMATION
#MNEM.UNIT          VALUE    DESCRIPTION
#----------   ------------   ------------------------------
 PD  .                 GL:   PERMANENT DATUM
 EPD .F              5172:   ELEVATION PERMANENT DATUM
 LMF .                 KB:   LOG MEASURED FROM
 DAPD.F                 7:   FEET ABOVE PERMANENT DATUM
 DMF .                 KB:   DRILLING MEASURED FROM
 EKB .F              5180:   KELLING BUSHING
 EDF .F              5178:   DRILLING FLOOR
 EGL .F              5172:   GROUND LEVEL
 DATE.        29-JUL-1987:   RUN DATE
 RUN .                  1:   RUN NUMBER
 DD  .F               793:   DEPTH DRILLER
 DL  .F               792:   DEPTH LOGGER
 BLI .F               791:   BOTTOM LOG INTERVAL
 TLI .F                30:   TOP LOG INTERVAL
 CS  .IN            8.625:   CASING SIZE
 CBL .F                50:   CASING BOTTOM LOGGER
 BS  .IN            7.875:   BIT SIZE
 BSD .F               793:   BIT SIZE AT DEPTH
 DFT .                MUD:   DRILLING FLUID TYPE
 DFD .                0.5:   DRILLING FLUID DENSITY
 MSS .           FLOWLINE:   MUD SAMPLE SOURCE
 RMS .OHMM           1.92:   RESISTIVITY MUD SAMPLE
 MST .F                71:   MUD SAMPLE TEMPERATURE
 RMF .OHMM            1.4:   RESISTIVITY MUD FILTRATE SAMPLE
 MFST.F                72:   MUD FILTRATE SAMPLE TEMPERATURE
 RMC .OHMM            2.2:   RESISTIVITY MUD CAKE
 MCST.F                72:   MUD CAKE SAMPLE TEMPERATURE
 MFSS.              CHART:   MUD FILTRATE SAMPLE SOURCE
 MCSS.              CHART:   MUD CAKE SAMPLE SOURCE
 TCS .HRS            2200:   TIME CURCULATED STOPPED
 MRT .F                60:   MAXIMUM RECORDED TEMPERATURE
 LUN .               7397:   LOGGING UNIT NUMBER
 LUL .           GILLETTE:   LOGGING UNIT LOCATION
 ENGI.         WEATHERMON:   RECORDING ENGINEER
 WITN.             STRONG:   WITNESSED BY
 CLNT.            A2DTECH:   CLIENT CODE
 ORIG.           5" PRINT:   ORIGIN OF DATA
 UWI .       490251112500:   UNIQUE WELL ID
 DICO. A2D Technologies, Inc.:   DIGITIZING COMPANY
~OTHER INFORMATION
~A   DEPT      GRR       RILD       RILM        RLL   
# ...
  320.0000    80.6720     8.3079     8.3434     8.2731
  320.5000    81.9026     8.3723     8.3422     8.3315
  321.0000    84.0491     8.4265     8.4007     8.5101
  321.5000    86.2028     8.5467     8.4594     8.6311
  322.0000    88.0379     8.6687     8.5181     8.6920
  322.5000    87.7380     8.7924     8.6396     8.8261
  323.0000    87.1307     8.9179     8.8856     9.0047
  323.5000    88.3613     9.0451     9.0754     9.5298
  324.0000    90.2021     9.1094     9.1390    10.0858
  324.5000    89.5933     9.1742     9.1374    10.4493
  325.0000    85.1175     9.1742     9.1362    10.5230
  325.5000    80.7410     9.1742     9.0704    10.2038
  326.0000    78.6062     9.1742     9.0051     9.4591
  326.5000    78.9179     9.1094     9.0036     9.1287
  327.0000    81.6761     8.9813     8.9387     8.9358
  327.5000    84.7401     8.8549     8.8117     8.8093
  328.0000    87.2825     8.7237     8.7482     8.6846
  328.5000    89.3405     8.6075     8.6239     8.6226
  329.0000    87.8173     8.6075     8.6227     8.5609
  329.5000    86.5985     8.6075     8.5603     8.4998
  330.0000    86.9116     8.5467     8.4987     8.4992
  330.5000    89.0582     8.5467     8.5580     8.4986
  331.0000    92.1221     8.6075     8.6177     8.5586
  331.5000    89.0714     8.6075     8.6165     8.5580
  332.0000    87.8525     8.6075     8.6767     8.5573
  332.5000    89.0831     8.6687     8.6752     8.6178
  333.0000    90.9239     8.6687     8.6740     8.6170
  333.5000    90.0123     8.6687     8.6728     8.6779
  334.0000    87.8450     8.6687     8.6716     8.6158
  334.5000    85.4384     8.6687     8.6092     8.6151
  335.0000    84.2195     8.6075     8.6019     8.6145
  335.5000    83.3095     8.6075     8.5458     8.6753
  336.0000    83.9270     8.6075     8.6057     8.6747
  336.5000    85.4619     8.6687     8.6042     8.7359
  337.0000    87.9674     8.6687     8.6646     8.7353
  337.5000    87.0042     8.6687     8.7247     8.7347
  338.0000    86.0911     8.6687     8.7235     8.7339
  338.5000    86.4043     8.6687     8.7220     8.6716
  339.0000    88.2450     8.6687     8.7209     8.6710
  339.5000    87.9451     8.6075     8.5969     8.6091
  340.0000    86.7277     8.5467     8.5350     8.5476
  340.5000    87.3467     8.4864     8.4735     8.4866
  341.0000    88.8816     8.4265     8.4125     8.4859
  341.5000    91.6398     8.4265     8.4111     8.4253
  342.0000    94.0922     8.3670     8.3505     8.3652
  342.5000    94.4750     8.3079     8.2904     8.2468
  343.0000    92.5320     8.1910     8.2307     8.1300
  343.5000    89.2183     8.1332     8.1137     8.0719
  344.0000    88.3067     8.0758     7.9984     8.0142
  344.5000    88.6184     8.0188     7.9970     8.0137
  345.0000    88.6243     8.0758     8.1104     8.0703
  345.5000    88.0186     8.1910     8.2251     8.2432
  346.0000    86.4791     8.2493     8.3414     8.3013
  346.5000    83.4446     8.3670     8.4592     8.3599
  347.0000    82.5316     8.4864     8.5181     8.4788
  347.5000    86.2087     8.6075     8.5776     8.5994
  348.0000    90.4959     8.7303     8.6372     8.7217
  348.5000    95.3947     8.7924     8.6360     8.7832
  349.0000    94.1713     8.7924     8.6962     8.8451
  349.5000    90.5150     8.8549     8.6951     8.8444
  350.0000    89.6020     8.8549     8.6939     8.8438
  350.5000    88.6820     8.7291     8.6434     8.7994
  351.0000    88.0668     8.7276     8.5930     8.7786
  351.5000    88.0638     8.7264     8.5678     8.7774
  352.0000    89.2841     8.6636     8.5664     8.7762
  352.5000    91.4219     8.6013     8.5652     8.7129
  353.0000    92.9480     8.5394     8.5641     8.6501
  353.5000    92.8573     8.4780     8.5027     8.5878
  354.0000    89.2717     8.4768     8.5617     8.5866
  354.5000    86.8222     8.4158     8.5000     8.4642
  355.0000    86.5142     8.4144     8.4386     8.3437
  355.5000    88.9570     8.3538     8.3186     8.2250
  356.0000    91.7064     8.1770     8.2004     8.1080
  356.5000    93.2325     7.9475     7.9700     7.9927
  357.0000    90.4765     7.7243     7.7460     7.8233
  357.5000    89.2504     7.6065     7.5811     7.7037
  358.0000    89.2474     7.5596     7.4740     7.6020
  358.5000    89.2445     7.6123     7.5264     7.5472
  359.0000    88.3241     7.7198     7.5786     7.6002
  359.5000    86.1173     7.8289     7.6858     7.7624
  360.0000    81.8955     7.9396     7.8500     7.8723
  360.5000    80.0577     8.0518     7.9610     8.0411
  361.0000    80.6664     8.1167     8.1376     8.2124
  361.5000    82.8041     8.2225     8.1878     8.2110
  362.0000    86.1651     8.2798     8.2449     8.2686
  362.5000    89.9338     8.2784     8.3025     8.3263
  363.0000    93.8037     8.3361     8.3604     8.3845
  363.5000    90.4369     8.3350     8.4185     8.4428
  364.0000    87.9875     8.3931     8.4804     8.5622
  364.5000    87.6787     8.4013     8.5968     8.6220
  365.0000    88.8990     8.5103     8.6571     8.7437
  365.5000    92.2986     8.5699     8.7175     8.8051
  366.0000    89.5040     8.6296     8.7780     8.8036
  366.5000    86.1372     8.6282     8.7768     8.8654
  367.0000    85.2168     8.6883     8.8381     8.8639
  367.5000    85.5204     8.6871     8.8997     8.8626
  368.0000    87.0458     8.7477     8.8982     8.8614
  368.5000    85.1683     8.7462     8.8970     8.7973
  369.0000    83.6753     8.7450     8.8958     8.7961
  369.5000    85.5072     8.7438     8.8317     8.7949
  370.0000    89.7856     8.7426     8.8934     8.7937
  370.5000    92.8408     8.7414     8.8921     8.7924
  371.0000    92.5320     8.8024     8.8906     8.7912
  371.5000    90.3742     8.8011     8.8894     8.8526
  372.0000    87.9382     8.8622     8.8882     8.8511
  372.5000    87.9353     8.8610     8.8870     8.9132
  373.0000    89.4614     8.9231     8.8858     8.9117
  373.5000    88.2352     8.9853     8.9478     9.0378
  374.0000    84.5626     9.0477     9.0740     9.1010
  374.5000    81.1937     9.1123     9.1377     9.1645
  375.0000    79.0011     9.2395     9.2669     9.2942
  375.5000    78.1310     9.3701     9.3980     9.4258
  376.0000    78.4346     9.5022     9.5306     9.6269
  376.5000    79.6542     9.6368     9.6653     9.6945
  377.0000    81.7919     9.7726     9.8020     9.8317
  377.5000    83.6238     9.9108    10.0111     9.9705
  378.0000    84.2325    10.1242    10.2249    10.1855
  378.5000    84.2289    10.2776    10.5176    10.3402
  379.0000    83.3085    10.4840    10.7423    10.5485
  379.5000    83.0005    10.6325    10.9717    10.7736
  380.0000    83.9142    10.8591    11.2114    11.0823
  380.5000    84.2283    11.1697    11.5265    11.4810
  381.0000    82.9521    11.5709    11.9408    11.9787
  381.5000    81.7640    11.9916    12.3700    12.5006
  382.0000    80.2320    12.7735    12.8147    12.9471
  382.5000    78.3942    12.9545    13.0884    13.2243
  383.0000    76.5564    12.9522    12.9935    12.9436
  383.5000    75.6360    12.6781    12.7042    12.6692
  384.0000    75.2946    12.4098    12.2738    12.3130
  384.5000    74.4062    12.0614    12.0139    12.1378
  385.0000    73.7916    11.8873    11.8431    11.9623
  385.5000    72.5655    11.6380    11.5922    11.7111
  386.0000    72.5625    11.4727    11.4275    11.5445
  386.5000    73.7828    11.3097    11.3368    11.3803
  387.0000    75.9735    11.2284    11.1835    11.2184
  387.5000    78.0575    11.1476    11.1030    11.1375
  388.0000    78.6670    11.0674    11.0230    10.9791
  388.5000    78.3575    10.9877    11.0215    10.9776
  389.0000    77.7429    10.9858    11.0200    10.9757
  389.5000    77.1284    10.9843    11.0151    10.9742
  390.0000    76.1875    10.9828    10.9388    10.9727
  390.5000    74.6753    11.0598    10.9373    10.9712
  391.0000    74.0607    11.0579    11.0136    10.9697
  391.5000    73.1403    11.0564    10.9343    10.9682
  392.0000    72.8316    10.9768    10.8556    10.8891
  392.5000    73.4403    10.8975    10.7774    10.8103
