~VERSION INFORMATION
 VERS.                2.0:   CWLS LOG ASCII STANDARD - VERSION 2.0
 WRAP.                 NO:   ONE LINE PER DEPTH STEP
~WELL INFORMATION
#MNEM.UNIT      DATA TYPE    INFORMATION
#----------   ------------   ------------------------------
 STRT.F           34.5000:   START DEPTH
 STOP.F          665.5000:   STOP DEPTH
 STEP.F            0.5000:   STEP LENGTH
 NULL.          -999.2500:   NO VALUE
 COMP. FENIX & SCISSON INC:   COMPANY
 WELL.    NPR-3 SX #14-14:   WELL
 FLD .        TEAPOT DOME:   FIELD
 LOC .      S14 T38N R78W:   LOCATION
 CNTY.            NATRONA:   COUNTY
 STAT.            WYOMING:   STATE
 CTRY. UNITED STATES OF AMERICA:   COUNTRY
 SRVC.            Unknown:   SERVICE COMPANY
 DATE.        01-JUN-1978:   LOGDATE
 API .       490251063100:   API NUMBER
~CURVE INFORMATION
#MNEM.UNIT       API CODE    CURVE DESCRIPTION
#----------   ------------   ------------------------------
 DEPT.F                  :   
 SPR .MV     05 010 01 00:   SPONTANEOUS POTENTIAL FROM RES.
 SN  .OHMM   05 040 16 00:   SHORT NORMAL 16"
 IL  .OHMM   05 120 00 00:   INDUCTION LOG
 GRD .GAPI   45 310 01 00:   GAMMA RAY FROM DENSITY LOG
 RHOB.G/C3   45 350 01 00:   BULK DENSITY
 DPHI.DEC    45 890 12 00:   DENSITY POROSITY SANDSTONE
 CORR.G/C3   45 356 01 00:   DENSITY CORRECTION
 CALD.IN     45 280 60 00:   CALIPER FROM DENSITY LOG
~PARAMETER INFORMATION
#MNEM.UNIT          VALUE    DESCRIPTION
#----------   ------------   ------------------------------
 PD  .                 GL:   PERMANENT DATUM
 EPD .F              5212:   ELEVATION PERMANENT DATUM
 LMF .                 KB:   LOG MEASURED FROM
 DAPD.F                 4:   FEET ABOVE PERMANENT DATUM
 DMF .                 KB:   DRILLING MEASURED FROM
 EKB .F              5216:   KELLING BUSHING
 EGL .F              5212:   GROUND LEVEL
 DATE.           6-1-1978:   RUN DATE
 RUN .                  1:   RUN NUMBER
 DD  .F               670:   DEPTH DRILLER
 DL  .F               670:   DEPTH LOGGER
 BLI .F               664:   BOTTOM LOG INTERVAL
 TLI .F                40:   TOP LOG INTERVAL
 CS  .IN            8.625:   CASING SIZE
 CBD .F                40:   CASING BOTTOM DRILLER
 BS  .IN            7.875:   BIT SIZE
 BSD .F               670:   BIT SIZE AT DEPTH
 DFT .                KCL:   DRILLING FLUID TYPE
 DFD .                8.7:   DRILLING FLUID DENSITY
 DFV .                 32:   DRILLING FLUID VISCOSITY
 DFPH.                 10:   DRILLING FLUID PH
 RMS .OHMM            .30:   RESISTIVITY MUD SAMPLE
 MST .F                66:   MUD SAMPLE TEMPERATURE
 BHT .F                75:   BOTTOM HOLE TEMPERATURE
 TCS .HRS               2:   TIME CURCULATED STOPPED
 MRT .F                75:   MAXIMUM RECORDED TEMPERATURE
 LUN .               2958:   LOGGING UNIT NUMBER
 LUL .              CSPR.:   LOGGING UNIT LOCATION
 ENGI.             MILLER:   RECORDING ENGINEER
 WITN.           MCGINLEY:   WITNESSED BY
 CLNT.            A2DTECH:   CLIENT CODE
 ORIG.      2" , 5" PRINT:   ORIGIN OF DATA
 UWI .       490251063100:   UNIQUE WELL ID
 DICO. A2D Technologies, Inc.:   DIGITIZING COMPANY
~OTHER INFORMATION
~A   DEPT      SPR         SN         IL         GRD      RHOB       DPHI       CORR       CALD   
   34.5000  -999.2500  -999.2500  -999.2500    52.8241  -999.2500  -999.2500  -999.2500  -999.2500
   35.0000  -999.2500  -999.2500  -999.2500    51.2103  -999.2500  -999.2500  -999.2500  -999.2500
   35.5000  -999.2500  -999.2500  -999.2500    60.6645  -999.2500  -999.2500  -999.2500  -999.2500
   36.0000  -999.2500  -999.2500  -999.2500    60.9574  -999.2500  -999.2500  -999.2500  -999.2500
   36.5000  -999.2500  -999.2500  -999.2500    62.0006  -999.2500  -999.2500  -999.2500  -999.2500
   37.0000  -999.2500  -999.2500  -999.2500    62.6847  -999.2500  -999.2500  -999.2500  -999.2500
   37.5000  -999.2500  -999.2500  -999.2500    62.2501  -999.2500  -999.2500  -999.2500  -999.2500
   38.0000  -999.2500  -999.2500  -999.2500    61.7150  -999.2500  -999.2500  -999.2500  -999.2500
   38.5000  -999.2500  -999.2500  -999.2500    61.4565  -999.2500  -999.2500  -999.2500  -999.2500
   39.0000  -999.2500  -999.2500  -999.2500    61.7156  -999.2500  -999.2500  -999.2500  -999.2500
   39.5000  -999.2500  -999.2500  -999.2500    61.7773  -999.2500  -999.2500  -999.2500  -999.2500
   40.0000  -999.2500  -999.2500  -999.2500    62.5127  -999.2500  -999.2500  -999.2500  -999.2500
   40.5000  -999.2500  -999.2500  -999.2500    65.0692  -999.2500  -999.2500  -999.2500  -999.2500
   41.0000  -999.2500  -999.2500  -999.2500    66.0733  -999.2500  -999.2500  -999.2500  -999.2500
   41.5000  -999.2500  -999.2500  -999.2500    66.0672  -999.2500  -999.2500  -999.2500  -999.2500
   42.0000  -999.2500  -999.2500  -999.2500    67.3026  -999.2500  -999.2500  -999.2500  -999.2500
   42.5000  -999.2500  -999.2500  -999.2500    68.9076  -999.2500  -999.2500  -999.2500  -999.2500
   43.0000  -999.2500  -999.2500  -999.2500    70.5297  -999.2500  -999.2500  -999.2500  -999.2500
   43.5000  -999.2500  -999.2500  -999.2500    71.2635  -999.2500  -999.2500  -999.2500  -999.2500
   44.0000  -999.2500  -999.2500  -999.2500    71.2141  -999.2500  -999.2500  -999.2500  -999.2500
   44.5000  -999.2500  -999.2500  -999.2500    70.4887  -999.2500  -999.2500  -999.2500  -999.2500
   45.0000  -999.2500  -999.2500  -999.2500    69.6218  -999.2500  -999.2500  -999.2500  -999.2500
   45.5000  -999.2500  -999.2500  -999.2500    68.7167  -999.2500  -999.2500  -999.2500  -999.2500
   46.0000  -999.2500  -999.2500  -999.2500    67.8118  -999.2500  -999.2500  -999.2500  -999.2500
   46.5000  -999.2500  -999.2500  -999.2500    66.8734  -999.2500  -999.2500  -999.2500  -999.2500
   47.0000  -999.2500  -999.2500  -999.2500    65.2400  -999.2500  -999.2500  -999.2500  -999.2500
   47.5000  -999.2500  -999.2500  -999.2500    63.5819  -999.2500  -999.2500  -999.2500  -999.2500
   48.0000  -999.2500  -999.2500  -999.2500    61.7681  -999.2500  -999.2500    -0.4839  -999.2500
   48.5000   -19.2155     1.8383  -999.2500    56.7210  -999.2500  -999.2500    -0.3754  -999.2500
   49.0000   -19.1688     1.8449  -999.2500    52.0915  -999.2500  -999.2500    -0.2670  -999.2500
   49.5000   -19.1222     1.8515  -999.2500    47.5053  -999.2500  -999.2500    -0.1625  -999.2500
   50.0000   -19.0822     1.8615  -999.2500    45.0115     2.0409  -999.2500     0.0300     8.0853
   50.5000   -19.0249     1.8635  -999.2500    52.3508     2.1461  -999.2500     0.1003     7.5694
   51.0000   -21.0464     1.8707     2.4441    58.9210     2.2514  -999.2500     0.1315     7.5416
   51.5000   -21.6693     2.4404     2.8066    65.3861     2.3291  -999.2500     0.1161     7.4014
   52.0000   -21.7462     2.7369     3.0456    69.5003     2.4236  -999.2500     0.0911     7.2388
   52.5000   -21.8019     3.0571     3.2622    68.8219     2.4088     0.1830     0.0664     7.2440
   53.0000   -21.8627     3.3733     3.5017    68.1721     2.3853     0.1984     0.0445     7.2974
   53.5000   -21.9246     3.4695     3.6681    68.0236     2.3617     0.2037     0.0399     7.3510
   54.0000   -21.9864     3.9143     3.7365    69.8068     2.3412     0.2074     0.0388     7.4043
   54.5000   -22.0482     4.4099     3.7725    71.8414     2.3304     0.2177     0.0404     7.4030
   55.0000   -22.1101     4.5330     3.7680    73.8565     2.3184     0.2127     0.0454     7.3909
   55.5000   -22.1719     4.3902     3.6039    75.4566     2.3150     0.2068     0.0526     7.5256
   56.0000   -22.2344     4.2758     3.4771    74.5963     2.3286     0.2027     0.0564     7.7788
   56.5000   -22.2504     4.1643     3.3439    72.8452     2.3387     0.2033     0.0559     8.0329
   57.0000   -22.2435     4.0557     3.4121    72.7493     2.3378     0.2079     0.0555     8.2266
   57.5000   -22.2362     3.9500     3.4886    72.9431     2.3325     0.2210     0.0551     8.5151
   58.0000   -22.2288     3.8470     3.5669    73.1409     2.3111     0.2341     0.0547     8.8252
   58.5000   -22.2215     3.7467     3.6400    73.3406     2.2850     0.2472     0.0562     9.1346
   59.0000   -22.2141     3.6669     3.6803    73.4096     2.2591     0.2603     0.0663     9.3891
   59.5000   -22.2068     3.6679     3.7211    72.4263     2.2419     0.2709     0.0703     9.4137
   60.0000   -22.1995     3.6306     3.7623    70.7328     2.2248     0.2746     0.0748     9.4684
   60.5000   -22.1922     3.8372     3.8633    69.0096     2.2192     0.2534     0.0967     9.5429
   61.0000   -22.1849     4.1344     3.9801    67.7888     2.2515     0.2207     0.1188     9.5992
   61.5000   -22.1776     4.4510     4.1596    66.7791     2.3271     0.1882     0.1252     9.1503
   62.0000   -22.1702     4.7919     4.4773    63.4034     2.3879     0.1557     0.0990     8.6739
   62.5000   -22.1629     5.1590     4.8193    63.1102     2.4128     0.1516     0.0936     8.2242
   63.0000   -22.1556     5.5541     4.9869    62.9837     2.4243     0.1559     0.0912     8.0249
   63.5000   -22.1483     5.9773     5.0189    61.5280     2.4269     0.1586     0.0751     7.8391
   64.0000   -22.1410     6.1449     5.0511    62.3036     2.4109     0.1603     0.0541     7.6827
   64.5000   -22.1336     6.3173     5.0834    62.7911     2.4098     0.1620     0.0333     7.7326
   65.0000   -22.1263     6.4944     5.1272    62.9628     2.4091     0.1598     0.0314     7.9427
   65.5000   -22.1190     6.6153     5.2491    63.1204     2.4147     0.1545     0.0305     8.2318
   66.0000   -22.1117     6.7403     5.4825    63.2566     2.4223     0.1512     0.0295     8.5133
   66.5000   -22.1044     6.9000     5.7261    64.4121     2.4262     0.1503     0.0287     8.6555
   67.0000   -22.0970     7.0635     5.9807    65.7721     2.4261     0.1501     0.0304     8.5884
   67.5000   -22.0897     7.1217     6.2465    67.1366     2.4265     0.1458     0.0323     8.5239
   68.0000   -22.0824     7.1217     6.5241    68.4983     2.4344     0.1413     0.0341     8.4590
   68.5000   -22.0749     7.1217     6.8144    69.8598     2.4425     0.1497     0.0359     8.3937
   69.0000   -22.0673     7.1217     7.1191    71.2298     2.4341     0.1532     0.0396     8.4083
   69.5000   -22.0620     7.1217     7.4576    72.6431     2.4249     0.1472     0.0479     8.4920
   70.0000   -22.1670     7.1217     7.4222    73.0474     2.4289     0.1373     0.0656     8.5635
   70.5000   -22.4729     7.1217     7.3559    72.7140     2.4450     0.1281     0.0810     8.5363
   71.0000   -22.7757     7.1217     7.2902    72.0373     2.4627     0.1399     0.0825     8.4068
   71.5000   -23.0779     7.1217     7.2251    72.3046     2.4478     0.1522     0.0845     8.3019
   72.0000   -23.2903     7.1217     7.1606    72.4348     2.4278     0.1572     0.0914     8.3175
   72.5000   -23.3732     7.1217     7.0967    71.1175     2.4164     0.1566     0.0985     8.3313
   73.0000   -23.4576     7.1217     7.0333    68.7376     2.4152     0.1557     0.1058     8.3395
   73.5000   -23.5416     7.1217     6.9705    66.3755     2.4168     0.1548     0.1073     8.3011
   74.0000   -23.6257     7.1217     6.9083    64.0235     2.4224     0.1517     0.1040     8.2903
   74.5000   -23.7099     7.1217     6.8008    62.1117     2.4286     0.1517     0.0927     8.3016
