~VERSION INFORMATION
 VERS.                2.0:   CWLS LOG ASCII STANDARD - VERSION 2.0
 WRAP.                 NO:   ONE LINE PER DEPTH STEP
~WELL INFORMATION
#MNEM.UNIT      DATA TYPE    INFORMATION
#----------   ------------   ------------------------------
 STRT.F           12.0000:   START DEPTH
 STOP.F          508.5000:   STOP DEPTH
 STEP.F            0.5000:   STEP LENGTH
 NULL.          -999.2500:   NO VALUE
 COMP. LAWRENCE-ALLISON INC:   COMPANY
 WELL.   NPR #71-16-SX-10:   WELL
 FLD .           NPR NO.3:   FIELD
 LOC .      S10 T38N R78W:   LOCATION
 CNTY.            NATRONA:   COUNTY
 STAT.            WYOMING:   STATE
 CTRY. UNITED STATES OF AMERICA:   COUNTRY
 SRVC.           Gearhart:   SERVICE COMPANY
 DATE.        09-JUL-1986:   LOGDATE
 API .       490251109600:   API NUMBER
~CURVE INFORMATION
#MNEM.UNIT       API CODE    CURVE DESCRIPTION
#----------   ------------   ------------------------------
 DEPT.F                  :   
 GRR .GAPI   07 310 01 00:   GAMMA RAY FROM RES. LOG.
 RILD.OHMM   07 120 46 00:   INDUCTION LOG DEEP RESISTIVITY
 RILM.OHMM   07 120 44 00:   INDUCTION LOG MEDIUM
~PARAMETER INFORMATION
#MNEM.UNIT          VALUE    DESCRIPTION
#----------   ------------   ------------------------------
 PD  .                 GL:   PERMANENT DATUM
 EPD .F              5152:   ELEVATION PERMANENT DATUM
 LMF .                 KB:   LOG MEASURED FROM
 DAPD.F                 5:   FEET ABOVE PERMANENT DATUM
 DMF .                 KB:   DRILLING MEASURED FROM
 EKB .F              5157:   KELLING BUSHING
 EGL .F              5152:   GROUND LEVEL
 DATE.           7-9-1986:   RUN DATE
 RUN .                  1:   RUN NUMBER
 DD  .F               520:   DEPTH DRILLER
 DL  .F               518:   DEPTH LOGGER
 BLI .F               509:   BOTTOM LOG INTERVAL
 TLI .F                47:   TOP LOG INTERVAL
 CS  .IN            8.625:   CASING SIZE
 CBD .F                47:   CASING BOTTOM DRILLER
 CBL .F                47:   CASING BOTTOM LOGGER
 BS  .IN            7.875:   BIT SIZE
 BSD .F               520:   BIT SIZE AT DEPTH
 DFT .                AIR:   DRILLING FLUID TYPE
 TCS .HRS            0830:   TIME CURCULATED STOPPED
 TLAB.HRS            1119:   TIME LOGGER AT BOTTOM
 MRT .F                65:   MAXIMUM RECORDED TEMPERATURE
 LUN .               7609:   LOGGING UNIT NUMBER
 LUL .           GILLETTE:   LOGGING UNIT LOCATION
 ENGI.         WEATHERMON:   RECORDING ENGINEER
 WITN.           JENNINGS:   WITNESSED BY
 CLNT.            A2DTECH:   CLIENT CODE
 ORIG.       2", 5" PRINT:   ORIGIN OF DATA
 UWI .       490251109600:   UNIQUE WELL ID
 DICO. A2D Technologies, Inc.:   DIGITIZING COMPANY
~OTHER INFORMATION
~A   DEPT       GRR      RILD       RILM   
# ...
  194.0000   121.7099     5.5640     5.5164
  194.5000   118.9972     5.7892     5.5964
  195.0000   116.5723     6.0250     5.6774
  195.5000   116.1555     6.2663     5.9510
  196.0000   117.2423     6.5904     6.2706
  196.5000   119.3098     6.9367     6.6081
  197.0000   121.2114     7.3036     6.9641
  197.5000   120.7804     7.6866     7.3366
  198.0000   118.4576     7.9724     7.5788
  198.5000   116.5789     8.3381     7.7650
  199.0000   115.7766     8.3339     7.9564
  199.5000   115.0834     8.4824     8.1529
  200.0000   113.4849     8.5700     8.3339
  200.5000   112.3252     8.6485     8.3926
  201.0000   113.7534     8.6494     8.4464
  201.5000   116.4719     8.6503     8.5005
  202.0000   118.8857     8.6502     8.5700
  202.5000   118.0112     8.6502     8.5313
  203.0000   116.7168     8.6502     8.4781
  203.5000   115.4239     8.6503     8.4254
  204.0000   114.0092     8.6508     8.3729
  204.5000   114.8157     8.6226     8.3209
  205.0000   117.5478     8.5864     8.2690
  205.5000   120.2905     8.5695     8.2430
  206.0000   122.8285     8.5700     8.2190
  206.5000   122.6395     8.5700     8.1949
  207.0000   121.9632     8.5700     8.1710
  207.5000   119.3290     8.5705     8.1471
  208.0000   116.5846     8.5723     8.1233
  208.5000   116.3571     8.5700     8.1043
  209.0000   117.9854     8.2198     8.0411
  209.5000   117.8432     7.8846     7.9786
  210.0000   117.5417     7.5630     7.9166
  210.5000   120.3226     7.3108     7.7689
  211.0000   123.4954     7.1415     7.5105
  211.5000   124.1924     6.9762     7.2606
  212.0000   123.3118     6.8147     7.0191
  212.5000   122.2142     6.6569     6.8983
  213.0000   120.7791     6.5028     6.7703
  213.5000   119.0034     6.3523     6.6446
  214.0000   117.2254     6.1790     6.5213
  214.5000   116.3826     5.9975     6.3411
  215.0000   118.0974     5.8500     6.1378
  215.5000   120.1603     5.7958     5.9410
  216.0000   116.8461     5.7958     5.7495
  216.5000   112.5499     5.7958     5.5856
  217.0000   110.8176     5.7958     5.5289
  217.5000   112.9830     5.9175     5.5303
  218.0000   115.4233     6.1862     5.8393
  218.5000   116.1098     6.4324     6.1308
  219.0000   115.6668     6.7125     6.4372
  219.5000   115.4593     7.0052     6.7575
  220.0000   115.1312     7.3075     7.1838
  220.5000   114.8122     7.4560     7.1790
  221.0000   114.4778     7.4527     7.1467
  221.5000   114.9254     7.3997     7.1132
  222.0000   115.7630     7.2474     6.7791
  222.5000   116.4695     6.7914     6.4445
  223.0000   116.7041     6.3828     6.2160
  223.5000   117.8880     6.1828     6.0579
  224.0000   119.4454     5.9866     5.9035
  224.5000   119.7887     5.7958     5.7537
  225.0000   119.9600     5.7421     5.6357
  225.5000   120.2433     5.8307     5.5823
  226.0000   120.6586     5.9048     5.5819
  226.5000   119.7850     6.2243     5.9639
  227.0000   117.7488     6.6067     6.2441
  227.5000   115.6646     7.0126     6.5646
  228.0000   114.0127     7.4434     6.9025
  228.5000   112.4413     7.8807     7.2578
  229.0000   111.1042     8.3267     7.6313
  229.5000   111.6196     8.6448     8.0241
  230.0000   112.9981     8.7603     8.4119
  230.5000   114.3433     8.8908     8.5989
  231.0000   114.9293     9.0233     8.8215
  231.5000   114.2378     9.1473     8.8953
  232.0000   113.0607     9.2483     8.9221
  232.5000   111.5852     9.2659     8.9471
  233.0000   110.6804     9.2835     8.9722
  233.5000   112.4357     9.3011     8.9973
  234.0000   112.7668     9.3188     9.0225
  234.5000   111.2653     9.3365     9.0478
  235.0000   108.7928     9.3543     9.0731
  235.5000   107.1708     9.3721     9.0985
  236.0000   106.6786     9.3899     9.1240
  236.5000   107.2245     9.4077     9.1495
  237.0000   108.3540     9.4256     9.1752
  237.5000   109.8577     9.4435     9.2009
  238.0000   111.5561     9.4613     9.2266
  238.5000   111.5327     9.4796     9.2877
  239.0000   108.9168     9.4956     9.3604
  239.5000   105.9868     9.4983     9.4338
  240.0000   104.3560     8.6721     9.4945
  240.5000   102.7679     8.1157     9.1473
  241.0000   101.3358     7.5928     8.4700
  241.5000   102.3393     7.2481     7.6710
  242.0000   108.8164     6.9176     6.8850
  242.5000   116.5019     6.7900     6.1862
  243.0000   120.1694     6.7900     6.0721
  243.5000   120.4765     6.8305     6.0721
  244.0000   114.3321     6.8535     6.3615
  244.5000   107.0217     7.3921     6.8415
  245.0000   101.0938     8.0080     7.4550
  245.5000    97.8202     8.6752     8.1072
  246.0000    96.7973     9.3979     8.7768
  246.5000    96.1168    10.1340     9.4970
  247.0000    96.2540    10.7302    10.2753
  247.5000    98.5696    11.3262    10.8507
  248.0000   101.2702    11.6533    10.9785
  248.5000   103.9415    12.0316    11.1285
  249.0000   104.1995    12.4383    11.1169
  249.5000   102.5406    13.0180    11.4368
  250.0000    99.5430    13.5363    11.5502
  250.5000    91.6059    14.2234    12.3852
  251.0000    80.7874    16.0979    13.2762
  251.5000    69.2670    18.2195    15.0240
  252.0000    59.0656    20.2401    17.1808
  252.5000    52.6720    22.2975    19.6472
  253.0000    53.1550    24.5641    22.4676
  253.5000    56.3186    26.9153    25.0585
  254.0000    59.5879    28.5383    26.7127
  254.5000    62.1973    30.2593    28.4628
  255.0000    62.9385    31.5066    29.0275
  255.5000    62.1767    32.1960    29.2721
  256.0000    61.7201    32.4231    29.5965
  256.5000    63.0819    32.6517    29.9245
  257.0000    64.7931    32.8819    30.2562
  257.5000    65.9955    33.0699    30.5920
  258.0000    64.5992    33.0699    30.9306
  258.5000    63.7424    33.0699    31.2727
  259.0000    65.1254    33.0699    31.1162
  259.5000    67.3084    33.0707    30.9225
  260.0000    68.2151    33.0662    30.7299
  260.5000    67.1832    33.5221    30.6956
  261.0000    66.7075    33.9761    30.8768
  261.5000    66.9793    34.3250    31.4610
  262.0000    66.4525    35.0532    32.2695
  262.5000    64.6292    35.7694    33.0988
  263.0000    62.2465    36.5003    33.9493
  263.5000    59.8508    37.2462    34.8218
  264.0000    58.1045    38.0072    35.2975
  264.5000    59.3045    38.7839    35.2975
  265.0000    60.8772    39.5764    36.0684
  265.5000    63.7029    40.3909    36.5702
  266.0000    62.0372    41.2870    37.7354
  266.5000    58.5281    42.4560    38.8528
  267.0000    57.5679    43.6378    40.0076
  267.5000    58.6210    44.9677    41.1962
  268.0000    62.9736    44.9677    42.5239
  268.5000    67.5613    44.9677    43.3234
  269.0000    70.1413    44.5055    42.5028
  269.5000    70.1501    43.1173    40.9822
  270.0000    70.0013    41.7724    39.5159
  270.5000    69.8599    40.4695    38.1021
  271.0000    70.0274    39.2072    36.7389
  271.5000    70.4135    37.9837    35.4245
  272.0000    71.5367    36.7995    34.1567
  272.5000    72.6160    35.5727    32.9335
  273.0000    72.0815    34.3286    31.7594
  273.5000    71.4932    33.1279    30.8367
  274.0000    72.0828    31.9693    30.1075
  274.5000    74.4767    30.8512    29.3919
  275.0000    76.8289    30.0491    28.6933
  275.5000    77.1021    29.4519    28.0114
  276.0000    76.2044    28.8665    27.3456
  276.5000    75.1495    28.2928    26.6955
  277.0000    75.5180    27.7304    25.9532
  277.5000    75.8309    27.1793    25.5067
  278.0000    74.2992    26.6391    25.1639
  278.5000    73.6575    26.3745    24.8294
  279.0000    76.6011    26.2624    24.4993
  279.5000    78.6533    26.2011    24.0813
  280.0000    77.9503    26.2011    24.1662
  280.5000    77.2999    26.2011    24.2915
  281.0000    76.7880    26.2011    24.4120
  281.5000    78.0498    26.3571    24.5497
  282.0000    79.3111    26.6884    24.5445
  282.5000    79.7630    27.0236    24.9190
  283.0000    79.3531    27.3639    25.2125
  283.5000    78.9487    27.7091    25.5095
  284.0000    78.8605    28.2277    25.7176
  284.5000    79.2326    28.1199    25.7176
