~VERSION INFORMATION
 VERS.                2.0:   CWLS LOG ASCII STANDARD - VERSION 2.0
 WRAP.                 NO:   ONE LINE PER DEPTH STEP
~WELL INFORMATION
#MNEM.UNIT      DATA TYPE    INFORMATION
#----------   ------------   ------------------------------
 STRT.F           80.0000:   START DEPTH
 STOP.F          814.0000:   STOP DEPTH
 STEP.F            0.5000:   STEP LENGTH
 NULL.          -999.2500:   NO VALUE
 COMP.          U.S. NAVY:   COMPANY
 WELL. RES 3 TEAPOT DOM #17-S-35:   WELL
 FLD .             TEAPOT:   FIELD
 LOC .      S35 T39N R78W:   LOCATION
 CNTY.            NATRONA:   COUNTY
 STAT.            WYOMING:   STATE
 CTRY. UNITED STATES OF AMERICA:   COUNTRY
 SRVC. Schlumberger Well Surveying Corp:   SERVICE COMPANY
 DATE.        20-JUL-1952:   LOGDATE
 API .       490250650200:   API NUMBER
~CURVE INFORMATION
#MNEM.UNIT       API CODE    CURVE DESCRIPTION
#----------   ------------   ------------------------------
 DEPT.F                  :   
 SPR .MV     05 010 01 00:   SPONTANEOUS POTENTIAL FROM RES.
 ILD .OHMM   05 120 46 00:   INDUCTION LOG DEEP
 ASN .OHMM   05 041 16 00:   AMPLIFIED SHORT NORMAL 16"
 CILD.MMHO   05 110 46 00:   CONDUCTIVITY INDUCTION LOG DEEP
 GR  .GAPI   30 310 01 00:   GAMMA RAY
~PARAMETER INFORMATION
#MNEM.UNIT          VALUE    DESCRIPTION
#----------   ------------   ------------------------------
 PD  .                 KB:   PERMANENT DATUM
 LMF .                 KB:   LOG MEASURED FROM
 DMF .                 KB:   DRILLING MEASURED FROM
 EKB .F              5101:   KELLING BUSHING
 EGL .F              5096:   GROUND LEVEL
 DATE.        20-JUL-1962:   RUN DATE
 RUN .                  1:   RUN NUMBER
 DD  .F               815:   DEPTH DRILLER
 DL  .F               815:   DEPTH LOGGER
 BLI .F               814:   BOTTOM LOG INTERVAL
 TLI .F                80:   TOP LOG INTERVAL
 BS  .IN             6.75:   BIT SIZE
 BSD .F               815:   BIT SIZE AT DEPTH
 DFT .       OIL EMULSION:   DRILLING FLUID TYPE
 DFD .               10.0:   DRILLING FLUID DENSITY
 DFV .                 45:   DRILLING FLUID VISCOSITY
 DFL .                2.7:   DRILLING FLUID LOSS
 RMS .OHMM           3.64:   RESISTIVITY MUD SAMPLE
 MST .F                89:   MUD SAMPLE TEMPERATURE
 RMF .OHMM           3.01:   RESISTIVITY MUD FILTRATE SAMPLE
 MFST.F                89:   MUD FILTRATE SAMPLE TEMPERATURE
 RMC .OHMM           3.41:   RESISTIVITY MUD CAKE
 MCST.F                89:   MUD CAKE SAMPLE TEMPERATURE
 RMB .OHMM           3.41:   RESISTIVITY MUD AT BHT
 BHT .F                89:   BOTTOM HOLE TEMPERATURE
 TCS .HRS              .5:   TIME CURCULATED STOPPED
 LUN .               2503:   LOGGING UNIT NUMBER
 LUL .               CSPR:   LOGGING UNIT LOCATION
 ENGI.             DANNER:   RECORDING ENGINEER
 WITN.          JORGENSEN:   WITNESSED BY
 CLNT.            A2DTECH:   CLIENT CODE
 ORIG.           5" PRINT:   ORIGIN OF DATA
 UWI .       490250650200:   UNIQUE WELL ID
 DICO. A2D Technologies, Inc.:   DIGITIZING COMPANY
~OTHER INFORMATION
~A   DEPT      SPR          ILD        ASN      CILD        GR   
# ...
  263.0000   -51.3407     5.3798     6.2927   177.8030  -999.2500
  263.5000   -49.9342     5.4548     6.3551   179.3888  -999.2500
  264.0000   -50.8825     5.7633     6.4961   184.8992  -999.2500
  264.5000   -51.8307     6.3089     7.3604   176.2808  -999.2500
  265.0000   -52.6220     7.0903     8.1304   145.6845  -999.2500
  265.5000   -53.0993     7.8250     8.8435   119.0128  -999.2500
  266.0000   -53.2626     8.6793     9.1774   105.6848  -999.2500
  266.5000   -53.2690     9.2191     9.4576    97.0665  -999.2500
  267.0000   -53.2753     9.6735     9.6893    90.8030  -999.2500
  267.5000   -53.2816    10.0590     9.9114    90.0299  -999.2500
  268.0000   -53.2880    10.4455    10.4269    89.2609  -999.2500
  268.5000   -53.2943    10.9890    10.9888    90.8506  -999.2500
  269.0000   -53.6146    11.2987    11.4600    89.2966  -999.2500
  269.5000   -54.2489    11.6084    11.6954    86.8130  -999.2500
  270.0000   -54.5692    11.7610    12.0094    82.9406  -999.2500
  270.5000   -54.1046    11.9135    12.2448    79.0002  -999.2500
  271.0000   -53.6400    12.0658    12.4015    76.7973  -999.2500
  271.5000   -53.6464    12.0610    12.4798    76.8132  -999.2500
  272.0000   -53.6527    12.2147    12.5579    77.6140  -999.2500
  272.5000   -53.9717    12.2885    12.5573    78.4148  -999.2500
  273.0000   -54.4741    12.4398    12.5568    79.2157  -999.2500
  273.5000   -55.1020    12.5149    12.6351    79.2315  -999.2500
  274.0000   -55.7174    12.5887    12.7132    79.2474  -999.2500
  274.5000   -55.4124    12.6626    12.7128    79.2633  -999.2500
  275.0000   -54.9461    12.6566    12.7909    78.4903  -999.2500
  275.5000   -54.6385    12.7317    12.7904    78.5101  -999.2500
  276.0000   -54.3293    12.7257    12.7899    77.7371  -999.2500
  276.5000   -54.0232    12.8008    12.8681    76.1871  -999.2500
  277.0000   -53.8710    12.8734    12.8676    73.8482  -999.2500
  277.5000   -53.7204    12.8687    12.9458    72.2942  -999.2500
  278.0000   -53.7268    12.8639    13.0239    70.7403  -999.2500
  278.5000   -53.7331    13.0164    13.1020    69.9712  -999.2500
  279.0000   -53.8964    13.0914    13.1802    69.2022  -999.2500
  279.5000   -53.9027    13.1784    13.3369    69.2181  -999.2500
  280.0000   -54.0660    13.3178    13.4937    68.2888  -999.2500
  280.5000   -54.3864    13.3991    13.5718    67.6760  -999.2500
  281.0000   -54.8637    13.5441    13.6501    66.9070  -999.2500
  281.5000   -55.3410    13.6180    13.8853    66.9230  -999.2500
  282.0000   -55.8183    13.7704    14.1207    66.9388  -999.2500
  282.5000   -55.9816    13.8444    14.4347    66.1696  -999.2500
  283.0000   -56.3019    14.0754    14.5916    65.4003  -999.2500
  283.5000   -56.6222    14.2278    14.7483    64.6311  -999.2500
  284.0000   -57.0995    14.4589    14.9836    63.8618  -999.2500
  284.5000   -57.4198    14.6902    15.1405    63.0895  -999.2500
  285.0000   -57.5832    15.0783    15.5330    62.3205  -999.2500
  285.5000   -57.5895    15.5453    16.0828    61.5514  -999.2500
  286.0000   -57.5958    16.1694    16.6326    60.7824  -999.2500
  286.5000   -57.4436    16.6364    17.1825    58.4475  -999.2500
  287.0000   -57.1376    17.1033    17.7323    56.1085  -999.2500
  287.5000   -56.8299    17.6489    17.9677    52.1998  -999.2500
  288.0000   -56.5207    18.1158    18.2817    49.8609  -999.2500
  288.5000   -56.5287    18.4255    18.4524    47.5220  -999.2500
  289.0000   -56.6920    18.5792    18.5953    45.9640  -999.2500
  289.5000   -57.3522    18.6530    18.6734    45.9839  -999.2500
  290.0000   -58.2940    18.3326    18.1070    47.5696  -999.2500
  290.5000   -58.6081    17.1486    17.4884    49.1554  -999.2500
  291.0000   -58.7567    16.6722    16.9425    50.8737  -999.2500
  291.5000   -58.7629    16.5102    16.7554    52.4227  -999.2500
  292.0000   -58.9263    16.3482    16.4697    54.7566  -999.2500
  292.5000   -58.9326    16.1862    16.3120    56.2794  -999.2500
  293.0000   -58.9389    16.1682    16.2330    56.2952  -999.2500
  293.5000   -58.6313    16.0878    16.1539    57.0960  -999.2500
  294.0000   -58.1667    16.0158    16.1535    57.1119  -999.2500
  294.5000   -57.6791    16.0897    16.1530    58.6976  -999.2500
  295.0000   -57.0805    16.0849    16.2311    59.4984  -999.2500
  295.5000   -56.6143    16.1588    16.2307    60.2993  -999.2500
  296.0000   -56.3067    16.1540    16.2302    59.5262  -999.2500
  296.5000   -55.9990    16.1493    16.2297    57.1913  -999.2500
  297.0000   -55.6930    16.2232    16.3078    54.8524  -999.2500
  297.5000   -55.5408    16.2972    16.3074    52.5135  -999.2500
  298.0000   -55.5487    16.2136    16.0710    51.7444  -999.2500
  298.5000   -55.5550    15.7372    15.4416    54.1151  -999.2500
  299.0000   -55.8753    14.4745    14.5764    58.8406  -999.2500
  299.5000   -56.3526    12.9761    13.6325    65.1359  -999.2500
  300.0000   -56.0996    11.8557    12.6608    74.5350  -999.2500
  300.5000   -54.9029    10.8249    11.5597    91.8729  -999.2500
  301.0000   -53.7062     9.8025    10.4586   101.3231  -999.2500
  301.5000   -52.7865     8.8466     9.2738   113.1281  -999.2500
  302.0000   -51.0720     8.2978     8.6596   124.9331  -999.2500
  302.5000   -49.0436     7.5186     7.8883   139.0928  -999.2500
  303.0000   -49.3699     7.2773     7.6515   145.4033  -999.2500
  303.5000   -49.6963     7.1146     7.4933   150.1439  -999.2500
  304.0000   -49.8657     7.1092     7.3194   154.8845  -999.2500
  304.5000   -49.8780     7.1037     7.2713   158.0553  -999.2500
  305.0000   -49.8904     7.0983     7.2547   157.2936  -999.2500
  305.5000   -50.0598     7.1728     7.1751   154.9776  -999.2500
  306.0000   -50.0722     7.2460     7.2700   152.6539  -999.2500
  306.5000   -50.0848     7.3192     7.5360   149.5452  -999.2500
  307.0000   -50.0973     7.4710     7.5497   144.0817  -999.2500
  307.5000   -50.1099     7.5441     7.4358   140.9731  -999.2500
  308.0000   -50.1248     7.6173     7.2960   141.0047  -999.2500
  308.5000   -50.1372     7.3746     7.1693   141.0361  -999.2500
  309.0000   -50.1496     7.2120     7.0583   141.8524  -999.2500
  309.5000   -50.0019     7.1279     7.0102   144.2447  -999.2500
  310.0000   -49.8604     7.1225     6.9936   145.8456  -999.2500
  310.5000   -49.8727     7.1170     7.0241   147.4465  -999.2500
  311.0000   -49.8851     7.2688     7.0861   149.0474  -999.2500
  311.5000   -50.0545     7.3420     7.1795   148.2935  -999.2500
  312.0000   -50.3809     7.4969     7.2729   144.3998  -999.2500
  312.5000   -50.5502     7.6456     7.3663   141.2912  -999.2500
  313.0000   -50.7196     7.7187     7.4283   138.1825  -999.2500
  313.5000   -50.8890     7.7131     7.4273   135.0738  -999.2500
  314.0000   -51.0583     7.6279     7.4107   135.1048  -999.2500
  314.5000   -51.3847     7.5438     7.3783   137.4907  -999.2500
  315.0000   -51.3972     7.3811     7.3140   139.8765  -999.2500
  315.5000   -51.5667     7.2971     7.2335   142.2623  -999.2500
  316.0000   -51.5793     7.2130     7.1531   145.4331  -999.2500
  316.5000   -51.5943     7.1289     7.0756   147.8189  -999.2500
  317.0000   -51.6067     7.0449     7.0275   150.9896  -999.2500
  317.5000   -51.6191     6.9608     6.9951   153.3755  -999.2500
  318.0000   -51.4714     6.9554     6.9627   154.9865  -999.2500
  318.5000   -51.0159     6.9499     6.9461   154.9609  -999.2500
  319.0000   -50.7143     7.0245     6.9452   152.6836  -999.2500
  319.5000   -50.4127     7.1749     6.9757   151.0259  -999.2500
  320.0000   -50.2650     7.3267     7.0534   148.0439  -999.2500
  320.5000   -50.2805     7.4785     7.1625   146.5051  -999.2500
  321.0000   -50.1328     7.5519     7.3031   144.1813  -999.2500
  321.5000   -49.8343     7.6250     7.4437   141.8498  -999.2500
  322.0000   -49.6897     7.6194     7.4899   139.5338  -999.2500
  322.5000   -49.8591     7.6139     7.4575   137.2101  -999.2500
  323.0000   -49.8715     7.6871     7.4409   133.3164  -999.2500
  323.5000   -50.0408     7.6816     7.5814   129.4228  -999.2500
