~VERSION INFORMATION
 VERS.                2.0:   CWLS LOG ASCII STANDARD - VERSION 2.0
 WRAP.                 NO:   ONE LINE PER DEPTH STEP
~WELL INFORMATION
#MNEM.UNIT      DATA TYPE    INFORMATION
#----------   ------------   ------------------------------
 STRT.F            0.0000:   START DEPTH
 STOP.F         3024.5000:   STOP DEPTH
 STEP.F            0.5000:   STEP LENGTH
 NULL.          -999.2500:   NO VALUE
 COMP. LAWRENCE/ALLISON INC:   COMPANY
 WELL.   NPR 3 77X #77-28:   WELL
 FLD .           N.P.R. 3:   FIELD
 LOC .      S28 T39N R78W:   LOCATION
 CNTY.            NATRONA:   COUNTY
 STAT.            WYOMING:   STATE
 CTRY. UNITED STATES OF AMERICA:   COUNTRY
 SRVC.      Dresser Atlas:   SERVICE COMPANY
 DATE.        19-OCT-1986:   LOGDATE
 API .       490251110400:   API NUMBER
~CURVE INFORMATION
#MNEM.UNIT       API CODE    CURVE DESCRIPTION
#----------   ------------   ------------------------------
 DEPT.F                  :   
 PORD.DEC    45 890 12 00:   DENSITY POROSITY SANDSTONE
 CNC .DEC    42 890 03 00:   NEUTRON POROSITY SANDSTONE
 DEN .G/C3   45 350 01 00:   COMPENSATED BULK DENSTIY
 CORR.G/C3   45 356 01 00:   DENSITY CORRECTION
 CALD.IN     45 280 60 00:   CALIPER FROM DENSITY LOG
 GRR .GAPI   07 310 01 00:   GAMMA RAY FROM RES. LOG.
 RFOC.OHMM   07 220 04 00:   RESISTIVITY FOCUSED LOG
 RILD.OHMM   07 120 46 00:   INDUCTION LOG DEEP RESISTIVITY
 RILM.OHMM   07 120 44 00:   INDUCTION LOG MEDIUM RESISTIVITY
 SPR .MV     07 010 01 00:   SPONTANEOUS POTENTIAL
~PARAMETER INFORMATION
#MNEM.UNIT          VALUE    DESCRIPTION
#----------   ------------   ------------------------------
 PD  .                 GL:   PERMANENT DATUM
 EPD .F              5074:   ELEVATION PERMANENT DATUM
 LMF .                 KB:   LOG MEASURED FROM
 DAPD.F                12:   FEET ABOVE PERMANENT DATUM
 DMF .                 KB:   DRILLING MEASURED FROM
 EKB .F              5086:   KELLING BUSHING
 EGL .F              5074:   GROUND LEVEL
 DATE.           10-19-86:   RUN DATE
 RUN .                  1:   RUN NUMBER
 DD  .F              3021:   DEPTH DRILLER
 DL  .F              3025:   DEPTH LOGGER
 BLI .F              3023:   BOTTOM LOG INTERVAL
 CS  .IN            8.625:   CASING SIZE
 CBD .F               620:   CASING BOTTOM DRILLER
 CBL .F               615:   CASING BOTTOM LOGGER
 BS  .IN            7.875:   BIT SIZE
 BSD .F              3021:   BIT SIZE AT DEPTH
 DFT .        KCL POLYMER:   DRILLING FLUID TYPE
 DFD .                8.9:   DRILLING FLUID DENSITY
 DFV .                 38:   DRILLING FLUID VISCOSITY
 DFPH.                9.5:   DRILLING FLUID PH
 DFL .               11.2:   DRILLING FLUID LOSS
 MSS .           FLOWLINE:   MUD SAMPLE SOURCE
 RMS .OHMM            .25:   RESISTIVITY MUD SAMPLE
 MST .F                65:   MUD SAMPLE TEMPERATURE
 RMF .OHMM           .203:   RESISTIVITY MUD FILTRATE SAMPLE
 MFST.F                65:   MUD FILTRATE SAMPLE TEMPERATURE
 RMC .OHMM            .31:   RESISTIVITY MUD CAKE
 MCST.F                65:   MUD CAKE SAMPLE TEMPERATURE
 MFSS.               MEAS:   MUD FILTRATE SAMPLE SOURCE
 MCSS.               CALC:   MUD CAKE SAMPLE SOURCE
 RMB .OHMM           .136:   RESISTIVITY MUD AT BHT
 BHT .F               119:   BOTTOM HOLE TEMPERATURE
 TCS .HRS               5:   TIME CURCULATED STOPPED
 MRT .F               119:   MAXIMUM RECORDED TEMPERATURE
 LUN .               6274:   LOGGING UNIT NUMBER
 LUL .               GLTE:   LOGGING UNIT LOCATION
 ENGI.             RAUTIO:   RECORDING ENGINEER
 WITN.             STRONG:   WITNESSED BY
 CLNT.            A2DTECH:   CLIENT CODE
 ORIG.       2", 5" PRINT:   ORIGIN OF DATA
 UWI .       490251110400:   UNIQUE WELL ID
 DICO. A2D Technologies, Inc.:   DIGITIZING COMPANY
~OTHER INFORMATION
~A    DEPT    PORD        CNC        DEN       CORR       CALD        GRR       RFOC       RILD       RILM        SPR   
# ...
 2981.5000     0.0983     0.2452     2.4876     0.0291     8.3993   128.9037     3.6793     2.9007     3.1756   -67.2266
 2982.0000     0.0992  -999.2500     2.4865     0.0325     8.3993   127.2827     3.7706     2.8661     3.1315   -67.3598
 2982.5000     0.0992  -999.2500     2.4865     0.0333     8.3993   127.0337     3.8371     2.8319     3.0907   -67.4925
 2983.0000     0.0993  -999.2500     2.4865     0.0268     8.3993   128.7401     3.8881     2.7981     3.0505   -67.6250
 2983.5000     0.1005  -999.2500     2.4860     0.0232     8.3993   128.0317     3.8000     2.7647     3.0108   -67.7578
 2984.0000     0.1025  -999.2500     2.4843     0.0304     8.3993   122.9887     3.6621     2.7317     2.9716   -67.8904
 2984.5000     0.1058  -999.2500     2.4783     0.0383     8.3994   117.9230     3.5293     2.6991     2.9329   -68.0215
 2985.0000     0.1091  -999.2500     2.4723     0.0236     8.3994   126.6129     3.4013     2.6669     2.8948   -68.0363
 2985.5000     0.1124  -999.2500     2.4662     0.0014     8.3992   137.4718     3.2779     2.6351     2.8571   -67.9212
 2986.0000     0.1157  -999.2500     2.4602    -0.0030     8.3891   138.7034     3.2353     2.6036     2.8437   -67.8067
 2986.5000     0.1188  -999.2500     2.4546    -0.0016     8.3626   139.1825     3.2329     2.5725     2.8437   -67.6914
 2987.0000     0.1177  -999.2500     2.4575     0.0009     8.3363  -999.2500     3.4127     2.5446     2.8437   -67.5769
 2987.5000     0.1140  -999.2500     2.4639     0.0029     8.3100  -999.2500     3.5382     2.5324     2.8306   -67.4934
 2988.0000     0.1103  -999.2500     2.4703     0.0028     8.2836  -999.2500     3.6122     2.5179     2.7634   -67.4950
 2988.5000     0.1113  -999.2500     2.4676     0.0108     8.2573  -999.2500     3.5110     2.4958     2.6979   -67.4950
 2989.0000     0.1183  -999.2500     2.4582     0.0067     8.2379  -999.2500     3.3956     2.4739     2.6337   -67.4950
 2989.5000     0.1256  -999.2500     2.4488     0.0064     8.2382  -999.2500     3.2840     2.4522     2.5714   -67.4951
 2990.0000     0.1285  -999.2500     2.4393     0.0166     8.2382  -999.2500     3.1761     2.4307     2.5227   -67.4952
 2990.5000     0.1316  -999.2500     2.4333     0.0187     8.2383  -999.2500     3.1177     2.4094     2.5228   -67.4881
 2991.0000     0.1324  -999.2500     2.4307     0.0076     8.2383  -999.2500     3.1101     2.3883     2.5530   -67.4343
 2991.5000     0.1317  -999.2500     2.4309    -0.0033     8.2371  -999.2500     3.1013     2.3674     2.5714   -67.3804
 2992.0000     0.1301  -999.2500     2.4345    -0.0143     8.2269  -999.2500     3.0892     2.3466     2.5900   -67.3267
 2992.5000     0.1285  -999.2500     2.4381    -0.0233     8.2165  -999.2500     3.1482     2.3260     2.5937   -67.2730
 2993.0000     0.1269  -999.2500     2.4416    -0.0230     8.2063  -999.2500     3.2469     2.3056     2.5468   -67.2193
 2993.5000     0.1280  -999.2500     2.4413    -0.0203     8.1960  -999.2500     3.3869     2.2854     2.4926   -67.1656
 2994.0000     0.1337  -999.2500     2.4318    -0.0087     8.1857  -999.2500     3.2467     2.2615     2.4395   -67.1119
 2994.5000     0.1393  -999.2500     2.4227     0.0024     8.1755  -999.2500     3.0662     2.2364     2.3875   -67.0582
 2995.0000     0.1449  -999.2500     2.4136     0.0151     8.1652  -999.2500     2.8958     2.2115     2.3367   -67.0045
 2995.5000     0.1461  -999.2500     2.4095     0.0345     8.1542  -999.2500     2.6927     2.1870     2.2802   -66.9508
 2996.0000     0.1448  -999.2500     2.4094     0.0515     8.1392  -999.2500     2.7134     2.1627     2.3013   -66.8971
 2996.5000     0.1448  -999.2500     2.4122     0.0431     8.1247  -999.2500     2.8326     2.1387     2.3210   -66.8434
 2997.0000     0.1433  -999.2500     2.4158     0.0289     8.1102  -999.2500     2.9394     2.1150     2.3421   -66.7900
 2997.5000     0.1394  -999.2500     2.4195     0.0210     8.0956  -999.2500     2.9775     2.0915     2.3657   -66.7375
 2998.0000     0.1360  -999.2500     2.4231     0.0187     8.0806  -999.2500     2.9775     2.0683     2.3258   -66.6639
 2998.5000     0.1360  -999.2500     2.4255     0.0104  -999.2500  -999.2500     2.9775     2.0454     2.2816   -66.3903
 2999.0000     0.1360  -999.2500     2.4255     0.0070  -999.2500  -999.2500     2.9590     2.0227     2.2383   -66.1158
 2999.5000     0.1348  -999.2500     2.4257     0.0066  -999.2500  -999.2500     2.9276     2.0002     2.1957   -65.8420
 3000.0000  -999.2500  -999.2500     2.4297     0.0195  -999.2500  -999.2500     2.8359     1.9780     2.1540   -65.5682
 3000.5000  -999.2500  -999.2500     2.4325     0.0342  -999.2500  -999.2500     2.7106     1.9561     2.1130   -65.2949
 3001.0000  -999.2500  -999.2500     2.4315     0.0492  -999.2500  -999.2500     2.5907     1.9344     2.0798   -65.0200
 3001.5000  -999.2500  -999.2500     2.4256     0.0506  -999.2500  -999.2500     2.5000     1.9129     2.0792   -64.8643
 3002.0000  -999.2500  -999.2500     2.4214     0.0376  -999.2500  -999.2500     2.5348     1.8969     2.0791   -64.7832
 3002.5000  -999.2500  -999.2500     2.4243     0.0239  -999.2500  -999.2500     2.6792     1.8969     2.1610   -64.7041
 3003.0000  -999.2500  -999.2500     2.4300     0.0258  -999.2500  -999.2500     2.8318     1.9713     2.2281   -64.6252
 3003.5000  -999.2500  -999.2500     2.4353     0.0323  -999.2500  -999.2500     2.9931     2.0417     2.2974   -64.5428
 3004.0000  -999.2500  -999.2500     2.4326     0.0389  -999.2500  -999.2500     3.0609     2.1275     2.3688   -64.3867
 3004.5000  -999.2500  -999.2500     2.4260     0.0381  -999.2500  -999.2500     3.0262     2.2676     2.4818   -64.0637
 3005.0000  -999.2500  -999.2500     2.4193     0.0262  -999.2500  -999.2500     2.9775     2.4170     2.6529   -63.7334
 3005.5000  -999.2500  -999.2500     2.4166     0.0193  -999.2500  -999.2500     2.9775     2.5762     2.8359   -63.6263
 3006.0000  -999.2500  -999.2500     2.4199     0.0265  -999.2500  -999.2500     3.3614     2.7459     3.0315   -63.5300
 3006.5000  -999.2500  -999.2500     2.4226     0.0336  -999.2500  -999.2500     3.7119     2.9268     3.2406   -63.4319
 3007.0000  -999.2500  -999.2500     2.4194     0.0370  -999.2500  -999.2500     4.0987     3.1196     3.4641   -63.3375
 3007.5000  -999.2500  -999.2500     2.4153     0.0339  -999.2500  -999.2500     4.5249     3.1465     3.6963   -63.1640
 3008.0000  -999.2500  -999.2500     2.4144     0.0293  -999.2500  -999.2500     4.9957     3.0870     3.7133   -62.9829
 3008.5000  -999.2500  -999.2500     2.4407    -0.0224  -999.2500  -999.2500     5.2193     2.9754     3.4023   -62.8017
 3009.0000  -999.2500  -999.2500     2.4794    -0.0984  -999.2500  -999.2500     4.6169     2.8699     3.0278   -62.6208
 3009.5000  -999.2500  -999.2500     2.5142    -0.0677  -999.2500  -999.2500     3.7582     2.8699     2.6949   -62.4398
 3010.0000  -999.2500  -999.2500     2.4813    -0.0132  -999.2500  -999.2500     3.0595     2.8699     2.5672   -62.2584
 3010.5000  -999.2500  -999.2500     2.4405     0.0300  -999.2500  -999.2500     2.3372     2.7713     2.7147   -62.0774
 3011.0000  -999.2500  -999.2500     2.3993  -999.2500  -999.2500  -999.2500     2.5766     2.6843     2.9330   -61.9284
 3011.5000  -999.2500  -999.2500     2.3811  -999.2500  -999.2500  -999.2500     3.3314     2.6663     3.1684   -61.9583
 3012.0000  -999.2500  -999.2500     2.3801  -999.2500  -999.2500  -999.2500     4.3114     2.7596     3.4227   -61.9845
 3012.5000  -999.2500  -999.2500     2.3795  -999.2500  -999.2500  -999.2500     4.9945     3.0523     3.6974   -62.0104
 3013.0000  -999.2500  -999.2500     2.3796  -999.2500  -999.2500  -999.2500     5.3162     3.3761     3.9942   -62.0363
 3013.5000  -999.2500  -999.2500  -999.2500  -999.2500  -999.2500  -999.2500     4.8938     3.7342     4.3148   -62.0622
 3014.0000  -999.2500  -999.2500  -999.2500  -999.2500  -999.2500  -999.2500     4.8938     4.1304     4.6611   -62.0882
 3014.5000  -999.2500  -999.2500  -999.2500  -999.2500  -999.2500  -999.2500     5.2175     4.5685     4.9513   -62.1128
