~VERSION INFORMATION
 VERS.                2.0:   CWLS LOG ASCII STANDARD - VERSION 2.0
 WRAP.                 NO:   ONE LINE PER DEPTH STEP
~WELL INFORMATION
#MNEM.UNIT      DATA TYPE    INFORMATION
#----------   ------------   ------------------------------
 STRT.F           28.0000:   START DEPTH
 STOP.F          659.0000:   STOP DEPTH
 STEP.F            0.5000:   STEP LENGTH
 NULL.          -999.2500:   NO VALUE
 COMP. FENIX & SCISSON INC:   COMPANY
 WELL.    NPR 3 #46-SX-34:   WELL
 FLD .             TEAPOT:   FIELD
 LOC .      S34 T39N R78W:   LOCATION
 CNTY.            NATRONA:   COUNTY
 STAT.            WYOMING:   STATE
 CTRY. UNITED STATES OF AMERICA:   COUNTRY
 SRVC.              Welex:   SERVICE COMPANY
 DATE.        01-MAY-1977:   LOGDATE
 API .       490251035600:   API NUMBER
~CURVE INFORMATION
#MNEM.UNIT       API CODE    CURVE DESCRIPTION
#----------   ------------   ------------------------------
 DEPT.F                  :   
 CALD.IN     45 280 60 00:   CALIPER FROM DENSITY
 GRD .GAPI   45 310 01 00:   GAMMA RAY FROM DENSITY LOG
 CORR.G/C3   45 356 01 00:   DENSITY CORRECTION
 DPHI.DEC    45 890 12 00:   DENSITY POROSITY SANDSTONE
 RHOB.G/C3   45 350 01 00:   BULK DENSITY
 SPR .MV     07 010 01 00:   SPONTANEOUS POTENTIAL
 ILD .OHMM   07 120 46 00:   INDUCTION LOG DEEP
 ILM .OHMM   07 120 44 00:   INDUCTION LOG MEDIUM
 SGRD.OHMM   07 221 05 00:   SHALLOW SHORT GUARD RESISTIVITY
~PARAMETER INFORMATION
#MNEM.UNIT          VALUE    DESCRIPTION
#----------   ------------   ------------------------------
 PD  .                 GL:   PERMANENT DATUM
 EPD .F              5120:   ELEVATION PERMANENT DATUM
 LMF .                 GL:   LOG MEASURED FROM
 DMF .                 GL:   DRILLING MEASURED FROM
 EGL .F              5120:   GROUND LEVEL
 DATE.        01-MAY-1977:   RUN DATE
 RUN .                  1:   RUN NUMBER
 DD  .F               660:   DEPTH DRILLER
 DL  .F               663:   DEPTH LOGGER
 BLI .F               661:   BOTTOM LOG INTERVAL
 TLI .F                28:   TOP LOG INTERVAL
 CS  .IN            8.625:   CASING SIZE
 BS  .IN               12:   BIT SIZE
 BSD .F               660:   BIT SIZE AT DEPTH
 DFT .            KCL MUD:   DRILLING FLUID TYPE
 DFD .                8.7:   DRILLING FLUID DENSITY
 TCS .HRS            0100:   TIME CURCULATED STOPPED
 MRT .F                71:   MAXIMUM RECORDED TEMPERATURE
 ENGI.          T. JOYNER:   RECORDING ENGINEER
 WITN.            R. LYON:   WITNESSED BY
 CLNT.            A2DTECH:   CLIENT CODE
 ORIG.           5" PRINT:   ORIGIN OF DATA
 UWI .       490251035600:   UNIQUE WELL ID
 DICO. A2D Technologies, Inc.:   DIGITIZING COMPANY
~OTHER INFORMATION
~A   DEPT     CALD        GRD        CORR      DPHI       RHOB        SPR        ILD        ILM       SGRD   
   28.0000  -999.2500  -999.2500    -0.3373  -999.2500  -999.2500  -999.2500  -999.2500  -999.2500  -999.2500
   28.5000     7.8325    88.1927    -0.3329  -999.2500     2.0071  -999.2500  -999.2500  -999.2500  -999.2500
   29.0000     7.8171    85.6486    -0.3147  -999.2500     2.0011  -999.2500  -999.2500  -999.2500  -999.2500
   29.5000     7.8319    84.5960    -0.2829  -999.2500     2.0003  -999.2500  -999.2500  -999.2500  -999.2500
   30.0000     7.8316    84.2942    -0.2481  -999.2500     2.0003  -999.2500  -999.2500  -999.2500  -999.2500
   30.5000     7.8313    84.5929    -0.2148  -999.2500     2.0003  -999.2500  -999.2500  -999.2500  -999.2500
   31.0000     7.8310    84.4413    -0.1633  -999.2500     2.0010  -999.2500  -999.2500  -999.2500  -999.2500
   31.5000     7.8307    83.3887    -0.1133  -999.2500     2.0311  -999.2500  -999.2500  -999.2500  -999.2500
   32.0000     7.8304    81.8857    -0.0603  -999.2500     2.1342  -999.2500  -999.2500  -999.2500  -999.2500
   32.5000     7.8301    82.6349     0.0201  -999.2500     2.2644  -999.2500  -999.2500  -999.2500  -999.2500
   33.0000     7.8298    84.2850     0.0382     0.1401     2.4450  -999.2500  -999.2500  -999.2500  -999.2500
   33.5000     7.8294    85.3349     0.0398     0.1428     2.4410  -999.2500  -999.2500  -999.2500  -999.2500
   34.0000     7.8291    85.3533     0.0366     0.1455     2.4351  -999.2500  -999.2500  -999.2500  -999.2500
   34.5000     7.8288    85.4920     0.0335     0.1497     2.4269  -999.2500  -999.2500  -999.2500  -999.2500
   35.0000     7.8285    86.2312     0.0303     0.1557     2.4133  -999.2500  -999.2500  -999.2500  -999.2500
   35.5000     7.8282    87.2808     0.0287     0.1639     2.4020  -999.2500  -999.2500  -999.2500  -999.2500
   36.0000     7.8279    92.3843     0.0256     0.1726     2.3907  -999.2500  -999.2500  -999.2500  -999.2500
   36.5000     7.8126    95.2357     0.0210     0.1816     2.3764  -999.2500  -999.2500  -999.2500  -999.2500
   37.0000     7.8123   100.7897     0.0164     0.1873     2.3651  -999.2500  -999.2500  -999.2500  -999.2500
   37.5000     7.8120   103.0408     0.0117     0.1889     2.3614  -999.2500  -999.2500  -999.2500  -999.2500
   38.0000     7.8117    98.6849     0.0102     0.1849     2.3704  -999.2500  -999.2500  -999.2500  -999.2500
   38.5000     7.8114   103.0374     0.0086     0.1741     2.3854  -999.2500  -999.2500  -999.2500  -999.2500
   39.0000     7.8111   101.9848     0.0100     0.1648     2.4005  -999.2500  -999.2500  -999.2500  -999.2500
   39.5000     7.8108    98.5298     0.0130     0.1617     2.4080  -999.2500  -999.2500  -999.2500  -999.2500
   40.0000     7.8105    93.8736     0.0175     0.1623     2.4057  -999.2500  -999.2500  -999.2500  -999.2500
   40.5000     7.8102    93.7219     0.0221     0.1608     2.4117  -999.2500  -999.2500  -999.2500  -999.2500
   41.0000     7.8099    93.9009     0.0249     0.1575     2.4132  -999.2500  -999.2500  -999.2500  -999.2500
   41.5000     7.8096    95.2208     0.0248     0.1617     2.4095  -999.2500  -999.2500  -999.2500  -999.2500
   42.0000     7.8093    92.8769     0.0232     0.1654     2.4030  -999.2500  -999.2500  -999.2500  -999.2500
   42.5000     7.8241    94.1667     0.0231     0.1690     2.3920   -17.6704    16.1981    11.4622    13.9035
   43.0000     7.8237    95.5165     0.0231     0.1705     2.3899   -17.2166    17.1029    11.5455    14.6968
   43.5000     7.8234    97.5070     0.0230     0.1720     2.3929   -16.7628    23.3319    11.7098    15.6429
   44.0000     7.8231    92.5104     0.0236     0.1735     2.3899   -16.3090    30.7510    12.0413    16.0858
   44.5000     7.8228    91.3077     0.0236     0.1744     2.3868   -15.8553    26.7995    12.2126    16.3146
   45.0000     7.8225    90.8557     0.0236     0.1747     2.3861   -15.6746    19.7942    12.7327    16.4331
   45.5000     7.8223    90.5539     0.0221     0.1765     2.3846   -16.1382    14.5098    13.4625    16.3257
   46.0000     7.8069    90.2521     0.0190     0.1813     2.3778   -15.9820    14.2273    14.3324    16.4443
   46.5000     7.8066    89.8001     0.0160     0.1828     2.3733   -15.8259    14.6506    14.7416    16.6783
   47.0000     7.8063    89.1980     0.0129     0.1804     2.3770   -15.3720    15.2674    15.2816    16.7994
   47.5000     7.8060    89.4967     0.0129     0.1765     2.3770   -15.0670    15.5954    15.9213    17.2749
   48.0000     7.8057    91.2970     0.0129     0.1702     2.3860   -14.5933    15.8003    16.5815    17.5207
   48.5000     7.8054    94.7493     0.0129     0.1682     2.4018   -14.1592    15.8057    16.9337    17.7700
   49.0000     7.8202    99.2022     0.0129     0.1645     2.4033   -13.7039    15.5932    17.0567    18.0229
   49.5000     7.8198   100.0015     0.0129     0.1645     2.4048   -13.2502    15.3850    17.4191    18.2793
   50.0000     7.8195    97.8979     0.0129     0.1681     2.4026   -13.0958    15.2845    17.8077    18.4120
   50.5000     7.8192    98.4970     0.0128     0.1729     2.3875   -13.1434    15.3361    18.0497    18.7675
   51.0000     7.8189    99.6966     0.0128     0.1768     2.3747   -13.1872    15.3838    18.2906    19.1230
   51.5000     7.8186    99.9054     0.0113     0.1816     2.3724   -13.5087    15.3970    18.5509    19.3264
   52.0000     7.8183    96.6906     0.0113     0.1822     2.3732   -13.7986    15.3992    18.6831    19.5961
   52.5000     7.8180    90.6831     0.0128     0.1810     2.3755   -14.0858    15.2954    18.8098    19.7330
   53.0000     7.8177    90.5314     0.0158     0.1789     2.3784   -14.5218    15.1925    18.8124    19.8709
   53.5000     7.8325    90.5299     0.0173     0.1765     2.3844   -14.8064    15.1873    18.9451    20.0097
   54.0000     7.8322    90.8290     0.0188     0.1723     2.3912   -15.2425    14.9885    18.9477    20.1495
   54.5000     7.8469    93.8301     0.0203     0.1675     2.3972   -15.5297    14.7762    18.9503    20.2903
   55.0000     7.8466    92.9277     0.0203     0.1699     2.3919   -15.6681    14.5849    18.8227    20.2917
   55.5000     7.8313    90.2234     0.0187     0.1702     2.3889   -15.6577    14.4867    18.8111    20.2931
   56.0000     7.8310    87.3694     0.0172     0.1711     2.3867   -15.6473    14.5889    18.6985    20.2945
   56.5000     7.8307    85.6762     0.0187     0.1789     2.3836   -15.6369    14.7051    18.7012    20.2959
   57.0000     7.8454    86.4855     0.0202     0.1789     2.3836   -15.4777    15.0155    18.7037    20.4377
   57.5000     7.8451    88.1156     0.0202     0.1751     2.3927   -15.3185    15.4385    18.8357    20.5805
   58.0000     7.8448    90.5165     0.0199     0.1648     2.3994   -15.1593    15.9833    18.9686    20.8676
   58.5000     7.8445    91.2657     0.0184     0.1651     2.3994   -15.1489    16.5668    19.1250    20.8700
   59.0000     7.8593    91.8648     0.0156     0.1663     2.3994   -15.1385    17.4891    19.3945    21.0149
   59.5000     7.8589    92.9143     0.0141     0.1681     2.3964   -15.2769    18.2315    19.6678    21.0163
   60.0000     7.8436    91.1110     0.0141     0.1696     2.3949   -15.4179    18.7197    20.1945    21.1729
   60.5000     7.8433    90.6590     0.0156     0.1708     2.3956   -15.7051    18.7223    20.4777    21.4585
   61.0000     7.8430    91.7085     0.0156     0.1696     2.3965   -15.8435    18.8544    20.4805    21.6084
   61.5000     7.8276    93.3587     0.0170     0.1648     2.3995   -15.9819    18.8570    20.3419    21.6099
   62.0000     7.8273    90.6544     0.0170     0.1614     2.4032   -16.1203    18.9901    20.0668    21.6114
   62.5000     7.8120    92.0043     0.0185     0.1602     2.4069   -16.2587    19.1241    19.9317    21.4643
   63.0000     7.8117    92.6033     0.0200     0.1593     2.4121   -16.0969    18.9946    19.7968    21.1719
   63.5000     7.8114    93.0526     0.0215     0.1587     2.4046   -16.2353    18.8667    19.5284    20.8834
   64.0000     7.8111    93.7117     0.0200     0.1651     2.3843   -16.2249    18.3567    19.3969    20.4577
