~VERSION INFORMATION
 VERS.                2.0:   CWLS LOG ASCII STANDARD - VERSION 2.0
 WRAP.                 NO:   ONE LINE PER DEPTH STEP
~WELL INFORMATION
#MNEM.UNIT      DATA TYPE    INFORMATION
#----------   ------------   ------------------------------
 STRT.F           36.5000:   START DEPTH
 STOP.F          476.0000:   STOP DEPTH
 STEP.F            0.5000:   STEP LENGTH
 NULL.          -999.2500:   NO VALUE
 COMP. LAWRENCE/ALLISON INC:   COMPANY
 WELL.    54-36 SXFO #3-3:   WELL
 FLD .            WILDCAT:   FIELD
 LOC .       S3 T38N R78W:   LOCATION
 CNTY.            NATRONA:   COUNTY
 STAT.            WYOMING:   STATE
 CTRY. UNITED STATES OF AMERICA:   COUNTRY
 SRVC.      Dresser Atlas:   SERVICE COMPANY
 DATE.        09-DEC-1983:   LOGDATE
 API .       490251095500:   API NUMBER
~CURVE INFORMATION
#MNEM.UNIT       API CODE    CURVE DESCRIPTION
#----------   ------------   ------------------------------
 DEPT.F                  :   
 GRD .GAPI   45 310 01 00:   GAMMA RAY FROM DENSITY LOG
 PORD.DEC    45 890 12 00:   POROSITY DENSITY SANDSTONE
 DEN .G/C3   45 350 01 00:   COMPENSATED BULK DENSTIY
 CORR.G/C3   45 356 01 00:   DENSITY CORRECTION
 CALD.IN     45 280 60 00:   CALIPER
 RFOC.OHMM   07 220 04 00:   RESISTIVITY FOCUSED LOG
 RILD.OHMM   07 120 46 00:   INDUCTION LOG DEEP RESISTIVITY
 RILM.OHMM   07 120 44 00:   INDUCTION LOG MEDIUM RESISTIVITY
~PARAMETER INFORMATION
#MNEM.UNIT          VALUE    DESCRIPTION
#----------   ------------   ------------------------------
 PD  .                 GL:   PERMANENT DATUM
 EPD .F              5166:   ELEVATION PERMANENT DATUM
 LMF .                 KB:   LOG MEASURED FROM
 DAPD.F                10:   FEET ABOVE PERMANENT DATUM
 DMF .                 KB:   DRILLING MEASURED FROM
 EKB .F              5176:   KELLING BUSHING
 EGL .F              5166:   GROUND LEVEL
 DATE.            12-9-83:   RUN DATE
 RUN .                  1:   RUN NUMBER
 DD  .F               478:   DEPTH DRILLER
 DL  .F               475:   DEPTH LOGGER
 BLI .F               473:   BOTTOM LOG INTERVAL
 TLI .F                44:   TOP LOG INTERVAL
 CBD .F                40:   CASING BOTTOM DRILLER
 CBL .F                44:   CASING BOTTOM LOGGER
 BS  .IN             8.75:   BIT SIZE
 BSD .F               478:   BIT SIZE AT DEPTH
 DFT .           AIR FOAM:   DRILLING FLUID TYPE
 MRT .F               100:   MAXIMUM RECORDED TEMPERATURE
 LUN .               6307:   LOGGING UNIT NUMBER
 LUL .               GLTE:   LOGGING UNIT LOCATION
 ENGI.            DEYOUNG:   RECORDING ENGINEER
 WITN.             GROOMS:   WITNESSED BY
 CLNT.            A2DTECH:   CLIENT CODE
 ORIG.       2", 5" PRINT:   ORIGIN OF DATA
 UWI .       490251095500:   UNIQUE WELL ID
 DICO. A2D Technologies, Inc.:   DIGITIZING COMPANY
~OTHER INFORMATION
~A   DEPT       GRD      PORD        DEN       CORR       CALD       RFOC       RILD       RILM   
# ...
  360.5000    77.3294     0.1762     2.3861     0.0309     9.2365  -999.2500    13.4698    13.2159
  361.0000    76.5298     0.1734     2.3897     0.0187     9.2365  -999.2500    13.3217    13.0686
  361.5000    77.9090     0.1752     2.3854    -0.0005     9.2365  -999.2500    13.1752    12.9230
  362.0000    79.9856     0.1781     2.3849    -0.0126     9.2365  -999.2500    13.0304    12.7789
  362.5000    81.7942     0.1757     2.3906     0.0090     9.2365  -999.2500    12.8871    12.6365
  363.0000    80.6141     0.1721     2.3961     0.0363     9.2365  -999.2500    12.7454    12.4957
  363.5000    79.3825     0.1713     2.3984     0.0571     9.2365  -999.2500    12.6053    12.3564
  364.0000    79.2524     0.1717     2.3937     0.0244     9.2365  -999.2500    12.4667    12.2187
  364.5000    79.8527     0.1698     2.3967    -0.0090     9.2365  -999.2500    12.3296    12.0825
  365.0000    79.9098     0.1666     2.4031     0.0011     9.2365  -999.2500    12.1941    11.9478
  365.5000    78.5667     0.1669     2.4034     0.0124     9.2365  -999.2500    12.0600    11.8146
  366.0000    77.9945     0.1729     2.3907     0.0236     9.2365  -999.2500    11.9274    11.6830
  366.5000    80.3275     0.1789     2.3777     0.0316     9.2365  -999.2500    11.7963    11.5437
  367.0000    82.6565     0.1822     2.3779     0.0294     9.2365  -999.2500    11.6666    11.4050
  367.5000    83.0763     0.1751     2.3846     0.0065     9.2365  -999.2500    11.5383    11.2680
  368.0000    83.0179     0.1646     2.4017    -0.0123     9.2365  -999.2500    11.3509    11.1327
  368.5000    84.4803     0.1541     2.4187     0.0037     9.2365  -999.2500    11.4172    11.0415
  369.0000    85.7092     0.1514     2.4263     0.0203     9.2365  -999.2500    11.5462    11.1031
  369.5000    84.7921     0.1513     2.4279     0.0328     9.2375   583.7843    11.6766    11.1609
  370.0000    83.4382     0.1529     2.4220     0.0346     9.2407    59.2004    11.8085    11.2909
  370.5000    82.9338     0.1580     2.4151     0.0157     9.2439    18.8475    11.9419    11.4225
  371.0000    86.1604     0.1632     2.4082    -0.0082     9.2472    16.7121    12.0774    11.5555
  371.5000    87.7979     0.1676     2.4013    -0.0216     9.2504    18.1481    12.2201    11.6902
  372.0000    86.9335     0.1698     2.3960    -0.0123     9.2536    22.8786    12.2183    11.8263
  372.5000    83.1580     0.1721     2.3922    -0.0029     9.2568    25.5781    12.2191    11.9958
  373.0000    78.6663     0.1742     2.3885     0.0066     9.2600    24.8029    12.2192    11.8994
  373.5000    75.2605     0.1761     2.3852     0.0054     9.2632    24.0782    12.2198    11.7756
  374.0000    75.8695     0.1781     2.3819     0.0022     9.2664    23.5019    12.1170    11.6530
  374.5000    79.3879     0.1796     2.3788     0.0075     9.2696    24.1529    11.9447    11.5318
  375.0000    80.3220     0.1809     2.3772     0.0181     9.2729    24.6054    11.7749    11.4118
  375.5000    79.2858     0.1810     2.3787     0.0287     9.2759    24.4796    11.6075    11.2930
  376.0000    78.5549     0.1780     2.3823     0.0393     9.2833    24.2722    11.4425    11.1336
  376.5000    82.6476     0.1699     2.3931     0.0471     9.2914    24.0665    11.2798    10.9500
  377.0000    86.7897     0.1660     2.4034     0.0355     9.2994    23.8626    11.1194    10.7694
  377.5000    87.3403     0.1619     2.4138     0.0240     9.3075    23.6604    10.9613    10.5918
  378.0000    86.9365     0.1580     2.4242     0.0192     9.3156    23.4599    10.8055    10.4171
  378.5000    86.5159     0.1512     2.4346     0.0182     9.3162    23.2611    10.6518    10.2453
  379.0000    86.1050     0.1445     2.4449     0.0317     9.3154    23.0640    10.5004    10.0763
  379.5000    85.6878     0.1377     2.4520     0.0465     9.3147    22.8686    10.3852     9.8862
  380.0000    85.2192     0.1362     2.4530     0.0602     9.3139    22.6480    10.2894     9.9750
  380.5000    85.4028     0.1375     2.4517     0.0595     9.3132    22.7060    10.1632    10.1118
  381.0000    85.4901     0.1405     2.4451     0.0562     9.3125    22.7938    10.4422    10.2506
  381.5000    84.6915     0.1439     2.4367     0.0407     9.3117    22.8576    10.8400    10.3521
  382.0000    83.8837     0.1475     2.4283     0.0253     9.3110    21.6264    11.2445    11.7197
  382.5000    83.6242     0.1511     2.4259     0.0137     9.3103    20.7135    11.7233    13.1672
  383.0000    83.7122     0.1535     2.4246     0.0108     9.3095    20.0887    13.0267    14.7855
  383.5000    82.5343     0.1552     2.4176     0.0083     9.3088    21.2339    14.6077    16.6008
  384.0000    78.8354     0.1804     2.3756     0.0255     9.3081    26.3546    16.5712    18.6393
  384.5000    74.0800     0.2112     2.3261     0.0538     9.3073    33.4819    18.7986    20.9281
  385.0000    69.3219     0.2392     2.2819     0.0684     9.3066    37.5974    21.3254    23.7154
  385.5000    64.5384     0.2380     2.2816     0.0612     9.3059    37.9526    22.9045    24.7486
  386.0000    61.4811     0.2001     2.3494     0.0460     9.3051    37.4358    23.9348    26.2440
  386.5000    59.1868     0.1684     2.4218     0.0308     9.3044    34.6130    23.6116    26.0019
  387.0000    59.6668     0.1521     2.4326     0.0471     9.3036    31.3259    23.0494    25.6754
  387.5000    62.5745     0.1868     2.3712     0.0662     9.3029    28.6438    22.4565    25.1437
  388.0000    65.5223     0.2250     2.3152     0.0519     9.3022    27.7726    21.6287    24.4541
  388.5000    64.6574     0.2403     2.2700     0.0338     9.3014    26.9279    21.9104    23.7865
  389.0000    63.4008     0.2472     2.2622     0.0249     9.3007    26.2440    22.4404    23.2435
  389.5000    62.1062     0.2475     2.2634     0.0381     9.3000    27.7019    22.0222    22.8070
  390.0000    63.7408     0.2456     2.2684     0.0507     9.2992    29.0155    21.5985    22.3760
  390.5000    66.5636     0.2485     2.2611     0.0603     9.2985    30.9763    21.1829    21.9532
  391.0000    68.0897     0.2547     2.2509     0.0497     9.2978    29.3326    20.7754    21.5382
  391.5000    68.4516     0.2613     2.2417     0.0390     9.2970    26.7368    20.3756    21.1314
  392.0000    69.6310     0.2557     2.2482     0.0286     9.2961    23.4979    19.9836    20.7297
  392.5000    70.9783     0.2479     2.2637     0.0246     9.2948    23.9261    19.9081    20.6151
  393.0000    71.2323     0.2402     2.2792     0.0201     9.2936    24.6494    19.9081    20.5645
  393.5000    68.6263     0.2380     2.2794     0.0173     9.2923    25.5288    19.7661    20.5144
  394.0000    66.0879     0.2388     2.2773     0.0294     9.2911    25.1150    19.5384    20.4659
  394.5000    64.5134     0.2372     2.2812     0.0379     9.2899    24.8386    19.3217    20.2142
  395.0000    66.7747     0.2320     2.2906     0.0470     9.2886    25.0236    19.1341    19.9706
  395.5000    68.9306     0.2298     2.2983     0.0708     9.2874    25.0655    18.9484    19.7305
  396.0000    70.8034     0.2313     2.2960     0.0865     9.2861    23.0509    18.7645    19.4935
  396.5000    71.2249     0.2293     2.2947     0.0717     9.2849    21.0392    18.5824    19.2593
  397.0000    70.9167     0.2262     2.2980     0.0426     9.2837    21.2339    18.4019    19.0279
  397.5000    71.3210     0.2208     2.3080     0.0132     9.2824    21.7870    18.2232    18.7994
  398.0000    72.5425     0.2138     2.3212     0.0231     9.2812    22.6445    18.0463    18.5735
  398.5000    73.3564     0.2073     2.3328     0.0369     9.2799    23.2825    17.9900    18.3244
  399.0000    71.9032     0.2106     2.3294     0.0552     9.2787    22.2035    17.9900    18.4625
  399.5000    70.4786     0.2146     2.3212     0.0637     9.2774    21.6287    18.0386    18.6188
  400.0000    69.0798     0.2146     2.3162     0.0604     9.2762    21.8910    18.1381    18.7777
  400.5000    69.6191     0.2136     2.3200     0.0529     9.2750    22.0976    18.2382    18.9377
