~VERSION INFORMATION
 VERS.                2.0:   CWLS LOG ASCII STANDARD - VERSION 2.0
 WRAP.                 NO:   ONE LINE PER DEPTH STEP
~WELL INFORMATION
#MNEM.UNIT      DATA TYPE    INFORMATION
#----------   ------------   ------------------------------
 STRT.F           40.0000:   START DEPTH
 STOP.F          876.5000:   STOP DEPTH
 STEP.F            0.5000:   STEP LENGTH
 NULL.          -999.2500:   NO VALUE
 COMP. FENIX & SCISSON INC:   COMPANY
 WELL.     NPR 3 #41-S-14:   WELL
 FLD .             TEAPOT:   FIELD
 LOC .      S14 T38N R78W:   LOCATION
 CNTY.            NATRONA:   COUNTY
 STAT.            WYOMING:   STATE
 CTRY. UNITED STATES OF AMERICA:   COUNTRY
 SRVC.            Unknown:   SERVICE COMPANY
 DATE.        12-MAR-1978:   LOGDATE
 API .       490251060200:   API NUMBER
~CURVE INFORMATION
#MNEM.UNIT       API CODE    CURVE DESCRIPTION
#----------   ------------   ------------------------------
 DEPT.F                  :   
 CALD.IN     45 280 60 00:   CALIPER FROM DENSITY LOG
 GRD .GAPI   45 310 01 00:   GAMMA RAY FROM DENSITY LOG
 RHOB.G/C3   45 350 01 00:   BULK DENSITY
 DPHI.DEC    45 890 12 00:   DENSITY POROSITY SANDSTONE
 CORR.G/C3   45 356 01 00:   DENSITY CORRECTION
 SPR .MV     05 010 01 00:   SPONTANEOUS POTENTIAL FROM RES.
 IL  .OHMM   05 120 00 00:   INDUCTION LOG
 SN  .OHMM   05 040 16 00:   SHORT NORMAL 16"
~PARAMETER INFORMATION
#MNEM.UNIT          VALUE    DESCRIPTION
#----------   ------------   ------------------------------
 PD  .                 GL:   PERMANENT DATUM
 EPD .F              5211:   ELEVATION PERMANENT DATUM
 LMF .                 KB:   LOG MEASURED FROM
 DMF .                 KB:   DRILLING MEASURED FROM
 EKB .F              5215:   KELLING BUSHING
 EGL .F              5211:   GROUND LEVEL
 DATE.            3-12-78:   RUN DATE
 RUN .                  1:   RUN NUMBER
 DD  .F               870:   DEPTH DRILLER
 DL  .F               872:   DEPTH LOGGER
 BLI .F               866:   BOTTOM LOG INTERVAL
 TLI .F                50:   TOP LOG INTERVAL
 CS  .IN            8.625:   CASING SIZE
 CBD .F                40:   CASING BOTTOM DRILLER
 CBL .F                40:   CASING BOTTOM LOGGER
 BS  .IN            7.875:   BIT SIZE
 BSD .F               870:   BIT SIZE AT DEPTH
 DFT .                KCL:   DRILLING FLUID TYPE
 DFD .                8.6:   DRILLING FLUID DENSITY
 DFV .                 33:   DRILLING FLUID VISCOSITY
 DFPH.                 10:   DRILLING FLUID PH
 DFL .               12.1:   DRILLING FLUID LOSS
 MSS .           FLOWLINE:   MUD SAMPLE SOURCE
 RMS .OHMM            .32:   RESISTIVITY MUD SAMPLE
 MST .F                54:   MUD SAMPLE TEMPERATURE
 RMF .OHMM            .36:   RESISTIVITY MUD FILTRATE SAMPLE
 MFST.F                55:   MUD FILTRATE SAMPLE TEMPERATURE
 RMC .OHMM             .5:   RESISTIVITY MUD CAKE
 MCST.F                56:   MUD CAKE SAMPLE TEMPERATURE
 MFSS.           MEASURED:   MUD FILTRATE SAMPLE SOURCE
 MCSS.           MEASURED:   MUD CAKE SAMPLE SOURCE
 RMB .OHMM            .24:   RESISTIVITY MUD AT BHT
 BHT .F                72:   BOTTOM HOLE TEMPERATURE
 TCS .HRS               4:   TIME CURCULATED STOPPED
 MRT .F                72:   MAXIMUM RECORDED TEMPERATURE
 LUN .               2958:   LOGGING UNIT NUMBER
 LUL .               CASP:   LOGGING UNIT LOCATION
 ENGI.             MILLER:   RECORDING ENGINEER
 WITN.         HARRINGTON:   WITNESSED BY
 CLNT.            A2DTECH:   CLIENT CODE
 ORIG.        2" 5" PRINT:   ORIGIN OF DATA
 UWI .       490251060200:   UNIQUE WELL ID
 DICO. A2D Technologies, Inc.:   DIGITIZING COMPANY
~OTHER INFORMATION
~A   DEPT     CALD         GRD      RHOB       DPHI       CORR        SPR         IL         SN   
# ...
  566.5000     8.0524    88.8888     2.4358     0.1134     0.0033   -58.3686     5.9862     7.3075
  567.0000     8.0519    90.9039     2.4390     0.1116     0.0039   -58.5079     6.1517     7.3126
  567.5000     8.0514    93.1374     2.4379     0.1132     0.0050   -58.6490     6.3217     7.3177
  568.0000     8.0509    93.2249     2.4315     0.1173     0.0189   -58.7921     6.4964     7.3228
  568.5000     8.0505    90.2010     2.4257     0.1221     0.0331   -58.9556     6.6052     7.3279
  569.0000     8.0500    87.7604     2.4283     0.1194     0.0403   -58.3054     6.6619     7.3330
  569.5000     8.0495    87.0388     2.4318     0.1166     0.0365   -57.4347     6.6619     7.3381
  570.0000     8.0490    92.6216     2.4362     0.1126     0.0348   -56.5626     6.6485     7.3432
  570.5000     8.0486    96.5809     2.4372     0.1143     0.0415   -56.0218     6.6305     7.3484
  571.0000     8.0481    95.1399     2.4340     0.1138     0.0467   -56.2318     6.6126     7.3535
  571.5000     8.0476    94.7658     2.4384     0.1107     0.0466   -56.4228     6.5947     7.3585
  572.0000     8.0471    94.4330     2.4391     0.1118     0.0509   -56.6138     6.5769     7.3636
  572.5000     8.0467    93.6776     2.4339     0.1176     0.0499   -56.8048     6.5592     7.3682
  573.0000     8.0462    94.0404     2.4455     0.1064     0.0390   -56.9501     6.5399     7.3735
  573.5000     8.0457    94.4478     2.4449     0.1081     0.0287   -56.7846     6.4159     7.2398
  574.0000     8.0453    94.4099     2.4424     0.1114     0.0321   -56.9655     6.2831     7.0955
  574.5000     8.0448    93.4466     2.4400     0.1124     0.0284   -57.3013     6.2394     6.9127
  575.0000     8.0443    92.5040     2.4441     0.1110     0.0219   -57.6712     6.1890     6.9625
  575.5000     8.0438    91.5281     2.4485     0.1104     0.0176   -57.8965     6.1389     7.0341
  576.0000     8.0434    91.4851     2.4353     0.1181     0.0247   -58.0771     6.0893     6.8696
  576.5000     8.0429    92.0830     2.4227     0.1228     0.0316   -58.1114     5.8485     6.6826
  577.0000     8.0424    92.6974     2.4243     0.1217     0.0323   -57.8789     5.5368     6.5007
  577.5000     8.0419    92.3520     2.4262     0.1204     0.0283   -57.6533     5.2417     6.3237
  578.0000     8.0415    89.6658     2.4240     0.1249     0.0337   -57.4240     4.9624     6.0179
  578.5000     8.0410    87.0485     2.4026     0.1332     0.0354   -57.2051     4.8214     5.7096
  579.0000     8.0405    85.3909     2.4128     0.1366     0.0420   -58.0360     4.8214     5.3832
  579.5000     8.0400    84.0265     2.3912     0.1400     0.0504   -59.0203     4.8662     5.4578
  580.0000     8.0396    83.8989     2.4042     0.1245     0.0284   -59.4828     4.8842     5.7490
  580.5000     8.0391    87.7169     2.4225     0.1216     0.0042   -59.1714     4.9538     6.0553
  581.0000     8.0386    89.2726     2.4256     0.1192    -0.0036   -59.1670     5.0244     6.3598
  581.5000     8.0381    88.5098     2.4328     0.1162    -0.0013   -59.1667     5.2859     6.7301
  582.0000     8.0377    88.0724     2.4320     0.1172     0.0012   -58.9672     5.6712     7.1721
  582.5000     8.0372    88.7653     2.4366     0.1136     0.0002   -58.5156     6.0846     7.2990
  583.0000     8.0367    95.0455     2.4380     0.1126    -0.0042   -58.0988     6.4290     7.4224
  583.5000     8.0363    96.7701     2.4496     0.1076    -0.0086   -57.8196     6.4661     7.5476
  584.0000     8.0358    93.4345     2.4458     0.1096    -0.0131   -57.5353     6.4906     7.6750
  584.5000     8.0353    90.7655     2.4420     0.1108    -0.0092   -57.2499     6.5379     7.8045
  585.0000     8.0348    90.5359     2.4415     0.1128    -0.0036   -56.9796     6.5856     7.9361
  585.5000     8.0344    89.9310     2.4388     0.1135    -0.0069   -56.9716     6.6336     8.0138
  586.0000     8.0339    87.8044     2.4497     0.0986    -0.0059   -56.9731     6.7040     8.0138
  586.5000     8.0334    85.8002     2.4506     0.1005     0.0009   -56.9734     6.8077     8.0138
  587.0000     8.0329    87.1601     2.4537     0.1038     0.0045   -56.9734     6.9131     8.0138
  587.5000     8.0325    89.7459     2.4663     0.0980     0.0028   -56.9734     7.0200     8.0138
  588.0000     8.0320    91.3143     2.4711     0.0924     0.0004   -56.9734     7.1285     8.0138
  588.5000     8.0315    91.6195     2.4768     0.0889    -0.0021   -56.9734     7.1768     8.0138
  589.0000     8.0310    88.8539     2.4667     0.0973    -0.0024   -56.9733     7.1832     8.0138
  589.5000     8.0306    86.8160     2.4571     0.1012     0.0001   -56.9736     7.1897     8.0138
  590.0000     8.0301    88.5928     2.4582     0.0977     0.0026   -56.9732     7.1962     8.0138
  590.5000     8.0296    91.9635     2.4655     0.0943     0.0045   -56.9678     7.2027     8.0138
  591.0000     8.0292    92.3127     2.4730     0.0908     0.0022   -57.1559     7.2092     8.0138
  591.5000     8.0287    92.2997     2.4772     0.0904     0.0000   -57.3878     7.2157     8.0138
  592.0000     8.0282    91.6524     2.4746     0.0925    -0.0023   -57.6204     7.2221     8.0138
  592.5000     8.0277    90.7322     2.4691     0.0946    -0.0046   -57.6868     7.2287     8.0138
  593.0000     8.0273    90.3164     2.4667     0.0967    -0.0055   -57.6190     7.2384     8.0138
  593.5000     8.0268    89.9083     2.4647     0.0972    -0.0055   -57.7525     7.2243     8.0138
  594.0000     8.0263    89.7073     2.4612     0.1003    -0.0054   -57.8834     7.1809     8.0138
  594.5000     8.0258    89.8299     2.4575     0.1016    -0.0025   -57.9582     7.1379     8.0138
  595.0000     8.0258    90.3064     2.4624     0.0994     0.0007   -57.9073     7.0952     8.0138
  595.5000     8.0258    91.9182     2.4671     0.0984     0.0039   -57.8598     7.0528     8.0139
  596.0000     8.0258    93.8268     2.4711     0.0942     0.0081   -57.8123     6.9755     8.0141
  596.5000     8.0258    94.0876     2.4785     0.0885     0.0050   -57.7734     6.8865     8.0140
  597.0000     8.0258    93.9429     2.4857     0.0848     0.0026   -57.7747     6.7986     7.9923
  597.5000     8.0258    90.4899     2.4740     0.1023     0.0134   -58.0848     6.7119     7.8218
  598.0000     8.0257    86.9666     2.4563     0.0993     0.0405   -58.6772     6.6263     7.6550
  598.5000     8.0153    86.5698     2.4509     0.0956     0.0435   -58.7939     6.5417     7.4917
  599.0000     8.0036    93.4349     2.4613     0.0997     0.0476   -58.5342     6.4583     7.3319
  599.5000     7.9920    95.3350     2.4582     0.1029     0.0525   -58.4429     6.3759     7.1754
  600.0000     7.9870    95.1704     2.4304     0.1060     0.0476   -58.4643     6.3027     7.0224
  600.5000     7.9901    94.5667     2.3447     0.1093     0.0404   -58.8321     6.1314     6.8240
  601.0000     7.9931    94.0657     2.2825     0.1121     0.0406   -59.1874     5.9797     6.5314
  601.5000     7.9962    94.6738     2.2159     0.1313     0.0424   -59.7321     5.6899     6.2509
  602.0000     7.9992    97.0568     2.4181     0.1438     0.0407   -60.4712     5.3973     5.9817
  602.5000     8.0023    98.2500     2.3948     0.1514     0.0448   -60.4773     5.1197     5.7243
  603.0000     8.0053    97.9028     2.3820     0.1589     0.0495   -60.3811     4.8564     5.2770
  603.5000     8.0084    93.9736     2.3749     0.1665     0.0543   -60.8701     4.2277     4.7752
  604.0000     8.0114    90.4999     2.3386     0.1741     0.0586   -61.4506     3.6307     4.3211
  604.5000     8.0144    90.3735     2.3344     0.1816     0.0510   -62.0292     3.1180     3.9102
  605.0000     8.0175    89.8930     2.3220     0.1892     0.0535   -62.3561     2.6941     3.5383
  605.5000     8.0205    87.7491     2.3001     0.1967     0.0595   -62.0732     2.4487     3.2018
  606.0000     8.0236    84.9346     2.2734     0.2216     0.0612   -61.4036     2.2814     2.8973
  606.5000     8.0266    81.8350     2.2510     0.2200     0.0588   -61.3269     2.2814     2.7955
