~VERSION INFORMATION
 VERS.                2.0:   CWLS LOG ASCII STANDARD - VERSION 2.0
 WRAP.                 NO:   ONE LINE PER DEPTH STEP
~WELL INFORMATION
#MNEM.UNIT      DATA TYPE    INFORMATION
#----------   ------------   ------------------------------
 STRT.F           30.0000:   START DEPTH
 STOP.F          602.0000:   STOP DEPTH
 STEP.F            0.5000:   STEP LENGTH
 NULL.          -999.2500:   NO VALUE
 COMP. FENIX & SCISSON U.S NAVY:   COMPANY
 WELL.   S-3 NPR #3 #51-3:   WELL
 FLD .             TEAPOT:   FIELD
 LOC .       S3 T38N R78W:   LOCATION
 CNTY.            NATRONA:   COUNTY
 STAT.            WYOMING:   STATE
 CTRY. UNITED STATES OF AMERICA:   COUNTRY
 SRVC.              Welex:   SERVICE COMPANY
 DATE.        08-MAR-1977:   LOGDATE
 API .       490251030800:   API NUMBER
~CURVE INFORMATION
#MNEM.UNIT       API CODE    CURVE DESCRIPTION
#----------   ------------   ------------------------------
 DEPT.F                  :   
 SPR .MV     07 010 01 00:   SPONTANEOUS POTENTIAL
 ILD .OHMM   07 120 46 00:   INDUCTION LOG DEEP
 ILM .OHMM   07 120 44 00:   INDUCTION LOG MEDIUM
 SGRD.OHMM   07 221 05 00:   SHALLOW SHORT GUARD RESISTIVITY
 CALD.IN     45 280 60 00:   CALIPER FROM DENSITY LOG
 CORR.G/C3   45 356 01 00:   DENSITY CORRECTION
 RHOB.G/C3   45 350 01 00:   BULK DENSITY
 DPHI.DEC    45 890 12 00:   DENSITY POROSITY SANDSTONE
 GRD .GAPI   45 310 01 00:   GAMMA RAY FROM DENSITY LOG
~PARAMETER INFORMATION
#MNEM.UNIT          VALUE    DESCRIPTION
#----------   ------------   ------------------------------
 PD  .                 GL:   PERMANENT DATUM
 EPD .F              5140:   ELEVATION PERMANENT DATUM
 LMF .                 GL:   LOG MEASURED FROM
 DAPD.F                  :   FEET ABOVE PERMANENT DATUM
 DMF .                 GL:   DRILLING MEASURED FROM
 EKB .F                  :   KELLING BUSHING
 EDF .F                  :   DRILLING FLOOR
 EGL .F              5140:   GROUND LEVEL
 DATE.             3-8-77:   RUN DATE
 RUN .                  1:   RUN NUMBER
 DD  .F               611:   DEPTH DRILLER
 DL  .F               555:   DEPTH LOGGER
 BLI .F               553:   BOTTOM LOG INTERVAL
 TLI .F                40:   TOP LOG INTERVAL
 CS  .IN            8.625:   CASING SIZE
 CBD .F                40:   CASING BOTTOM DRILLER
 CBL .F                40:   CASING BOTTOM LOGGER
 BS  .IN            7.875:   BIT SIZE
 BSD .F               611:   BIT SIZE AT DEPTH
 DFT .           CHEM GEL:   DRILLING FLUID TYPE
 DFD .                8.6:   DRILLING FLUID DENSITY
 DFV .                 42:   DRILLING FLUID VISCOSITY
 DFPH.                  8:   DRILLING FLUID PH
 DFL .                3.2:   DRILLING FLUID LOSS
 MSS .           FLOWLINE:   MUD SAMPLE SOURCE
 RMS .OHMM           1.49:   RESISTIVITY MUD SAMPLE
 MST .F                48:   MUD SAMPLE TEMPERATURE
 RMF .OHMM           1.07:   RESISTIVITY MUD FILTRATE SAMPLE
 MFST.F                48:   MUD FILTRATE SAMPLE TEMPERATURE
 RMC .OHMM           2.34:   RESISTIVITY MUD CAKE
 MCST.F                48:   MUD CAKE SAMPLE TEMPERATURE
 MFSS.           MEASURED:   MUD FILTRATE SAMPLE SOURCE
 MCSS.           MEASURED:   MUD CAKE SAMPLE SOURCE
 RMB .OHMM           1.19:   RESISTIVITY MUD AT BHT
 BHT .F                60:   BOTTOM HOLE TEMPERATURE
 TCS .HRS               2:   TIME CURCULATED STOPPED
 TLAB.HRS                :   TIME LOGGER AT BOTTOM
 MRT .F                60:   MAXIMUM RECORDED TEMPERATURE
 LUN .               0716:   LOGGING UNIT NUMBER
 LUL .             VERNAL:   LOGGING UNIT LOCATION
 ENGI.           CALLAHAN:   RECORDING ENGINEER
 WITN.         STUEBINGER:   WITNESSED BY
 CLNT.            A2DTECH:   CLIENT CODE
 ORIG.       2", 5" PRINT:   ORIGIN OF DATA
 UWI .       490251030800:   UNIQUE WELL ID
 DICO. A2D Technologies, Inc.:   DIGITIZING COMPANY
 OS  .                   :   OTHER SERVICES
 PWI .                   :   PRIMARY WELL IDENTIFIER
 R1  .                   :   REMARKS 1
 R2  .                   :   REMARKS 2
 LSRV.                   :   LOG MNEMONIC
~OTHER INFORMATION
~A   DEPT      SPR        ILD        ILM       SGRD       CALD       CORR       RHOB       DPHI        GRD   
# ...
  468.0000   -41.4114    13.8750    16.5153    18.5125     7.8550     0.0203     2.4418     0.1277   100.6568
  468.5000   -41.5702    13.9667    16.7405    18.9117     7.8546     0.0260     2.4336     0.1271   100.9595
  469.0000   -41.5773    14.0592    17.0864    18.7540     7.8691     0.0154     2.4268     0.1337   100.8103
  469.5000   -41.5845    14.0534    17.4348    18.7466     7.8537     0.0274     2.4283     0.1367   100.2094
  470.0000   -41.4414    14.0488    17.5489    19.1326     7.8533     0.0319     2.4268     0.1371    98.4036
  470.5000   -41.1483    14.0442    16.9438    19.8016     7.8526     0.0259     2.4185     0.1410    97.4814
  471.0000   -40.8569    14.1371    16.5891    19.9286     7.8201     0.0242     2.4101     0.1452    97.3523
  471.5000   -40.5637    14.1314    16.8283    19.2409     7.7920     0.0349     2.4117     0.1407    97.6553
  472.0000   -41.0213    14.1267    17.1580    18.7078     7.7616     0.0458     2.4215     0.1332    97.9580
  472.5000   -41.3288    14.1221    17.2720    18.7005     7.7462     0.0544     2.4358     0.1311    98.4113
  473.0000   -41.3376    14.1173    17.3851    18.6929     7.7458     0.0574     2.4478     0.1284    98.8645
  473.5000   -41.0444    14.1117    16.6691    18.6839     7.7453     0.0483     2.4237     0.1287    99.3178
  474.0000   -40.6011    14.1070    15.9840    18.6766     7.7449     0.0362     2.4425     0.1266    99.6205
  474.5000   -40.9085    13.8124    15.6495    18.1592     7.7595     0.0256     2.4432     0.1248   100.0741
  475.0000   -40.9174    13.7126    15.6433    17.6561     7.7589     0.0136     2.4259     0.1343   100.3768
  475.5000   -40.1738    13.4252    15.9654    17.4047     7.7736     0.0060     2.4410     0.1320   100.8300
  476.0000   -40.9316    13.3281    16.4068    17.2795     7.7881     0.0014     2.4485     0.1245   101.1327
  476.5000   -41.5394    13.0498    15.4086    17.3927     7.8026     0.0029     2.4282     0.1332   101.2844
  477.0000   -41.5465    12.8661    15.4025    17.3841     7.8021     0.0119     2.4334     0.1275    99.1777
  477.5000   -41.5554    12.7730    15.5049    17.4980     7.8166     0.0089     2.4485     0.1278    99.4804
  478.0000   -41.7127    12.7679    15.4973    17.6127     7.8161    -0.0017     2.4327     0.1341    98.1565
  478.5000   -42.0201    12.7637    15.4897    17.7264     7.8307    -0.0062     2.4274     0.1335    94.8150
  479.0000   -42.1774    12.7595    15.5911    17.9665     7.8453    -0.0063     2.4236     0.1369    92.8587
  479.5000   -42.1847    12.8440    15.6947    18.2099     7.8598    -0.0048     2.4221     0.1411    91.0529
  480.0000   -42.3435    12.9290    16.1273    18.5830     7.8593    -0.0003     2.3995     0.1525    89.6989
  480.5000   -42.5008    13.1950    16.6984    18.5757     7.8588    -0.0003     2.3935     0.1552    88.1944
  481.0000   -42.8082    13.8458    17.6297    18.5684     7.8584    -0.0004     2.3875     0.1612    86.2380
  481.5000   -43.1156    14.5287    18.7552    18.6901     7.8579     0.0041     2.3642     0.1709    83.1472
  482.0000   -42.9744    15.3684    20.9428    19.6435     7.8574     0.0101     2.3273     0.1883    76.7533
  482.5000   -42.8296    16.3318    24.2088    27.3300     7.8570     0.0209     2.3109     0.1984    72.0861
  483.0000   -42.8385    17.3764    27.5969    35.2977     7.8566     0.0357     2.3040     0.2060    69.9791
  483.5000   -43.1459    18.2335    29.5625    36.5305     7.8561     0.0296     2.3033     0.2081    69.8296
  484.0000   -44.0641    19.3997    30.8037    35.0265     7.8557     0.0115     2.2890     0.2118    70.7350
  484.5000   -44.6634    21.0721    31.6557    37.2607     7.8552     0.0085     2.2852     0.2175    71.9413
  485.0000   -44.8207    21.8091    32.0843    39.9167     7.8547     0.0235     2.3032     0.2157    73.2982
  485.5000   -44.6759    22.4143    32.0685    38.8109     7.8393     0.0310     2.3138     0.2070    74.2234
  486.0000   -44.6848    22.8755    31.8348    36.1999     7.8389     0.0248     2.3084     0.2040    75.1087
  486.5000   -44.3916    23.0269    32.2658    33.7644     7.8384     0.0098     2.3008     0.2105    75.8632
  487.0000   -44.2504    23.0174    32.9296    36.9271     7.8380     0.0008     2.2972     0.2130    76.6176
  487.5000   -43.9572    23.0099    32.0149    37.9531     7.8376    -0.0007     2.2912     0.2172    76.1673
  488.0000   -43.3637    22.6859    30.7008    36.3905     7.8371     0.0067     2.2889     0.2154    75.5660
  488.5000   -43.3733    22.3666    30.2669    34.6549     7.8366     0.0203     2.3039     0.2106    78.1280
  489.0000   -43.8302    21.8977    30.4681    32.9988     7.8212     0.0233     2.3220     0.1983    79.7962
  489.5000   -44.1376    21.4404    30.6646    32.7581     7.8058     0.0201     2.3310     0.1953    80.5410
  490.0000   -43.6943    21.1386    30.2282    32.9728     7.8054     0.0111     2.3173     0.1984    81.1448
  490.5000   -43.2510    21.1316    30.2163    33.1889     7.8049     0.0066     2.3039     0.2067    81.5981
  491.0000   -43.1079    20.9731    29.7893    33.6385     7.8041     0.0171     2.3159     0.2007    81.5995
  491.5000   -43.1168    20.5392    29.1658    32.9306     7.7890     0.0246     2.3310     0.1929    81.7516
  492.0000   -43.2741    20.1103    28.4974    32.0183     7.7885     0.0276     2.3430     0.1854    81.7531
  492.5000   -43.7317    19.8271    27.3805    30.9165     7.7881     0.0291     2.3497     0.1806    81.7545
  493.0000   -43.8890    19.4131    26.9936    30.2689     7.7877     0.0305     2.3572     0.1746    81.5854
  493.5000   -44.0480    19.1211    26.9829    29.8404     7.7872     0.0365     2.3655     0.1734    81.0044
  494.0000   -43.4545    18.4808    26.9723    28.6122     7.7868     0.0425     2.3748     0.1658    80.4038
  494.5000   -43.0094    18.3473    26.9591    28.2076     7.7864     0.0470     2.3911     0.1575    79.5017
  495.0000   -43.0183    18.4687    26.7626    28.5925     7.7709     0.0395     2.3843     0.1596    78.7501
  495.5000   -43.3334    18.4626    26.3844    29.5894     7.7704     0.0259     2.3730     0.1641    77.9986
  496.0000   -43.6349    18.3277    26.3740    31.4724     7.7700     0.0424     2.3873     0.1620    78.1506
  496.5000   -43.4919    18.3217    26.7310    32.7979     7.7696     0.0363     2.3767     0.1608    78.6139
  497.0000   -43.4990    18.3157    26.7179    33.2423     7.7691     0.0105     2.3527     0.1707    79.6599
  497.5000   -43.5062    18.3097    26.5232    30.3654     7.7687     0.0197     2.3391     0.1813    80.4144
  498.0000   -43.5135    18.3187    26.5128    28.9168     7.7683     0.0333     2.3513     0.1864    80.8677
  498.5000   -43.5222    18.4248    26.1381    29.9212     7.7677     0.0136     2.3639     0.1741    81.0197
  499.0000   -43.5293    18.4173    25.7661    30.3295     7.7673     0.0106     2.3414     0.1903    81.0212
  499.5000   -43.5364    18.5407    25.0529    29.6913     7.7818     0.0166     2.3241     0.1945    81.0226
  500.0000   -43.5435    18.6619    24.8728    28.8688     7.7831     0.0166     2.3406     0.1885    81.1747
  500.5000   -44.1573    18.4141    25.1486    29.2594     7.7926     0.0090     2.3330     0.1900    81.6086
  501.0000   -45.0703    18.2560    24.6685    29.2430     7.8022     0.0089     2.3300     0.1927    82.0721
  501.5000   -44.9323    18.2458    24.8258    28.0402     7.8118     0.0188     2.3427     0.1852    83.8764
  502.0000   -44.3210    18.2356    25.3324    27.0738     7.8214     0.0313     2.3689     0.1705    84.6406
  502.5000   -43.9056    18.2253    25.3182    27.2497     7.8310     0.0282     2.3779     0.1651    85.0755
  503.0000   -44.0709    18.2150    25.1295    28.0089     7.8377     0.0236     2.3816     0.1642    85.2232
  503.5000   -44.5335    18.2024    24.4297    29.1775     7.8370     0.0251     2.3657     0.1673    85.5208
  504.0000   -45.1462    17.9420    23.7495    27.7812     7.8365     0.0310     2.3679     0.1709    85.6687
