~VERSION INFORMATION
 VERS.                2.0:   CWLS LOG ASCII STANDARD - VERSION 2.0
 WRAP.                 NO:   ONE LINE PER DEPTH STEP
~WELL INFORMATION
#MNEM.UNIT      DATA TYPE    INFORMATION
#----------   ------------   ------------------------------
 STRT.F            3.0000:   START DEPTH
 STOP.F         1011.0000:   STOP DEPTH
 STEP.F            0.5000:   STEP LENGTH
 NULL.          -999.2500:   NO VALUE
 COMP. BROWN JOHN E&C INC:   COMPANY
 WELL. NPR 3 SHX-38 #2-35:   WELL
 FLD .             TEAPOT:   FIELD
 LOC .      S35 T39N R78W:   LOCATION
 CNTY.            NATRONA:   COUNTY
 STAT.            WYOMING:   STATE
 CTRY. UNITED STATES OF AMERICA:   COUNTRY
 SRVC.     Atlas Wireline:   SERVICE COMPANY
 DATE.        15-NOV-1991:   LOGDATE
 API .       490252248100:   API NUMBER
~CURVE INFORMATION
#MNEM.UNIT       API CODE    CURVE DESCRIPTION
#----------   ------------   ------------------------------
 DEPT.F                  :   
 GRR .GAPI   07 310 01 00:   GAMMA RAY
 RILD.OHMM   07 120 46 00:   INDUCTION LOG DEEP RESISTIVITY
 RILM.OHMM   07 120 44 00:   INDUCTION LOG MEDIUM RESISTIVITY
~PARAMETER INFORMATION
#MNEM.UNIT          VALUE    DESCRIPTION
#----------   ------------   ------------------------------
 PD  .                 GL:   PERMANENT DATUM
 EPD .F              5119:   ELEVATION PERMANENT DATUM
 LMF .                 KB:   LOG MEASURED FROM
 DAPD.F                11:   FEET ABOVE PERMANENT DATUM
 DMF .                 KB:   DRILLING MEASURED FROM
 EKB .F              5120:   KELLING BUSHING
 EGL .F              5119:   GROUND LEVEL
 DATE.        15-NOV-1991:   RUN DATE
 RUN .                  1:   RUN NUMBER
 DD  .F              1015:   DEPTH DRILLER
 DL  .F              1017:   DEPTH LOGGER
 BLI .F              1015:   BOTTOM LOG INTERVAL
 CS  .IN            8.625:   CASING SIZE
 CBD .F                60:   CASING BOTTOM DRILLER
 CBL .F                60:   CASING BOTTOM LOGGER
 BS  .IN            7.875:   BIT SIZE
 BSD .F              1015:   BIT SIZE AT DEPTH
 DFT .                AIR:   DRILLING FLUID TYPE
 LUN .            HL-6272:   LOGGING UNIT NUMBER
 LUL .         CASPER, WY:   LOGGING UNIT LOCATION
 ENGI.             ZIFGER:   RECORDING ENGINEER
 WITN.         MR. STRONG:   WITNESSED BY
 CLNT.            A2DTECH:   CLIENT CODE
 ORIG.           5" PRINT:   ORIGIN OF DATA
 UWI .       490252248100:   UNIQUE WELL ID
 DICO. A2D Technologies, Inc.:   DIGITIZING COMPANY
~OTHER INFORMATION
~A    DEPT      GRR      RILD       RILM   
# ...
  276.0000   134.3895     4.9875     4.9926
  276.5000   132.9287     5.0547     5.0646
  277.0000   133.2888     5.1621     5.2021
  277.5000   134.4461     5.3460     5.3122
  278.0000   135.9636     5.4595     5.3494
  278.5000   138.0880     5.4599     5.4245
  279.0000   138.9985     5.5759     5.5008
  279.5000   140.2124     5.6547     5.6171
  280.0000   143.2473     5.7346     5.6565
  280.5000   149.3172     5.6950     5.6961
  281.0000   150.8346     5.6557     5.6565
  281.5000   145.0683     5.5778     5.5781
  282.0000   140.8194     5.4625     5.4245
  282.5000   140.8194     5.3497     5.2386
  283.0000   140.2124     5.1665     5.0238
  283.5000   138.6950     4.9203     4.8515
  284.0000   136.5706     4.7188     4.6526
  284.5000   132.0182     4.4940     4.4300
  285.0000   129.8938     4.2205     4.2452
  285.5000   127.1624     3.9915     3.9806
  286.0000   124.4310     3.6689     3.7082
  286.5000   125.9484     3.4201     3.3989
  287.0000   125.9120     3.1408     3.1259
  287.5000   125.9484     2.9536     3.0187
  288.0000   130.1973     2.8959     2.9769
  288.5000   138.3915     2.8962     2.9562
  289.0000   144.1578     2.9577     2.9977
  289.5000   146.8892     3.0205     3.0611
  290.0000   142.9438     3.1500     3.1920
  290.5000   137.2099     3.4017     3.3752
  291.0000   131.7147     3.8846     3.7216
  291.5000   127.1624     4.4051     4.3390
  292.0000   127.7693     4.7572     4.7510
  292.5000   127.1624     4.9611     4.9197
  293.0000   125.9484     5.1377     5.0944
  293.5000   125.6449     5.3206     5.2386
  294.0000   126.8589     5.5100     5.3514
  294.5000   131.4112     5.6665     5.6234
  295.0000   135.0531     5.7868     5.8628
  295.5000   135.0268     5.9929     6.0732
  296.0000   136.8741     6.2497     6.2369
  296.5000   137.4810     6.4272     6.2806
  297.0000   133.7582     6.3805     6.2806
  297.5000   130.4704     6.2948     6.2369
  298.0000   129.5458     6.2451     6.1935
  298.5000   128.9833     6.1223     6.1077
  299.0000   129.5903     5.9959     6.0231
  299.5000   131.7147     5.9131     5.9396
  300.0000   137.7845     5.7908     5.8166
  300.5000   135.3566     5.6712     5.6565
  301.0000   134.4461     5.4770     5.4625
  301.5000   133.5357     5.2895     5.2752
  302.0000   130.8042     5.0728     5.1300
  302.5000   125.9335     4.8870     4.9137
  303.0000   126.2340     4.6762     4.5468
  303.5000   126.2302     4.2612     4.1591
  304.0000   127.1377     4.1152     4.0207
  304.5000   129.8661     4.0022     3.9603
  305.0000   135.9328     3.9469     3.9380
  305.5000   145.6415     3.9749     3.9936
  306.0000   152.6188     4.0593     4.1070
  306.5000   151.0983     4.2333     4.2531
  307.0000   142.2941     4.4147     4.3433
  307.5000   130.7584     4.5719     4.4978
  308.0000   125.2926     4.6690     4.5933
  308.5000   126.8070     4.7681     4.7567
  309.0000   131.3563     4.8694     4.8239
  309.5000   133.4785     4.9382     4.8920
  310.0000   131.0468     4.9732     4.8924
  310.5000   128.6159     4.9735     4.8927
  311.0000   127.7024     4.9739     4.8931
  311.5000   127.0924     4.9395     4.8594
  312.0000   127.0893     4.9055     4.8597
  312.5000   128.6038     4.8717     4.7926
  313.0000   131.9391     4.8381     4.7266
  313.5000   133.7578     4.7383     4.6613
  314.0000   130.1121     4.6081     4.5652
  314.5000   124.3428     4.4814     4.4398
  315.0000   125.2503     4.0644     4.2285
  315.5000   124.0333     3.5596     3.5026
  316.0000   123.3830     2.9277     2.9835
  316.5000   126.1517     2.8872     2.9423
  317.0000   132.2179     2.8879     2.9632
  317.5000   141.9266     2.9293     2.9841
  318.0000   140.1026     2.9697     3.0475
  318.5000   125.8356     3.0139     3.1122
  319.0000   127.9570     3.0816     3.2229
  319.5000   127.6505     3.3141     3.3143
  320.0000   124.9160     3.8463     3.6040
  320.5000   123.3956     4.2416     4.1441
  321.0000   123.0898     4.3317     4.3823
  321.5000   123.9973     4.3623     4.3826
  322.0000   125.2074     4.3322     4.3221
  322.5000   126.7219     4.3326     4.2924
  323.0000   128.8433     4.3329     4.2927
  323.5000   130.0542     4.3332     4.2930
  324.0000   129.7477     4.3033     4.2338
  324.5000   128.8342     4.2736     4.1754
  325.0000   127.6180     4.2441     4.1466
  325.5000   128.8289     4.0989     4.0605
  326.0000   126.0937     3.9036     3.8926
  326.5000   125.4845     3.5901     3.6265
  327.0000   126.9982     3.3017     3.1747
  327.5000   127.6029     3.0366     2.9634
  328.0000   125.1712     2.9122     2.8836
  328.5000   121.2228     2.8921     2.8662
  329.0000   120.6135     2.9330     2.8664
  329.5000   131.2319     2.9537     2.8866
  330.0000   135.7812     3.0165     2.9480
  330.5000   134.8678     3.1678     3.0381
  331.0000   126.9740     3.4210     3.3197
  331.5000   122.4186     3.7202     3.6099
  332.0000   123.6295     4.0175     4.0365
  332.5000   128.1789     4.3690     4.4201
  333.0000   131.2107     4.6853     4.7398
  333.5000   131.5120     4.8524     4.8068
  334.0000   127.8663     4.9551     4.8747
  334.5000   123.9179     4.9902     4.9091
  335.0000   126.3428     4.9871     4.9095
  335.5000   125.1258     4.9217     4.8081
  336.0000   124.2123     4.7758     4.6113
  336.5000   124.8163     4.4348     4.2117
  337.0000   127.5447     3.8286     3.7934
  337.5000   131.1835     3.3066     3.4647
  338.0000   133.0015     3.0623     3.2314
  338.5000   136.3368     2.9991     3.0776
  339.0000   142.1001     2.9784     2.9931
  339.5000   141.4901     2.9786     2.9933
  340.0000   138.1487     2.9997     3.0569
  340.5000   135.6823     3.0421     3.2101
  341.0000   125.3353     3.1504     3.3946
  341.5000   119.5963     3.3084     3.6149
  342.0000   119.6439     3.5728     3.8227
  342.5000   120.2277     3.8315     3.9587
  343.0000   119.9211     4.1377     4.0995
  343.5000   119.6147     4.3757     4.2158
  344.0000   122.8083     4.4686     4.3053
  344.5000   124.4644     4.5318     4.3967
  345.0000   124.5119     4.5639     4.4277
  345.5000   126.1427     4.5962     4.4591
  346.0000   129.9174     4.5644     4.4644
  346.5000   132.0389     4.5330     4.3979
  347.0000   131.4289     4.4705     4.3071
  347.5000   129.9084     4.3781     4.1888
  348.0000   129.2984     4.2578     4.1023
  348.5000   129.9023     4.0834     4.0176
  349.0000   131.1133     3.8889     3.8532
  349.5000   132.3250     3.6523     3.6442
  350.0000   132.0177     3.3589     3.4466
  350.5000   132.0147     3.2213     3.3278
  351.0000   133.8326     3.1769     3.2139
  351.5000   136.5610     3.1550     3.1471
  352.0000   135.6475     3.1552     3.1050
  352.5000   129.9761     3.1302     3.0836
  353.0000   116.8437     3.0902     3.0624
  353.5000   115.3262     3.0109     3.0398
  354.0000   117.7542     2.9113     2.9958
  354.5000   120.1821     2.8117     2.9518
  355.0000   122.7617     2.7122     2.8788
  355.5000   126.3227     2.6126     2.7420
  356.0000   128.6798     2.5072     2.5754
  356.5000   126.8589     2.3547     2.3689
  357.0000   128.6798     2.3060     2.3363
  357.5000   130.1973     2.3062     2.3696
  358.0000   130.5008     2.3388     2.4032
  358.5000   130.1973     2.4221     2.4544
  359.0000   129.5903     2.5436     2.5776
  359.5000   128.3763     2.7088     2.7837
  360.0000   125.0379     2.9664     3.0697
  360.5000   123.3828     3.1370     3.2238
  361.0000   120.4856     3.4114     3.4573
  361.5000   120.7891     3.7884     3.6401
  362.0000   124.4310     3.9233     3.8166
  362.5000   125.3414     3.9235     3.8403
  363.0000   125.0379     3.8125     3.7604
  363.5000   127.1624     3.7090     3.6582
  364.0000   127.4659     3.6076     3.5581
  364.5000   125.9484     3.4853     3.4127
  365.0000   125.3414     3.3426     3.2732
  365.5000   128.6118     3.2056     3.0959
  366.0000   136.0043     3.0529     2.9694
  366.5000   142.3369     2.8077     2.8086
