~VERSION INFORMATION
 VERS.                2.0:   CWLS LOG ASCII STANDARD - VERSION 2.0
 WRAP.                 NO:   ONE LINE PER DEPTH STEP
~WELL INFORMATION
#MNEM.UNIT      DATA TYPE    INFORMATION
#----------   ------------   ------------------------------
 STRT.F            1.0000:   START DEPTH
 STOP.F          483.0000:   STOP DEPTH
 STEP.F            0.5000:   STEP LENGTH
 NULL.          -999.2500:   NO VALUE
 COMP. LAWRENCE/ALLISON INC:   COMPANY
 WELL.   47-66-1 SX #47-3:   WELL
 FLD .             TEAPOT:   FIELD
 LOC .       S3 T38N R78W:   LOCATION
 CNTY.            NATRONA:   COUNTY
 STAT.            WYOMING:   STATE
 CTRY. UNITED STATES OF AMERICA:   COUNTRY
 SRVC.           Gearhart:   SERVICE COMPANY
 DATE.        07-JUN-1988:   LOGDATE
 API .       490251121500:   API NUMBER
~CURVE INFORMATION
#MNEM.UNIT       API CODE    CURVE DESCRIPTION
#----------   ------------   ------------------------------
 DEPT.F                  :   
 GRR .GAPI   07 310 01 00:   GAMMA RAY
 RILD.OHMM   07 120 46 00:   INDUCTION LOG DEEP RESISTIVITY
 RILM.OHMM   07 120 44 00:   INDUCTION LOG MEDIUM RESISTIVITY
~PARAMETER INFORMATION
#MNEM.UNIT          VALUE    DESCRIPTION
#----------   ------------   ------------------------------
 PD  .                 GL:   PERMANENT DATUM
 EPD .F              5183:   ELEVATION PERMANENT DATUM
 LMF .                 KB:   LOG MEASURED FROM
 DAPD.F                 5:   FEET ABOVE PERMANENT DATUM
 DMF .                 KB:   DRILLING MEASURED FROM
 EKB .F              5188:   KELLING BUSHING
 EGL .F              5183:   GROUND LEVEL
 DATE.        07-JUN-1988:   RUN DATE
 RUN .                  1:   RUN NUMBER
 DD  .F               490:   DEPTH DRILLER
 DL  .F               483:   DEPTH LOGGER
 BLI .F               483:   BOTTOM LOG INTERVAL
 CS  .IN            8.625:   CASING SIZE
 CBD .F                40:   CASING BOTTOM DRILLER
 CBL .F                40:   CASING BOTTOM LOGGER
 BS  .IN            7.875:   BIT SIZE
 BSD .F               490:   BIT SIZE AT DEPTH
 DFT .                AIR:   DRILLING FLUID TYPE
 TLAB.HRS            0400:   TIME LOGGER AT BOTTOM
 MRT .F                70:   MAXIMUM RECORDED TEMPERATURE
 LUN .               7597:   LOGGING UNIT NUMBER
 LUL .           GILLETTE:   LOGGING UNIT LOCATION
 ENGI.          HUCKFELDT:   RECORDING ENGINEER
 WITN.             STRONG:   WITNESSED BY
 CLNT.            A2DTECH:   CLIENT CODE
 ORIG.           5" PRINT:   ORIGIN OF DATA
 UWI .       490251121500:   UNIQUE WELL ID
 DICO. A2D Technologies, Inc.:   DIGITIZING COMPANY
~OTHER INFORMATION
~A    DEPT      GRR      RILD       RILM   
    1.0000    50.3030  -999.2500  -999.2500
    1.5000    51.2121  -999.2500  -999.2500
    2.0000    51.5152  -999.2500  -999.2500
    2.5000    51.8182  -999.2500  -999.2500
    3.0000    51.5152  -999.2500  -999.2500
    3.5000    50.9091  -999.2500  -999.2500
    4.0000    50.3030  -999.2500  -999.2500
    4.5000    50.6061  -999.2500  -999.2500
    5.0000    51.5152  -999.2500  -999.2500
    5.5000    52.1212  -999.2500  -999.2500
    6.0000    51.8182  -999.2500  -999.2500
    6.5000    50.3030  -999.2500  -999.2500
    7.0000    48.7879  -999.2500  -999.2500
    7.5000    47.5758  -999.2500  -999.2500
    8.0000    47.2727  -999.2500  -999.2500
    8.5000    47.8788  -999.2500  -999.2500
    9.0000    48.7879  -999.2500  -999.2500
    9.5000    49.6970  -999.2500  -999.2500
   10.0000    50.3030  -999.2500  -999.2500
   10.5000    51.2424  -999.2500  -999.2500
   11.0000    52.1212  -999.2500  -999.2500
   11.5000    52.4242  -999.2500  -999.2500
   12.0000    52.1212  -999.2500  -999.2500
   12.5000    50.9091  -999.2500  -999.2500
   13.0000    49.6970  -999.2500  -999.2500
   13.5000    49.0909  -999.2500  -999.2500
   14.0000    49.3939  -999.2500  -999.2500
   14.5000    50.6061  -999.2500  -999.2500
   15.0000    52.4242  -999.2500  -999.2500
   15.5000    54.8788  -999.2500  -999.2500
   16.0000    57.5758  -999.2500  -999.2500
   16.5000    59.0909  -999.2500  -999.2500
   17.0000    60.6061  -999.2500  -999.2500
   17.5000    61.8182  -999.2500  -999.2500
   18.0000    63.0303  -999.2500  -999.2500
   18.5000    63.9394  -999.2500  -999.2500
   19.0000    63.6364  -999.2500  -999.2500
   19.5000    61.8182  -999.2500  -999.2500
   20.0000    63.0303  -999.2500  -999.2500
   20.5000    65.4848  -999.2500  -999.2500
   21.0000    66.6667  -999.2500  -999.2500
   21.5000    66.0606  -999.2500  -999.2500
   22.0000    63.9394  -999.2500  -999.2500
   22.5000    63.3333  -999.2500  -999.2500
   23.0000    65.4545  -999.2500  -999.2500
   23.5000    68.1818  -999.2500  -999.2500
   24.0000    69.0909  -999.2500  -999.2500
   24.5000    68.1818  -999.2500  -999.2500
   25.0000    65.4545  -999.2500  -999.2500
   25.5000    63.6061  -999.2500  -999.2500
   26.0000    63.9394  -999.2500  -999.2500
   26.5000    66.0606  -999.2500  -999.2500
   27.0000    68.7879  -999.2500  -999.2500
   27.5000    70.3030  -999.2500  -999.2500
   28.0000    69.6970  -999.2500  -999.2500
   28.5000    69.3939  -999.2500  -999.2500
   29.0000    69.0909  -999.2500  -999.2500
   29.5000    69.0909  -999.2500  -999.2500
   30.0000    69.3939  -999.2500  -999.2500
   30.5000    70.0000  -999.2500  -999.2500
   31.0000    70.9091  -999.2500  -999.2500
   31.5000    71.5152  -999.2500  -999.2500
   32.0000    72.1212  -999.2500  -999.2500
   32.5000    71.5152  -999.2500  -999.2500
   33.0000    71.5152  -999.2500  -999.2500
   33.5000    71.8182  -999.2500  -999.2500
   34.0000    72.4242  -999.2500  -999.2500
   34.5000    72.7273  -999.2500  -999.2500
   35.0000    72.7273  -999.2500  -999.2500
   35.5000    72.7273  -999.2500  -999.2500
   36.0000    72.7273  -999.2500  -999.2500
   36.5000    72.4242  -999.2500  -999.2500
   37.0000    72.1212  -999.2500  -999.2500
   37.5000    71.8182  -999.2500  -999.2500
   38.0000    72.7273  -999.2500  -999.2500
   38.5000    78.7879  -999.2500  -999.2500
   39.0000    90.0000  -999.2500  -999.2500
   39.5000   103.6364  -999.2500  -999.2500
   40.0000   110.9091     2.7080   362.3830
   40.5000   115.5454     2.0979    40.6223
   41.0000   119.0909     2.1502     4.5455
   41.5000   120.6061     3.0665     3.2754
   42.0000   120.9091     8.7167     3.3446
   42.5000   120.0000    15.7540     4.1227
   43.0000   117.8788    17.3151     5.3361
   43.5000   115.7576    11.0056     7.2467
   44.0000   115.4545     8.4062    11.1736
   44.5000   116.0606     7.6758    12.0642
   45.0000   116.6667     7.5670    10.9423
   45.5000   117.3030     8.1103     9.5846
   46.0000   118.1818     8.1649     8.6329
   46.5000   119.0909     7.6122     8.3371
   47.0000   119.6970     7.3440     8.4721
   47.5000   119.0909     7.4492     9.0646
   48.0000   116.0606     7.8188     9.1919
   48.5000   113.6364     8.0939     9.0017
   49.0000   113.0303     8.3774     8.8153
   49.5000   113.0303     8.6714     8.6933
   50.0000   112.4242     8.7901     8.7541
   50.5000   110.0072     8.6053     8.8148
   51.0000   108.7994     8.6018     8.8759
   51.5000   110.3217     8.9681     8.6883
   52.0000   113.3577     8.9035     8.5704
   52.5000   116.7779     8.7169     8.6903
   53.0000   118.5221     8.6537     8.6292
   53.5000   118.8309     8.4724     8.5092
   54.0000   120.0488     8.2950     8.3323
   54.5000   120.3576     8.1741     8.2739
   55.0000   120.3647     8.0623     8.1588
   55.5000   119.7644     7.9486     8.1016
   56.0000   120.0731     7.8913     7.9887
   56.5000   120.0950     7.8893     7.9327
   57.0000   119.1769     7.8319     7.9322
   57.5000   117.6675     7.8298     7.8766
   58.0000   116.1581     7.8278     7.8759
   58.5000   114.6487     7.8257     7.8754
   59.0000   113.4423     7.8783     7.9300
   59.5000   112.8420     7.9313     7.9849
   60.0000   112.8492     8.0400     8.0965
   60.5000   113.4610     8.1506     8.2670
   61.0000   114.3758     8.2662     8.3825
   61.5000   116.5042     8.4935     8.5591
   62.0000   117.4190     8.6706     8.7395
   62.5000   117.1203     8.7906     8.9235
   63.0000   115.9153     8.9110     8.9854
   63.5000   114.3697     8.9709     9.1110
   64.0000   114.1086     9.0312     9.1740
   64.5000   114.4188     9.0283     9.1733
   65.0000   114.4245     8.9632     9.1727
   65.5000   114.4303     8.9608     9.1083
   66.0000   115.9526     8.8957     9.0444
   66.5000   118.6856     8.8934     8.9809
   67.0000   120.5095     8.8910     8.8559
   67.5000   119.3031     8.8887     8.8553
   68.0000   116.2800     8.8858     8.7932
   68.5000   115.6782     8.8217     8.7925
   69.0000   116.5945     8.8194     8.7919
   69.5000   116.9033     8.8171     8.7914
   70.0000   115.6768     8.8142     8.7908
   70.5000   113.2798     8.8119     8.8517
   71.0000   112.3764     8.8095     8.8510
   71.5000   112.3822     8.8072     8.9125
   72.0000   112.9940     8.8665     8.9741
   72.5000   113.9102     8.9879     9.1632
   73.0000   112.7038     9.1753     9.3561
   73.5000   111.4975     9.3667     9.5534
   74.0000   111.1637     9.6315     9.7545
   74.5000   111.8444     9.9669    10.1065
   75.0000   113.0313    10.3896    10.5305
   75.5000   113.0370    10.5333    10.7524
   76.0000   111.8306    10.6034    10.9789
   76.5000   109.7069    10.8995    11.1323
   77.0000   107.9027    11.1268    11.3667
   77.5000   107.0008    11.3588    11.6062
   78.0000   106.7020    11.5956    11.7686
   78.5000   106.4062    11.7642    11.9340
   79.0000   105.1557    12.0004    12.1843
   79.5000   103.0857    12.2506    12.3546
   80.0000   101.5763    12.5926    12.6149
   80.5000   100.6715    12.7686    12.8805
   81.0000   100.6949    13.0313    13.1517
   81.5000   101.2919    13.2107    13.2430
   82.0000   101.9037    13.3004    13.2419
   82.5000   102.8186    13.2960    13.2411
   83.0000   103.1273    13.2916    13.2400
   83.5000   103.1345    13.2881    13.1471
   84.0000   103.4433    13.2846    13.0549
   84.5000   104.0551    13.1889    12.9634
   85.0000   104.6669    12.9939    12.8724
   85.5000   104.3696    12.8188    12.6931
   86.0000   104.3767    12.6381    12.5165
   86.5000   104.9885    12.4600    12.2567
   87.0000   105.9034    12.2843    12.0861
   87.5000   106.2121    12.1104    12.0012
   88.0000   105.0072    12.0231    12.0004
   88.5000   102.5887    12.0199    11.9996
   89.0000   101.3808    12.1008    12.0828
   89.5000   101.0850    12.1822    12.2516
   90.0000   100.4444    12.4354    12.4228
   90.5000    98.3706    12.6065    12.5965
   91.0000    95.3460    12.6913    12.5954
   91.5000    92.6245    12.5998    12.5944
