~VERSION INFORMATION
 VERS.                2.0:   CWLS LOG ASCII STANDARD - VERSION 2.0
 WRAP.                 NO:   ONE LINE PER DEPTH STEP
~WELL INFORMATION
#MNEM.UNIT      DATA TYPE    INFORMATION
#----------   ------------   ------------------------------
 STRT.F           46.0000:   START DEPTH
 STOP.F          490.0000:   STOP DEPTH
 STEP.F            0.5000:   STEP LENGTH
 NULL.          -999.2500:   NO VALUE
 COMP.    FENIX & SCISSON:   COMPANY
 WELL.        NPR #55-S-3:   WELL
 FLD .              NPR 3:   FIELD
 LOC .       S3 T38N R78W:   LOCATION
 CNTY.            NATRONA:   COUNTY
 STAT.            WYOMING:   STATE
 CTRY. UNITED STATES OF AMERICA:   COUNTRY
 SRVC.      Dresser Atlas:   SERVICE COMPANY
 DATE.        12-MAR-1977:   LOGDATE
 API .       490251028700:   API NUMBER
~CURVE INFORMATION
#MNEM.UNIT       API CODE    CURVE DESCRIPTION
#----------   ------------   ------------------------------
 DEPT.F                  :   
 SPR .MV     07 010 01 00:   SPONTANEOUS POTENTIAL
 ILM .OHMM   07 120 44 00:   INDUCTION LOG MEDIUM
 ILD .OHMM   07 120 46 00:   INDUCTION LOG DEEP
 SFL .OHMM   07 220 01 00:   SHALLOW FOCUSED LOG RESISTIVITY
 CALD.IN     45 280 60 00:   CALIPER FROM DENSITY LOG
 GRD .GAPI   45 310 01 00:   GAMMA RAY FROM DENSITY LOG
 CORR.G/C3   45 356 01 00:   DENSITY CORRECTION
 DPHI.DEC    45 890 12 00:   DENSITY POROSITY SANDSTONE
 RHOB.G/C3   45 350 01 00:   BULK DENSITY
~PARAMETER INFORMATION
#MNEM.UNIT          VALUE    DESCRIPTION
#----------   ------------   ------------------------------
 PD  .                 GL:   PERMANENT DATUM
 EPD .F              5169:   ELEVATION PERMANENT DATUM
 LMF .                 GL:   LOG MEASURED FROM
 DMF .                 GL:   DRILLING MEASURED FROM
 EGL .F              5169:   GROUND LEVEL
 DATE.        12-MAR-1977:   RUN DATE
 RUN .                  1:   RUN NUMBER
 DD  .F               498:   DEPTH DRILLER
 DL  .F               492:   DEPTH LOGGER
 BLI .F               490:   BOTTOM LOG INTERVAL
 TLI .F               046:   TOP LOG INTERVAL
 CS  .IN            8.625:   CASING SIZE
 CBD .F                40:   CASING BOTTOM DRILLER
 CBL .F               046:   CASING BOTTOM LOGGER
 BS  .IN            7.875:   BIT SIZE
 BSD .F               498:   BIT SIZE AT DEPTH
 DFT .           CHEM GEL:   DRILLING FLUID TYPE
 DFD .                8.7:   DRILLING FLUID DENSITY
 DFV .                 35:   DRILLING FLUID VISCOSITY
 DFPH.                8.0:   DRILLING FLUID PH
 DFL .                7.2:   DRILLING FLUID LOSS
 MSS .           FLOWLINE:   MUD SAMPLE SOURCE
 RMS .OHMM            .35:   RESISTIVITY MUD SAMPLE
 MST .F                60:   MUD SAMPLE TEMPERATURE
 RMF .OHMM             .3:   RESISTIVITY MUD FILTRATE SAMPLE
 MFST.F                60:   MUD FILTRATE SAMPLE TEMPERATURE
 RMC .OHMM            .73:   RESISTIVITY MUD CAKE
 MCST.F                60:   MUD CAKE SAMPLE TEMPERATURE
 MFSS.               MEAS:   MUD FILTRATE SAMPLE SOURCE
 MCSS.               MEAS:   MUD CAKE SAMPLE SOURCE
 RMB .OHMM            .33:   RESISTIVITY MUD AT BHT
 BHT .F                63:   BOTTOM HOLE TEMPERATURE
 TCS .HRS            1400:   TIME CURCULATED STOPPED
 MRT .F                63:   MAXIMUM RECORDED TEMPERATURE
 LUN .               6134:   LOGGING UNIT NUMBER
 LUL .              GLTTE:   LOGGING UNIT LOCATION
 ENGI.              NOYER:   RECORDING ENGINEER
 WITN.         STUEBINGER:   WITNESSED BY
 CLNT.            A2DTECH:   CLIENT CODE
 ORIG.           5" PRINT:   ORIGIN OF DATA
 UWI .       490251028700:   UNIQUE WELL ID
 DICO. A2D Technologies, Inc.:   DIGITIZING COMPANY
~OTHER INFORMATION
~A   DEPT      SPR        ILM        ILD        SFL       CALD        GRD       CORR         DPHI       RHOB 
# ...
  374.5000   -44.3063    25.1172    23.2802    35.4868     7.7990    77.1133     0.0231     0.1858     2.3353
  375.0000   -44.3121    24.6067    22.6226    34.2840     7.8008    76.8241     0.0263     0.1767     2.3445
  375.5000   -44.3179    24.4423    22.4942    32.4420     7.8026    75.6468     0.0234     0.1683     2.3744
  376.0000   -44.3236    23.9019    22.1873    29.6575     7.8044    73.1252     0.0176     0.1707     2.3707
  376.5000   -44.3294    22.5076    21.8839    29.2524     7.8062    70.3055     0.0132     0.1726     2.3632
  377.0000   -44.3353    21.5979    20.8524    29.2694     7.8228    72.2548     0.0134     0.1825     2.3475
  377.5000   -44.3424    21.4524    20.7102    29.6639     7.8093    74.5022     0.0165     0.1896     2.3400
  378.0000   -44.3482    21.6065    20.7116    29.6659     7.8264    76.8986     0.0212     0.1901     2.3438
  378.5000   -44.0545    21.6108    21.0015    29.2602     7.8282    75.8673     0.0318     0.1751     2.3627
  379.0000   -43.7609    21.6151    21.4428    28.0743     7.8151    75.1340     0.0290     0.1706     2.3717
  379.5000   -43.6168    21.6205    21.8934    26.7506     7.8318    74.4008     0.0261     0.1699     2.3620
  380.0000   -43.1737    21.4759    21.7441    25.4892     7.8336    72.7734     0.0263     0.1711     2.3741
  380.5000   -42.7303    21.4802    21.0071    24.7961     7.8354    73.5304     0.0264     0.1726     2.3689
  381.0000   -42.8872    20.8989    20.2951    24.7981     7.8371    75.1817     0.0266     0.1741     2.3652
  381.5000   -43.1924    20.4732    20.0179    25.3192     7.8389    74.2994     0.0252     0.1737     2.3698
  382.0000   -43.3479    20.3372    19.8814    25.8512     7.8407    76.3978     0.0179     0.1698     2.3788
  382.5000   -43.5034    20.4943    20.1597    26.0322     7.8425    78.7942     0.0105     0.1680     2.3729
  383.0000   -43.5091    21.0616    20.5833    25.6767     7.8443    78.5080     0.0091     0.1728     2.3662
  383.5000   -43.3652    21.5071    21.1615    24.6356     7.8461    75.9864     0.0138     0.1761     2.3602
  384.0000   -43.8215    22.1142    21.7560    24.1318     7.8479    71.0773     0.0215     0.1479     2.3866
  384.5000   -44.5758    22.7384    22.5223    28.0959     7.8497    74.0728     0.0321     0.1079     2.4416
  385.0000   -44.8810    23.0595    22.6803    34.3315     7.8514    75.8731     0.0427     0.0751     2.5101
  385.5000   -44.7356    22.9053    22.5252    35.2954     7.8532    77.0773     0.0339     0.0754     2.5236
  386.0000   -44.5931    22.4398    22.0646    29.9045     7.8550    78.2814     0.0116     0.1255     2.4553
  386.5000   -44.5989    22.1363    21.4646    23.9740     7.8568    79.4856     0.0087     0.1711     2.3855
  387.0000   -44.4549    21.5372    20.8812    23.4838     7.8586    80.8388     0.0164     0.1768     2.3606
  387.5000   -44.4622    20.9543    20.4425    23.4853     7.8604    81.2948     0.0165     0.1804     2.3516
  388.0000   -44.4679    20.5285    20.0362    23.4873     7.8622    77.4349     0.0122     0.1840     2.3479
  388.5000   -44.4737    20.1124    19.7622    23.4889     7.8640    76.6987     0.0108     0.1855     2.3457
  389.0000   -44.6292    19.8403    19.6275    23.4904     7.8657    79.5452     0.0185     0.1809     2.3480
  389.5000   -44.6349    19.3033    19.2264    23.6549     7.8675    82.3887     0.0276     0.1746     2.3646
  390.0000   -44.6407    19.0422    19.0953    23.4932     7.8693    81.9535     0.0293     0.1710     2.3669
  390.5000   -44.6467    18.9149    18.9621    23.5043     7.8711    80.6241     0.0294     0.1737     2.3639
  391.0000   -44.5026    18.9196    18.7060    22.6852     7.8729    79.4408     0.0280     0.1782     2.3632
  391.5000   -44.5098    18.7921    18.7076    22.8581     7.8747    81.9892     0.0222     0.1856     2.3580
  392.0000   -44.5155    18.5389    18.5797    23.3384     7.8765    83.1904     0.0178     0.1865     2.3453
  392.5000   -44.5213    18.1519    18.2000    23.3400     7.8783    82.6062     0.0180     0.1829     2.3581
  393.0000   -44.5271    17.7931    17.8278    23.0212     7.8800    82.0250     0.0227     0.1736     2.3725
  393.5000   -44.6901    17.5524    17.4633    22.3951     7.8818    81.4408     0.0243     0.1696     2.3786
  394.0000   -44.9892    17.3150    16.9744    22.0893     7.8836    82.6449     0.0245     0.1639     2.3854
  394.5000   -45.1446    17.0808    16.5266    20.8641     7.8854    86.2336     0.0291     0.1576     2.3975
  395.0000   -45.1504    16.7346    16.0772    20.0553     7.8872    87.8848     0.0247     0.1540     2.4069
  395.5000   -45.4556    16.3945    15.9673    20.4770     7.8890    87.3006     0.0189     0.1575     2.3893
  396.0000   -45.7608    15.9362    15.8584    20.3374     7.8908    84.4800     0.0191     0.1632     2.3766
  396.5000   -46.3653    15.9548    15.9697    19.3781     7.8925    83.4487     0.0237     0.1660     2.3826
  397.0000   -46.9850    16.0686    15.8608    19.9228     7.8943    83.1625     0.0178     0.1658     2.3767
  397.5000   -47.2765    15.9604    15.6444    20.3415     7.8961    83.4725     0.0120     0.1728     2.3669
  398.0000   -47.1326    15.6368    15.3242    20.4839     7.8979    85.1237     0.0122     0.1815     2.3496
  398.5000   -47.1384    15.2136    14.9075    19.9271     7.8997    83.7944     0.0153     0.1655     2.3588
  399.0000   -47.3024    14.7985    14.5021    18.8568     7.9015    82.6140     0.0230     0.1509     2.3945
  399.5000   -47.4539    14.3028    14.0108    18.0922     7.9033    80.3905     0.0306     0.1273     2.4085
  400.0000   -47.4553    13.9625    13.6298    17.4790     7.9046    78.0179     0.0322     0.1311     2.4319
  400.5000   -47.6065    13.3534    13.2307    17.6014     7.9000    79.3728     0.0273     0.1377     2.4227
  401.0000   -47.7576    12.8931    12.8099    17.8475     7.8957    80.1297     0.0230     0.1426     2.4175
  401.5000   -47.9088    12.8026    12.6348    17.7140     7.8914    81.1847     0.0205     0.1468     2.4110
  402.0000   -47.9102    12.6252    12.4624    17.2438     7.8871    81.7925     0.0206     0.1486     2.4021
  402.5000   -47.9117    12.4503    12.3772    16.8911     7.8828    82.4004     0.0266     0.1473     2.4074
  403.0000   -47.9135    12.3625    12.2930    16.7759     7.8786    82.8592     0.0312     0.1434     2.4247
  403.5000   -48.0646    12.2757    12.2938    16.5471     7.8743    82.8709     0.0328     0.1257     2.4444
  404.0000   -48.0661    12.1896    12.2948    16.3391     7.8700    81.9885     0.0313     0.1317     2.4241
  404.5000   -48.2172    12.1040    12.2110    16.1228     7.8657    80.6589     0.0314     0.1209     2.4422
  405.0000   -48.2187    11.9363    12.0991    15.9066     7.8614    81.8629     0.0270     0.1161     2.4634
  405.5000   -48.5195    11.9347    11.9686    15.6904     7.8600    86.2564     0.0271     0.1140     2.4694
  406.0000   -48.6707    11.9332    11.8382    15.4348     7.8613    87.6990     0.0271     0.1172     2.4507
  406.5000   -48.9945    11.8490    11.7077    15.5280     7.8626    86.6700     0.0287     0.1148     2.4650
  407.0000   -49.2727    11.9300    11.5773    15.6346     7.8642    83.7011     0.0333     0.1064     2.4731
  407.5000   -49.5736    11.9280    11.4468    15.3126     7.8656    80.8812     0.0394     0.0932     2.4928
  408.0000   -49.8744    12.0091    11.3445    15.1015     7.8818    83.5755     0.0439     0.0859     2.5134
  408.5000   -50.3250    12.0075    11.3445    14.9965     7.8831    86.7140     0.0409     0.0931     2.5029
  409.0000   -50.4761    12.0059    11.3445    14.9952     7.8844    85.0864     0.0351     0.1051     2.4842
  409.5000   -50.4775    12.0043    11.3445    14.9942     7.8708    87.0384     0.0337     0.1087     2.4692
  410.0000   -50.4790    12.0859    11.3445    14.9932     7.8722    88.2424     0.0292     0.1006     2.5001
  410.5000   -50.4808    12.2524    11.3445    15.0962     7.8735    89.1454     0.0263     0.1078     2.4678
