~VERSION INFORMATION
 VERS.                2.0:   CWLS LOG ASCII STANDARD - VERSION 2.0
 WRAP.                 NO:   ONE LINE PER DEPTH STEP
~WELL INFORMATION
#MNEM.UNIT      DATA TYPE    INFORMATION
#----------   ------------   ------------------------------
 STRT.F            0.0000:   START DEPTH
 STOP.F         1110.0000:   STOP DEPTH
 STEP.F            0.5000:   STEP LENGTH
 NULL.          -999.2500:   NO VALUE
 COMP. FENIX & SCISSON INC:   COMPANY
 WELL. NAVAL PETROLEUM RESERVE 3 SX-1 #63-14:   WELL
 FLD .       TEA POT DOME:   FIELD
 LOC .      S14 T38N R78W:   LOCATION
 CNTY.            NATRONA:   COUNTY
 STAT.            WYOMING:   STATE
 CTRY. UNITED STATES OF AMERICA:   COUNTRY
 SRVC.            Unknown:   SERVICE COMPANY
 DATE.        15-APR-1978:   LOGDATE
 API .       490251061500:   API NUMBER
~CURVE INFORMATION
#MNEM.UNIT       API CODE    CURVE DESCRIPTION
#----------   ------------   ------------------------------
 DEPT.F                  :   
 NPHI.DEC    42 890 03 00:   NEUTRON POROSITY SANDSTONE
 GRD .GAPI   45 310 01 00:   GAMMA RAY FROM DENSITY LOG
 CALD.IN     45 280 60 00:   CALIPER FROM DENSITY LOG
 RHOB.G/C3   45 350 01 00:   BULK DENSITY
 DPHI.DEC    45 890 12 00:   DENSITY POROSITY SANDSTONE
 CORR.G/C3   45 356 01 00:   DENSITY CORRECTION
 SPR .MV     05 010 01 00:   SPONTANEOUS POTENTIAL FROM RES.
 SN  .OHMM   05 040 16 00:   SHORT NORMAL 16"
 ILD .OHMM   05 120 46 00:   INDUCTION LOG DEEP
~PARAMETER INFORMATION
#MNEM.UNIT          VALUE    DESCRIPTION
#----------   ------------   ------------------------------
 PD  .                 GL:   PERMANENT DATUM
 EPD .F              5253:   ELEVATION PERMANENT DATUM
 LMF .                 KB:   LOG MEASURED FROM
 DAPD.F                 4:   FEET ABOVE PERMANENT DATUM
 DMF .                 KB:   DRILLING MEASURED FROM
 EKB .F              5257:   KELLING BUSHING
 EGL .F              5253:   GROUND LEVEL
 DATE.          4-15-1978:   RUN DATE
 RUN .                  1:   RUN NUMBER
 DD  .F              1095:   DEPTH DRILLER
 DL  .F              1102:   DEPTH LOGGER
 BLI .F              1100:   BOTTOM LOG INTERVAL
 TLI .F               850:   TOP LOG INTERVAL
 CS  .IN            9.625:   CASING SIZE
 CBD .F                40:   CASING BOTTOM DRILLER
 CBL .F                40:   CASING BOTTOM LOGGER
 BS  .IN            7.875:   BIT SIZE
 BSD .F              1095:   BIT SIZE AT DEPTH
 DFT .                KCL:   DRILLING FLUID TYPE
 DFD .                8.6:   DRILLING FLUID DENSITY
 DFV .                 30:   DRILLING FLUID VISCOSITY
 DFPH.                 10:   DRILLING FLUID PH
 DFL .                  8:   DRILLING FLUID LOSS
 MSS .           FLOWLINE:   MUD SAMPLE SOURCE
 RMS .OHMM            .46:   RESISTIVITY MUD SAMPLE
 MST .F                58:   MUD SAMPLE TEMPERATURE
 RMF .OHMM             .5:   RESISTIVITY MUD FILTRATE SAMPLE
 MFST.F                60:   MUD FILTRATE SAMPLE TEMPERATURE
 RMC .OHMM             .5:   RESISTIVITY MUD CAKE
 MCST.F                60:   MUD CAKE SAMPLE TEMPERATURE
 MFSS.           MEASURED:   MUD FILTRATE SAMPLE SOURCE
 RMB .OHMM            .33:   RESISTIVITY MUD AT BHT
 BHT .F                80:   BOTTOM HOLE TEMPERATURE
 TCS .HRS               6:   TIME CURCULATED STOPPED
 MRT .F                80:   MAXIMUM RECORDED TEMPERATURE
 LUN .               2958:   LOGGING UNIT NUMBER
 LUL .               CASP:   LOGGING UNIT LOCATION
 ENGI.             MILLER:   RECORDING ENGINEER
 WITN.           MCGINLEY:   WITNESSED BY
 CLNT.            A2DTECH:   CLIENT CODE
 ORIG.      2" & 5" PRINT:   ORIGIN OF DATA
 UWI .       490251061500:   UNIQUE WELL ID
 DICO. A2D Technologies, Inc.:   DIGITIZING COMPANY
~OTHER INFORMATION
~A    DEPT    NPHI         GRD      CALD       RHOB       DPHI       CORR        SPR         SN        ILD   
# ...
  803.0000  -999.2500   100.3468     8.1735     2.4979     0.0869     0.1303   -51.5968     6.7163     5.9335
  803.5000  -999.2500   100.7963     8.0136     2.5013     0.0816     0.1444   -51.5968     6.6475     5.8519
  804.0000  -999.2500   101.2725     7.8011     2.4852     0.0920     0.1588   -51.5968     6.5794     5.7715
  804.5000  -999.2500   101.7702     7.5980     2.4726     0.1006     0.1480   -51.5968     6.5120     5.6922
  805.0000  -999.2500   100.8872     7.4584     2.4777     0.1044     0.1328   -51.5967     6.4453     5.6139
  805.5000  -999.2500    99.7878     7.3231     2.4975     0.0886     0.1293   -51.5968     6.3794     5.5368
  806.0000  -999.2500    99.2570     7.2580     2.5094     0.0772     0.1247   -51.5966     6.3141     5.4607
  806.5000  -999.2500    99.9328     7.3334     2.4501     0.1063     0.1100   -51.6489     6.2495     5.3856
  807.0000  -999.2500   100.5642     7.4328     2.4303     0.1238     0.0828   -51.7479     6.1806     5.3116
  807.5000  -999.2500   100.0766     7.5361     2.4140     0.1308     0.0532   -51.8470     5.9832     5.2386
  808.0000  -999.2500    97.0479     7.5880     2.3975     0.1378     0.0505   -51.9462     5.7768     5.1666
  808.5000  -999.2500    96.8394     7.6380     2.3872     0.1447     0.0521   -52.0453     5.5248     5.0937
  809.0000  -999.2500    98.0474     7.6876     2.3886     0.1460     0.0560   -52.1445     5.2449     4.9128
  809.5000  -999.2500    99.2654     7.7860     2.3896     0.1431     0.0647   -52.2436     4.9792     4.6853
  810.0000  -999.2500   100.2448     7.8954     2.3824     0.1429     0.0733   -52.3425     4.7270     4.4176
  810.5000  -999.2500   100.2085     7.9802     2.3744     0.1523     0.0818   -52.3955     4.4875     4.0631
  811.0000  -999.2500   101.1774     8.0305     2.3565     0.1617     0.0879   -52.3952     4.2133     3.6523
  811.5000  -999.2500   102.6466     8.0502     2.3387     0.1711     0.0908   -52.3954     3.8254     3.2681
  812.0000  -999.2500   103.6295     8.0201     2.3208     0.1801     0.0938   -52.3955     3.4731     2.9244
  812.5000  -999.2500   101.8369     7.9456     2.3030     0.1882     0.0967   -52.3986     3.1534     2.6169
  813.0000  -999.2500    98.0528     7.8728     2.2844     0.1965     0.0997   -52.2516     2.8630     2.3625
  813.5000  -999.2500    92.2280     7.8890     2.2765     0.2047     0.1026   -52.0611     2.5994     2.2442
  814.0000  -999.2500    89.4068     7.9832     2.2907     0.2085     0.1056   -51.8726     2.3651     2.2743
  814.5000  -999.2500    89.8340     8.0775     2.3299     0.1822     0.1085   -51.5071     2.2440     2.3338
  815.0000  -999.2500    93.3563     8.1591     2.3684     0.1626     0.1097   -51.0390     2.3069     2.3941
  815.5000  -999.2500    98.7901     8.2159     2.3733     0.1548     0.1105   -50.6058     2.4152     2.4562
  816.0000  -999.2500   101.9971     8.2728     2.3935     0.1557     0.1026   -50.5962     2.5978     2.5063
  816.5000  -999.2500   103.8408     8.3046     2.4399     0.1300     0.0995   -50.5983     2.9010     2.7732
  817.0000  -999.2500   104.9911     8.2328     2.4782     0.1047     0.1071   -50.5988     3.2411     3.0648
  817.5000  -999.2500   108.7941     8.0956     2.4871     0.0960     0.1235   -50.5988     3.6208     3.3875
  818.0000  -999.2500   109.8807     7.8687     2.4888     0.0903     0.1400   -50.5988     4.0448     3.7437
  818.5000  -999.2500   106.5512     7.7209     2.4867     0.0917     0.1544   -50.5988     4.5184     4.1417
  819.0000  -999.2500   102.3416     7.6044     2.4338     0.1163     0.1476   -50.5988     4.8058     4.4391
  819.5000  -999.2500    98.6706     7.5387     2.4195     0.1296     0.1172   -50.5988     4.8667     4.4956
  820.0000  -999.2500    97.5763     7.5539     2.4074     0.1324     0.0806   -50.5989     4.9284     4.5607
  820.5000  -999.2500    97.4197     7.5330     2.4019     0.1354     0.0698   -50.5998     4.9909     4.4647
  821.0000  -999.2500    97.3767     7.4847     2.3948     0.1384     0.0652   -50.5985     5.0542     4.3388
  821.5000  -999.2500   100.2823     7.4360     2.3703     0.1549     0.0605   -50.5265     5.0937     4.2165
  822.0000  -999.2500   104.5119     7.3875     2.3503     0.1670     0.0520   -50.2024     4.8893     4.1213
  822.5000  -999.2500   108.7253     7.3387     2.3560     0.1637     0.0516   -49.8894     4.7465     4.1213
  823.0000  -999.2500   111.5013     7.3202     2.3717     0.1584     0.0590   -49.5759     4.6080     4.1212
  823.5000  -999.2500   108.6592     7.3246     2.3758     0.1542     0.0639   -49.2635     4.4734     4.1317
  824.0000  -999.2500   105.9465     7.0415     2.3792     0.1507     0.0604   -48.9963     4.3428     4.1418
  824.5000  -999.2500   103.2484     6.7011     2.3972     0.1437     0.0625   -49.0135     4.2759     4.1572
  825.0000  -999.2500   100.7517     6.5515     2.4105     0.1362     0.0708   -49.0253     4.4947     4.1566
  825.5000  -999.2500    99.3799     6.6104     2.4116     0.1366     0.0757   -49.0362     4.6491     4.3532
  826.0000  -999.2500   101.5359     6.7270     2.4132     0.1341     0.0679   -49.0470     4.8198     4.5082
  826.5000  -999.2500   107.6152     6.9437     2.4322     0.1259     0.0645   -49.0578     5.0207     4.6693
  827.0000  -999.2500   110.6874     7.2258     2.4528     0.1176     0.0707   -49.0686     5.2454     4.8360
  827.5000  -999.2500   110.1929     7.8316     2.4661     0.1092     0.0746   -49.0794     5.4801     5.0088
  828.0000  -999.2500   106.7530     8.0642     2.4655     0.1092     0.0746   -49.0902     5.7252     5.1876
  828.5000  -999.2500   105.2341     8.1392     2.4652     0.1094     0.0746   -49.1010     5.9814     5.3729
  829.0000  -999.2500   105.1903     8.0485     2.4662     0.1096     0.0754   -49.1118     6.2490     5.5648
  829.5000  -999.2500   105.2189     7.9576     2.4788     0.1011     0.0834   -49.1226     6.3518     5.6915
  830.0000  -999.2500   105.3485     7.8664     2.4955     0.0884     0.1068   -49.1334     6.4421     5.6880
  830.5000  -999.2500   105.7394     7.7854     2.4999     0.0816     0.1300   -49.1442     6.5008     5.6362
  831.0000  -999.2500   107.5748     7.7146     2.4777     0.0964     0.1470   -49.1550     6.5448     5.5944
  831.5000  -999.2500   109.8719     7.6568     2.4504     0.1068     0.1365   -49.1659     6.5922     5.5530
  832.0000  -999.2500   109.8813     7.6107     2.4433     0.1143     0.1147   -49.1769     6.5642     5.5119
  832.5000  -999.2500   110.0800     7.5782     2.4352     0.1225     0.0934   -49.1868     6.5336     5.4711
  833.0000  -999.2500   111.5809     7.5102     2.4133     0.1308     0.0909   -49.2033     6.5031     5.4307
  833.5000  -999.2500   111.3935     7.3645     2.4003     0.1392     0.0889   -48.9327     6.4719     5.3905
  834.0000  -999.2500   108.0381     7.2197     2.4005     0.1376     0.0916   -48.5579     6.3706     5.3506
  834.5000  -999.2500   105.1500     7.0753     2.4045     0.1349     0.0941   -48.1744     6.2423     5.3110
  835.0000  -999.2500   104.7652     6.9561     2.4052     0.1321     0.0967   -48.0068     6.1166     5.2717
  835.5000  -999.2500   107.6611     6.9409     2.4010     0.1338     0.0974   -48.0036     5.9934     5.2327
  836.0000  -999.2500   112.1163     7.0551     2.3979     0.1364     0.0881   -48.0037     5.8569     5.1940
  836.5000  -999.2500   114.8361     7.1898     2.3983     0.1388     0.0685   -48.0040     5.6771     5.0712
  837.0000  -999.2500   110.6773     7.3205     2.3986     0.1395     0.0621   -48.0040     5.5027     4.8905
  837.5000  -999.2500   104.8927     7.4813     2.3978     0.1391     0.0609   -48.0040     5.3337     4.6669
  838.0000  -999.2500   102.9170     7.6554     2.3929     0.1419     0.0606   -48.0040     5.1699     4.4536
  838.5000  -999.2500   103.3185     7.8502     2.3928     0.1485     0.0605   -48.0040     5.0111     4.2500
  839.0000  -999.2500   108.4767     7.9809     2.4027     0.1367     0.0606   -48.0040     4.8572     4.1979
