~VERSION INFORMATION
 VERS.                2.0:   CWLS LOG ASCII STANDARD - VERSION 2.0
 WRAP.                 NO:   ONE LINE PER DEPTH STEP
~WELL INFORMATION
#MNEM.UNIT      DATA TYPE    INFORMATION
#----------   ------------   ------------------------------
 STRT.F           34.0000:   START DEPTH
 STOP.F          662.0000:   STOP DEPTH
 STEP.F            0.5000:   STEP LENGTH
 NULL.          -999.2500:   NO VALUE
 COMP. FENIX & SCISSON INC:   COMPANY
 WELL.     55 S 34 #34-34:   WELL
 FLD .          N.P.R. #3:   FIELD
 LOC .      S34 T39N R78W:   LOCATION
 CNTY.            NATRONA:   COUNTY
 STAT.            WYOMING:   STATE
 CTRY. UNITED STATES OF AMERICA:   COUNTRY
 SRVC.       Schlumberger:   SERVICE COMPANY
 DATE.        15-MAR-1977:   LOGDATE
 API .       490251030500:   API NUMBER
~CURVE INFORMATION
#MNEM.UNIT       API CODE    CURVE DESCRIPTION
#----------   ------------   ------------------------------
 DEPT.F                  :   
 GRD .GAPI   45 310 01 00:   GAMMA RAY FROM DENSITY LOG
 CORR.G/C3   45 356 01 00:   DENSITY CORRECTION
 RHOB.G/C3   45 350 01 00:   BULK DENSITY
 DPOR.DEC    45 890 12 00:   DENSITY POROSITY SANDSTONE
 SPR .MV     07 010 01 00:   SPONTANEOUS POTENTIAL
 LL8 .OHMM   07 220 08 00:   LATEROLOG-8 RES.
 ILD .OHMM   07 120 46 00:   INDUCTION LOG DEEP
 ILM .OHMM   07 120 44 00:   INDUCTION LOG MEDIUM
 CALD.IN     45 280 60 00:   CALIPER
~PARAMETER INFORMATION
#MNEM.UNIT          VALUE    DESCRIPTION
#----------   ------------   ------------------------------
 PD  .                 GL:   PERMANENT DATUM
 EPD .F              5087:   ELEVATION PERMANENT DATUM
 LMF .                 GL:   LOG MEASURED FROM
 DMF .                 GL:   DRILLING MEASURED FROM
 EKB .F              5091:   KELLING BUSHING
 EGL .F              5087:   GROUND LEVEL
 DATE.            3-15-77:   RUN DATE
 RUN .                  1:   RUN NUMBER
 DD  .F               670:   DEPTH DRILLER
 DL  .F               663:   DEPTH LOGGER
 BLI .F               657:   BOTTOM LOG INTERVAL
 TLI .F                40:   TOP LOG INTERVAL
 CS  .IN            8.625:   CASING SIZE
 CBD .F                40:   CASING BOTTOM DRILLER
 CBL .F                40:   CASING BOTTOM LOGGER
 BS  .IN            7.875:   BIT SIZE
 BSD .F               670:   BIT SIZE AT DEPTH
 DFT .                KCL:   DRILLING FLUID TYPE
 DFD .                8.6:   DRILLING FLUID DENSITY
 DFV .                 31:   DRILLING FLUID VISCOSITY
 DFPH.                  8:   DRILLING FLUID PH
 DFL .                8.8:   DRILLING FLUID LOSS
 MSS .                PIT:   MUD SAMPLE SOURCE
 RMS .OHMM           .246:   RESISTIVITY MUD SAMPLE
 MST .F                76:   MUD SAMPLE TEMPERATURE
 RMF .OHMM           .243:   RESISTIVITY MUD FILTRATE SAMPLE
 MFST.F                76:   MUD FILTRATE SAMPLE TEMPERATURE
 MFSS.                  M:   MUD FILTRATE SAMPLE SOURCE
 RMB .OHMM           .267:   RESISTIVITY MUD AT BHT
 BHT .F                70:   BOTTOM HOLE TEMPERATURE
 TCS .HRS            1800:   TIME CURCULATED STOPPED
 TLAB.HRS            2200:   TIME LOGGER AT BOTTOM
 MRT .F                70:   MAXIMUM RECORDED TEMPERATURE
 LUN .               5642:   LOGGING UNIT NUMBER
 LUL .               CSPR:   LOGGING UNIT LOCATION
 ENGI.             MARTIN:   RECORDING ENGINEER
 WITN.              BURKE:   WITNESSED BY
 CLNT.            A2DTECH:   CLIENT CODE
 ORIG. 2", 2.5", 5" PRINT:   ORIGIN OF DATA
 UWI .       490251030500:   UNIQUE WELL ID
 DICO. A2D Technologies, Inc.:   DIGITIZING COMPANY
~OTHER INFORMATION
~A   DEPT       GRD      CORR       RHOB       DPOR        SPR        LL8        ILD        ILM       CALD   
# ...
  143.5000    89.6997     0.0214     2.3602     0.1698   -43.4030    14.1015    12.8125    13.3883     8.3285
  144.0000    88.6827     0.0081     2.3709     0.1751   -43.7933    13.9319    12.6702    13.2396     8.3123
  144.5000    89.2805     0.0235     2.3904     0.1597   -44.1837    13.7169    12.5295    13.0926     8.2965
  145.0000    91.1462     0.0380     2.4057     0.1455   -44.5740    13.5051    12.3904    12.9472     8.3000
  145.5000    93.2143     0.0181     2.3957     0.1543   -44.9642    13.2967    12.2588    12.8375     8.3050
  146.0000    95.1084     0.0034     2.3810     0.1627   -45.3541    13.0915    12.1864    12.7381     8.3100
  146.5000    96.8623     0.0047     2.3856     0.1569   -45.7940    12.8375    12.0772    12.6230     8.3149
  147.0000    98.7534     0.0147     2.3956     0.1511   -46.5141    12.7197    11.9662    12.5116     8.3199
  147.5000   100.5923     0.0121     2.4057     0.1543   -47.2402    12.8764    11.4303    12.1429     8.3248
  148.0000   104.1367     0.0210     2.4223     0.1403   -48.3287    13.0726    10.6743    11.7323     8.3297
  148.5000   109.7430     0.0034     2.4289     0.1335   -49.5838    13.3197     9.9682    11.2479     8.3347
  149.0000   114.9865     0.0081     2.4349     0.1363   -50.8472    12.1685     9.3089    10.3153     8.3396
  149.5000   118.5216     0.0155     2.4488     0.1270   -52.1833    10.8072     8.6932     9.4600     8.3445
  150.0000   120.5081     0.0063     2.4577     0.1247   -53.5297     9.5981     8.1182     8.6757     8.3495
  150.5000   119.8516    -0.0028     2.4531     0.1264   -54.8802     8.5244     7.5812     7.9564     8.3546
  151.0000   118.5214    -0.0079     2.4443     0.1280   -55.8125     7.8038     7.0514     7.3681     8.3542
  151.5000   116.2955     0.0031     2.4362     0.1295   -56.4190     7.6613     6.9457     7.2535     8.3511
  152.0000   113.8815    -0.0042     2.4346     0.1322   -57.0139     7.5873     6.8393     7.1407     8.3479
  152.5000   112.0579    -0.0083     2.4389     0.1295   -57.6082     7.7326     6.7331     7.0514     8.3448
  153.0000   111.2253    -0.0007     2.4472     0.1243   -57.8819     7.8669     6.7759     7.1068     8.3416
  153.5000   113.4225     0.0050     2.4520     0.1231   -58.0957     8.0963     6.8295     7.1627     8.3384
  154.0000   113.3229    -0.0142     2.4350     0.1327   -58.3101     8.3318     6.8834     7.2191     8.3352
  154.5000   112.5506    -0.0003     2.4180     0.1403   -58.5245     8.5730     6.9229     7.2491     8.3321
  155.0000   112.2103    -0.0065     2.4165     0.1368   -58.6788     8.8838     6.9226     7.2389     8.3289
  155.5000   112.5090     0.0033     2.4344     0.1321   -58.5097     8.4997     6.9015     7.2241     8.3258
  156.0000   112.5885     0.0184     2.4487     0.1279   -58.3467     7.8013     6.8874     7.2094     8.3226
  156.5000   112.7793     0.0104     2.4469     0.1252   -58.1858     7.3807     6.8733     7.1945     8.3194
  157.0000   112.9702     0.0154     2.4569     0.1229   -58.1527     7.6393     6.8588     7.1825     8.3162
  157.5000   113.1075     0.0011     2.4575     0.1229   -58.2630     7.8405     6.9014     7.2377     8.3167
  158.0000   112.0621     0.0089     2.4679     0.1160   -58.3728     8.0472     6.9555     7.2949     8.3176
  158.5000   110.9502     0.0201     2.4784     0.1142   -58.4831     8.2586     7.0103     7.3523     8.3184
  159.0000   109.8341     0.0148     2.4734     0.1158   -58.5923     8.4756     7.0655     7.4101     8.3192
  159.5000   108.9537     0.0131     2.4788     0.1160   -58.7055     8.7166     7.1210     7.4684     8.3201
  160.0000   109.6062     0.0156     2.4575     0.1162   -58.9295     8.8788     7.1825     7.5213     8.3209
  160.5000   110.4524     0.0019     2.4434     0.1180   -59.1539     8.9610     7.1654     7.4964     8.3217
  161.0000   111.1121     0.0044     2.4380     0.1190   -59.3774     8.7690     7.1319     7.4613     8.3225
  161.5000   109.3088     0.0102     2.4458     0.1184   -59.6009     8.5653     7.0983     7.4263     8.3234
  162.0000   107.4557     0.0046     2.4378     0.1192   -59.8243     8.3663     7.0650     7.3914     8.3242
  162.5000   105.8881    -0.0028     2.4306     0.1202   -60.0478     8.1717     7.0319     7.3568     8.3251
  163.0000   106.7649     0.0046     2.4452     0.1188   -60.2719     7.9810     6.9989     7.3223     8.3259
  163.5000   107.2831     0.0139     2.4477     0.1167   -60.4938     7.8743     6.9108     7.2265     8.3267
  164.0000   107.0877     0.0075     2.4486     0.1145   -60.7086     7.8770     6.8610     7.1739     8.3275
  164.5000   107.8139    -0.0001     2.4558     0.1134   -60.4046     8.0523     6.8115     7.1226     8.3284
  165.0000   110.4404    -0.0046     2.4537     0.1158   -60.1199     8.0969     6.7625     7.0713     8.3292
  165.5000   112.7202     0.0067     2.4546     0.1052   -59.8226     7.9671     6.7137     7.0199     8.3300
  166.0000   111.9950     0.0246     2.4792     0.0966   -59.5291     7.8761     6.6715     6.9862     8.3309
  166.5000   111.1234     0.0034     2.4739     0.0998   -59.3048     7.8761     6.7321     7.0726     8.3317
  167.0000   110.2401     0.0242     2.4862     0.0926   -59.3659     8.2634     6.8442     7.1902     8.3325
  167.5000   109.5762     0.0171     2.4717     0.1019   -59.4199     8.6129     6.9577     7.3095     8.3334
  168.0000   110.1225     0.0036     2.4564     0.1107   -59.4744     9.0420     7.0732     7.4307     8.3342
  168.5000   111.0147     0.0126     2.4598     0.1078   -59.3204     8.7269     7.1374     7.4922     8.3350
  169.0000   111.1253     0.0239     2.4420     0.1156   -58.9732     8.3605     7.2262     7.5855     8.3358
  169.5000   110.2680     0.0132     2.4492     0.1180   -58.7012     8.1719     7.3162     7.6799     8.3403
  170.0000   110.5690     0.0045     2.4499     0.1158   -58.5337     8.2857     7.4073     7.7755     8.3467
  170.5000   112.3975     0.0107     2.4455     0.1173   -58.7489     8.6845     7.4995     7.8723     8.3532
  171.0000   113.7366     0.0159     2.4444     0.1187   -58.9383     9.1025     7.5929     7.9703     8.3598
  171.5000   112.5527     0.0115     2.4493     0.1164   -59.0934     9.4705     7.6882     8.0695     8.3663
  172.0000   111.1042     0.0073     2.4406     0.1178   -59.2456     9.3675     7.7830     8.1719     8.3728
  172.5000   111.3578    -0.0071     2.4320     0.1221   -59.3981     9.2811     7.8897     8.2761     8.3793
  173.0000   110.9148     0.0021     2.4299     0.1235   -59.5528     9.2128     7.9596     8.3494     8.3858
  173.5000   109.6737     0.0114     2.4471     0.1169   -59.6882     9.3895     8.0300     8.4233     8.3923
  174.0000   107.6820     0.0191     2.4608     0.1085   -59.4278     9.5379     8.0969     8.4788     8.3954
  174.5000   105.6902     0.0120     2.4742     0.1042   -59.1544     9.6891     8.0843     8.4617     8.3896
  175.0000   104.8710     0.0105     2.4760     0.1035   -58.8867     9.8279     8.0654     8.4419     8.3839
  175.5000   106.9364     0.0183     2.4762     0.0982   -58.6679     9.6503     8.0465     8.4222     8.3783
  176.0000   108.9612     0.0216     2.4678     0.1037   -58.5765     9.1167     8.0278     8.4011     8.3727
  176.5000   110.8926     0.0157     2.4672     0.1102   -58.5356     8.8788     7.9773     8.3249     8.3671
  177.0000   112.2888     0.0244     2.4752     0.1044   -58.7670     8.7973     7.8502     8.1879     8.3615
  177.5000   113.2963     0.0302     2.4817     0.0942   -58.8503     8.9198     7.7248     8.0532     8.3559
  178.0000   113.0538     0.0096     2.4790     0.1046   -58.7304     8.9610     7.6015     7.9206     8.3503
  178.5000   113.1983     0.0058     2.4728     0.1030   -58.6121     8.4363     7.4802     7.7903     8.3447
  179.0000   113.6640     0.0098     2.4624     0.1073   -58.4928     8.1719     7.3609     7.6621     8.3390
  179.5000   113.0623     0.0013     2.4553     0.1122   -58.3763     8.0230     7.2434     7.5213     8.3334
