~VERSION INFORMATION
 VERS.                2.0:   CWLS LOG ASCII STANDARD - VERSION 2.0
 WRAP.                 NO:   ONE LINE PER DEPTH STEP
~WELL INFORMATION
#MNEM.UNIT      DATA TYPE    INFORMATION
#----------   ------------   ------------------------------
 STRT.F           16.0000:   START DEPTH
 STOP.F          716.0000:   STOP DEPTH
 STEP.F            0.5000:   STEP LENGTH
 NULL.          -999.2500:   NO VALUE
 COMP. BROWN JOHN E&C INC:   COMPANY
 WELL.   STX 10 #24-51-10:   WELL
 FLD .             NPR #3:   FIELD
 LOC .      S10 T38N R78W:   LOCATION
 CNTY.            NATRONA:   COUNTY
 STAT.            WYOMING:   STATE
 CTRY. UNITED STATES OF AMERICA:   COUNTRY
 SRVC.           Gearhart:   SERVICE COMPANY
 DATE.        01-JUL-1986:   LOGDATE
 API .       490251107800:   API NUMBER
~CURVE INFORMATION
#MNEM.UNIT       API CODE    CURVE DESCRIPTION
#----------   ------------   ------------------------------
 DEPT.F                  :   
 GRR .GAPI   07 310 01 00:   GAMMA RAY
 RILD.OHMM   07 120 46 00:   INDUCTION LOG DEEP RESISTIVITY
 RILM.OHMM   07 120 44 00:   INDUCTION LOG MEDIUM RESISTIVITY
~PARAMETER INFORMATION
#MNEM.UNIT          VALUE    DESCRIPTION
#----------   ------------   ------------------------------
 PD  .                 GL:   PERMANENT DATUM
 EPD .F              5235:   ELEVATION PERMANENT DATUM
 LMF .                 KB:   LOG MEASURED FROM
 DAPD.F               5.0:   FEET ABOVE PERMANENT DATUM
 DMF .                 KB:   DRILLING MEASURED FROM
 EKB .F              5240:   KELLING BUSHING
 EGL .F              5235:   GROUND LEVEL
 DATE.        01-JUL-1986:   RUN DATE
 RUN .                  1:   RUN NUMBER
 DD  .F               728:   DEPTH DRILLER
 DL  .F               726:   DEPTH LOGGER
 BLI .F               716:   BOTTOM LOG INTERVAL
 TLI .F                15:   TOP LOG INTERVAL
 CS  .IN            8.625:   CASING SIZE
 CBD .F                47:   CASING BOTTOM DRILLER
 CBL .F                47:   CASING BOTTOM LOGGER
 BS  .IN            7.875:   BIT SIZE
 BSD .F               728:   BIT SIZE AT DEPTH
 DFT .               FOAM:   DRILLING FLUID TYPE
 TCS .HRS            0800:   TIME CURCULATED STOPPED
 TLAB.HRS            0930:   TIME LOGGER AT BOTTOM
 MRT .F                85:   MAXIMUM RECORDED TEMPERATURE
 LUN .               7609:   LOGGING UNIT NUMBER
 LUL .           GILLETTE:   LOGGING UNIT LOCATION
 ENGI.              BAUER:   RECORDING ENGINEER
 WITN.              FIVAS:   WITNESSED BY
 CLNT.            A2DTECH:   CLIENT CODE
 ORIG.           5" PRINT:   ORIGIN OF DATA
 UWI .       490251107800:   UNIQUE WELL ID
 DICO. A2D Technologies, Inc.:   DIGITIZING COMPANY
~OTHER INFORMATION
~A   DEPT       GRR      RILD       RILM   
# ...
  471.0000    80.9208    16.4470    16.7737
  471.5000    81.2288    16.3377    16.6574
  472.0000    83.3659    16.2293    16.5421
  472.5000    86.4177    16.2363    16.4276
  473.0000    89.1646    16.1271    16.4290
  473.5000    87.9149    16.1341    16.3150
  474.0000    84.2195    16.2532    16.3164
  474.5000    81.1716    16.2588    16.4324
  475.0000    79.7255    16.2645    16.4336
  475.5000    79.7293    16.3846    16.4347
  476.0000    80.3420    16.5056    16.5515
  476.5000    80.9548    16.6274    16.5527
  477.0000    80.9578    16.6332    16.6704
  477.5000    80.9608    16.6390    16.6715
  478.0000    80.6582    16.7618    16.7900
  478.5000    81.2717    16.7676    16.7912
  479.0000    83.7138    16.7735    16.7924
  479.5000    87.0705    16.7793    16.7935
  480.0000    86.4637    16.6679    16.7791
  480.5000    84.0277    16.5450    16.6785
  481.0000    83.7251    16.3324    16.4472
  481.5000    86.4728    16.2239    16.3334
  482.0000    87.9994    16.1176    16.3348
  482.5000    85.5642    16.0092    16.1084
  483.0000    84.6524    15.7931    15.9966
  483.5000    84.6556    15.6869    15.8859
  484.0000    84.6748    15.4739    15.7759
  484.5000    84.3567    15.3712    15.6667
  485.0000    84.6646    15.2704    15.5583
  485.5000    85.6058    15.2757    15.5597
  486.0000    88.1339    15.1743    15.4517
  486.5000    89.5517    15.1795    15.4530
  487.0000    84.6774    15.1848    15.4541
  487.5000    79.8024    15.1901    15.4552
  488.0000    79.4998    15.3022    15.5650
  488.5000    80.4182    15.3075    15.4573
  489.0000    84.3846    15.3129    15.4584
  489.5000    88.9608    15.3182    15.4595
  490.0000    89.8777    15.3235    15.3525
  490.5000    87.1376    15.3288    15.3535
  491.0000    85.0064    15.2270    15.2473
  491.5000    83.4851    15.1259    15.1417
  492.0000    83.1824    15.0255    15.1430
  492.5000    84.7106    15.0308    15.0380
  493.0000    88.3722    15.0360    15.0393
  493.5000    91.1191    14.9361    14.9349
  494.0000    87.4636    14.8369    14.8318
  494.5000    83.1983    14.7384    14.7289
  495.0000    81.0671    14.6418    14.7302
  495.5000    82.2897    14.6468    14.6280
  496.0000    82.9063    14.5483    14.6292
  496.5000    81.3720    14.4517    14.5277
  497.0000    79.8597    14.3558    14.4272
  497.5000    79.8628    14.2604    14.3273
  498.0000    81.4878    14.2666    14.2284
  498.5000    82.6134    14.1707    14.1299
  499.0000    81.3969    14.1768    14.0321
  499.5000    81.0943    14.0814    13.9350
  500.0000    82.1876    13.9640    13.9360
  500.5000    84.4548    13.8194    13.9794
  501.0000    85.0676    13.6748    14.0227
  501.5000    83.8512    13.5302    13.9453
  502.0000    80.8054    13.3856    13.7532
  502.5000    78.3695    13.1659    13.5652
  503.0000    77.4571    13.0802    13.3790
  503.5000    78.3756    13.0869    13.3632
  504.0000    80.2079    13.0017    13.2904
  504.5000    83.2597    12.8270    13.2003
  505.0000    84.5427    12.8335    13.1108
  505.5000    86.4279    12.8398    13.0219
  506.0000    88.4512    12.7564    12.9336
  506.5000    88.0517    12.7627    12.9365
  507.0000    86.5833    12.7690    12.9391
  507.5000    86.0212    12.8651    13.0330
  508.0000    88.5364    12.8715    13.0357
  508.5000    92.2553    12.8778    13.1303
  509.0000    95.8150    12.8842    13.1330
  509.5000    94.8506    12.8905    13.1358
  510.0000    94.2682    12.9876    13.1386
  510.5000    94.5762    13.1774    13.2339
  511.0000    93.0183    13.1839    13.2367
  511.5000    86.2945    13.1904    13.3327
  512.0000    81.4715    13.2898    13.3355
  512.5000    80.8689    13.2963    13.3383
  513.0000    82.3963    13.3029    13.4350
  513.5000    85.1433    13.3094    13.4379
  514.0000    83.9269    13.2213    13.3461
  514.5000    82.4055    13.1371    13.2563
  515.0000    82.4086    13.0501    13.1657
  515.5000    82.4116    12.8764    13.0764
  516.0000    83.6342    12.7912    12.9878
  516.5000    85.4665    12.5327    12.8096
  517.0000    88.2135    12.3644    12.6338
  517.5000    92.4849    12.2825    12.5481
  518.0000    97.0611    12.2027    12.4630
  518.5000    98.5885    12.2103    12.3785
  519.0000    97.6770    12.2163    12.4690
  519.5000    96.1556    12.3083    12.5594
  520.0000    96.4636    12.4882    12.6505
  520.5000    98.2959    12.8496    12.9223
  521.0000   100.1282    13.3187    13.3864
  521.5000    95.8630    14.0894    14.0630
  522.0000    86.4148    14.9094    14.9827
  522.5000    80.0154    15.7771    16.1880
  523.0000    76.0551    16.4628    17.3680
  523.5000    74.5330    17.1784    18.2459
  524.0000    75.1466    17.7237    18.9012
  524.5000    75.4538    18.4658    19.7179
  525.0000    72.4088    18.8652    20.1415
  525.5000    68.7533    18.9847    20.4304
  526.0000    67.2320    18.7297    20.4347
  526.5000    67.5399    18.2208    19.8735
  527.0000    69.0674    17.7257    18.9252
  527.5000    71.8924    17.2442    18.2768
  528.0000    75.4757    16.7757    17.6506
  528.5000    77.0315    16.4291    17.2626
  529.0000    73.6525    15.9845    16.8111
  529.5000    70.9117    15.6614    16.4645
  530.0000    70.8740    15.4527    16.3529
  530.5000    75.1861    15.3524    16.3564
  531.0000    80.0672    15.2527    16.2454
  531.5000    80.6800    15.2602    16.1353
  532.0000    80.0732    15.3751    16.1387
  532.5000    78.5520    15.3827    16.0293
  533.0000    77.0307    15.4985    15.9206
  533.5000    76.4232    15.5061    15.9239
  534.0000    76.7319    15.5138    15.8160
  534.5000    77.6496    15.5214    15.7087
  535.0000    77.6526    15.5291    15.7121
  535.5000    77.3501    15.5367    15.7154
  536.0000    77.9636    15.4354    15.8294
  536.5000    79.1862    15.4434    15.9442
  537.0000    79.1893    15.4510    15.9475
  537.5000    78.2777    15.4586    16.0632
  538.0000    78.8905    15.4663    16.1797
  538.5000    81.9423    15.4739    16.1831
  539.0000    82.5552    15.3715    16.0734
  539.5000    81.0338    15.3809    16.0768
  540.0000    78.5979    15.3885    15.9669
  540.5000    75.8570    15.2867    15.9712
  541.0000    73.4211    15.2961    15.8629
  541.5000    71.5948    15.1949    15.8662
  542.0000    71.5979    15.2042    15.7578
  542.5000    73.7351    15.2117    15.6510
  543.0000    77.7016    15.2192    15.6551
  543.5000    81.3632    15.2267    15.5482
  544.0000    81.6703    15.1260    15.5523
  544.5000    78.9303    15.1353    15.5556
  545.0000    78.0187    15.2493    15.5589
  545.5000    78.6315    15.2568    15.5618
  546.0000    80.1590    15.2643    15.5650
  546.5000    81.0767    15.1651    15.5683
  547.0000    81.6895    15.1726    15.5716
  547.5000    82.6072    15.1801    15.5750
  548.0000    82.9151    15.0796    15.5783
  548.5000    82.0035    14.9817    15.5816
  549.0000    80.7871    14.9909    15.5849
  549.5000    80.1796    15.1038    15.5882
  550.0000    80.6376    15.2157    15.6092
  550.5000    82.4308    15.1645    15.7197
  551.0000    84.2240    15.2340    15.9325
  551.5000    86.0173    15.6759    16.3904
  552.0000    87.5125    16.1307    16.9802
  552.5000    87.2106    16.5986    17.7151
  553.0000    84.1649    17.0801    18.4818
  553.5000    79.5948    17.3309    19.8303
  554.0000    76.5490    17.5854    20.8341
  554.5000    75.6367    17.3503    21.1344
  555.0000    77.4698    17.1183    20.7001
  555.5000    79.9118    16.7711    19.8525
  556.0000    80.8295    16.3168    18.9065
  556.5000    81.1375    15.8746    17.8797
  557.0000    81.1405    15.4443    17.2608
  557.5000    82.0582    14.9207    16.4232
  558.0000    84.5003    14.4149    15.4439
  558.5000    87.2472    14.0242    15.1255
  559.0000    87.5544    13.8366    14.8147
  559.5000    83.8996    13.7477    14.6123
  560.0000    81.1588    13.6593    14.4138
  560.5000    79.0277    13.5715    14.4178
  561.0000    76.5917    13.5792    14.3200
  561.5000    75.0696    13.4917    14.2239
