~VERSION INFORMATION
 VERS.                2.0:   CWLS LOG ASCII STANDARD - VERSION 2.0
 WRAP.                 NO:   ONE LINE PER DEPTH STEP
~WELL INFORMATION
#MNEM.UNIT      DATA TYPE    INFORMATION
#----------   ------------   ------------------------------
 STRT.F           30.0000:   START DEPTH
 STOP.F          744.0000:   STOP DEPTH
 STEP.F            0.5000:   STEP LENGTH
 NULL.          -999.2500:   NO VALUE
 COMP. FENIX & SCISSON INC:   COMPANY
 WELL.   NPR 3 #53 S - 34:   WELL
 FLD .             TEAPOT:   FIELD
 LOC .      S34 T39N R78W:   LOCATION
 CNTY.            NATRONA:   COUNTY
 STAT.            WYOMING:   STATE
 CTRY. UNITED STATES OF AMERICA:   COUNTRY
 SRVC.       Schlumberger:   SERVICE COMPANY
 DATE.        28-MAR-1977:   LOGDATE
 API .       490251031700:   API NUMBER
~CURVE INFORMATION
#MNEM.UNIT       API CODE    CURVE DESCRIPTION
#----------   ------------   ------------------------------
 DEPT.F                  :   
 CALD.IN     45 280 60 00:   CALIPER FROM DENSITY LOG
 GRD .GAPI   45 310 01 00:   GAMMA RAY FROM DENSITY LOG
 CORR.G/C3   45 356 01 00:   DENSITY CORRECTION
 DPHI.DEC    45 890 12 00:   DENSITY POROSITY SANDSTONE
 RHOB.G/C3   45 350 01 00:   BULK DENSITY
~PARAMETER INFORMATION
#MNEM.UNIT          VALUE    DESCRIPTION
#----------   ------------   ------------------------------
 PD  .                 GL:   PERMANENT DATUM
 EPD .F              5081:   ELEVATION PERMANENT DATUM
 LMF .                 GL:   LOG MEASURED FROM
 DAPD.F                 5:   FEET ABOVE PERMANENT DATUM
 DMF .                 KB:   DRILLING MEASURED FROM
 EKB .F              5086:   KELLING BUSHING
 EGL .F              5081:   GROUND LEVEL
 DATE.        20-MAR-1977:   RUN DATE
 RUN .                  1:   RUN NUMBER
 DD  .F               751:   DEPTH DRILLER
 DL  .F               745:   DEPTH LOGGER
 BLI .F               744:   BOTTOM LOG INTERVAL
 TLI .F                30:   TOP LOG INTERVAL
 CBL .F                38:   CASING BOTTOM LOGGER
 BS  .IN            7.875:   BIT SIZE
 BSD .F               751:   BIT SIZE AT DEPTH
 DFT .             5% KCL:   DRILLING FLUID TYPE
 MSS .           MUD TANK:   MUD SAMPLE SOURCE
 RMS .OHMM            .23:   RESISTIVITY MUD SAMPLE
 MST .F                68:   MUD SAMPLE TEMPERATURE
 RMF .OHMM            .18:   RESISTIVITY MUD FILTRATE SAMPLE
 MFST.F                68:   MUD FILTRATE SAMPLE TEMPERATURE
 RMC .OHMM            .35:   RESISTIVITY MUD CAKE
 MCST.F                68:   MUD CAKE SAMPLE TEMPERATURE
 MFSS.               MEAS:   MUD FILTRATE SAMPLE SOURCE
 MCSS.               CALC:   MUD CAKE SAMPLE SOURCE
 RMB .OHMM            .24:   RESISTIVITY MUD AT BHT
 BHT .F                60:   BOTTOM HOLE TEMPERATURE
 TCS .HRS            0300:   TIME CURCULATED STOPPED
 MRT .F                60:   MAXIMUM RECORDED TEMPERATURE
 LUN .               7680:   LOGGING UNIT NUMBER
 LUL .               CSPR:   LOGGING UNIT LOCATION
 ENGI.                FIX:   RECORDING ENGINEER
 WITN.              BURKE:   WITNESSED BY
 CLNT.            A2DTECH:   CLIENT CODE
 ORIG.           5" PRINT:   ORIGIN OF DATA
 UWI .       490251031700:   UNIQUE WELL ID
 DICO. A2D Technologies, Inc.:   DIGITIZING COMPANY
~OTHER INFORMATION
~A   DEPT     CALD        GRD       CORR       DPHI       RHOB   
   30.0000  -999.2500  -999.2500  -999.2500  -999.2500  -999.2500
   30.5000  -999.2500    73.7589  -999.2500  -999.2500  -999.2500
   31.0000  -999.2500    70.8521  -999.2500  -999.2500  -999.2500
   31.5000  -999.2500    67.7870  -999.2500  -999.2500  -999.2500
   32.0000  -999.2500    66.2587  -999.2500  -999.2500  -999.2500
   32.5000  -999.2500    73.0591  -999.2500  -999.2500  -999.2500
   33.0000  -999.2500    79.2391  -999.2500  -999.2500  -999.2500
   33.5000  -999.2500    80.8007  -999.2500  -999.2500  -999.2500
   34.0000  -999.2500    80.7643  -999.2500  -999.2500  -999.2500
   34.5000  -999.2500    78.9849  -999.2500  -999.2500  -999.2500
   35.0000  -999.2500    77.9229  -999.2500  -999.2500  -999.2500
   35.5000  -999.2500    77.0150  -999.2500  -999.2500  -999.2500
   36.0000  -999.2500    76.2612  -999.2500  -999.2500  -999.2500
   36.5000  -999.2500    75.3534  -999.2500  -999.2500  -999.2500
   37.0000  -999.2500    74.5996  -999.2500  -999.2500  -999.2500
   37.5000  -999.2500    74.3039  -999.2500  -999.2500  -999.2500
   38.0000  -999.2500    77.5604  -999.2500  -999.2500  -999.2500
   38.5000  -999.2500    83.1240  -999.2500  -999.2500  -999.2500
   39.0000  -999.2500    88.5335  -999.2500  -999.2500  -999.2500
   39.5000  -999.2500    91.1695  -999.2500  -999.2500  -999.2500
   40.0000  -999.2500    91.9569  -999.2500  -999.2500  -999.2500
   40.5000  -999.2500    91.2897  -999.2500  -999.2500  -999.2500
   41.0000  -999.2500    88.7582  -999.2500  -999.2500  -999.2500
   41.5000  -999.2500    86.3095  -999.2500  -999.2500  -999.2500
   42.0000  -999.2500    84.0149  -999.2500  -999.2500  -999.2500
   42.5000     8.8405    83.1028     0.0203     0.1915     2.3575
   43.0000     8.8425    85.2808     0.0281     0.1666     2.3879
   43.5000     8.8445    90.3821     0.0391     0.1569     2.3919
   44.0000     8.8464    95.4835     0.0337     0.1544     2.3965
   44.5000     8.8325    95.5001     0.0276     0.1646     2.3748
   45.0000     8.8194    95.6708     0.0246     0.1664     2.3718
   45.5000     8.8060    94.7629     0.0317     0.1593     2.3835
   46.0000     8.7922    93.2387     0.0101     0.1745     2.3789
   46.5000     8.7775    94.9836     0.0063     0.1841     2.3595
   47.0000     8.7502    96.2037     0.0142     0.1760     2.3503
   47.5000     8.7218    97.1448     0.0174     0.1741     2.3628
   48.0000     8.7083    98.7023     0.0298     0.1722     2.3721
   48.5000     8.6794    98.5648     0.0214     0.1796     2.3593
   49.0000     8.6655    98.2691     0.0176     0.1914     2.3365
   49.5000     8.6217    99.3684     0.0123     0.2100     2.3118
   50.0000     8.6077   103.6994     0.0225     0.2227     2.2964
   50.5000     8.5947   105.2568     0.0419     0.2394     2.2980
   51.0000     8.5812   105.9158     0.0492     0.2443     2.2934
   51.5000     8.5832   103.9033     0.0390     0.2434     2.2624
   52.0000     8.5698    96.9862     0.0197     0.2266     2.2749
   52.5000     8.5563    90.0488     0.0350     0.2046     2.3060
   53.0000     8.5428    82.0246     0.0416     0.1967     2.3274
   53.5000     8.5139    80.7032     0.0448     0.2063     2.3177
   54.0000     8.4855    86.1169     0.0542     0.2035     2.3124
   54.5000     8.4566    89.9856     0.0821     0.1904     2.3248
   55.0000     8.4427    93.0839     0.0868     0.1935     2.3420
   55.5000     8.4292    96.0281     0.0668     0.1956     2.3312
   56.0000     8.4471    97.4314     0.0654     0.1819     2.3739
   56.5000     8.4645    96.8317     0.0368     0.1685     2.3685
   57.0000     8.5282    95.9197     0.0237     0.1757     2.3663
   57.5000     8.5610    96.4027     0.0168     0.1756     2.3655
   58.0000     8.6093    97.0437     0.0193     0.1768     2.3687
   58.5000     8.6113    95.8156     0.0147     0.1818     2.3556
   59.0000     8.5345    96.0072     0.0172     0.1836     2.3510
   59.5000     8.4917    97.2437     0.0211     0.1798     2.3527
   60.0000     8.4783    98.3389     0.0336     0.1780     2.3600
   60.5000     8.4807    98.0474     0.0267     0.1879     2.3535
   61.0000     8.4827    96.8313     0.0260     0.1860     2.3419
   61.5000     8.5001    95.6153     0.0238     0.1841     2.3482
   62.0000     8.4861    95.0156     0.0301     0.1965     2.3297
   62.5000     8.5035    94.8781     0.0248     0.2085     2.3080
   63.0000     8.4901    93.8161     0.0350     0.2178     2.2956
   63.5000     8.4925    91.0593     0.0242     0.2199     2.2887
   64.0000     8.4945    84.9126    -0.0013     0.2134     2.3035
   64.5000     8.4965    81.3853     0.0097     0.1975     2.3129
   65.0000     8.4985    81.5049     0.0082     0.1995     2.3261
   65.5000     8.4850    89.2588     0.0067     0.2096     2.3103
   66.0000     8.5028    91.6088     0.0115     0.2170     2.2968
   66.5000     8.5202    92.8580     0.0193     0.2226     2.2860
   67.0000     8.5376    93.9532     0.0287     0.2297     2.2721
   67.5000     8.5396    94.2739     0.0131     0.2374     2.2628
   68.0000     8.5416    92.7538     0.0088     0.2420     2.2551
   68.5000     8.5435    93.0786     0.0120     0.2485     2.2459
   69.0000     8.5296    95.0983     0.0167     0.2470     2.2421
   69.5000     8.5012    98.9670     0.0269     0.2553     2.2290
   70.0000     8.4877   101.4475     0.0494     0.2602     2.2249
   70.5000     8.4742    96.9985     0.0564     0.2543     2.2346
   71.0000     8.4608    91.1600     0.0279     0.2427     2.2483
   71.5000     8.4473    89.1735     0.0009     0.2306     2.3146
   72.0000     8.4498    89.0128     0.0172     0.1784     2.3596
   72.5000     8.4517    90.1312     0.0197     0.1744     2.3628
   73.0000     8.4537    91.6970     0.0253     0.1694     2.3706
   73.5000     8.4557    94.0601     0.0346     0.1731     2.3737
   74.0000     8.4576    96.0904     0.0099     0.1864     2.3412
   74.5000     8.4596    96.8274     0.0084     0.1935     2.3374
   75.0000     8.4616    97.1522     0.0077     0.1953     2.3336
   75.5000     8.4635    97.7852     0.0102     0.1882     2.3445
   76.0000     8.4655    99.3426     0.0149     0.1891     2.3438
   76.5000     8.4675   104.4426     0.0258     0.1866     2.3446
   77.0000     8.4695   104.6256     0.0308     0.1909     2.3276
   77.5000     8.4714   101.0452     0.0206     0.2012     2.3168
   78.0000     8.4735    98.7914     0.0176     0.2065     2.3115
   78.5000     8.4758    99.1175     0.0301     0.2094     2.3069
   79.0000     8.4624    99.9046     0.0216     0.2153     2.2953
   79.5000     8.4643   102.3879     0.0179     0.2302     2.2845
   80.0000     8.4504    98.4361     0.0133     0.2481     2.2497
   80.5000     8.4369    91.7922     0.0188     0.2552     2.2249
   81.0000     8.4235    92.1170     0.0251     0.2720     2.2094
   81.5000     8.3946    93.3662     0.0291     0.2800     2.1932
   82.0000     8.3657    90.6094     0.0207     0.2859     2.1793
   82.5000     8.3681    79.9942     0.0130     0.2759     2.2104
   83.0000     8.3546    74.3098     0.0085     0.2361     2.3315
   83.5000     8.3568    75.7131     0.0142     0.1922     2.3583
   84.0000     8.3741    77.5788     0.0241     0.1667     2.3952
   84.5000     8.3765    78.6740     0.0312     0.1485     2.4116
   85.0000     8.3784    79.7691     0.0367     0.1441     2.4140
   85.5000     8.3804    75.7810     0.0259     0.1431     2.4249
   86.0000     8.3824    74.1027     0.0291     0.1512     2.4156
   86.5000     8.3843    76.5846     0.0091     0.1552     2.3986
   87.0000     8.3704    81.3778     0.0123     0.1567     2.3987
   87.5000     8.3569    81.5485     0.0248     0.1523     2.4097
   88.0000     8.3285    79.8459     0.0303     0.1492     2.4114
   88.5000     8.3305    78.6302     0.0219     0.1451     2.4206
   89.0000     8.3170    78.0545     0.0204     0.1361     2.4308
   89.5000     8.3190    77.9170     0.0228     0.1243     2.4471
   90.0000     8.3210    78.5541     0.0330     0.1205     2.4317
   90.5000     8.3230    79.3411     0.0137     0.1366     2.4185
