~VERSION INFORMATION
 VERS.                2.0:   CWLS LOG ASCII STANDARD - VERSION 2.0
 WRAP.                 NO:   ONE LINE PER DEPTH STEP
~WELL INFORMATION
#MNEM.UNIT      DATA TYPE    INFORMATION
#----------   ------------   ------------------------------
 STRT.F           16.0000:   START DEPTH
 STOP.F          430.0000:   STOP DEPTH
 STEP.F            0.5000:   STEP LENGTH
 NULL.          -999.2500:   NO VALUE
 COMP. LAWRENCE/ALLISON INC:   COMPANY
 WELL.  NPR 3 #52-66-1-10:   WELL
 FLD .             TEAPOT:   FIELD
 LOC .      S10 T38N R78W:   LOCATION
 CNTY.            NATRONA:   COUNTY
 STAT.            WYOMING:   STATE
 CTRY. UNITED STATES OF AMERICA:   COUNTRY
 SRVC.           Gearhart:   SERVICE COMPANY
 DATE.        25-MAY-1988:   LOGDATE
 API .       490251121100:   API NUMBER
~CURVE INFORMATION
#MNEM.UNIT       API CODE    CURVE DESCRIPTION
#----------   ------------   ------------------------------
 DEPT.F                  :   
 RILD.OHMM   07 120 46 00:   INDUCTION LOG DEEP RESISTIVITY
 GRR .GAPI   07 310 01 00:   GAMMA RAY FROM RES. LOG.
 RILM.OHMM   07 120 44 00:   INDUCTION LOG MEDIUM RESISTIVITY
~PARAMETER INFORMATION
#MNEM.UNIT          VALUE    DESCRIPTION
#----------   ------------   ------------------------------
 PD  .                 GL:   PERMANENT DATUM
 EPD .F              5169:   ELEVATION PERMANENT DATUM
 LMF .                 KB:   LOG MEASURED FROM
 DAPD.F                 5:   FEET ABOVE PERMANENT DATUM
 DMF .                 KB:   DRILLING MEASURED FROM
 EKB .F              5174:   KELLING BUSHING
 EGL .F              5169:   GROUND LEVEL
 DATE.            5-25-88:   RUN DATE
 RUN .                  1:   RUN NUMBER
 DD  .F               440:   DEPTH DRILLER
 DL  .F               437:   DEPTH LOGGER
 BLI .F               429:   BOTTOM LOG INTERVAL
 TLI .F                44:   TOP LOG INTERVAL
 CS  .IN            8.625:   CASING SIZE
 CBD .F                45:   CASING BOTTOM DRILLER
 CBL .F                44:   CASING BOTTOM LOGGER
 BS  .IN            7.875:   BIT SIZE
 BSD .F               440:   BIT SIZE AT DEPTH
 DFT .                AIR:   DRILLING FLUID TYPE
 TCS .HRS            0900:   TIME CURCULATED STOPPED
 TLAB.HRS            1048:   TIME LOGGER AT BOTTOM
 LUN .               7597:   LOGGING UNIT NUMBER
 LUL .           GILLETTE:   LOGGING UNIT LOCATION
 ENGI.             SLATKY:   RECORDING ENGINEER
 WITN.             STRONG:   WITNESSED BY
 CLNT.            A2DTECH:   CLIENT CODE
 ORIG.       2", 5" PRINT:   ORIGIN OF DATA
 UWI .       490251121100:   UNIQUE WELL ID
 DICO. A2D Technologies, Inc.:   DIGITIZING COMPANY
~OTHER INFORMATION
~A   DEPT     RILD         GRR      RILM   
# ...
  380.0000    13.4336    93.5763    13.0981
  380.5000    13.3268    94.4333    12.9987
  381.0000    13.2208    93.9390    12.9000
  381.5000    13.1157    93.6889    12.8020
  382.0000    13.0114    94.4994    12.7049
  382.5000    12.9079    95.2860    12.6084
  383.0000    12.8053    96.0650    12.4104
  383.5000    12.7034    98.1683    12.1794
  384.0000    12.5333    99.9412    11.9399
  384.5000    12.2634   101.4202    11.7051
  385.0000    11.9992   101.4125    11.4749
  385.5000    11.7408   101.1656    11.2492
  386.0000    11.4781   100.9130    11.0280
  386.5000    11.1731   101.1062    10.8111
  387.0000    10.8743   101.6268    10.6017
  387.5000    10.5836   102.1454    10.1217
  388.0000    10.3008   102.1978     9.2763
  388.5000     9.9367   101.1885     8.5357
  389.0000     8.8846   100.1604     7.8542
  389.5000     7.9529   100.1578     7.2272
  390.0000     7.1189   106.5115     6.6502
  390.5000     6.5445   113.1941     6.1193
  391.0000     6.5449   119.8531     5.6307
  391.5000     6.5475   126.7308     5.3903
  392.0000     6.5466   131.2047     5.3903
  392.5000     6.8354   125.4565     5.9563
  393.0000     7.3162   117.9343     6.5455
  393.5000     8.0183   110.4410     7.1928
  394.0000     8.7888   103.5390     7.9042
  394.5000     9.6287   100.3021     8.6860
  395.0000    10.4034    98.1827     9.5493
  395.5000    10.5572    96.3029    10.1566
  396.0000    10.7581    97.1693    10.3619
  396.5000    10.9613   100.1552    10.5642
  397.0000    11.1687   103.1270    10.7729
  397.5000    11.3800   106.2455    10.9856
  398.0000    11.5954   105.3812    11.2026
  398.5000    11.8148   103.4134    11.4239
  399.0000    12.0389   101.4133    11.6495
  399.5000    12.2661    99.6922    11.8796
  400.0000    12.5331   101.4022    12.1142
  400.5000    12.8111   103.1433    12.4276
  401.0000    13.0954   104.8456    12.6844
  401.5000    13.3861   105.6429    12.9464
  402.0000    13.6838   105.1894    13.2136
  402.5000    13.9849   104.6924    13.4903
  403.0000    14.1280   104.8264    13.7685
  403.5000    14.2659   105.5371    13.8455
  404.0000    14.3853   105.7037    13.9230
  404.5000    14.5057   104.0931    14.0009
  405.0000    14.6271   102.5540    14.0792
  405.5000    14.7495   101.3275    14.1579
  406.0000    14.8147   102.6970    14.2371
  406.5000    14.8497   104.1005    14.3167
  407.0000    14.8858   102.1625    14.3968
  407.5000    14.9220    98.8980    14.4773
  408.0000    14.9374    95.8491    14.5277
  408.5000    14.8105    93.8985    14.4172
  409.0000    14.7188    95.2225    14.3374
  409.5000    14.6279    97.2589    14.2581
  410.0000    14.5375    99.3298    14.1792
  410.5000    14.4477   101.3857    14.1008
  411.0000    14.3584   100.7729    14.0228
  411.5000    14.2697    97.6349    13.9452
  412.0000    14.1816    94.4749    13.8681
  412.5000    14.0939    91.3310    13.7914
  413.0000    14.0069    88.8496    13.7151
  413.5000    13.9203    87.3441    13.6392
  414.0000    13.8343    85.1926    13.4099
  414.5000    13.7489  -999.2500    13.1473
  415.0000    13.6639  -999.2500    12.8899
  415.5000    13.5503  -999.2500    12.6375
  416.0000    13.2747  -999.2500    12.4104
  416.5000    13.0048  -999.2500    11.7127
  417.0000    12.7404  -999.2500    11.1031
  417.5000    12.4813  -999.2500    10.5248
  418.0000    12.2275  -999.2500    10.1245
  418.5000    11.9789  -999.2500     9.9219
  419.0000    11.7353  -999.2500     9.7228
  419.5000    11.4864  -999.2500     9.5277
  420.0000    11.3863  -999.2500     9.3364
  420.5000    11.2886  -999.2500     9.1490
  421.0000    11.1913  -999.2500     9.0003
  421.5000    11.0946  -999.2500     8.8889
  422.0000    10.9987  -999.2500     8.7787
  422.5000    10.9036  -999.2500     8.6699
  423.0000    10.8094  -999.2500     8.5624
  423.5000    10.8000  -999.2500     8.4563
  424.0000    10.8011  -999.2500     8.4095
  424.5000    10.8000  -999.2500     8.5169
  425.0000    10.6315  -999.2500     8.5964
  425.5000    10.2643  -999.2500     8.6767
  426.0000    10.0284  -999.2500     8.7588
  426.5000    10.1217  -999.2500     8.8079
  427.0000    10.1217  -999.2500     8.6630
  427.5000    10.1217  -999.2500     8.5586
  428.0000    10.1217  -999.2500     8.4558
  428.5000    10.1217  -999.2500     8.4095
  429.0000    10.1217  -999.2500     8.6084
  429.5000    10.1217  -999.2500     8.7585
  430.0000    10.1217  -999.2500     8.8088
