~VERSION INFORMATION
 VERS.                2.0:   CWLS LOG ASCII STANDARD - VERSION 2.0
 WRAP.                 NO:   ONE LINE PER DEPTH STEP
~WELL INFORMATION
#MNEM.UNIT      DATA TYPE    INFORMATION
#----------   ------------   ------------------------------
 STRT.F           48.0000:   START DEPTH
 STOP.F          524.0000:   STOP DEPTH
 STEP.F            0.5000:   STEP LENGTH
 NULL.          -999.2500:   NO VALUE
 COMP. LAWRENCE/ALLISON INC:   COMPANY
 WELL.      41-66 SX #3-3:   WELL
 FLD .             TEAPOT:   FIELD
 LOC .       S3 T38N R78W:   LOCATION
 CNTY.            NATRONA:   COUNTY
 STAT.            WYOMING:   STATE
 CTRY. UNITED STATES OF AMERICA:   COUNTRY
 SRVC.              Welex:   SERVICE COMPANY
 DATE.        22-AUG-1987:   LOGDATE
 API .       490251116200:   API NUMBER
~CURVE INFORMATION
#MNEM.UNIT       API CODE    CURVE DESCRIPTION
#----------   ------------   ------------------------------
 DEPT.F                  :   
 GRR .GAPI   07 310 01 00:   GAMMA RAY
 ILD .OHMM   07 120 46 00:   INDUCTION LOG DEEP
 ILM .OHMM   07 120 44 00:   INDUCTION LOG MEDIUM
~PARAMETER INFORMATION
#MNEM.UNIT          VALUE    DESCRIPTION
#----------   ------------   ------------------------------
 PD  .                 GL:   PERMANENT DATUM
 EPD .F              5123:   ELEVATION PERMANENT DATUM
 LMF .                 KB:   LOG MEASURED FROM
 DAPD.F                 8:   FEET ABOVE PERMANENT DATUM
 DMF .                 KB:   DRILLING MEASURED FROM
 EKB .F              5131:   KELLING BUSHING
 EDF .F              5130:   DRILLING FLOOR
 EGL .F              5123:   GROUND LEVEL
 DATE.        22-AUG-1987:   RUN DATE
 RUN .                  1:   RUN NUMBER
 DD  .F               542:   DEPTH DRILLER
 DL  .F               542:   DEPTH LOGGER
 BLI .F               524:   BOTTOM LOG INTERVAL
 TLI .F                47:   TOP LOG INTERVAL
 CBL .F                48:   CASING BOTTOM LOGGER
 BS  .IN            7.875:   BIT SIZE
 BSD .F               542:   BIT SIZE AT DEPTH
 DFT .                AIR:   DRILLING FLUID TYPE
 TLAB.HRS            0500:   TIME LOGGER AT BOTTOM
 MRT .F                85:   MAXIMUM RECORDED TEMPERATURE
 LUN .              51169:   LOGGING UNIT NUMBER
 LUL .           GILLETTE:   LOGGING UNIT LOCATION
 ENGI.             K.BUNL:   RECORDING ENGINEER
 WITN.             STRONG:   WITNESSED BY
 CLNT.            A2DTECH:   CLIENT CODE
 ORIG.           5" PRINT:   ORIGIN OF DATA
 UWI .       490251116200:   UNIQUE WELL ID
 DICO. A2D Technologies, Inc.:   DIGITIZING COMPANY
~OTHER INFORMATION
~A   DEPT      GRR          ILD       ILM  
# ...
  139.0000   116.5539     8.5748     8.2649
  139.5000   120.1688     8.5759     8.2644
  140.0000   118.6386     8.6366     8.2639
  140.5000   119.5934     8.6975     8.2633
  141.0000   125.0101     8.7587     8.4352
  141.5000   124.7207     8.7599     8.4347
  142.0000   120.5308     8.7610     8.4341
  142.5000   117.5390     8.7023     8.4365
  143.0000   116.3491     8.7034     8.5500
  143.5000   113.6416     8.7046     8.5493
  144.0000   112.7679     8.7057     8.5488
  144.5000   113.9831     8.7071     8.5482
  145.0000   119.3998     8.7684     8.5475
  145.5000   120.6150     8.7696     8.5470
  146.0000   120.3231     8.7707     8.4878
  146.5000   123.0399     8.7719     8.4288
  147.0000   124.5526     8.7733     8.4283
  147.5000   124.2635     8.7745     8.4277
  148.0000   124.2775     8.7756     8.4272
  148.5000   124.8894     8.7767     8.4265
  149.0000   127.3674     8.7782     8.4259
  149.5000   130.9207     8.7191     8.4838
  150.0000   133.9339     8.7202     8.6008
  150.5000   130.5986     8.7213     8.6001
  151.0000   127.6601     8.7225     8.3658
  151.5000   123.4704     8.7239     8.2508
  152.0000   115.9773     8.7250     8.1936
  152.5000   115.3876     8.6068     8.1930
  153.0000   115.7059     8.4901     8.1924
  153.5000   117.6096     8.3178     8.1919
  154.0000   122.6453     8.2615     8.1914
  154.5000   126.5637     8.2629     8.1907
  155.0000   129.2809     8.0949     8.2469
  155.5000   130.4965     7.9785     8.2463
  156.0000   133.5139     7.8229     8.1890
  156.5000   133.5285     7.8241     8.1885
  157.0000   133.2426     7.8793     8.1879
  157.5000   136.5639     7.8803     8.1874
  158.0000   136.5784     7.9361     8.1867
  158.5000   138.3946     7.9920     8.1862
  159.0000   139.6066     7.9930     7.9085
  159.5000   134.8199     7.9940     8.0837
  160.0000   130.5105     8.0504     7.8640
  160.5000   128.5425     8.0517     8.0282
  161.0000   128.2566     8.0527     7.9731
  161.5000   130.3768     8.0538     7.8100
  162.0000   128.5894     8.2261     8.1396
  162.5000   127.7027     8.5126     8.2525
  163.0000   124.9269     8.7515     8.3670
  163.5000   120.8286     8.8741     8.4831
  164.0000   119.9385     8.9366     8.5417
  164.5000   119.9566     8.9996     8.6602
  165.0000   122.0732     9.0010     8.7201
  165.5000   125.3909     9.0022     8.7201
  166.0000   129.9099     9.0034     8.7804
  166.5000   129.9279     9.0046     8.7804
  167.0000   132.9454     8.5231     8.5976
  167.5000   132.3592     8.1227     8.3670
  168.0000   125.4668     8.5843     8.6008
  168.5000   128.4842     8.7647     8.9637
  169.0000   127.8981     8.1737     8.6008
  169.5000   121.9758     8.0714     8.3096
  170.0000   119.5186     8.1285     8.2525
  170.5000   121.6387     8.2424     8.3096
  171.0000   121.9535     8.3004     8.4831
  171.5000   128.5745     8.1879     8.3670
  172.0000   138.4989     8.0215     8.3096
  172.5000   139.4295     7.9130     7.8640
  173.0000   139.7326     7.8597     7.7032
  173.5000   138.5459     7.8610     7.5978
  174.0000   133.7555     7.8620     7.5456
  174.5000   130.4666     7.9174     7.5456
  175.0000   129.8298     7.9184     7.5456
  175.5000   133.7988     7.9195     7.5456
  176.0000   134.4139     7.9208     7.5456
  176.5000   126.9244     8.0317     7.5456
  177.0000   123.0350     8.1442     7.6503
  177.5000   117.9443     8.2015     7.8100
  178.0000   110.1510     8.2029     7.9731
  178.5000   108.6637     8.3753     8.0837
  179.0000   115.0891     8.4926     8.0837
  179.5000   118.9030     8.5524     8.1959
  180.0000   117.4196     8.6722     8.3134
  180.5000   115.9325     8.7335     8.3670
  181.0000   113.8449     8.7950     8.4249
  181.5000   113.2583     8.7355     8.4249
  182.0000   114.1902     8.7369     8.4249
  182.5000   117.1951     8.6784     8.3670
  183.0000   121.7141     8.6795     8.4249
  183.5000   119.3261     8.6806     8.3670
  184.0000   121.7430     8.6905     8.3670
  184.5000   130.1659     8.6233     8.4249
  185.0000   131.6818     8.5652     8.4249
  185.5000   132.4858     8.5666     8.3670
  186.0000   136.1682     8.6270     8.3670
  186.5000   124.9611     8.6281     8.3670
  187.0000   120.1762     8.6295     8.4831
  187.5000   115.3912     8.6903     8.4831
  188.0000   109.6857     8.6914     8.4831
  188.5000   113.0285     8.6925     8.4831
  189.0000   110.6510     8.8752     8.6008
  189.5000   111.8720     8.9998     8.7201
  190.0000   110.0901     9.1889     8.9022
  190.5000   107.4122     9.3176     9.0881
  191.0000   109.2339     9.5792     9.1509
  191.5000   112.5570     9.9165     9.2779
  192.0000   115.8802    10.0554     9.4751
  192.5000   118.6077    10.1262     9.7362
  193.0000   121.6306    10.1976     9.8713
  193.5000   127.3562    10.4909    10.0082
  194.0000   130.9796    10.7045    10.2878
  194.5000   128.2672    10.9294    10.5070
  195.0000   127.4158    11.1591    10.7961
  195.5000   125.6388    11.2377    10.8707
  196.0000   118.7517    10.8081    11.0215
  196.5000   118.1612    11.1854    11.4078
  197.0000   117.2949    11.4174    11.6535
  197.5000   110.1076    11.4945    11.8892
  198.0000   110.7281    11.7330    12.0541
  198.5000   113.1503    11.8121    12.1374
  199.0000   114.0760    11.8926    12.2213
  199.5000   111.9938    12.0560    12.2213
  200.0000   106.9086    11.9713    12.2213
  200.5000   102.7242    11.9697    12.2213
  201.0000    97.5596    11.9677    12.2213
  201.5000    98.8650    11.9662    12.1374
  202.0000   104.8909    11.8825    11.9713
  202.5000   108.5143    11.7993    11.8892
  203.0000   108.5345    11.7943    11.8075
  203.5000   108.2538    11.6345    11.8075
  204.0000   108.2786    11.3950    11.6460
  204.5000   107.9982    11.3153    11.4078
  205.0000   111.0210    11.2361    11.2517
  205.5000   116.1510    10.9971    11.0977
  206.0000   117.0717    10.7040    10.7961
  206.5000   119.4940    10.7769    10.8707
  207.0000   118.9132    11.0002    11.0215
  207.5000   114.4336    11.2284    11.2517
  208.0000   109.6486    11.2269    11.4078
  208.5000   104.5634    11.3027    11.6460
  209.0000    99.7784    11.5372    11.8119
  209.5000    97.6962    11.5357    11.5660
  210.0000   102.8261    11.5341    11.1744
  210.5000   105.2484    11.2914    11.0215
  211.0000   108.8719    10.8376    10.7961
  211.5000   111.6146    10.3974    10.5690
  212.0000   115.1391     9.9066    10.2172
  212.5000   111.3388     9.9053    10.1471
  213.0000   107.7551     9.8988    10.0082
  213.5000   105.0722     9.8344     9.8713
  214.0000    99.0911     9.6320     9.7362
  214.5000   101.8136     9.4989     9.7362
  215.0000   104.8365     9.4977     9.4066
  215.5000   104.2553     9.4964     9.3420
  216.0000   109.1612     9.4297     9.4066
  216.5000   107.6037     9.3637     9.4716
  217.0000   102.8188     9.3625     9.5371
  217.5000   104.9408     9.3613     9.5371
  218.0000   106.7624     9.4308     9.6030
  218.5000   101.9825     9.4887     9.6694
  219.0000   106.5068     9.4871     9.5371
  219.5000   109.2294     9.4859     9.4716
  220.0000   111.3514     9.4846     9.5371
  220.5000   114.9798     9.5489     9.4716
  221.0000   114.0987     9.5474     9.5371
  221.5000   110.2147     9.5461     9.4716
  222.0000   107.2316     9.6111     9.4716
  222.5000   100.3445     9.6096     9.4716
  223.0000   103.3724     9.6083     9.4716
  223.5000   105.1940     9.6067     9.4746
  224.0000   102.5112     9.6055     9.4716
  224.5000   100.3994     9.6042     9.4716
  225.0000    94.7481     9.5370     9.4716
  225.5000    92.9612     9.0098     9.3420
  226.0000    94.7878     8.6577     8.8973
  226.5000    95.1181     8.3634     8.5417
  227.0000   106.2439     8.1351     8.3670
  227.5000   114.3718     7.9676     8.0282
  228.0000   115.8932     7.7500     7.7564
  228.5000   120.7179     7.6956     7.5456
  229.0000   117.1341     7.7480     7.6503
  229.5000   116.2581     7.8003     7.7032
