~VERSION INFORMATION
 VERS.                2.0:   CWLS LOG ASCII STANDARD - VERSION 2.0
 WRAP.                 NO:   ONE LINE PER DEPTH STEP
~WELL INFORMATION
#MNEM.UNIT      DATA TYPE    INFORMATION
#----------   ------------   ------------------------------
 STRT.F          350.0000:   START DEPTH
 STOP.F         2259.0000:   STOP DEPTH
 STEP.F            0.5000:   STEP LENGTH
 NULL.          -999.2500:   NO VALUE
 COMP. LAWRENCE/ALLISON INC:   COMPANY
 WELL.        45 X #33-33:   WELL
 FLD .             TEAPOT:   FIELD
 LOC .      S33 T39N R78W:   LOCATION
 CNTY.            NATRONA:   COUNTY
 STAT.            WYOMING:   STATE
 CTRY. UNITED STATES OF AMERICA:   COUNTRY
 SRVC.      NL McCullough:   SERVICE COMPANY
 DATE.        19-MAY-1988:   LOGDATE
 API .       490251119400:   API NUMBER
~CURVE INFORMATION
#MNEM.UNIT       API CODE    CURVE DESCRIPTION
#----------   ------------   ------------------------------
 DEPT.F                  :   
 ROP .MIN/FT 91 810 01 00:   RATE OF DRILLING PENETRATION
 GR  .GAPI   81 310 01 00:   GAMMA RAY
 TGAS.UNITS  91 830 01 00:   TOTAL GAS FROM HOTWIRE
~PARAMETER INFORMATION
#MNEM.UNIT          VALUE    DESCRIPTION
#----------   ------------   ------------------------------
 PD  .                 GL:   PERMANENT DATUM
 EPD .F              5198:   ELEVATION PERMANENT DATUM
 LMF .                 KB:   LOG MEASURED FROM
 DAPD.F                11:   FEET ABOVE PERMANENT DATUM
 DMF .                 KB:   DRILLING MEASURED FROM
 EKB .F              5209:   KELLING BUSHING
 EGL .F              5198:   GROUND LEVEL
 DATE.            5-19-88:   RUN DATE
 RUN .                  1:   RUN NUMBER
 DD  .F              2232:   DEPTH DRILLER
 DL  .F               750:   DEPTH LOGGER
 BLI .F               746:   BOTTOM LOG INTERVAL
 TLI .F               350:   TOP LOG INTERVAL
 CS  .IN                7:   CASING SIZE
 CBD .F               808:   CASING BOTTOM DRILLER
 DFT .              WATER:   DRILLING FLUID TYPE
 TCS .HRS            0830:   TIME CURCULATED STOPPED
 TLAB.HRS            0930:   TIME LOGGER AT BOTTOM
 ENGI.          SANGERTER:   RECORDING ENGINEER
 WITN.             NORMAN:   WITNESSED BY
 CLNT.            A2DTECH:   CLIENT CODE
 ORIG.           5" PRINT:   ORIGIN OF DATA
 UWI .       490251119400:   UNIQUE WELL ID
 DICO. A2D Technologies, Inc.:   DIGITIZING COMPANY
~OTHER INFORMATION
~A   DEPT      ROP          GR      TGAS   
# ...
 1442.0000     0.3376  -999.2500     2.2827
 1442.5000     0.3377  -999.2500     2.2617
 1443.0000     0.3482  -999.2500     2.2407
 1443.5000     0.3379  -999.2500     2.2197
 1444.0000     0.3380  -999.2500     2.1987
 1444.5000     0.3381  -999.2500     2.1777
 1445.0000     0.3382  -999.2500     2.1567
 1445.5000     0.3383  -999.2500     2.1357
 1446.0000     0.3280  -999.2500     2.1147
 1446.5000     0.3072  -999.2500     2.0937
 1447.0000     0.3073  -999.2500     2.0728
 1447.5000     0.2970  -999.2500     2.0518
 1448.0000     0.3075  -999.2500     2.0308
 1448.5000     0.3076  -999.2500     2.0098
 1449.0000     0.3286  -999.2500     1.9888
 1449.5000     0.3287  -999.2500     1.9678
 1450.0000     0.3184  -999.2500     1.9468
 1450.5000     0.3080  -999.2500     1.9258
 1451.0000     0.3082  -999.2500     1.9048
 1451.5000     0.3083  -999.2500     1.8838
 1452.0000     0.3084  -999.2500     1.8628
 1452.5000     0.3085  -999.2500     1.8418
 1453.0000     0.3086  -999.2500     1.8208
 1453.5000     0.3295  -999.2500     1.7998
 1454.0000     0.3401  -999.2500     1.7789
 1454.5000     0.3402  -999.2500     1.7579
 1455.0000     0.3403  -999.2500     1.7369
 1455.5000     0.3509  -999.2500     1.7159
 1456.0000     0.3510  -999.2500     1.6949
 1456.5000     0.3511  -999.2500     1.6739
 1457.0000     0.3512  -999.2500     1.6529
 1457.5000     0.3513  -999.2500     1.6319
 1458.0000     0.3827  -999.2500     1.6109
 1458.5000     0.3828  -999.2500     1.5899
 1459.0000     0.3829  -999.2500     1.5689
 1459.5000     0.3830  -999.2500     1.5479
 1460.0000     0.3831  -999.2500     1.5269
 1460.5000     0.3936  -999.2500     1.5059
 1461.0000     0.3937  -999.2500     1.4850
 1461.5000     0.3938  -999.2500     1.4640
 1462.0000     0.4148  -999.2500     1.4430
 1462.5000     0.4045  -999.2500     1.4220
 1463.0000     0.4046  -999.2500     1.4010
 1463.5000     0.3942  -999.2500     1.3800
 1464.0000     0.3944  -999.2500     1.3590
 1464.5000     0.3945  -999.2500     1.3380
 1465.0000     0.3946  -999.2500     1.3170
 1465.5000     0.3947  -999.2500     1.2960
 1466.0000     0.3948  -999.2500     1.2750
 1466.5000     0.3949  -999.2500     1.2562
 1467.0000     0.3846  -999.2500     1.2456
 1467.5000     0.3847  -999.2500     1.2350
 1468.0000     0.3848  -999.2500     1.2245
 1468.5000     0.3849  -999.2500     1.2139
 1469.0000     0.3850  -999.2500     1.2033
 1469.5000     0.3851  -999.2500     1.1928
 1470.0000     0.3852  -999.2500     1.1822
 1470.5000     0.3853  -999.2500     1.1716
 1471.0000     0.3749  -999.2500     1.1611
 1471.5000     0.3751  -999.2500     1.1505
 1472.0000     0.3647  -999.2500     1.1399
 1472.5000     0.3753  -999.2500     1.1294
 1473.0000     0.3754  -999.2500     1.1188
 1473.5000     0.3859  -999.2500     1.1082
 1474.0000     0.3860  -999.2500     1.0977
 1474.5000     0.3861  -999.2500     1.0871
 1475.0000     0.3758  -999.2500     1.0765
 1475.5000     0.3759  -999.2500     1.0660
 1476.0000     0.3655  -999.2500     1.0554
 1476.5000     0.3761  -999.2500     1.0448
 1477.0000     0.3553  -999.2500     1.0343
 1477.5000     0.3554  -999.2500     1.0237
 1478.0000     0.3555  -999.2500     1.0131
 1478.5000     0.3870  -999.2500     1.0026
 1479.0000     0.4184  -999.2500     0.9920
 1479.5000     0.4707  -999.2500     0.9814
 1480.0000     0.4812  -999.2500     0.9709
 1480.5000     0.4709  -999.2500     0.9603
 1481.0000     0.4397  -999.2500     0.9497
 1481.5000     0.3980  -999.2500     0.9392
 1482.0000     0.3877  -999.2500     0.9286
 1482.5000     0.3773  -999.2500     0.9180
 1483.0000     0.3566  -999.2500     0.9075
 1483.5000     0.3567  -999.2500     0.8969
 1484.0000     0.3568  -999.2500     0.8863
 1484.5000     0.3569  -999.2500     0.8758
 1485.0000     0.3674  -999.2500     0.8652
 1485.5000     0.3571  -999.2500     0.8546
 1486.0000     0.3572  -999.2500     0.8441
 1486.5000     0.3678  -999.2500     0.8335
 1487.0000     0.3783  -999.2500     0.8229
 1487.5000     0.3784  -999.2500     0.8124
 1488.0000     0.3785  -999.2500     0.8018
 1488.5000     0.3891  -999.2500     0.7912
 1489.0000     0.3892  -999.2500     0.7807
 1489.5000     0.3893  -999.2500     0.7701
 1490.0000     0.3894  -999.2500     0.7595
 1490.5000     0.3790  -999.2500     0.7490
 1491.0000     0.3791  -999.2500     0.7384
 1491.5000     0.3584  -999.2500     0.7278
 1492.0000     0.3585  -999.2500     0.7173
 1492.5000     0.3586  -999.2500     0.7067
 1493.0000     0.3691  -999.2500     0.6961
 1493.5000     0.3797  -999.2500     0.6856
 1494.0000     0.3798  -999.2500     0.6750
 1494.5000     0.3694  -999.2500     0.6645
 1495.0000     0.3695  -999.2500     0.6539
 1495.5000     0.3592  -999.2500     0.6433
 1496.0000     0.3593  -999.2500     0.6328
 1496.5000     0.3489  -999.2500     0.6222
 1497.0000     0.3491  -999.2500     0.6116
 1497.5000     0.3492  -999.2500     0.6011
 1498.0000     0.3493  -999.2500     0.5905
 1498.5000     0.3494  -999.2500     0.5799
 1499.0000     0.3495  -999.2500     0.5694
 1499.5000     0.3391  -999.2500     0.5588
 1500.0000     0.3393  -999.2500     0.5482
 1500.5000     0.3394  -999.2500     0.5377
 1501.0000     0.3499  -999.2500     0.5271
 1501.5000     0.3500  -999.2500     0.5165
 1502.0000     0.3501  -999.2500     0.5060
 1502.5000     0.3502  -999.2500     0.4954
 1503.0000     0.3503  -999.2500     0.4848
 1503.5000     0.3504  -999.2500     0.4743
 1504.0000     0.3505  -999.2500     0.4758
 1504.5000     0.3506  -999.2500     0.4931
 1505.0000     0.3507  -999.2500     0.5104
 1505.5000     0.3509  -999.2500     0.5277
 1506.0000     0.3509  -999.2500     0.5450
 1506.5000     0.3511  -999.2500     0.5623
 1507.0000     0.3512  -999.2500     0.5796
 1507.5000     0.3513  -999.2500     0.5968
 1508.0000     0.3618  -999.2500     0.6141
 1508.5000     0.3724  -999.2500     0.6314
 1509.0000     0.3933  -999.2500     0.6487
 1509.5000     0.4456  -999.2500     0.6660
 1510.0000     0.5084  -999.2500     0.6833
 1510.5000     0.5293  -999.2500     0.7006
 1511.0000     0.5295  -999.2500     0.7179
 1511.5000     0.5191  -999.2500     0.7352
 1512.0000     0.5088  -999.2500     0.7525
 1512.5000     0.4776  -999.2500     0.7698
 1513.0000     0.4464  -999.2500     0.7871
 1513.5000     0.4047  -999.2500     0.8043
 1514.0000     0.3630  -999.2500     0.8216
 1514.5000     0.3886  -999.2500     0.8389
 1515.0000     0.3889  -999.2500     0.8562
 1515.5000     0.3786  -999.2500     0.8735
 1516.0000     0.3685  -999.2500     0.8908
 1516.5000     0.3688  -999.2500     0.9081
 1517.0000     0.3690  -999.2500     0.9254
 1517.5000     0.3588  -999.2500     0.9427
 1518.0000     0.3591  -999.2500     0.9600
 1518.5000     0.3594  -999.2500     0.9773
 1519.0000     0.3701  -999.2500     0.9946
 1519.5000     0.3912  -999.2500     1.0118
 1520.0000     0.4019  -999.2500     1.0291
 1520.5000     0.4126  -999.2500     1.0464
 1521.0000     0.4442  -999.2500     1.0637
 1521.5000     0.4549  -999.2500     1.0810
 1522.0000     0.4865  -999.2500     1.0983
 1522.5000     0.4867  -999.2500     1.1156
 1523.0000     0.4870  -999.2500     1.1329
 1523.5000     0.4559  -999.2500     1.1502
 1524.0000     0.4457  -999.2500     1.1675
 1524.5000     0.4042  -999.2500     1.1848
 1525.0000     0.3940  -999.2500     1.2021
 1525.5000     0.3734  -999.2500     1.2193
 1526.0000     0.3632  -999.2500     1.2366
 1526.5000     0.3635  -999.2500     1.2539
 1527.0000     0.3638  -999.2500     1.2712
 1527.5000     0.3641  -999.2500     1.2885
 1528.0000     0.3539  -999.2500     1.3058
 1528.5000     0.3541  -999.2500     1.3231
 1529.0000     0.3544  -999.2500     1.3404
 1529.5000     0.3547  -999.2500     1.3577
 1530.0000     0.3549  -999.2500     1.3750
 1530.5000     0.3552  -999.2500     1.3923
 1531.0000     0.3554  -999.2500     1.4096
 1531.5000     0.3557  -999.2500     1.4269
 1532.0000     0.3455  -999.2500     1.4441
 1532.5000     0.3353  -999.2500     1.4614
