~VERSION INFORMATION
 VERS.                2.0:   CWLS LOG ASCII STANDARD - VERSION 2.0
 WRAP.                 NO:   ONE LINE PER DEPTH STEP
~WELL INFORMATION
#MNEM.UNIT      DATA TYPE    INFORMATION
#----------   ------------   ------------------------------
 STRT.M         1049.9000:   START DEPTH
 STOP.M         2123.5000:   STOP DEPTH
 STEP.M            0.1000:   STEP LENGTH
 NULL.          -999.2500:   NO VALUE
 COMP. BROWN JOHN E&C INC:   COMPANY
 WELL. NAVAL PETROLEUM RESERVE 3 STX- #34-3:   WELL
 FLD .            WILDCAT:   FIELD
 LOC .       S3 T38N R78W:   LOCATION
 CNTY.            NATRONA:   COUNTY
 STAT.            WYOMING:   STATE
 CTRY. UNITED STATES OF AMERICA:   COUNTRY
 SRVC.            Unknown:   SERVICE COMPANY
 DATE.        04-SEP-1991:   LOGDATE
 API .       490251090400:   API NUMBER
~CURVE INFORMATION
#MNEM.UNIT       API CODE    CURVE DESCRIPTION
#----------   ------------   ------------------------------
 DEPT.M                  :   
 ROP .MIN/FT 91 810 01 00:   RAT OF DRILLING PENETRATION
 TGAS.UNITS  91 830 01 00:   TOTAL GAS FROM HOTWIRE
~PARAMETER INFORMATION
#MNEM.UNIT          VALUE    DESCRIPTION
#----------   ------------   ------------------------------
 EKB .F              5189:   KELLING BUSHING
 EGL .F              5179:   GROUND LEVEL
 DATE.             9-4-91:   RUN DATE
 DD  .F              2123:   DEPTH DRILLER
 CS  .IN            9.625:   CASING SIZE
 BS  .IN             8.75:   BIT SIZE
 BSD .F              2123:   BIT SIZE AT DEPTH
 ENGI.              TOWER:   RECORDING ENGINEER
 WITN.               HUSK:   WITNESSED BY
 CLNT.            A2DTECH:   CLIENT CODE
 ORIG.           5" PRINT:   ORIGIN OF DATA
 UWI .       490251090400:   UNIQUE WELL ID
 DICO. A2D Technologies, Inc.:   DIGITIZING COMPANY
~OTHER INFORMATION
~A  DEPT       ROP         TGAS 
# ...
 1608.8000     0.5901     0.8696
 1608.9000     0.5844     0.8717
 1609.0000     0.5777     0.8743
 1609.1000     0.5710     0.8769
 1609.2000     0.5643     0.8794
 1609.3000     0.5575     0.8822
 1609.4000     0.5487     1.0490
 1609.5000     0.5398     1.1014
 1609.6000     0.5309     1.1040
 1609.7000     0.5220     1.1066
 1609.8000     0.5139     1.1091
 1609.9000     0.5116     1.1122
 1610.0000     0.5093     1.1143
 1610.1000     0.5070     1.1169
 1610.2000     0.5047     1.1194
 1610.3000     0.5013     1.1220
 1610.4000     0.4946     1.1248
 1610.5000     0.4879     1.1271
 1610.6000     0.4812     1.1297
 1610.7000     0.4745     1.1323
 1610.8000     0.4702     1.1349
 1610.9000     0.4701     1.1374
 1611.0000     0.4700     1.1400
 1611.1000     0.4699     1.1426
 1611.2000     0.4698     1.1451
 1611.3000     0.4697     1.1477
 1611.4000     0.4696     1.1503
 1611.5000     0.4695     1.1531
 1611.6000     0.4694     1.1554
 1611.7000     0.4693     1.1580
 1611.8000     0.4732     1.1606
 1611.9000     0.4797     1.1631
 1612.0000     0.4862     1.1657
 1612.1000     0.4927     1.1683
 1612.2000     0.4992     1.1709
 1612.3000     0.5105     1.1734
 1612.4000     0.5236     1.1762
 1612.5000     0.5367     1.1786
 1612.6000     0.5497     1.1815
 1612.7000     0.5645     1.1837
 1612.8000     0.5854     1.1863
 1612.9000     0.6095     1.1889
 1613.0000     0.6335     1.1914
 1613.1000     0.6576     1.1941
 1613.2000     0.6818     1.1966
 1613.3000     0.7050     1.1991
 1613.4000     0.7283     1.2017
 1613.5000     0.7516     1.2045
 1613.6000     0.7611     1.2069
 1613.7000     0.7434     1.2098
 1613.8000     0.7257     1.2120
 1613.9000     0.7080     1.2146
 1614.0000     0.6904     1.2171
 1614.1000     0.6747     1.2197
 1614.2000     0.6614     1.2224
 1614.3000     0.6481     1.2249
 1614.4000     0.6349     1.2274
 1614.5000     0.6216     1.2300
 1614.6000     0.6096     1.2326
 1614.7000     0.5985     1.2351
 1614.8000     0.5874     1.2381
 1614.9000     0.5763     1.2403
 1615.0000     0.5652     1.2429
 1615.1000     0.5573     1.2454
 1615.2000     0.5506     1.2480
 1615.3000     0.5439     1.2507
 1615.4000     0.5372     1.2531
 1615.5000     0.5294     1.2560
 1615.6000     0.5256     1.2583
 1615.7000     0.5211     1.2612
 1615.8000     0.5166     1.2634
 1615.9000     0.5121     1.2660
 1616.0000     0.5075     1.2686
 1616.1000     0.5074     1.2711
 1616.2000     0.5073     1.2738
 1616.3000     0.5072     1.2763
 1616.4000     0.5071     1.2791
 1616.5000     0.5070     1.2814
 1616.6000     0.5069     1.2840
 1616.7000     0.5067     1.2866
 1616.8000     0.5066     1.2891
 1616.9000     0.5065     1.2917
 1617.0000     0.5064     1.2943
 1617.1000     0.5063     1.2969
 1617.2000     0.5062     1.2994
 1617.3000     0.5061     1.3020
 1617.4000     0.5060     1.3046
 1617.5000     0.5059     1.3074
 1617.6000     0.5058     1.3097
 1617.7000     0.5057     1.3123
 1617.8000     0.5056     1.3149
 1617.9000     0.5055     1.3179
 1618.0000     0.5054     1.3200
 1618.1000     0.5052     1.3226
 1618.2000     0.5051     1.3251
 1618.3000     0.5050     1.3277
 1618.4000     0.5049     1.3305
 1618.5000     0.5061     1.3329
 1618.6000     0.5082     1.3354
 1618.7000     0.5103     1.3380
 1618.8000     0.5124     1.3406
 1618.9000     0.5145     1.3431
 1619.0000     0.5182     1.3457
 1619.1000     0.5225     1.3483
 1619.2000     0.5267     1.3509
 1619.3000     0.5310     1.3534
 1619.4000     0.5360     1.3560
 1619.5000     0.5377     1.3588
 1619.6000     0.5398     1.3611
 1619.7000     0.5419     1.3637
 1619.8000     0.5440     1.3663
 1619.9000     0.5461     1.3693
 1620.0000     0.5503     1.3714
 1620.1000     0.5546     1.3740
 1620.2000     0.5589     1.3766
 1620.3000     0.5632     1.3791
 1620.4000     0.5675     1.3819
 1620.5000     0.5718     1.3843
 1620.6000     0.5760     1.3869
 1620.7000     0.5803     1.3894
 1620.8000     0.5846     1.3920
 1620.9000     0.5889     1.3946
 1621.0000     0.5932     1.3971
 1621.1000     0.5975     1.3998
 1621.2000     0.6018     1.4023
 1621.3000     0.6060     1.4050
 1621.4000     0.6127     1.4074
 1621.5000     0.6235     1.4100
 1621.6000     0.6344     1.4126
 1621.7000     0.6453     1.4155
 1621.8000     0.6562     1.4177
 1621.9000     0.6670     1.4208
 1622.0000     0.6779     1.4229
 1622.1000     0.6888     1.4254
 1622.2000     0.6997     1.4280
 1622.3000     0.7105     1.4306
 1622.4000     0.7227     1.4331
 1622.5000     0.7358     1.4357
 1622.6000     0.7489     1.4383
 1622.7000     0.7620     1.4409
 1622.8000     0.7750     1.4434
 1622.9000     0.7849     1.4460
 1623.0000     0.7936     1.4486
 1623.1000     0.8023     1.4511
 1623.2000     0.8109     1.4537
 1623.3000     0.8209     1.4563
 1623.4000     0.8245     1.4589
 1623.5000     0.8288     1.4617
 1623.6000     0.8331     1.4640
 1623.7000     0.8374     1.4666
 1623.8000     0.8418     1.4691
 1623.9000     0.8416     1.4722
 1624.0000     0.8415     1.4743
 1624.1000     0.8414     1.4769
 1624.2000     0.8413     1.4794
 1624.3000     0.8405     1.4820
 1624.4000     0.8338     1.4846
 1624.5000     0.8271     1.4871
 1624.6000     0.8204     1.4900
 1624.7000     0.8137     1.4923
 1624.8000     0.8060     1.4949
 1624.9000     0.7949     1.4974
 1625.0000     0.7838     1.5000
 1625.1000     0.7727     1.5026
 1625.2000     0.7616     1.5051
 1625.3000     0.7474     1.5077
 1625.4000     0.7275     1.5103
 1625.5000     0.7076     1.5129
 1625.6000     0.6877     1.5154
 1625.7000     0.6679     1.5184
 1625.8000     0.6494     1.5206
 1625.9000     0.6326     1.5231
 1626.0000     0.6157     1.5257
 1626.1000     0.5988     1.5283
 1626.2000     0.5822     1.5310
 1626.3000     0.5838     1.5334
 1626.4000     0.5854     1.5360
 1626.5000     0.5870     1.5386
 1626.6000     0.5886     1.5787
 1626.7000     0.5901     1.7125
 1626.8000     0.5917     1.7610
 1626.9000     0.5933     1.7631
 1627.0000     0.5949     1.7657
 1627.1000     0.5964     1.7683
 1627.2000     0.5980     1.7709
 1627.3000     0.5996     1.7736
 1627.4000     0.6012     1.7760
 1627.5000     0.6027     1.7786
 1627.6000     0.6043     1.7811
 1627.7000     0.6059     1.7841
 1627.8000     0.6075     1.7863
 1627.9000     0.6090     1.7893
 1628.0000     0.6106     1.7914
 1628.1000     0.6123     1.7940
 1628.2000     0.6027     1.7966
 1628.3000     0.5924     1.7991
 1628.4000     0.5821     1.8019
 1628.5000     0.5717     1.8043
 1628.6000     0.5614     1.8069
 1628.7000     0.5511     1.8094
 1628.8000     0.5408     1.8124
 1628.9000     0.5304     1.8146
 1629.0000     0.5201     1.8171
 1629.1000     0.5098     1.8197
 1629.2000     0.4994     1.8223
 1629.3000     0.4891     1.8249
 1629.4000     0.4788     1.8274
 1629.5000     0.4685     1.8303
 1629.6000     0.4581     1.8326
 1629.7000     0.4478     1.8351
 1629.8000     0.4375     1.8377
 1629.9000     0.4271     1.8403
 1630.0000     0.4168     1.8429
 1630.1000     0.4067     1.8454
 1630.2000     0.4198     1.8480
 1630.3000     0.4326     1.8506
 1630.4000     0.4453     1.8531
 1630.5000     0.4581     1.8737
 1630.6000     0.4708     2.0729
 1630.7000     0.4836     2.0751
 1630.8000     0.4963     2.0777
 1630.9000     0.5091     2.0803
 1631.0000     0.5218     2.0829
 1631.1000     0.5346     2.0855
 1631.2000     0.5473     2.0880
 1631.3000     0.5601     2.0906
 1631.4000     0.5728     2.0931
 1631.5000     0.5856     2.0957
 1631.6000     0.5983     2.0983
 1631.7000     0.6111     2.1012
 1631.8000     0.6191     2.1034
 1631.9000     0.6190     2.1060
 1632.0000     0.6188     2.1086
 1632.1000     0.6187     2.1111
 1632.2000     0.6186     2.1137
 1632.3000     0.6185     2.1163
 1632.4000     0.6184     2.1189
 1632.5000     0.6183     2.1035
 1632.6000     0.6182     1.9100
 1632.7000     0.6181     1.9123
 1632.8000     0.6180     1.9149
 1632.9000     0.6179     1.9174
 1633.0000     0.6178     1.9200
