~VERSION INFORMATION
 VERS.                2.0:   CWLS LOG ASCII STANDARD - VERSION 2.0
 WRAP.                 NO:   ONE LINE PER DEPTH STEP
~WELL INFORMATION
#MNEM.UNIT      DATA TYPE    INFORMATION
#----------   ------------   ------------------------------
 STRT.F           26.0000:   START DEPTH
 STOP.F          476.0000:   STOP DEPTH
 STEP.F            0.5000:   STEP LENGTH
 NULL.          -999.2500:   NO VALUE
 COMP. FENIX & SCISSON INC:   COMPANY
 WELL.         SX-3 #66-3:   WELL
 FLD .             TEAPOT:   FIELD
 LOC .       S3 T38N R78W:   LOCATION
 CNTY.            NATRONA:   COUNTY
 STAT.            WYOMING:   STATE
 CTRY. UNITED STATES OF AMERICA:   COUNTRY
 SRVC.              Welex:   SERVICE COMPANY
 DATE.        02-APR-1977:   LOGDATE
 API .       490251032800:   API NUMBER
~CURVE INFORMATION
#MNEM.UNIT       API CODE    CURVE DESCRIPTION
#----------   ------------   ------------------------------
 DEPT.F                  :   
 CALD.IN     45 280 60 00:   CALIPER FROM DENSITY LOG
 GRD .GAPI   45 310 01 00:   GAMMA RAY FROM DENSITY LOG
 CORR.G/C3   45 356 01 00:   DENSITY CORRECTION
 DPHI.DEC    45 890 12 00:   DENSITY POROSITY SANDSTONE
 RHOB.G/C3   45 350 01 00:   BULK DENSITY
~PARAMETER INFORMATION
#MNEM.UNIT          VALUE    DESCRIPTION
#----------   ------------   ------------------------------
 PD  .                 GL:   PERMANENT DATUM
 LMF .                 GL:   LOG MEASURED FROM
 DMF .                 GL:   DRILLING MEASURED FROM
 EGL .F              5152:   GROUND LEVEL
 DATE.        02-APR-1977:   RUN DATE
 RUN .                  1:   RUN NUMBER
 DD  .F               485:   DEPTH DRILLER
 DL  .F               480:   DEPTH LOGGER
 BLI .F               478:   BOTTOM LOG INTERVAL
 TLI .F                34:   TOP LOG INTERVAL
 CS  .IN            8.625:   CASING SIZE
 BS  .IN            7.875:   BIT SIZE
 BSD .F               485:   BIT SIZE AT DEPTH
 DFT .                KCL:   DRILLING FLUID TYPE
 DFD .                8.9:   DRILLING FLUID DENSITY
 BHT .F                61:   BOTTOM HOLE TEMPERATURE
 TCS .HRS            0300:   TIME CURCULATED STOPPED
 MRT .F                61:   MAXIMUM RECORDED TEMPERATURE
 ENGI.            C. DOAK:   RECORDING ENGINEER
 WITN.   R. B. HARRINGTON:   WITNESSED BY
 CLNT.            A2DTECH:   CLIENT CODE
 ORIG.           5" PRINT:   ORIGIN OF DATA
 UWI .       490251032800:   UNIQUE WELL ID
 DICO. A2D Technologies, Inc.:   DIGITIZING COMPANY
~OTHER INFORMATION
~A   DEPT       CALD      GRD       CORR       DPHI       RHOB   
# ...
  331.0000     7.8839    86.3792     0.0270     0.1545     2.3958
  331.5000     7.8851    88.3271     0.0271     0.1560     2.3884
  332.0000     7.8711    87.4518     0.0242     0.1578     2.3827
  332.5000     7.8726    86.2794     0.0213     0.1604     2.3797
  333.0000     7.8587    85.7013     0.0199     0.1625     2.3761
  333.5000     7.8601    85.4163     0.0186     0.1649     2.3725
  334.0000     7.8613    87.2197     0.0187     0.1666     2.3673
  334.5000     7.8625    89.3121     0.0158     0.1675     2.3652
  335.0000     7.8485    84.2804     0.0159     0.1654     2.3690
  335.5000     7.8649    83.4038     0.0130     0.1624     2.3743
  336.0000     7.8660    83.1229     0.0132     0.1600     2.3789
  336.5000     7.8672    84.1064     0.0118     0.1584     2.3812
  337.0000     7.8684    87.3205     0.0104     0.1581     2.3813
  337.5000     7.8696    90.5275     0.0075     0.1620     2.3776
  338.0000     7.8559    92.1033     0.0046     0.1655     2.3687
  338.5000     7.8571    90.3365     0.0017     0.1664     2.3643
  339.0000     7.8583    90.2082     0.0019     0.1652     2.3697
  339.5000     7.8596    88.8872     0.0065     0.1568     2.3832
  340.0000     7.8607    87.1204     0.0111     0.1484     2.3952
  340.5000     7.8618    86.5382     0.0158     0.1412     2.4058
  341.0000     7.8631    88.3416     0.0174     0.1382     2.4126
  341.5000     7.8641    86.8720     0.0175     0.1421     2.4089
  342.0000     7.8653    85.4024     0.0176     0.1501     2.3970
  342.5000     7.8666    85.5672     0.0177     0.1507     2.3941
  343.0000     7.8678    86.6236     0.0179     0.1501     2.3980
  343.5000     7.8688    86.1941     0.0180     0.1518     2.4025
  344.0000     7.8701    86.0577     0.0181     0.1548     2.3906
  344.5000     7.8713    87.1181     0.0182     0.1566     2.3848
  345.0000     7.8725    88.4717     0.0183     0.1569     2.3826
  345.5000     7.8587    89.6767     0.0184     0.1520     2.3961
  346.0000     7.8303    90.2873     0.0201     0.1490     2.4007
  346.5000     7.8167    90.4521     0.0217     0.1481     2.3993
  347.0000     7.8178    90.3158     0.0233     0.1469     2.3994
  347.5000     7.8192    90.6333     0.0234     0.1439     2.4069
  348.0000     7.8203    90.9467     0.0235     0.1391     2.4197
  348.5000     7.8215    91.1116     0.0252     0.1337     2.4250
  349.0000     7.8257    91.1278     0.0268     0.1301     2.4326
  349.5000     7.8386    89.6582     0.0299     0.1274     2.4386
  350.0000     7.8560    87.9467     0.0315     0.1246     2.4447
  350.5000     7.8654    87.4578     0.0301     0.1210     2.4470
  351.0000     7.8749    89.8536     0.0288     0.1264     2.4371
  351.5000     7.8844    92.2457     0.0304     0.1252     2.4366
  352.0000     7.8879    94.3407     0.0322     0.1207     2.4473
  352.5000     7.8739    95.2469     0.0354     0.1183     2.4541
  353.0000     7.8748    94.0730     0.0380     0.1168     2.4599
  353.5000     7.8608    91.2645     0.0396     0.1174     2.4606
  354.0000     7.8468    89.6448     0.0411     0.1203     2.4502
  354.5000     7.8477    88.1736     0.0442     0.1230     2.4391
  355.0000     7.8486    85.8109     0.0473     0.1267     2.4279
  355.5000     7.8495    84.0426     0.0504     0.1322     2.4137
  356.0000     7.8504    82.1256     0.0535     0.1471     2.3936
  356.5000     7.8513    79.1686     0.0505     0.1629     2.3742
  357.0000     7.8522    77.5489     0.0461     0.1767     2.3473
  357.5000     7.8383    76.5235     0.0387     0.1955     2.3204
  358.0000     7.8243    75.6467     0.0297     0.2101     2.2996
  358.5000     7.7807    74.6211     0.0223     0.2196     2.2802
  359.0000     7.7206    75.2303     0.0149     0.2253     2.2727
  359.5000     7.6327    79.2749     0.0119     0.2271     2.2698
  360.0000     7.6053    81.0649     0.0090     0.2239     2.2728
  360.5000     7.6533    82.1407     0.0091     0.2165     2.2803
  361.0000     7.7408    83.0163     0.0212     0.2073     2.2968
  361.5000     7.8159    83.6518     0.0318     0.1953     2.3178
  362.0000     7.8464    84.2377     0.0379     0.1816     2.3395
  362.5000     7.8622    84.2524     0.0348     0.1795     2.3447
  363.0000     7.8779    84.1185     0.0273     0.1869     2.3365
  363.5000     7.8788    83.0931     0.0228     0.1920     2.3231
  364.0000     7.8945    80.7304     0.0214     0.1952     2.3209
  364.5000     7.8954    77.7734     0.0202     0.1976     2.3202
  365.0000     7.8962    76.4508     0.0203     0.1988     2.3180
  365.5000     7.8823    76.6141     0.0204     0.1976     2.3121
  366.0000     7.8832    77.2232     0.0204     0.1949     2.3168
  366.5000     7.8690    78.2781     0.0220     0.1898     2.3280
  367.0000     7.8553    79.7787     0.0221     0.1844     2.3394
  367.5000     7.8561    81.1307     0.0237     0.1805     2.3492
  368.0000     7.8570    81.5875     0.0252     0.1751     2.3586
  368.5000     7.8579    80.4172     0.0268     0.1703     2.3601
  369.0000     7.8588    80.1311     0.0284     0.1771     2.3467
  369.5000     7.8448    80.8924     0.0285     0.1772     2.3430
  370.0000     7.8160    81.3529     0.0300     0.1738     2.3535
  370.5000     7.8021    80.4761     0.0316     0.1756     2.3521
  371.0000     7.7881    78.2620     0.0332     0.1789     2.3543
  371.5000     7.7445    76.7908     0.0348     0.1782     2.3589
  372.0000     7.7157    76.6568     0.0363     0.1718     2.3641
  372.5000     7.7018    76.9689     0.0379     0.1710     2.3604
  373.0000     7.7349    78.0025     0.0380     0.1760     2.3552
  373.5000     7.8076    80.4183     0.0365     0.1806     2.3500
  374.0000     7.8381    79.0957     0.0336     0.1838     2.3426
  374.5000     7.8390    78.6610     0.0292     0.1880     2.3322
  375.0000     7.8100    80.4625     0.0263     0.1925     2.3232
  375.5000     7.8111    80.9193     0.0249     0.1957     2.3181
  376.0000     7.7821    79.1546     0.0234     0.1981     2.3129
  376.5000     7.7533    77.9806     0.0250     0.1996     2.3107
  377.0000     7.7544    77.2524     0.0266     0.2016     2.3099
  377.5000     7.7553    76.9663     0.0282     0.2028     2.3100
  378.0000     7.7562    79.8079     0.0282     0.2007     2.3160
  378.5000     7.7571    81.3085     0.0268     0.1932     2.3257
  379.0000     7.7579    82.2147     0.0254     0.1863     2.3362
  379.5000     7.7588    81.9323     0.0238     0.1848     2.3400
  380.0000     7.7745    80.1639     0.0208     0.1887     2.3341
  380.5000     7.7754    79.8811     0.0181     0.1863     2.3311
  381.0000     7.7614    81.0849     0.0185     0.1788     2.3403
  381.5000     7.7623    82.2884     0.0273     0.1722     2.3548
  382.0000     7.7484    82.3031     0.0333     0.1635     2.3705
  382.5000     7.7344    82.4666     0.0364     0.1468     2.3864
  383.0000     7.7353    82.9401     0.0365     0.1423     2.4031
  383.5000     7.7512    83.7033     0.0381     0.1411     2.4098
  384.0000     7.7824    84.7637     0.0412     0.1499     2.3860
  384.5000     7.8270    86.9866     0.0427     0.1599     2.3810
  385.0000     7.8427    88.7844     0.0458     0.1631     2.3778
  385.5000     7.8733    89.8392     0.0489     0.1603     2.3831
  386.0000     7.8892    90.7455     0.0505     0.1634     2.3712
  386.5000     7.8752    90.9088     0.0520     0.1610     2.3772
  387.0000     7.8611    89.5862     0.0551     0.1565     2.3847
  387.5000     7.8323    85.7377     0.0582     0.1538     2.3892
  388.0000     7.8037    83.8207     0.0613     0.1523     2.3885
  388.5000     7.7748    85.4699     0.0643     0.1547     2.3863
  389.0000     7.7311    87.0550     0.0674     0.1577     2.3826
  389.5000     7.6876    89.3615     0.0675     0.1594     2.3789
  390.0000     7.6292    85.6615     0.0676     0.1605     2.3752
  390.5000     7.5707    84.3389     0.0646     0.1608     2.3730
  391.0000     7.5417    85.9901     0.0617     0.1590     2.3812
  391.5000     7.5428    86.5972     0.0588     0.1569     2.3873
