~VERSION INFORMATION
 VERS.                2.0:   CWLS LOG ASCII STANDARD - VERSION 2.0
 WRAP.                 NO:   ONE LINE PER DEPTH STEP
~WELL INFORMATION
#MNEM.UNIT      DATA TYPE    INFORMATION
#----------   ------------   ------------------------------
 STRT.F           80.0000:   START DEPTH
 STOP.F          660.0000:   STOP DEPTH
 STEP.F            0.5000:   STEP LENGTH
 NULL.          -999.2500:   NO VALUE
 COMP. U S NAVY-INTEX OIL:   COMPANY
 WELL.    NPR #3 #34 S-11:   WELL
 FLD .             TEAPOT:   FIELD
 LOC .      S11 T38N R78W:   LOCATION
 CNTY.            NATRONA:   COUNTY
 STAT.            WYOMING:   STATE
 CTRY. UNITED STATES OF AMERICA:   COUNTRY
 SRVC.       Schlumberger:   SERVICE COMPANY
 DATE.        10-JUL-1962:   LOGDATE
 API .       490250635000:   API NUMBER
~CURVE INFORMATION
#MNEM.UNIT       API CODE    CURVE DESCRIPTION
#----------   ------------   ------------------------------
 DEPT.F                  :   
 SPR .MV     05 010 01 00:   SPONTANEOUS POTENTIAL FROM RES.
 ASN .OHMM   05 041 16 00:   AMPLIFIED SHORT NORMAL 16"
 ILD .OHMM   05 120 46 00:   INDUCTION LOG DEEP
 GR  .GAPI   30 310 01 00:   GAMMA RAY
 CALM.IN     15 280 01 00:   CALIPER FROM MICRO LOG
 CILD.MMHO   05 110 46 00:   CONDUCTIVITY INDUCTION LOG DEEP
~PARAMETER INFORMATION
#MNEM.UNIT          VALUE    DESCRIPTION
#----------   ------------   ------------------------------
 CLNT.            A2DTECH:   CLIENT CODE
 UWI .       490250635000:   UNIQUE WELL ID
 DICO. A2D Technologies, Inc.:   DIGITIZING COMPANY
~OTHER INFORMATION
~A   DEPT      SPR        ASN        ILD         GR       CALM        CILD  
# ...
  600.0000   -63.1498    11.6844    10.1272    71.7227     7.3115    87.1937
  600.5000   -63.3238    11.8329    10.1994    66.4538     7.3264    86.2978
  601.0000   -63.4651    12.0574    10.2717    71.6041     7.3414    85.4019
  601.5000   -63.9283    12.4888    10.4847    65.2217     7.3515    84.4745
  602.0000   -63.9328    12.9347    10.8581    49.8864     7.3502    80.7539
  602.5000   -63.9373    13.5324    11.3493    41.9867     7.3492    76.2803
  603.0000   -63.7890    14.3151    12.5718    36.9700     7.3329    70.9152
  603.5000   -63.9465    15.0789    13.7943    26.7941     7.3014    62.6510
  604.0000   -64.1040    16.3045    15.3724    21.1727     7.2851    55.8235
  604.5000   -64.8740    17.5525    18.0116    29.6591     7.2232    49.3609
  605.0000   -66.2547    19.5287    19.8955    35.7199     7.1613    44.1343
  605.5000   -68.0940    21.6486    21.4042    45.8778     7.0841    38.9077
  606.0000   -69.4747    25.9689    23.4667    39.6472     7.1135    35.1871
  606.5000   -70.3966    28.1647    25.0569    41.7626     7.2044    32.2195
  607.0000   -71.0128    28.2372    25.4672    38.7186     7.2807    30.0050
  607.5000   -71.4760    27.7005    24.6310    40.6845     7.3385    30.0494
  608.0000   -71.7864    27.2407    23.7958    38.2475     7.3070    31.5999
  608.5000   -72.0967    26.7810    23.4138    40.0572     7.2146    33.1504
  609.0000   -72.1012    26.2454    23.1829    43.0835     7.1070    34.7009
  609.5000   -71.7999    25.7098    22.8009    37.5872     7.0451    36.2514
  610.0000   -70.4283    26.0099    22.4190    41.2443     7.0288    37.8019
  610.5000   -70.2686    25.1697    22.1125    39.8693     7.0125    39.3524
  611.0000   -71.8135    25.3170    21.7305    43.0469     6.9963    40.1506
  611.5000   -72.1238    25.3885    21.3485    53.9635     7.0105    40.2888
  612.0000   -71.3476    25.0045    20.9666    49.0986     7.0094    41.0030
  612.5000   -70.9096    24.0137    20.6601    51.3657     7.0084    41.0475
  613.0000   -70.9152    23.1745    20.2026    54.0881     7.0225    42.5980
  613.5000   -71.5314    23.0941    19.8961    41.2920     7.0215    43.3955
  614.0000   -71.3819    23.1017    19.7407    45.4266     7.0354    44.1930
  614.5000   -70.2544    22.8565    19.5773    49.0534     7.1105    44.9905
  615.0000   -69.6381    22.5485    19.3416    46.0094     7.2464    45.7879
  615.5000   -69.2548    22.0888    19.1224    47.3661     7.2761    46.5854
  616.0000   -69.4133    22.0084    18.8915    45.8977     7.2903    48.1359
  616.5000   -69.1120    21.7004    18.6605    49.6219     7.2889    48.9334
  617.0000   -68.3520    21.2407    18.5052    56.5954     7.2879    49.7309
  617.5000   -67.2862    21.0086    18.3498    52.3375     7.2869    49.0211
  618.0000   -67.1376    21.1558    18.1944    48.2291     7.2858    48.3133
  618.5000   -67.4481    21.0755    17.9634    44.7299     7.2848    46.8523
  619.0000   -67.7585    20.5399    17.8836    47.7557     7.2837    46.1438
  619.5000   -68.0688    20.6124    17.6526    55.0305     7.2826    45.4352
  620.0000   -68.2263    20.7585    17.6483    64.8848     7.2814    46.9968
  620.5000   -68.2309    20.6023    17.3418    62.4479     7.2803    47.0413
  621.0000   -68.2355    19.4597    17.0354    63.5010     7.2793    48.5918
  621.5000   -67.3235    19.0000    16.5023    69.7135     7.2782    49.3893
  622.0000   -66.4106    19.0713    16.0414    78.2022     7.2772    50.1868
  622.5000   -66.2611    18.2979    15.5809    72.4269     7.2916    51.7373
  623.0000   -66.7254    17.9241    15.5073    75.4527     7.3058    52.5348
  623.5000   -67.0346    17.9196    15.4265    72.7123     7.3045    53.3323
  624.0000   -66.4286    18.0659    15.3466    71.9468     7.3035    54.1298
  624.5000   -65.8215    18.1384    15.2668    70.7215     7.3024    54.9273
  625.0000   -65.5191    18.1328    15.1869    67.5258     7.3014    55.7247
  625.5000   -65.8306    17.9007    15.1070    69.3377     7.2851    55.7692
  626.0000   -66.5996    17.5927    15.1027    76.7642     7.2840    55.8137
  626.5000   -66.9100    17.2847    15.0984    79.7900     7.2828    55.8585
  627.0000   -67.0674    17.2043    15.0940    75.2286     7.2665    55.1496
  627.5000   -67.0719    17.0481    15.1663    66.4184     7.2654    55.0826
  628.0000   -66.0020    17.0436    15.2375    63.3623     7.2644    53.7326
  628.5000   -65.0800    17.1920    15.3833    68.2212     7.2634    53.0240
  629.0000   -65.2732    17.4899    15.4543    66.0572     7.2623    51.5625
  629.5000   -64.7975    17.7889    15.4500    61.3746     7.2767    50.1121
  630.0000   -63.5788    18.1637    15.5211    72.1395     7.2909    50.1565
  630.5000   -62.2072    18.1592    15.5167    46.4855     7.2896    49.4369
  631.0000   -61.2943    18.1547    15.4368    46.0212     7.2886    50.2455
  631.5000   -60.9919    17.7668    15.3430    45.8604     7.2559    51.7960
  632.0000   -61.1504    17.1412    15.0495    73.6327     7.1592    54.8525
  632.5000   -61.6136    16.6136    14.8186  -999.2500     7.0416    59.4151
  633.0000   -62.3827    16.1356    14.4366  -999.2500     7.0406    63.9776
  633.5000   -63.6104    15.6274    13.9036  -999.2500     7.0396    67.0341
  634.0000   -65.2969    15.1676    13.2950  -999.2500     7.0385    69.3376
  634.5000   -66.2189    14.7838    12.9130  -999.2500     7.0375    70.1355
  635.0000   -66.2234    14.5517    12.6821  -999.2500     7.1277    70.1807
  635.5000   -65.4634    14.4713    12.6022  -999.2500     7.2485    70.2259
  636.0000   -64.8563    14.3151    12.5979  -999.2500     7.2933    70.2797
  636.5000   -64.4021    14.1588    12.4425  -999.2500     7.3073    70.3242
  637.0000   -64.2537    13.9267    12.3626  -999.2500     7.3062    71.1217
  637.5000   -64.1053    13.8464    12.3583  -999.2500     7.3052    71.1661
  638.0000   -63.6523    13.6143    12.2784  -999.2500     7.3041    71.2106
  638.5000   -63.3510    13.5339    12.1201  -999.2500     7.3183    72.0081
  639.0000   -63.0497    13.4535    12.0431  -999.2500     7.3170    72.8056
  639.5000   -62.9002    13.2973    11.9631  -999.2500     7.3160    73.6031
  640.0000   -62.6000    13.2169    11.7313  -999.2500     7.3149    75.1536
  640.5000   -62.4516    12.9848    11.6514  -999.2500     7.3139    75.9510
  641.0000   -62.3032    12.9044    11.4205  -999.2500     7.3128    76.7485
  641.5000   -62.0019    12.8240    11.3406  -999.2500     7.3273    77.5460
  642.0000   -61.8524    12.6565    11.1852  -999.2500     7.3260    77.5905
  642.5000   -61.5522    12.5864    11.1054  -999.2500     7.3249    78.3886
  643.0000   -61.4037    12.4301    11.1010  -999.2500     7.3239    78.4338
  643.5000   -61.2554    12.3498    11.0211  -999.2500     7.3228    78.4790
  644.0000   -61.2600    12.2694    11.0168  -999.2500     7.3218    78.5326
  644.5000   -61.2645    12.2649    11.0125  -999.2500     7.3207    77.0710
  645.0000   -61.1161    12.2604    11.0081  -999.2500     7.3194    76.3625
  645.5000   -61.2737    12.2559    11.0794  -999.2500     7.3184    76.4069
  646.0000   -61.0968    12.2514    11.1505  -999.2500     7.3173    75.6873
  646.5000   -60.3663    12.2469    11.2972  -999.2500     7.3163    76.4959
  647.0000   -60.0639    12.2424    11.3684  -999.2500     7.3152    76.5404
  647.5000   -60.0695    12.3149    11.3639  -999.2500     7.3142    77.3379
  648.0000   -60.0740    12.2334    11.3586  -999.2500     7.3132    78.1353
  648.5000   -60.0786    12.2290    11.2788  -999.2500     7.2969    78.9328
  649.0000   -60.0831    12.2245    11.0479  -999.2500     7.2958    79.7303
  649.5000   -60.0876    12.2200    10.9680  -999.2500     7.2948    80.5278
  650.0000   -60.0921    12.1396    10.9636  -999.2500     7.2938    80.5723
  650.5000   -59.9426    12.1351    11.0348  -999.2500     7.2775    80.6175
  651.0000   -59.9483    12.1305    11.0305  -999.2500     7.2764    80.6626
  651.5000   -59.7997    12.1259    11.0262  -999.2500     7.2906    80.7168
