~VERSION INFORMATION
 VERS.                2.0:   CWLS LOG ASCII STANDARD - VERSION 2.0
 WRAP.                 NO:   ONE LINE PER DEPTH STEP
~WELL INFORMATION
#MNEM.UNIT      DATA TYPE    INFORMATION
#----------   ------------   ------------------------------
 STRT.F            6.0000:   START DEPTH
 STOP.F         4020.0000:   STOP DEPTH
 STEP.F            0.5000:   STEP LENGTH
 NULL.          -999.2500:   NO VALUE
 COMP. LAWRENCE/ALLISON INC:   COMPANY
 WELL.       66 JX #33-33:   WELL
 FLD .              NPR-3:   FIELD
 LOC .      S33 T39N R78W:   LOCATION
 CNTY.            NATRONA:   COUNTY
 STAT.            WYOMING:   STATE
 CTRY. UNITED STATES OF AMERICA:   COUNTRY
 SRVC.      Dresser Atlas:   SERVICE COMPANY
 DATE.        02-DEC-1983:   LOGDATE
 API .       490251095100:   API NUMBER
~CURVE INFORMATION
#MNEM.UNIT       API CODE    CURVE DESCRIPTION
#----------   ------------   ------------------------------
 DEPT.F                  :   
 CALD.IN     45 280 60 00:   CALIPER
 CNC .DEC    42 890 03 00:   NEUTRON POROSITY SANDSTONE
 PORD.DEC    45 890 12 00:   POROSITY DENSITY SANDSTONE
 DEN .G/C3   45 350 01 00:   COMPENSATED BULK DENSTIY
 CORR.G/C3   45 356 01 00:   DENSITY CORRECTION
 RFOC.OHMM   07 220 04 00:   RESISTIVITY FOCUSED LOG
 RILD.OHMM   07 120 46 00:   INDUCTION LOG DEEP RESISTIVITY
 RILM.OHMM   07 120 44 00:   INDUCTION LOG MEDIUM RESISTIVITY
 GRR .GAPI   07 310 01 00:   GAMMA RAY FROM RES. LOG.
 DT  .US/F   60 520 00 00:   INTERVAL TRANSIT TIME
 SPR .MV     07 010 01 00:   SPONTANEOUS POTENTIAL
~PARAMETER INFORMATION
#MNEM.UNIT          VALUE    DESCRIPTION
#----------   ------------   ------------------------------
 PD  .                 GL:   PERMANENT DATUM
 EPD .F              5141:   ELEVATION PERMANENT DATUM
 LMF .                 KB:   LOG MEASURED FROM
 DAPD.F                10:   FEET ABOVE PERMANENT DATUM
 DMF .                 KB:   DRILLING MEASURED FROM
 EKB .F              5151:   KELLING BUSHING
 EGL .F              5141:   GROUND LEVEL
 DATE.            12-2-83:   RUN DATE
 RUN .                  1:   RUN NUMBER
 DD  .F              4025:   DEPTH DRILLER
 DL  .F              4020:   DEPTH LOGGER
 BLI .F              4018:   BOTTOM LOG INTERVAL
 TLI .F                10:   TOP LOG INTERVAL
 CS  .IN            8.625:   CASING SIZE
 CBD .F               718:   CASING BOTTOM DRILLER
 CBL .F               722:   CASING BOTTOM LOGGER
 BS  .IN            7.875:   BIT SIZE
 BSD .F              4025:   BIT SIZE AT DEPTH
 DFT .            GEL/KCL:   DRILLING FLUID TYPE
 DFD .                  9:   DRILLING FLUID DENSITY
 DFV .                 45:   DRILLING FLUID VISCOSITY
 DFPH.                8.5:   DRILLING FLUID PH
 DFL .                 12:   DRILLING FLUID LOSS
 MSS .           FLOWLINE:   MUD SAMPLE SOURCE
 RMS .OHMM            .37:   RESISTIVITY MUD SAMPLE
 MST .F                88:   MUD SAMPLE TEMPERATURE
 RMF .OHMM            .29:   RESISTIVITY MUD FILTRATE SAMPLE
 MFST.F                88:   MUD FILTRATE SAMPLE TEMPERATURE
 RMC .OHMM            .46:   RESISTIVITY MUD CAKE
 MCST.F                88:   MUD CAKE SAMPLE TEMPERATURE
 MFSS.               MEAS:   MUD FILTRATE SAMPLE SOURCE
 MCSS.               CALC:   MUD CAKE SAMPLE SOURCE
 RMB .OHMM            .26:   RESISTIVITY MUD AT BHT
 BHT .F               127:   BOTTOM HOLE TEMPERATURE
 TCS .HRS               4:   TIME CURCULATED STOPPED
 MRT .F               127:   MAXIMUM RECORDED TEMPERATURE
 LUN .               6264:   LOGGING UNIT NUMBER
 LUL .              WLSTN:   LOGGING UNIT LOCATION
 ENGI.            PANASUK:   RECORDING ENGINEER
 WITN.              SCOTT:   WITNESSED BY
 CLNT.            A2DTECH:   CLIENT CODE
 ORIG.       2", 5" PRINT:   ORIGIN OF DATA
 UWI .       490251095100:   UNIQUE WELL ID
 DICO. A2D Technologies, Inc.:   DIGITIZING COMPANY
~OTHER INFORMATION
~A    DEPT    CALD        CNC       PORD        DEN       CORR       RFOC       RILD       RILM          GRR       DT        SPR   
# ...
 1592.0000     9.0815     0.2452     0.0417     2.5773     0.0824     7.3361     7.0710     6.7504    97.8922  -999.2500   -35.0291
 1592.5000     9.0823     0.2462     0.0445     2.5736     0.0668     7.2805     7.0710     6.7829    97.4905  -999.2500   -34.9498
 1593.0000     9.0831     0.2507     0.0439     2.5768     0.0546     7.2358     7.0710     6.8156    98.4834  -999.2500   -34.9056
 1593.5000     9.0836     0.2554     0.0394     2.5850     0.0784     7.2023     7.0710     6.8485    99.0903  -999.2500   -34.7784
 1594.0000     9.0822     0.2570     0.0349     2.5931     0.1074     7.2254     7.0710     6.8815   100.0190  -999.2500   -34.6646
 1594.5000     9.0807     0.2657     0.0330     2.5901     0.0950     7.2440     7.0935     6.9147   101.5812  -999.2500   -34.8486
 1595.0000     9.0793     0.2796     0.0369     2.5801     0.0823     7.2626     7.1281     6.9481   101.6399  -999.2500   -35.0066
 1595.5000     9.0778     0.2830     0.0435     2.5716     0.0693     7.3501     7.1628     7.0062    99.0715  -999.2500   -35.1745
 1596.0000     9.0764     0.2768     0.0472     2.5718     0.0717     7.5414     7.2023     6.9978    95.3648  -999.2500   -35.3508
 1596.5000     9.0749     0.2718     0.0462     2.5722     0.0816     7.4969     7.1965     6.9664    94.8620  -999.2500   -35.3875
 1597.0000     9.0735     0.2746     0.0466     2.5712     0.0914     7.4030     7.1751     6.9350    97.6503  -999.2500   -35.1409
 1597.5000     9.0721     0.2700     0.0476     2.5684     0.0800     7.3104     7.1538     6.9042   100.5797  -999.2500   -35.0569
 1598.0000     9.0706     0.2588     0.0490     2.5668     0.0522     7.2189     7.1325     6.8730   102.6842  -999.2500   -35.4130
 1598.5000     9.0692     0.2476     0.0498     2.5675     0.0479     7.1364     7.1112     6.8422   106.6161  -999.2500   -35.7617
 1599.0000     9.0677     0.2433     0.0466     2.5716     0.0666     7.2266     7.0901     6.8116   108.0360  -999.2500   -36.1137
 1599.5000     9.0663     0.2487     0.0438     2.5741     0.0849     7.3105     7.0710     6.7811   105.8382  -999.2500   -36.4231
 1600.0000     9.0648     0.2625     0.0454     2.5721     0.0829     7.4039     7.0491     6.7538   105.6908  -999.2500   -36.2728
 1600.5000     9.0634     0.2760     0.0478     2.5704     0.0744     7.3185     7.0177     6.7363   108.1708  -999.2500   -36.0847
 1601.0000     9.0620     0.2860     0.0478     2.5731     0.0668     7.2248     6.9865     6.7112   107.2440  -999.2500   -35.9521
 1601.5000     9.0605     0.2878     0.0419     2.5810     0.0737     7.1298     6.9554     6.6857   103.0914  -999.2500   -35.7963
 1602.0000     9.0591     0.2902     0.0353     2.5956     0.0813     7.0634     6.9245     6.6610    99.7258  -999.2500   -35.6510
 1602.5000     9.0576     0.2970     0.0288     2.6046     0.0884     7.0472     6.8937     6.6363   101.6895  -999.2500   -35.5025
 1603.0000     9.0562     0.2882     0.0258     2.5987     0.0722     7.0308     6.8630     6.6117   106.1312  -999.2500   -35.3490
 1603.5000     9.0548     0.2760     0.0306     2.5899     0.0568     7.0143     6.8325     6.5872   106.0054  -999.2500   -35.2392
 1604.0000     9.0533     0.2733     0.0371     2.5811     0.0665     6.9973     6.8021     6.5628   106.1554  -999.2500   -35.2983
 1604.5000     9.0519     0.2820     0.0438     2.5740     0.0766     6.9800     6.7719     6.5385   106.9903  -999.2500   -35.3718
 1605.0000     9.0504     0.2843     0.0466     2.5717     0.0831     6.9627     6.7531     6.5090   105.6249  -999.2500   -35.4145
 1605.5000     9.0490     0.2823     0.0462     2.5724     0.0830     6.9421     6.7531     6.5504   101.4383  -999.2500   -35.0756
 1606.0000     9.0475     0.2798     0.0442     2.5736     0.0830     7.0572     6.7783     6.6219   102.4164  -999.2500   -34.6555
 1606.5000     9.0461     0.2669     0.0442     2.5746     0.0830     7.3361     6.8429     6.6941   106.9301  -999.2500   -34.6413
 1607.0000     9.0447     0.2535     0.0454     2.5705     0.0828     7.3207     6.9081     6.7672   107.1561  -999.2500   -34.7565
 1607.5000     9.0432     0.2558     0.0541     2.5586     0.0789     7.2831     6.9739     6.8410   103.3902  -999.2500   -34.8595
 1608.0000     9.0418     0.2574     0.0630     2.5427     0.0557     7.2456     7.0404     6.9157    98.8249  -999.2500   -34.9619
 1608.5000     9.0403     0.2570     0.0717     2.5303     0.0218     7.2023     7.1075     6.9911    98.3292  -999.2500   -35.0683
 1609.0000     9.0389     0.2631     0.0647     2.5353     0.0294     7.2934     7.1753     7.0674    98.6113  -999.2500   -35.1661
 1609.5000     9.0374     0.2711     0.0554     2.5536     0.0442     7.5046     7.2452     7.1446    98.3909  -999.2500   -35.2821
 1610.0000     9.0360     0.2734     0.0490     2.5679     0.0592     7.7525     7.3356     7.2023    97.5357  -999.2500   -35.3614
 1610.5000     9.0346     0.2640     0.0498     2.5652     0.0726     7.6440     7.3072     7.1290    98.3775  -999.2500   -35.6253
 1611.0000     9.0331     0.2609     0.0578     2.5511     0.0645     7.5199     7.2605     7.0605    99.7436  -999.2500   -36.0335
 1611.5000     9.0317     0.2625     0.0644     2.5407     0.0464     7.3978     7.2140     6.9926    98.9555  -999.2500   -36.4590
 1612.0000     9.0302     0.2622     0.0654     2.5440     0.0414     7.3361     7.1677     6.9253    98.4206  -999.2500   -36.5832
 1612.5000     9.0288     0.2558     0.0578     2.5545     0.0652     7.3361     7.1218     6.8587    98.5665  -999.2500   -36.3567
 1613.0000     9.0274     0.2465     0.0521     2.5638     0.0838     7.3363     7.0764     6.7928    99.0866  -999.2500   -36.1785
 1613.5000     9.0259     0.2378     0.0495     2.5652     0.0940     7.2786     7.0315     6.7275   102.5310  -999.2500   -35.9727
 1614.0000     9.0245     0.2382     0.0484     2.5683     0.0828     7.0968     6.9869     6.6628   108.2739  -999.2500   -35.7840
 1614.5000     9.0230     0.2468     0.0462     2.5746     0.0720     6.9387     6.9426     6.5988   111.0219  -999.2500   -35.5813
 1615.0000     9.0216     0.2522     0.0416     2.5823     0.0742     6.9881     6.8785     6.5692   107.5387  -999.2500   -35.4310
 1615.5000     9.0202     0.2528     0.0373     2.5901     0.0824     7.1979     6.8840     6.6388   104.8324  -999.2500   -35.4629
 1616.0000     9.0187     0.2533     0.0326     2.5935     0.0765     7.1959     6.9000     6.6645   106.9666  -999.2500   -35.5347
 1616.5000     9.0173     0.2624     0.0365     2.5877     0.0710     7.1649     6.9160     6.6903   108.8490  -999.2500   -35.5988
 1617.0000     9.0158     0.2799     0.0410     2.5791     0.0653     7.1364     6.9321     6.7162   106.8169  -999.2500   -35.6657
 1617.5000     9.0144     0.2838     0.0452     2.5708     0.0696     7.3541     6.9482     6.7422   103.5019  -999.2500   -35.7320
 1618.0000     9.0129     0.2727     0.0448     2.5730     0.0810     7.5414     6.9643     6.7683   102.5871  -999.2500   -35.7964
 1618.5000     9.0115     0.2596     0.0422     2.5797     0.0772     7.4129     6.9805     6.7945   104.1813  -999.2500   -35.8654
 1619.0000     9.0101     0.2567     0.0383     2.5861     0.0699     7.3062     6.9967     6.8208   105.5015  -999.2500   -35.9248
 1619.5000     9.0086     0.2454     0.0342     2.5924     0.0688     7.2023     7.0062     6.8472   106.3233  -999.2500   -36.0032
 1620.0000     9.0072     0.2378     0.0348     2.5908     0.0784     7.2241     7.0424     6.8738   106.9587  -999.2500   -35.9760
 1620.5000     9.0057     0.2458     0.0369     2.5848     0.0879     7.2510     7.0871     6.9004   108.2760  -999.2500   -35.8480
 1621.0000     9.0043     0.2568     0.0373     2.5864     0.0970     7.2784     7.1321     6.9271   111.2268  -999.2500   -35.7287
 1621.5000     9.0028     0.2635     0.0334     2.5952     0.0951     7.3046     7.1774     6.9658   111.6068  -999.2500   -35.6545
 1622.0000     9.0014     0.2563     0.0278     2.6025     0.0877     7.3347     7.2229     7.0198   107.7315  -999.2500   -35.9518
