~VERSION INFORMATION
 VERS.                2.0:   CWLS LOG ASCII STANDARD - VERSION 2.0
 WRAP.                 NO:   ONE LINE PER DEPTH STEP
~WELL INFORMATION
#MNEM.UNIT      DATA TYPE    INFORMATION
#----------   ------------   ------------------------------
 STRT.F            0.0000:   START DEPTH
 STOP.F          752.0000:   STOP DEPTH
 STEP.F            0.1000:   STEP LENGTH
 NULL.          -999.2500:   NO VALUE
 COMP. BROWN JOHN E&C INC:   COMPANY
 WELL. N P R 3 STX-34 #53-1-34:   WELL
 FLD .             TEAPOT:   FIELD
 LOC .      S34 T39N R78W:   LOCATION
 CNTY.            NATRONA:   COUNTY
 STAT.            WYOMING:   STATE
 CTRY. UNITED STATES OF AMERICA:   COUNTRY
 SRVC.     Atlas Wireline:   SERVICE COMPANY
 DATE.        29-OCT-1991:   LOGDATE
 API .       490252248700:   API NUMBER
~CURVE INFORMATION
#MNEM.UNIT       API CODE    CURVE DESCRIPTION
#----------   ------------   ------------------------------
 DEPT.F                  :   
 GRR .GAPI   07 310 01 00:   GAMMA RAY
 RILD.OHMM   07 120 46 00:   INDUCTION LOG DEEP RESISTIVITY
 RILM.OHMM   07 120 44 00:   RESITIVITY LONG MEDIUM
~PARAMETER INFORMATION
#MNEM.UNIT          VALUE    DESCRIPTION
#----------   ------------   ------------------------------
 PD  .                 GL:   PERMANENT DATUM
 EPD .F              5067:   ELEVATION PERMANENT DATUM
 LMF .                 KB:   LOG MEASURED FROM
 DAPD.F                10:   FEET ABOVE PERMANENT DATUM
 DMF .                 KB:   DRILLING MEASURED FROM
 EKB .F              5077:   KELLING BUSHING
 EGL .F              5067:   GROUND LEVEL
 DATE.        29-OCT-1991:   RUN DATE
 RUN .                  1:   RUN NUMBER
 DD  .F               760:   DEPTH DRILLER
 DL  .F               760:   DEPTH LOGGER
 BLI .F               758:   BOTTOM LOG INTERVAL
 TLI .F                 0:   TOP LOG INTERVAL
 CS  .IN            9.625:   CASING SIZE
 CBD .F                52:   CASING BOTTOM DRILLER
 CBL .F                52:   CASING BOTTOM LOGGER
 BS  .IN             8.75:   BIT SIZE
 BSD .F               760:   BIT SIZE AT DEPTH
 DFT .        AIR DRILLED:   DRILLING FLUID TYPE
 MRT .F               154:   MAXIMUM RECORDED TEMPERATURE
 LUN .            HL 6307:   LOGGING UNIT NUMBER
 LUL .             CASPER:   LOGGING UNIT LOCATION
 ENGI.          RASMUSSEN:   RECORDING ENGINEER
 WITN.        GARY STRONG:   WITNESSED BY
 CLNT.            A2DTECH:   CLIENT CODE
 ORIG.           5" PRINT:   ORIGIN OF DATA
 UWI .       490252248700:   UNIQUE WELL ID
 DICO. A2D Technologies, Inc.:   DIGITIZING COMPANY
~OTHER INFORMATION
~A    DEPT      GRR      RILD       RILM   
# ...
   54.6000   125.8421     2.2731     2.6850
   54.7000   125.8415     2.2601     2.6793
   54.8000   125.8409     2.2470     2.6794
   54.9000   125.8401     2.2321     2.6794
   55.0000   125.8396     2.2213     2.6795
   55.1000   125.9986     2.2085     2.6642
   55.2000   126.1410     2.1958     2.6490
   55.3000   126.1955     2.1804     2.6338
   55.4000   126.4424     2.1557     2.6187
   55.5000   126.4416     2.1557     2.6014
   55.6000   126.4411     2.1457     2.5702
   55.7000   126.4405     2.1261     2.5562
   55.8000   126.4399     2.1017     2.5308
   55.9000   126.3951     2.0797     2.4942
   56.0000   126.1361     2.0673     2.4560
   56.1000   126.1356     2.0444     2.4264
   56.2000   126.1349     2.0210     2.3808
   56.3000   125.9966     2.0041     2.3320
   56.4000   125.7456     1.9926     2.2880
   56.5000   125.4947     1.9811     2.2426
   56.6000   125.2248     1.9689     2.1949
   56.7000   124.7615     1.9584     2.1573
   56.8000   124.2602     1.9471     2.1151
   56.9000   123.6321     1.9359     2.0944
   57.0000   123.1044     1.9248     2.0629
   57.1000   123.1038     1.9147     2.0326
   57.2000   123.1031     1.9147     2.0119
   57.3000   123.1026     1.9147     2.0006
   57.4000   123.1020     1.9147     2.0007
   57.5000   123.3333     1.9096     2.0007
   57.6000   123.7696     1.9014     2.0008
   57.7000   124.0309     1.9014     2.0008
   57.8000   124.6123     1.9014     2.0029
   57.9000   126.2885     1.9014     2.0149
   58.0000   128.4478     1.9014     2.0263
   58.1000   130.5951     1.9060     2.0291
   58.2000   132.7557     1.9147     2.0356
   58.3000   135.5068     1.9147     2.0474
   58.4000   137.5088     1.9258     2.0578
   58.5000   139.1134     1.9281     2.0579
   58.6000   140.7613     1.9346     2.0689
   58.7000   142.0420     1.9458     2.0809
   58.8000   142.4582     1.9552     2.0930
   58.9000   142.1549     1.9552     2.1051
   59.0000   141.9143     1.9660     2.1183
   59.1000   141.8511     1.9774     2.1461
   59.2000   141.7150     1.9951     2.1679
   59.3000   141.4641     2.0144     2.2100
   59.4000   141.1820     2.0260     2.2616
   59.5000   140.6384     2.0387     2.3111
   59.6000   139.7212     2.0714     2.3518
   59.7000   138.5424     2.0903     2.4166
   59.8000   136.7915     2.1146     2.4750
   59.9000   134.5380     2.1443     2.5383
   60.0000   132.4055     2.1577     2.5976
   60.1000   131.5576     2.1859     2.6551
   60.2000   130.6840     2.2081     2.7022
   60.3000   129.0181     2.2337     2.7176
   60.4000   127.0149     2.2596     2.7457
   60.5000   125.2577     2.2958     2.7685
   60.6000   124.2836     2.3627     2.7903
   60.7000   123.9896     2.4439     2.8252
   60.8000   123.9891     2.4674     2.8777
   60.9000   123.8334     2.5142     2.8933
   61.0000   123.6853     2.5728     2.9224
   61.1000   123.6847     2.6297     2.9475
   61.2000   123.6841     2.6758     2.9699
   61.3000   123.6835     2.7223     3.0044
   61.4000   123.6829     2.7572     3.0432
   61.5000   123.8265     2.8081     3.1225
   61.6000   123.9843     2.8736     3.2396
   61.7000   123.9837     2.9378     3.3270
   61.8000   123.9830     2.9916     3.3556
   61.9000   124.2203     3.0246     3.3567
   62.0000   124.4700     3.0466     3.3793
   62.1000   124.7197     3.0737     3.3794
   62.2000   124.9694     3.1035     3.3795
   62.3000   125.2768     3.1214     3.3796
   62.4000   126.0974     3.1412     3.3797
   62.5000   126.5507     3.1577     3.3798
   62.6000   127.2254     3.1759     3.3799
   62.7000   128.2207     3.2034     3.3800
   62.8000   129.4015     3.2353     3.3801
   62.9000   130.4023     3.2540     3.3802
   63.0000   131.5400     3.2754     3.3802
   63.1000   131.7555     3.2754     3.3803
   63.2000   132.0052     3.2878     3.3804
   63.3000   132.0319     3.2983     3.3805
   63.4000   131.6623     3.3028     3.3806
   63.5000   130.9037     3.3214     3.3745
   63.6000   129.7209     3.2983     3.3573
   63.7000   128.8999     3.2983     3.3574
   63.8000   128.0508     3.2983     3.3575
   63.9000   127.5006     3.2907     3.3576
   64.0000   127.2496     3.2754     3.3484
   64.1000   126.9949     3.2754     3.3292
   64.2000   127.2408     3.2754     3.3102
   64.3000   127.4905     3.2608     3.2885
   64.4000   128.0242     3.2526     3.2724
   64.5000   128.8643     3.2459     3.2537
   64.6000   129.8275     3.2245     3.2351
   64.7000   130.6221     3.1853     3.2124
   64.8000   131.3283     3.1681     3.1757
   64.9000   131.7119     3.1498     3.1324
   65.0000   131.9617     3.1223     3.1179
   65.1000   132.1325     3.0865     3.1001
   65.2000   132.1319     3.0511     3.0755
   65.3000   132.1313     3.0125     3.0434
   65.4000   132.1307     2.9815     3.0255
   65.5000   131.9576     2.9473     3.0087
   65.6000   131.5865     2.9135     2.9785
   65.7000   131.1532     2.8756     2.9537
   65.8000   130.8707     2.8262     2.9312
   65.9000   130.0096     2.7707     2.8976
   66.0000   129.3676     2.7436     2.8618
   66.1000   128.9392     2.7021     2.8169
   66.2000   128.9069     2.6558     2.7913
   66.3000   129.2137     2.6135     2.7595
   66.4000   129.7089     2.5832     2.7167
   66.5000   130.0059     2.5306     2.6844
   66.6000   130.2084     2.4955     2.6326
   66.7000   130.7595     2.4697     2.6064
   66.8000   131.5099     2.4554     2.5669
   66.9000   132.2602     2.4362     2.5229
   67.0000   133.0287     2.3933     2.4831
   67.1000   133.7609     2.3402     2.4542
   67.2000   133.9353     2.2869     2.4048
   67.3000   133.9346     2.2418     2.3710
   67.4000   133.9340     2.1990     2.3387
   67.5000   133.8981     2.1487     2.3119
   67.6000   133.6302     2.0964     2.2855
   67.7000   133.6296     2.0629     2.2589
   67.8000   133.6290     2.0192     2.2335
   67.9000   133.7573     1.9847     2.2178
   68.0000   133.9304     1.9654     2.1980
   68.1000   133.9542     1.9541     2.1685
   68.2000   134.2317     1.9416     2.1331
   68.3000   134.4537     1.9416     2.1071
   68.4000   134.7034     1.9416     2.0958
   68.5000   134.9531     1.9469     2.0752
   68.6000   135.3343     1.9552     2.0575
   68.7000   136.0982     1.9552     2.0458
   68.8000   137.2538     1.9552     2.0352
   68.9000   138.5228     1.9552     2.0353
   69.0000   139.5461     1.9552     2.0458
   69.1000   140.2965     1.9600     2.0576
   69.2000   140.8823     1.9689     2.0640
   69.3000   140.8817     1.9690     2.0702
   69.4000   140.8810     1.9826     2.0937
   69.5000   140.8805     1.9826     2.1078
   69.6000   140.5829     1.9895     2.1181
   69.7000   140.0817     2.0010     2.1304
   69.8000   139.5365     2.0125     2.1480
   69.9000   138.7600     2.0246     2.1703
   70.0000   138.2754     2.0359     2.1829
   70.1000   137.7741     2.0567     2.2083
   70.2000   137.2728     2.0739     2.2340
   70.3000   136.6862     2.0859     2.2676
   70.4000   135.9346     2.0996     2.3072
   70.5000   135.1255     2.1258     2.3497
   70.6000   134.6626     2.1486     2.4071
   70.7000   133.6246     2.1826     2.4472
   70.8000   132.2457     2.2207     2.4900
   70.9000   130.9664     2.2555     2.5414
   71.0000   130.2370     2.2840     2.5958
   71.1000   129.6756     2.3438     2.6411
   71.2000   129.0142     2.3798     2.6916
   71.3000   128.2626     2.4309     2.7342
   71.4000   127.6268     2.4944     2.7933
   71.5000   126.9985     2.5673     2.8585
   71.6000   125.9740     2.6422     2.9299
   71.7000   124.2256     2.7323     3.0143
   71.8000   122.7594     2.7994     3.0949
   71.9000   121.6351     2.8920     3.1726
   72.0000   121.1982     2.9938     3.2779
   72.1000   121.3555     3.0952     3.3846
   72.2000   122.1055     3.1855     3.4835
   72.3000   122.6056     3.2981     3.5844
   72.4000   123.1056     3.3830     3.6593
   72.5000   123.7519     3.4620     3.7284
   72.6000   124.5022     3.5350     3.8155
   72.7000   125.2944     3.5966     3.8782
