~VERSION INFORMATION
 VERS.                2.0:   CWLS LOG ASCII STANDARD - VERSION 2.0
 WRAP.                 NO:   ONE LINE PER DEPTH STEP
~WELL INFORMATION
#MNEM.UNIT      DATA TYPE    INFORMATION
#----------   ------------   ------------------------------
 STRT.F            8.0000:   START DEPTH
 STOP.F         3200.0000:   STOP DEPTH
 STEP.F            0.5000:   STEP LENGTH
 NULL.          -999.2500:   NO VALUE
 COMP. BROWN JOHN E&C INC:   COMPANY
 WELL.  62 x 15-17 #62-15:   WELL
 FLD .        N.P.R NO. 3:   FIELD
 LOC .      S15 T38N R78W:   LOCATION
 CNTY.            NATRONA:   COUNTY
 STAT.            WYOMING:   STATE
 CTRY. UNITED STATES OF AMERICA:   COUNTRY
 SRVC.      Western Atlas:   SERVICE COMPANY
 DATE.        17-JUN-1986:   LOGDATE
 API .       490251104300:   API NUMBER
~CURVE INFORMATION
#MNEM.UNIT       API CODE    CURVE DESCRIPTION
#----------   ------------   ------------------------------
 DEPT.F                  :   
 GRR .GAPI   07 310 01 00:   GAMMA RAY
 CALR.IN     07 280 01 00:   CALIPER FROM RESISTIVITY
 SPR .MV     07 010 01 00:   SPONTANEOUS POTENTIAL
 RILD.OHMM   07 120 46 00:   INDUCTION LOG DEEP RESISTIVITY
 RILM.OHMM   07 120 44 00:   INDUCTION LOG MEDIUM RESISTIVITY
 RFOC.OHMM   07 220 04 00:   RESISTIVITY FOCUSED LOG
 PORD.DEC    45 890 12 00:   POROSITY DENSITY SANDSTONE
 CNC .DEC    42 890 03 00:   NEUTRON POROSITY SANDSTONE
 CORR.G/C3   45 356 01 00:   DENSITY CORRECTION
 DEN .G/C3   45 350 01 00:   COMPENSATED BULK DENSTIY
~PARAMETER INFORMATION
#MNEM.UNIT          VALUE    DESCRIPTION
#----------   ------------   ------------------------------
 PD  .                 GL:   PERMANENT DATUM
 EPD .F              5242:   ELEVATION PERMANENT DATUM
 LMF .                 KB:   LOG MEASURED FROM
 DAPD.F                11:   FEET ABOVE PERMANENT DATUM
 DMF .                 KB:   DRILLING MEASURED FROM
 EKB .F              5253:   KELLING BUSHING
 EGL .F              5242:   GROUND LEVEL
 DATE.            6-17-86:   RUN DATE
 RUN .                  1:   RUN NUMBER
 DD  .F              3200:   DEPTH DRILLER
 DL  .F              3202:   DEPTH LOGGER
 BLI .F              3200:   BOTTOM LOG INTERVAL
 CS  .IN            8.625:   CASING SIZE
 CBD .F               573:   CASING BOTTOM DRILLER
 CBL .F               573:   CASING BOTTOM LOGGER
 BS  .IN            7.875:   BIT SIZE
 BSD .F              3200:   BIT SIZE AT DEPTH
 DFT .            KCL/GEL:   DRILLING FLUID TYPE
 DFD .                8.9:   DRILLING FLUID DENSITY
 DFV .                 37:   DRILLING FLUID VISCOSITY
 DFPH.                8.5:   DRILLING FLUID PH
 DFL .               10.2:   DRILLING FLUID LOSS
 MSS .           MUD TANK:   MUD SAMPLE SOURCE
 RMS .OHMM            .39:   RESISTIVITY MUD SAMPLE
 MST .F                80:   MUD SAMPLE TEMPERATURE
 RMF .OHMM            .29:   RESISTIVITY MUD FILTRATE SAMPLE
 MFST.F                80:   MUD FILTRATE SAMPLE TEMPERATURE
 RMC .OHMM            .49:   RESISTIVITY MUD CAKE
 MCST.F                80:   MUD CAKE SAMPLE TEMPERATURE
 MFSS.               CALC:   MUD FILTRATE SAMPLE SOURCE
 MCSS.               CALC:   MUD CAKE SAMPLE SOURCE
 RMB .OHMM            .24:   RESISTIVITY MUD AT BHT
 BHT .F               130:   BOTTOM HOLE TEMPERATURE
 TCS .HRS               5:   TIME CURCULATED STOPPED
 MRT .F               130:   MAXIMUM RECORDED TEMPERATURE
 LUN .            HL 6264:   LOGGING UNIT NUMBER
 LUL .           GILLETTE:   LOGGING UNIT LOCATION
 ENGI.      P.H. FAHLSING:   RECORDING ENGINEER
 WITN.             STRONG:   WITNESSED BY
 CLNT.            A2DTECH:   CLIENT CODE
 UWI .       490251104300:   UNIQUE WELL ID
 DICO. A2D Technologies, Inc.:   DIGITIZING COMPANY
~OTHER INFORMATION
~A    DEPT     GRR       CALR        SPR       RILD       RILM       RFOC       PORD        CNC       CORR        DEN   
# ...
 1951.0000   159.1984     9.3198   -54.3517    11.7418    11.5744    15.0098  -999.2500  -999.2500  -999.2500  -999.2500
 1951.5000   158.3105     9.3657   -54.3444    11.4207    11.1041    14.6010  -999.2500  -999.2500  -999.2500  -999.2500
 1952.0000   158.3323     9.3815   -54.1865    11.1855    10.6529    13.9115  -999.2500  -999.2500  -999.2500  -999.2500
 1952.5000   155.9473     9.3822   -54.1766    11.0312    10.4346    12.3630  -999.2500  -999.2500  -999.2500  -999.2500
 1953.0000   155.0595     9.3829   -54.0211    10.8749    10.3632    11.1920  -999.2500  -999.2500  -999.2500  -999.2500
 1953.5000   158.0843     9.3837   -53.8617    10.6421    10.4361    10.6232  -999.2500  -999.2500  -999.2500  -999.2500
 1954.0000   160.8894     9.3844   -53.7038    10.3633    10.4368    12.0334  -999.2500  -999.2500  -999.2500  -999.2500
 1954.5000   164.7301     9.3701   -53.5459    10.2912    10.4375    13.0762  -999.2500  -999.2500  -999.2500  -999.2500
 1955.0000   155.7385     9.3710   -53.2374    10.2905    10.3660    13.3511  -999.2500  -999.2500  -999.2500  -999.2500
 1955.5000   146.1463     9.3717   -52.9289    10.3614    10.3669    12.2883  -999.2500  -999.2500  -999.2500  -999.2500
 1956.0000   134.4520     9.3725   -52.4698    10.5048    10.3676    11.3884  -999.2500  -999.2500  -999.2500  -999.2500
 1956.5000   125.4604     9.3732   -52.4458    10.6504    10.3683    10.9935  -999.2500  -999.2500  -999.2500  -999.2500
 1957.0000   123.6496     9.3740   -52.3028    10.7246    10.3690    10.9267  -999.2500  -999.2500  -999.2500  -999.2500
 1957.5000   126.1110     9.3746   -51.9944    10.8722    10.4419    11.4700  -999.2500  -999.2500  -999.2500  -999.2500
 1958.0000   119.5111     9.3754   -51.6859    10.8713    10.5152    12.4639  -999.2500  -999.2500  -999.2500  -999.2500
 1958.5000   109.3183     9.3911   -52.4316    10.8705    10.5890    13.7327  -999.2500  -999.2500  -999.2500  -999.2500
 1959.0000   103.9303     9.3920   -53.3279    10.7949    10.5897    14.0217  -999.2500  -999.2500  -999.2500  -999.2500
 1959.5000   103.6431     9.3927   -54.2243    10.5726    10.3011    13.9260  -999.2500  -999.2500  -999.2500  -999.2500
 1960.0000   107.2684     9.3935   -54.6688    10.3548    10.0203    12.7056  -999.2500  -999.2500  -999.2500  -999.2500
 1960.5000   112.6913     9.3942   -54.5091    10.0717     9.6799    11.2390  -999.2500  -999.2500  -999.2500  -999.2500
 1961.0000   119.9287     9.3797   -54.3512     9.7287     9.4131    10.4883  -999.2500  -999.2500  -999.2500  -999.2500
 1961.5000   127.9571     9.3806   -54.1933     9.4566     9.1488    10.3446  -999.2500  -999.2500  -999.2500  -999.2500
 1962.0000   136.1713     9.3814   -54.0354     9.1404     8.8485    10.4897  -999.2500  -999.2500  -999.2500  -999.2500
 1962.5000   140.0926     9.3821   -53.7270     8.8292     8.6073    10.3462  -999.2500  -999.2500  -999.2500  -999.2500
 1963.0000   138.6086     9.3980   -53.7197     8.5877     8.4309     9.9261  -999.2500  -999.2500  -999.2500  -999.2500
 1963.5000   132.3197     9.3988   -53.5617     8.4692     8.3154     9.4558  -999.2500  -999.2500  -999.2500  -999.2500
 1964.0000   130.8312     9.3995   -53.4036     8.3523     8.2017     9.1263  -999.2500  -999.2500  -999.2500  -999.2500
 1964.5000   133.2554     9.4002   -53.2442     8.2942     8.2022     9.0740  -999.2500  -999.2500  -999.2500  -999.2500
 1965.0000   135.6752     9.4160   -53.2369     8.2365     8.1462     9.7249  -999.2500  -999.2500  -999.2500  -999.2500
 1965.5000   129.6910     9.4017   -53.0790     8.1792     8.1467    10.1379  -999.2500  -999.2500  -999.2500  -999.2500
 1966.0000   126.1048     9.4024   -53.0717     8.1223     8.0912     9.9990  -999.2500  -999.2500  -999.2500  -999.2500
 1966.5000   124.0201     9.4033   -52.9139     8.0657     8.0358     9.7944  -999.2500  -999.2500  -999.2500  -999.2500
 1967.0000   122.2358     9.4040   -52.7560     8.0651     8.0364     9.6604  -999.2500  -999.2500  -999.2500  -999.2500
 1967.5000   123.1541     9.4048   -52.7485     8.1207     7.9814     9.5868  -999.2500  -999.2500  -999.2500  -999.2500
 1968.0000   125.2736     9.4055   -53.0408     8.1200     7.9268     9.3333  -999.2500  -999.2500  -999.2500  -999.2500
 1968.5000   127.7447     9.4212   -53.4853     8.1195     7.8728     9.1422  -999.2500  -999.2500  -999.2500  -999.2500
 1969.0000   131.0185     9.4220   -54.0805     8.0630     7.7650     9.1428  -999.2500  -999.2500  -999.2500  -999.2500
 1969.5000   132.5375     9.4227   -54.5268     8.0061     7.7579     9.0177  -999.2500  -999.2500  -999.2500  -999.2500
 1970.0000   134.3567     9.4234   -55.2707     7.8891     7.7125     8.9560  -999.2500  -999.2500  -999.2500  -999.2500
 1970.5000   135.8712     9.4243   -55.8658     7.7336     7.6598     8.9567  -999.2500  -999.2500  -999.2500  -999.2500
 1971.0000   132.5897     9.4250   -56.0092     7.7331     7.6075     9.0241  -999.2500  -999.2500  -999.2500  -999.2500
 1971.5000   126.0005     9.4258   -55.8495     7.7326     7.5555     9.2095  -999.2500  -999.2500  -999.2500  -999.2500
 1972.0000   123.6156     9.4265   -55.6916     7.6259     7.5038     9.5344  -999.2500  -999.2500  -999.2500  -999.2500
 1972.5000   125.2255     9.4272   -55.2325     7.4688     7.3501     9.9392  -999.2500  -999.2500  -999.2500  -999.2500
 1973.0000   127.8590     9.4280   -55.0746     7.3150     7.1995    10.0087  -999.2500  -999.2500  -999.2500  -999.2500
 1973.5000   123.6722     9.4287   -54.7661     7.1643     7.1009     8.9605  -999.2500  -999.2500  -999.2500  -999.2500
 1974.0000   119.7857     9.4294   -54.4576     7.1099     7.0037     8.0776  -999.2500  -999.2500  -999.2500  -999.2500
 1974.5000   119.4985     9.4303   -53.9941     6.9678     7.0043     7.7480  -999.2500  -999.2500  -999.2500  -999.2500
 1975.0000   126.7275     9.4311   -53.6647     6.9673     7.0535     7.8221  -999.2500  -999.2500  -999.2500  -999.2500
 1975.5000   132.7509     9.4166   -53.3798     6.9669     7.1030     8.5985  -999.2500  -999.2500  -999.2500  -999.2500
 1976.0000   135.4715     9.4175   -53.2219     6.9664     7.1528     9.2152  -999.2500  -999.2500  -999.2500  -999.2500
 1976.5000   133.6910     9.4182   -52.9134     7.0631     7.2030     9.4091  -999.2500  -999.2500  -999.2500  -999.2500
 1977.0000   127.4021     9.4039   -52.7555     7.1609     7.2535     9.2164  -999.2500  -999.2500  -999.2500  -999.2500
 1977.5000   124.1162     9.4047   -52.7482     7.3104     7.3103     8.9036  -999.2500  -999.2500  -999.2500  -999.2500
 1978.0000   123.5287     9.3904   -52.7409     7.4632     7.3558     8.7213  -999.2500  -999.2500  -999.2500  -999.2500
 1978.5000   124.7517     9.3761   -52.8843     7.5144     7.4074     8.7219  -999.2500  -999.2500  -999.2500  -999.2500
 1979.0000   127.4718     9.3618   -52.8752     7.5138     7.4079     9.0924  -999.2500  -999.2500  -999.2500  -999.2500
 1979.5000   128.7098     9.3475   -53.1709     7.4615     7.4599     9.4131  -999.2500  -999.2500  -999.2500  -999.2500
 1980.0000   129.0125     9.3334   -53.6136     7.4610     7.5121     9.8126  -999.2500  -999.2500  -999.2500  -999.2500
 1980.5000   128.4293     9.3191   -54.0581     7.4091     7.3583     9.5539  -999.2500  -999.2500  -999.2500  -999.2500
 1981.0000   128.1421     9.3198   -54.3539     7.3576     7.2575     9.3248  -999.2500  -999.2500  -999.2500  -999.2500
 1981.5000   127.5589     9.3056   -54.3448     7.3064     7.2079     8.9705  -999.2500  -999.2500  -999.2500  -999.2500
 1982.0000   126.9757     9.2913   -54.4881     7.2049     7.1587     8.8476  -999.2500  -999.2500  -999.2500  -999.2500
 1982.5000   125.7963     9.2772   -54.3284     7.1061     7.1098     8.7872  -999.2500  -999.2500  -999.2500  -999.2500
 1983.0000   126.7208     9.2779   -54.3211     7.0565     7.1103     8.9104  -999.2500  -999.2500  -999.2500  -999.2500
 1983.5000   127.6329     9.2786   -54.1632     7.0561     7.1108     9.0979  -999.2500  -999.2500  -999.2500  -999.2500
 1984.0000   120.4475     9.2642   -53.8548     7.0556     7.1113     8.9735  -999.2500  -999.2500  -999.2500  -999.2500
