~VERSION INFORMATION
 VERS.                2.0:   CWLS LOG ASCII STANDARD - VERSION 2.0
 WRAP.                 NO:   ONE LINE PER DEPTH STEP
~WELL INFORMATION
#MNEM.UNIT      DATA TYPE    INFORMATION
#----------   ------------   ------------------------------
 STRT.F           70.0000:   START DEPTH
 STOP.F          865.0000:   STOP DEPTH
 STEP.F            0.5000:   STEP LENGTH
 NULL.          -999.2500:   NO VALUE
 COMP. U S NAVY/INTEX OIL CO:   COMPANY
 WELL.   54S 11 NPR #3-11:   WELL
 FLD .             TEAPOT:   FIELD
 LOC .      S11 T38N R78W:   LOCATION
 CNTY.            NATRONA:   COUNTY
 STAT.            WYOMING:   STATE
 CTRY. UNITED STATES OF AMERICA:   COUNTRY
 SRVC.         Lane Wells:   SERVICE COMPANY
 DATE.        11-MAR-1960:   LOGDATE
 API .       490250634900:   API NUMBER
~CURVE INFORMATION
#MNEM.UNIT       API CODE    CURVE DESCRIPTION
#----------   ------------   ------------------------------
 DEPT.F                  :   
 SPR .MV     05 010 01 00:   SPONTANEOUS POTENTIAL FROM RES.
 ASN .OHMM   05 041 16 00:   AMPLIFIED SHORT NORMAL 16"
 ILD .OHMM   05 120 46 00:   INDUCTION LOG DEEP
 CILD.MMHO   05 110 46 00:   CONDUCTIVITY INDUCTION LOG DEEP
~PARAMETER INFORMATION
#MNEM.UNIT          VALUE    DESCRIPTION
#----------   ------------   ------------------------------
 PD  .                 GL:   PERMANENT DATUM
 EPD .F              5198:   ELEVATION PERMANENT DATUM
 LMF .                 KB:   LOG MEASURED FROM
 DAPD.F                 5:   FEET ABOVE PERMANENT DATUM
 DMF .                 KB:   DRILLING MEASURED FROM
 EKB .F              5203:   KELLING BUSHING
 EGL .F              5198:   GROUND LEVEL
 DATE.            3-11-60:   RUN DATE
 RUN .                  1:   RUN NUMBER
 DD  .F               870:   DEPTH DRILLER
 DL  .F               867:   DEPTH LOGGER
 BLI .F               865:   BOTTOM LOG INTERVAL
 TLI .F                70:   TOP LOG INTERVAL
 CS  .IN            8.625:   CASING SIZE
 CBD .F                12:   CASING BOTTOM DRILLER
 BS  .IN            7.875:   BIT SIZE
 BSD .F               870:   BIT SIZE AT DEPTH
 DFT .   GEL/OIL EMULSION:   DRILLING FLUID TYPE
 DFD .                9.2:   DRILLING FLUID DENSITY
 DFV .                 36:   DRILLING FLUID VISCOSITY
 DFPH.                7.5:   DRILLING FLUID PH
 DFL .                4.4:   DRILLING FLUID LOSS
 MSS .                PIT:   MUD SAMPLE SOURCE
 RMS .OHMM            6.8:   RESISTIVITY MUD SAMPLE
 MST .F                54:   MUD SAMPLE TEMPERATURE
 RMF .OHMM            4.2:   RESISTIVITY MUD FILTRATE SAMPLE
 MFST.F                69:   MUD FILTRATE SAMPLE TEMPERATURE
 RMC .OHMM            5.1:   RESISTIVITY MUD CAKE
 MCST.F                69:   MUD CAKE SAMPLE TEMPERATURE
 MFSS.              PRESS:   MUD FILTRATE SAMPLE SOURCE
 MCSS.              PRESS:   MUD CAKE SAMPLE SOURCE
 RMB .OHMM            5.2:   RESISTIVITY MUD AT BHT
 BHT .F                70:   BOTTOM HOLE TEMPERATURE
 TCS .HRS              .5:   TIME CURCULATED STOPPED
 MRT .F                70:   MAXIMUM RECORDED TEMPERATURE
 LUN .             L-4474:   LOGGING UNIT NUMBER
 LUL .             CASPER:   LOGGING UNIT LOCATION
 ENGI.      GRIGGS/NELSON:   RECORDING ENGINEER
 WITN.   JORGENSEN/HUDSON:   WITNESSED BY
 CLNT.            A2DTECH:   CLIENT CODE
 ORIG.       2", 5" PRINT:   ORIGIN OF DATA
 UWI .       490250634900:   UNIQUE WELL ID
 DICO. A2D Technologies, Inc.:   DIGITIZING COMPANY
~OTHER INFORMATION
~A   DEPT       SPR         ASN        ILD      CILD  
# ...
  581.0000   -14.3279     6.1656     6.2821   199.6490
  581.5000   -14.3073     6.1936     6.3185   199.2473
  582.0000   -14.2860     6.2226     6.3549   196.9803
  582.5000   -14.2630     6.2512     6.3912   194.7133
  583.0000   -14.2658     6.2777     6.4276   192.4465
  583.5000   -14.6232     6.3672     6.4640   190.1769
  584.0000   -14.9753     6.4615     6.5003   187.8965
  584.5000   -14.9073     6.5559     6.5367   185.4966
  585.0000   -14.6972     6.6489     6.5732   186.0857
  585.5000   -15.3975     6.7071     6.6096   186.7607
  586.0000   -15.5751     6.6909     6.6379   187.4272
  586.5000   -14.7370     6.6756     6.6176   188.0907
  587.0000   -14.0746     6.6597     6.5982   188.7543
  587.5000   -14.2309     6.6376     6.5788   189.4178
  588.0000   -14.3728     6.5759     6.5595   190.0819
  588.5000   -14.5122     6.5154     6.5402   190.7438
  589.0000   -14.6498     6.4780     6.5208   191.3467
  589.5000   -14.7986     6.4417     6.5015   191.9335
  590.0000   -15.1919     6.4099     6.4822   192.5212
  590.5000   -15.5792     6.4359     6.4629   193.1090
  591.0000   -15.7570     6.4628     6.4435   193.6967
  591.5000   -15.2762     6.4897     6.4242   194.2845
  592.0000   -14.8082     6.4973     6.4048   194.8722
  592.5000   -14.7811     6.4932     6.3858   195.4600
  593.0000   -14.7842     6.4849     6.3762   196.0477
  593.5000   -14.7850     6.4767     6.3888   196.6355
  594.0000   -14.7850     6.4685     6.4009   197.2232
  594.5000   -14.7850     6.4604     6.4131   197.8110
  595.0000   -14.7849     6.4526     6.4253   198.3987
  595.5000   -14.7845     6.4420     6.4376   198.9865
  596.0000   -14.7811     6.3755     6.4504   199.5742
  596.5000   -14.9675     6.3380     6.4584   200.1620
  597.0000   -15.1214     6.3007     6.3708   200.7497
  597.5000   -14.9853     6.2617     6.2800   201.3374
  598.0000   -14.8546     6.2229     6.1897   201.9248
  598.5000   -14.7233     6.1756     6.0995   202.5129
  599.0000   -14.6165     6.0924     6.0097   203.1007
  599.5000   -14.8198     5.9995     5.9188   204.5968
  600.0000   -15.0224     5.8912     5.7933   207.0684
  600.5000   -15.2258     5.7836     5.6717   206.9892
  601.0000   -15.3927     5.6754     5.5852   211.7452
  601.5000   -15.6335     5.5578     5.4999   216.9665
  602.0000   -15.8699     5.4295     5.4142   222.1878
  602.5000   -16.1070     5.2911     5.3285   227.4090
  603.0000   -16.3582     5.1009     5.2427   232.6303
  603.5000   -16.0030     4.9759     5.1571   232.9987
  604.0000   -15.4860     4.8982     5.0705   232.0784
  604.5000   -14.9753     4.8229     5.0614   232.0833
  605.0000   -14.7688     4.7889     5.1034   232.0919
  605.5000   -14.5776     4.7933     5.1463   231.1752
  606.0000   -14.4615     5.0176     5.1897   228.9742
  606.5000   -14.6706     5.3213     5.2520   226.7578
  607.0000   -14.8725     5.4397     5.3424   224.5440
  607.5000   -15.0741     5.4868     5.4322   222.3317
  608.0000   -15.2727     5.4975     5.4929   220.1195
  608.5000   -15.4636     5.5089     5.5177   217.9072
  609.0000   -15.7073     5.5266     5.5427   215.6949
  609.5000   -15.7577     5.5680     5.5677   213.4827
  610.0000   -15.8055     5.6081     5.5927   213.1123
  610.5000   -15.8515     5.6499     5.6177   214.6207
  611.0000   -15.8979     5.6530     5.6427   216.1290
  611.5000   -15.9443     5.6443     5.6677   217.6374
  612.0000   -15.9909     5.6352     5.6927   219.1458
  612.5000   -16.0380     5.6268     5.7179   220.6541
  613.0000   -16.0693     5.5867     5.7452   222.0430
  613.5000   -16.1003     5.5343     5.6764   223.3359
  614.0000   -16.1316     5.4122     5.5820   224.6288
  614.5000   -16.1632     5.2221     5.4870   225.9217
  615.0000   -16.1940     5.0523     5.3922   228.7776
  615.5000   -16.1913     4.9873     5.2974   234.0046
  616.0000   -16.0368     4.9264     5.2027   239.2407
  616.5000   -15.8856     4.7281     5.1079   244.5244
  617.0000   -15.7339     4.5336     5.0131   251.8775
  617.5000   -15.6365     4.3384     4.9183   260.4967
  618.0000   -15.5682     4.1552     4.8236   269.1159
  618.5000   -15.4907     3.9830     4.7290   277.7351
  619.0000   -15.2272     3.8210     4.6789   280.6038
  619.5000   -14.9668     3.7949     4.6790   277.1230
  620.0000   -14.7062     3.8677     4.6785   273.6421
  620.5000   -14.4390     3.9670     4.6800   264.7976
  621.0000   -14.3474     4.1674     4.7930   255.3510
  621.5000   -14.2641     4.4663     4.9189   245.9033
  622.0000   -14.1796     4.7723     5.0448   236.4579
  622.5000   -14.0948     5.0016     5.1704   229.1739
  623.0000   -14.0098     5.1768     5.2960   225.9625
  623.5000   -13.9261     5.2948     5.4217   222.7456
  624.0000   -13.7241     5.4009     5.5473   219.5388
  624.5000   -13.4391     5.5061     5.6722   216.3256
  625.0000   -13.1530     5.5873     5.7619   213.1258
  625.5000   -12.8658     5.6282     5.7929   210.5477
  626.0000   -12.6823     5.6687     5.8249   209.3328
  626.5000   -12.5205     5.7513     5.8566   208.0930
  627.0000   -12.3592     5.8413     5.8883   206.8589
  627.5000   -12.1980     5.9127     5.9201   205.6248
  628.0000   -12.0359     5.9601     5.9519   204.3907
  628.5000   -11.8602     6.0073     5.9836   203.1566
  629.0000   -11.6156     6.0558     6.0154   201.9225
  629.5000   -11.3781     6.1486     6.0472   200.6883
  630.0000   -11.1393     6.2295     6.0790   199.4542
  630.5000   -11.0316     6.2302     6.1107   198.2202
  631.0000   -11.0453     6.2343     6.1425   196.9860
  631.5000   -11.0610     6.2701     6.1743   195.7519
  632.0000   -11.0772     6.3060     6.2061   194.4444
  632.5000   -11.0930     6.3750     6.2378   195.8281
  633.0000   -11.1089     6.4756     6.2697   197.6913
  633.5000   -11.1248     6.4805     6.2833   199.5546
  634.0000   -11.1407     6.4685     6.2836   201.4179
  634.5000   -11.1566     6.4088     6.2827   203.2811
  635.0000   -11.1732     6.3118     6.2344   205.1444
  635.5000   -11.1884     6.2124     6.1074   206.9892
  636.0000   -11.1497     6.1130     5.9815   209.0984
  636.5000   -10.8769     6.0137     5.8554   211.1869
  637.0000   -10.6097     5.9148     5.7294   214.6402
  637.5000   -10.3404     5.8157     5.6034   219.8615
  638.0000   -10.4099     5.7264     5.4774   225.0827
  638.5000   -10.5679     5.5740     5.3515   230.3040
  639.0000   -10.7282     5.4183     5.2253   235.5252
  639.5000   -10.8881     5.1708     5.0959   243.2135
  640.0000   -11.0479     4.9182     4.8889   257.0270
  640.5000   -11.2085     4.6009     4.6815   270.8404
  641.0000   -11.3735     4.2762     4.4796   284.6538
  641.5000   -11.4668     3.9516     4.2764   305.4659
  642.0000   -11.5506     3.6270     4.0731   332.6165
  642.5000   -11.2423     3.3024     3.8699   359.7670
  643.0000   -10.9012     2.9777     3.6551   386.9176
  643.5000   -10.5612     2.6550     3.3945   414.2096
  644.0000   -10.2218     2.3902     3.1274   441.5049
  644.5000    -9.8824     2.2336     2.9992   460.5028
  645.0000    -9.5421     2.0800     2.9014   464.2573
  645.5000    -9.1993     2.0421     2.8056   463.2617
  646.0000    -8.8876     2.0365     2.9687   447.7375
  646.5000    -9.1744     2.0876     3.1662   430.5269
  647.0000    -9.5727     2.4105     3.3671   404.8244
  647.5000   -10.3558     2.7386     3.5651   379.1219
  648.0000   -11.1308     3.0582     3.7627   353.4193
  648.5000   -11.3771     3.4355     3.9603   327.7169
  649.0000   -11.3812     3.8175     4.1578   304.4006
  649.5000   -11.3804     4.1664     4.3556   287.3058
  650.0000   -11.3797     4.3661     4.5550   274.9402
  650.5000   -11.3799     4.4274     4.7581   268.3244
  651.0000   -11.3793     4.4550     4.7408   263.7993
  651.5000   -11.5389     4.5080     4.7072   260.9095
  652.0000   -11.8505     4.5621     4.6747   259.0999
  652.5000   -11.8839     4.6058     4.6425   260.1055
  653.0000   -11.8256     4.5801     4.6105   262.6257
  653.5000   -11.7623     4.4835     4.5782   267.8807
