~VERSION INFORMATION
 VERS.                2.0:   CWLS LOG ASCII STANDARD - VERSION 2.0
 WRAP.                 NO:   ONE LINE PER DEPTH STEP
~WELL INFORMATION
#MNEM.UNIT      DATA TYPE    INFORMATION
#----------   ------------   ------------------------------
 STRT.F            6.0000:   START DEPTH
 STOP.F         2600.0000:   STOP DEPTH
 STEP.F            0.5000:   STEP LENGTH
 NULL.          -999.2500:   NO VALUE
 COMP. FENIX & SCISSON INC:   COMPANY
 WELL.   NPR 3 SH #17 -34:   WELL
 FLD .             TEAPOT:   FIELD
 LOC .      S34 T39N R78W:   LOCATION
 CNTY.            NATRONA:   COUNTY
 STAT.            WYOMING:   STATE
 CTRY. UNITED STATES OF AMERICA:   COUNTRY
 SRVC.            Unknown:   SERVICE COMPANY
 DATE.        21-MAR-1978:   LOGDATE
 API .       490251060600:   API NUMBER
~CURVE INFORMATION
#MNEM.UNIT       API CODE    CURVE DESCRIPTION
#----------   ------------   ------------------------------
 DEPT.F                  :   
 NPHI.DEC    42 890 03 00:   NEUTRON POROSITY SANDSTONE
 CALD.IN     45 280 60 00:   CALIPER FROM DENSITY LOG
 GRD .GAPI   45 310 01 00:   GAMMA RAY FROM DENSITY LOG
 CORR.G/C3   45 356 01 00:   DENSITY CORRECTION
 RHOB.G/C3   45 350 01 00:   BULK DENSITY
 DPHI.DEC    45 890 12 00:   DENSITY POROSITY SANDSTONE
~PARAMETER INFORMATION
#MNEM.UNIT          VALUE    DESCRIPTION
#----------   ------------   ------------------------------
 PD  .                 GL:   PERMANENT DATUM
 EPD .F              5150:   ELEVATION PERMANENT DATUM
 LMF .                 KB:   LOG MEASURED FROM
 DMF .                 KB:   DRILLING MEASURED FROM
 EKB .F              5160:   KELLING BUSHING
 EGL .F              5150:   GROUND LEVEL
 DATE.          3-21-1978:   RUN DATE
 RUN .                  1:   RUN NUMBER
 DD  .F              2612:   DEPTH DRILLER
 DL  .F              2592:   DEPTH LOGGER
 BLI .F              2590:   BOTTOM LOG INTERVAL
 TLI .F                20:   TOP LOG INTERVAL
 CS  .IN            9.625:   CASING SIZE
 CBD .F               710:   CASING BOTTOM DRILLER
 CBL .F               710:   CASING BOTTOM LOGGER
 BS  .IN            8.625:   BIT SIZE
 BSD .F              2612:   BIT SIZE AT DEPTH
 DFT .           AIR MIST:   DRILLING FLUID TYPE
 BHT .F               110:   BOTTOM HOLE TEMPERATURE
 TCS .HRS               2:   TIME CURCULATED STOPPED
 MRT .F               110:   MAXIMUM RECORDED TEMPERATURE
 LUN .               2958:   LOGGING UNIT NUMBER
 LUL .               CASP:   LOGGING UNIT LOCATION
 ENGI.            POINTER:   RECORDING ENGINEER
 WITN.           MCGINLEY:   WITNESSED BY
 CLNT.            A2DTECH:   CLIENT CODE
 ORIG.      2" , 5" PRINT:   ORIGIN OF DATA
 UWI .       490251060600:   UNIQUE WELL ID
 DICO. A2D Technologies, Inc.:   DIGITIZING COMPANY
~OTHER INFORMATION
~A    DEPT      NPHI     CALD        GRD       CORR       RHOB       DPHI   
# ...
 1930.0000  -999.2500     9.0098   126.1703     0.1227     2.4811     0.1009
 1930.5000  -999.2500     9.0101   126.1958     0.1288     2.4820     0.1015
 1931.0000  -999.2500     9.0105   128.1949     0.1350     2.4820     0.1025
 1931.5000  -999.2500     9.0108   131.2002     0.1410     2.4822     0.1036
 1932.0000  -999.2500     9.0112   131.9960     0.1469     2.4768     0.1006
 1932.5000  -999.2500     9.0115   132.7295     0.1529     2.4615     0.0998
 1933.0000  -999.2500     9.0119   133.4897     0.1630     2.4586     0.0995
 1933.5000  -999.2500     9.0123   134.2568     0.1759     2.4504     0.0992
 1934.0000  -999.2500     9.0126   137.6490     0.2019     2.4519     0.0970
 1934.5000  -999.2500     9.0130   142.6413     0.1878     2.4713     0.1016
 1935.0000  -999.2500     9.0133   142.8558     0.1681     2.4858     0.1200
 1935.5000  -999.2500     9.0137   140.6252     0.1612     2.4450     0.1176
 1936.0000  -999.2500     9.0140   137.1728     0.1615     2.4427     0.1186
 1936.5000  -999.2500     9.0144   138.5109     0.1680     2.4405     0.1272
 1937.0000  -999.2500     9.0148   140.2690     0.1924     2.4393     0.1261
 1937.5000  -999.2500     9.0151   145.1481     0.1973     2.4426     0.1248
 1938.0000  -999.2500     9.0155   151.3635     0.2016     2.4564     0.1266
 1938.5000  -999.2500     9.0158   152.6756     0.2017     2.4183     0.1337
 1939.0000  -999.2500     9.0162   156.7747     0.1609     2.4613     0.1356
 1939.5000  -999.2500     9.0165   164.5984     0.1550     2.4265     0.1349
 1940.0000  -999.2500     9.0169   172.3912     0.1656     2.4304     0.1341
 1940.5000  -999.2500     9.0173   182.4971     0.1840     2.4176     0.1324
 1941.0000  -999.2500     9.0176   192.8235     0.1922     2.4251     0.1305
 1941.5000  -999.2500     9.0180   190.1395     0.1681     2.4378     0.1287
 1942.0000  -999.2500     9.0183   188.9379     0.1126     2.4303     0.1379
 1942.5000  -999.2500     9.0187   190.3574     0.0963     2.4159     0.1435
 1943.0000  -999.2500     9.0190   193.3480     0.0969     2.4169     0.1435
 1943.5000  -999.2500     9.0194   195.2711     0.0980     2.4111     0.1442
 1944.0000  -999.2500     9.0197   192.9957     0.0992     2.4121     0.1476
 1944.5000  -999.2500     9.0201   190.5422     0.1000     2.4034     0.1477
 1945.0000  -999.2500     9.0204   190.9876     0.1008     2.4073     0.1466
 1945.5000  -999.2500     9.0208   189.1096     0.1015     2.4082     0.1420
 1946.0000  -999.2500     9.0212   182.7211     0.1023     2.4129     0.1413
 1946.5000  -999.2500     9.0215   176.6056     0.1031     2.4161     0.1420
 1947.0000  -999.2500     9.0219   181.9511     0.1053     2.4161     0.1403
 1947.5000  -999.2500     9.0222   196.8989     0.1085     2.4159     0.1388
 1948.0000  -999.2500     9.0226   214.4919     0.1119     2.4190     0.1390
 1948.5000  -999.2500     9.0229   227.9136     0.1152     2.4208     0.1393
 1949.0000  -999.2500     9.0233   232.3697     0.1142     2.4194     0.1396
 1949.5000  -999.2500     9.0237   225.8791     0.1129     2.4182     0.1403
 1950.0000  -999.2500     9.0240   217.6651     0.1116     2.4170     0.1408
 1950.5000  -999.2500     9.0244   218.1936     0.1103     2.4162     0.1404
 1951.0000  -999.2500     9.0247   218.7701     0.1093     2.4169     0.1400
 1951.5000  -999.2500     9.0251   212.9677     0.1084     2.4175     0.1397
 1952.0000  -999.2500     9.0254   193.2065     0.1076     2.4181     0.1393
 1952.5000  -999.2500     9.0258   174.5026     0.1067     2.4187     0.1389
 1953.0000  -999.2500     9.0261   163.3305     0.1058     2.4193     0.1373
 1953.5000  -999.2500     9.0265   158.8668     0.1049     2.4198     0.1345
 1954.0000  -999.2500     9.0269   154.7784     0.1040     2.4250     0.1339
 1954.5000  -999.2500     9.0272   150.6988     0.1034     2.4302     0.1343
 1955.0000  -999.2500     9.0276   149.8273     0.1046     2.4300     0.1293
 1955.5000  -999.2500     9.0279   155.2836     0.1058     2.4306     0.1236
 1956.0000  -999.2500     9.0283   161.4115     0.1071     2.4431     0.1178
 1956.5000  -999.2500     9.0286   165.8257     0.1075     2.4536     0.1137
 1957.0000  -999.2500     9.0290   163.4962     0.1078     2.4588     0.1104
 1957.5000  -999.2500     9.0294   155.8564     0.1080     2.4641     0.1093
 1958.0000  -999.2500     9.0297   146.2664     0.1082     2.4693     0.1088
 1958.5000  -999.2500     9.0301   136.6358     0.1084     2.4698     0.1088
 1959.0000  -999.2500     9.0304   132.2827     0.1086     2.4695     0.1088
 1959.5000  -999.2500     9.0308   128.8744     0.1089     2.4693     0.1076
 1960.0000  -999.2500     9.0311   126.3857     0.1091     2.4705     0.1058
 1960.5000  -999.2500     9.0315   126.1714     0.1093     2.4778     0.1036
 1961.0000  -999.2500     9.0318   121.8720     0.1133     2.4840     0.0988
 1961.5000  -999.2500     9.0322   116.8452     0.1195     2.4831     0.0825
 1962.0000  -999.2500     9.0325   111.7733     0.1186     2.4887     0.0871
 1962.5000  -999.2500     9.0329   110.7409     0.1127     2.4991     0.0949
 1963.0000  -999.2500     9.0333   107.9408     0.1067     2.4950     0.1038
 1963.5000  -999.2500     9.0336   105.9046     0.1007     2.4878     0.1099
 1964.0000  -999.2500     9.0340   112.3677     0.0948     2.4700     0.1126
 1964.5000  -999.2500     9.0343   124.0251     0.0917     2.4588     0.1152
 1965.0000  -999.2500     9.0347   128.6216     0.0922     2.4542     0.1170
 1965.5000  -999.2500     9.0350   129.4739     0.0926     2.4566     0.1161
 1966.0000  -999.2500     9.0354   129.9252     0.0931     2.4564     0.1157
 1966.5000  -999.2500     9.0358   128.5648     0.0925     2.4556     0.1163
 1967.0000  -999.2500     9.0361   127.7896     0.0902     2.4548     0.1168
 1967.5000  -999.2500     9.0365   129.2206     0.0880     2.4539     0.1174
 1968.0000  -999.2500     9.0368   131.0908     0.0857     2.4493     0.1205
 1968.5000  -999.2500     9.0372   131.3733     0.0887     2.4447     0.1222
 1969.0000  -999.2500     9.0375   133.6967     0.0925     2.4422     0.1201
 1969.5000  -999.2500     9.0379   138.4291     0.0965     2.4475     0.1185
 1970.0000  -999.2500     9.0382   141.1812     0.1003     2.4528     0.1170
 1970.5000  -999.2500     9.0386   141.8873     0.1034     2.4579     0.1156
 1971.0000  -999.2500     9.0390   142.3668     0.1029     2.4587     0.1123
 1971.5000  -999.2500     9.0393   143.4586     0.1026     2.4605     0.1098
 1972.0000  -999.2500     9.0397   143.3686     0.1022     2.4677     0.1081
 1972.5000  -999.2500     9.0400   142.8412     0.1018     2.4696     0.1046
 1973.0000  -999.2500     9.0404   141.7171     0.1015     2.4720     0.1034
 1973.5000  -999.2500     9.0407   141.2283     0.1011     2.4760     0.1040
 1974.0000  -999.2500     9.0411   140.8680     0.1007     2.4754     0.1047
 1974.5000  -999.2500     9.0414   139.9617     0.1004     2.4745     0.1065
 1975.0000  -999.2500     9.0418   137.6340     0.1000     2.4732     0.1081
 1975.5000  -999.2500     9.0422   131.0555     0.0996     2.4718     0.1096
 1976.0000  -999.2500     9.0425   121.9779     0.1010     2.4675     0.1106
 1976.5000  -999.2500     9.0429   123.3187     0.1052     2.4599     0.1095
 1977.0000  -999.2500     9.0432   125.7184     0.1094     2.4636     0.1084
 1977.5000  -999.2500     9.0436   126.0719     0.1135     2.4674     0.1104
 1978.0000  -999.2500     9.0439   125.9235     0.1177     2.4640     0.1114
 1978.5000  -999.2500     9.0443   125.6847     0.1182     2.4641     0.1101
 1979.0000  -999.2500     9.0447   129.3905     0.1152     2.4658     0.1089
 1979.5000  -999.2500     9.0450   133.4155     0.1122     2.4697     0.1084
 1980.0000  -999.2500     9.0454   133.6854     0.1093     2.4728     0.1094
 1980.5000  -999.2500     9.0457   131.0318     0.1082     2.4709     0.1084
 1981.0000  -999.2500     9.0455   130.3308     0.1106     2.4692     0.1064
 1981.5000  -999.2500     9.0452   131.3212     0.1129     2.4718     0.1048
