~VERSION INFORMATION
 VERS.                2.0:   CWLS LOG ASCII STANDARD - VERSION 2.0
 WRAP.                 NO:   ONE LINE PER DEPTH STEP
~WELL INFORMATION
#MNEM.UNIT      DATA TYPE    INFORMATION
#----------   ------------   ------------------------------
 STRT.F           80.0000:   START DEPTH
 STOP.F          740.0000:   STOP DEPTH
 STEP.F            0.5000:   STEP LENGTH
 NULL.          -999.2500:   NO VALUE
 COMP. U S NAVY/INTEX OIL CO:   COMPANY
 WELL. NPR 3 TEAPOT DOME #73-S-34:   WELL
 FLD .             TEAPOT:   FIELD
 LOC .      S34 T39N R78W:   LOCATION
 CNTY.            NATRONA:   COUNTY
 STAT.            WYOMING:   STATE
 CTRY. UNITED STATES OF AMERICA:   COUNTRY
 SRVC. Schlumberger Well Surveying Corp:   SERVICE COMPANY
 DATE.        19-FEB-1961:   LOGDATE
 API .       490250655200:   API NUMBER
~CURVE INFORMATION
#MNEM.UNIT       API CODE    CURVE DESCRIPTION
#----------   ------------   ------------------------------
 DEPT.F                  :   
 GR  .CPS    99 310 30 00:   GAMMA RAY FROM PERFORATING FORMATION COLLAR CHART
 SPR .MV     05 010 01 00:   SPONTANEOUS POTENTIAL
 ILD .OHMM   05 120 46 00:   INDUCTION LOG DEEP
 CILD.MMHO   05 110 46 00:   CONDUCTIVITY INDUCTION LOG DEEP
 ASN .OHMM   05 041 16 00:   AMPLIFIED SHORT NORMAL 16"
~PARAMETER INFORMATION
#MNEM.UNIT          VALUE    DESCRIPTION
#----------   ------------   ------------------------------
 LMF .                 KB:   LOG MEASURED FROM
 DMF .                 KB:   DRILLING MEASURED FROM
 EKB .F              5044:   KELLING BUSHING
 EGL .F              5040:   GROUND LEVEL
 DATE.          2-19-1961:   RUN DATE
 RUN .                  1:   RUN NUMBER
 DD  .F               740:   DEPTH DRILLER
 DL  .F               741:   DEPTH LOGGER
 BLI .F               740:   BOTTOM LOG INTERVAL
 TLI .F                80:   TOP LOG INTERVAL
 CBD .F               740:   CASING BOTTOM DRILLER
 CBL .F               741:   CASING BOTTOM LOGGER
 BS  .IN            7.875:   BIT SIZE
 BSD .F               740:   BIT SIZE AT DEPTH
 DFT .       GEL-OIL EMUL:   DRILLING FLUID TYPE
 DFD .                9.2:   DRILLING FLUID DENSITY
 DFV .                 49:   DRILLING FLUID VISCOSITY
 DFPH.                  8:   DRILLING FLUID PH
 DFL .               11.4:   DRILLING FLUID LOSS
 MSS .           FLOWLINE:   MUD SAMPLE SOURCE
 RMS .OHMM            .84:   RESISTIVITY MUD SAMPLE
 MST .F                74:   MUD SAMPLE TEMPERATURE
 RMF .OHMM            .83:   RESISTIVITY MUD FILTRATE SAMPLE
 MFST.F                75:   MUD FILTRATE SAMPLE TEMPERATURE
 RMC .OHMM            .52:   RESISTIVITY MUD CAKE
 MCST.F                74:   MUD CAKE SAMPLE TEMPERATURE
 RMB .OHMM           1.98:   RESISTIVITY MUD AT BHT
 BHT .F                70:   BOTTOM HOLE TEMPERATURE
 TCS .HRS               1:   TIME CURCULATED STOPPED
 MRT .F                70:   MAXIMUM RECORDED TEMPERATURE
 LUN .               2523:   LOGGING UNIT NUMBER
 LUL .               CSPR:   LOGGING UNIT LOCATION
 ENGI.             KNOBEL:   RECORDING ENGINEER
 WITN.          JORGENSEN:   WITNESSED BY
 CLNT.            A2DTECH:   CLIENT CODE
 ORIG.        2" 5" PRINT:   ORIGIN OF DATA
 UWI .       490250655200:   UNIQUE WELL ID
 DICO. A2D Technologies, Inc.:   DIGITIZING COMPANY
~OTHER INFORMATION
~A   DEPT       GR        SPR          ILD      CILD         ASN 
# ...
  202.0000  -999.2500   -20.6599    12.4428    76.3900    14.3659
  202.5000  -999.2500   -20.5380    12.3565    77.9500    14.1992
  203.0000  -999.2500   -20.4162    12.2922    79.5098    14.0330
  203.5000  -999.2500   -20.2938    12.2391    81.0698    13.8656
  204.0000  -999.2500   -20.1662    12.1880    82.1752    13.6860
  204.5000  -999.2500   -20.2706    12.2130    81.0015    13.7375
  205.0000  -999.2500   -20.4329    12.3209    79.8472    13.8611
  205.5000  -999.2500   -20.5966    12.4249    78.6912    13.9869
  206.0000  -999.2500   -20.7600    12.5316    77.5357    14.1128
  206.5000  -999.2500   -20.9231    12.6636    77.6729    14.2387
  207.0000  -999.2500   -21.0863    12.4524    79.0595    14.1876
  207.5000  -999.2500   -21.2495    11.8229    81.9709    13.8634
  208.0000  -999.2500   -21.4127    11.2123    85.2988    13.5512
  208.5000  -999.2500   -21.5759    10.6032    89.5773    13.2415
  209.0000  -999.2500   -21.7391     9.9940    96.1636    12.9249
  209.5000  -999.2500   -21.9023     9.3851   102.7498    12.4405
  210.0000  -999.2500   -22.0655     8.7816   110.8328    11.3574
  210.5000  -999.2500   -22.2287     8.1521   122.4207    10.3088
  211.0000  -999.2500   -22.3921     7.4940   134.0086     9.9140
  211.5000  -999.2500   -22.5555     6.8424   145.5965     9.6535
  212.0000  -999.2500   -22.7158     6.3535   152.8631     9.3955
  212.5000  -999.2500   -22.7890     6.3031   159.1027     9.1553
  213.0000  -999.2500   -22.6386     6.2420   162.8060     8.9191
  213.5000  -999.2500   -22.4927     6.1818   164.2466     8.6842
  214.0000  -999.2500   -22.3464     6.1702   163.6907     8.5777
  214.5000  -999.2500   -22.2002     6.2452   162.8017     8.6162
  215.0000  -999.2500   -22.0540     6.3343   161.9072     8.7381
  215.5000  -999.2500   -21.9077     6.4226   161.0159     8.8590
  216.0000  -999.2500   -21.7608     6.4845   160.1245     8.9799
  216.5000  -999.2500   -21.6117     6.4836   159.2331     9.0983
  217.0000  -999.2500   -21.6596     6.4711   158.3417     9.1301
  217.5000  -999.2500   -21.7422     6.4562   158.5674     8.9662
  218.0000  -999.2500   -21.8256     6.4413   159.0130     8.8056
  218.5000  -999.2500   -21.9085     6.4265   159.4587     8.6453
  219.0000  -999.2500   -21.9913     6.4115   159.9044     8.5986
  219.5000  -999.2500   -22.0742     6.3966   160.3501     8.5972
  220.0000  -999.2500   -22.1570     6.3823   160.7958     8.6805
  220.5000  -999.2500   -22.2400     6.4202   161.2415     8.7761
  221.0000  -999.2500   -22.3231     6.5404   159.5332     8.8721
  221.5000  -999.2500   -22.4058     6.6596   157.4533     8.9680
  222.0000  -999.2500   -22.3961     6.7784   155.3734     9.0628
  222.5000  -999.2500   -22.3341     6.7745   153.2936     9.1117
  223.0000  -999.2500   -22.2726     6.7162   152.5389     9.1411
  223.5000  -999.2500   -22.2112     6.6582   154.0988     9.0799
  224.0000  -999.2500   -22.1498     6.6004   155.6587     9.0118
  224.5000  -999.2500   -22.0885     6.5426   157.2186     8.9432
  225.0000  -999.2500   -22.0271     6.4848   158.7785     8.8749
  225.5000  -999.2500   -21.9657     6.4270   160.3384     8.8064
  226.0000  -999.2500   -21.9044     6.3692   161.6224     8.7380
  226.5000  -999.2500   -21.8430     6.3122   162.4544     8.6712
  227.0000  -999.2500   -21.7816     6.2963   163.2863     8.6409
  227.5000  -999.2500   -21.7202     6.3528   162.4611     8.6561
  228.0000  -999.2500   -21.6580     6.4081   161.4212     8.7278
  228.5000  -999.2500   -21.5937     6.4636   160.3812     8.8463
  229.0000  -999.2500   -21.7223     6.5191   159.3413     8.9641
  229.5000  -999.2500   -21.8703     6.5745   158.3013     9.0821
  230.0000  -999.2500   -22.0189     6.6304   157.1577     9.2000
  230.5000  -999.2500   -22.1668     6.6887   155.1225     9.3166
  231.0000  -999.2500   -22.3150     6.7409   152.8617     9.3622
  231.5000  -999.2500   -22.4646     6.8663   150.6010     9.2931
  232.0000  -999.2500   -22.6155     6.9908   148.3403     9.2265
  232.5000  -999.2500   -22.5208     7.1157   146.0795     9.3497
  233.0000  -999.2500   -22.4046     7.2405   143.8188     9.4918
  233.5000  -999.2500   -22.2891     7.3653   141.5580     9.6334
  234.0000  -999.2500   -22.1740     7.4900   139.2973     9.7756
  234.5000  -999.2500   -22.0589     7.6150   137.0366     9.9237
  235.0000  -999.2500   -21.9439     7.7397   134.7735    10.1400
  235.5000  -999.2500   -21.8287     7.8632   132.5013    10.3250
  236.0000  -999.2500   -21.7127     7.8944   131.4059    10.4254
  236.5000  -999.2500   -21.5959     7.7939   131.8185    10.4250
  237.0000  -999.2500   -21.5909     7.6952   132.2614    10.4224
  237.5000  -999.2500   -21.6486     7.5961   133.2988    10.3286
  238.0000  -999.2500   -21.7111     7.4970   135.2490    10.2206
  238.5000  -999.2500   -21.7733     7.3980   137.4481    10.0256
  239.0000  -999.2500   -21.8354     7.2990   139.2687     9.8459
  239.5000  -999.2500   -21.8976     7.1999   141.2000     9.6777
  240.0000  -999.2500   -21.9597     7.1008   143.1313     9.5071
  240.5000  -999.2500   -22.0218     7.0011   145.0626     9.3381
  241.0000  -999.2500   -22.0841     6.9024   146.9939     9.3288
  241.5000  -999.2500   -22.1466     6.8976   148.9252     9.5232
  242.0000  -999.2500   -22.2075     6.8982   150.9336     9.7147
  242.5000  -999.2500   -22.1665     6.8986   151.2856     9.9054
  243.0000  -999.2500   -22.0682     6.9143   149.7999     9.9732
  243.5000  -999.2500   -21.9709     6.9492   148.3143     9.7509
  244.0000  -999.2500   -21.8734     6.9837   146.7842     9.5750
  244.5000  -999.2500   -21.7759     7.0184   145.7469     9.3989
  245.0000  -999.2500   -21.6784     7.0531   145.5221     9.3458
  245.5000  -999.2500   -21.5807     7.0877   145.2910     9.4340
  246.0000  -999.2500   -21.4828     7.1224   145.0599     9.5210
  246.5000  -999.2500   -21.3893     7.1571   144.8288     9.6086
  247.0000  -999.2500   -21.4759     7.1917   144.5977     9.6965
  247.5000  -999.2500   -21.6683     7.2264   144.3666     9.7377
  248.0000  -999.2500   -21.8591     7.2611   144.1355     9.6247
  248.5000  -999.2500   -22.0504     7.2957   143.9044     9.5054
  249.0000  -999.2500   -22.2419     7.3304   143.6722     9.3932
  249.5000  -999.2500   -22.4340     7.3650   142.4305     9.4432
  250.0000  -999.2500   -22.6184     7.3997   141.1826     9.5383
  250.5000  -999.2500   -22.5733     7.4168   139.9346     9.6754
  251.0000  -999.2500   -22.4687     7.4174   138.6867     9.9131
  251.5000  -999.2500   -22.3650     7.4152   137.4481     9.9482
  252.0000  -999.2500   -22.2614     7.3576   137.4374    10.4259
  252.5000  -999.2500   -22.1578     7.2979   137.4427    10.2185
  253.0000  -999.2500   -22.0542     7.2384   139.1883     9.8699
  253.5000  -999.2500   -21.9507     7.1417   142.5950     9.7164
  254.0000  -999.2500   -21.8471     7.0089   146.0019     9.5715
  254.5000  -999.2500   -21.7435     6.8765   149.4081     9.4262
  255.0000  -999.2500   -21.6398     6.7440   152.8132     9.2806
  255.5000  -999.2500   -21.5367     6.6111   156.1203     9.1348
  256.0000  -999.2500   -21.4321     6.4863   158.2573     8.9890
  256.5000  -999.2500   -21.4797     6.4826   159.5231     8.8499
  257.0000  -999.2500   -21.6561     6.4831   160.0704     8.8499
  257.5000  -999.2500   -21.8335     6.4815   160.6178     8.8915
  258.0000  -999.2500   -22.0112     6.4924   161.1651     8.9333
  258.5000  -999.2500   -22.1889     6.5531   161.7124     8.9723
  259.0000  -999.2500   -22.3659     6.4996   162.2598     8.9732
  259.5000  -999.2500   -22.5449     6.4432   162.8071     8.9733
  260.0000  -999.2500   -22.5541     6.3860   163.3544     8.9424
  260.5000  -999.2500   -22.4316     6.3284   163.9018     8.8871
  261.0000  -999.2500   -22.3074     6.2819   164.4191     8.8315
  261.5000  -999.2500   -22.1832     6.3987   163.2002     8.7754
  262.0000  -999.2500   -22.0581     6.5173   162.0447     8.7280
  262.5000  -999.2500   -22.0048     6.6351   160.8892     8.7962
