~VERSION INFORMATION
 VERS.                2.0:   CWLS LOG ASCII STANDARD - VERSION 2.0
 WRAP.                 NO:   ONE LINE PER DEPTH STEP
~WELL INFORMATION
#MNEM.UNIT      DATA TYPE    INFORMATION
#----------   ------------   ------------------------------
 STRT.F            6.0000:   START DEPTH
 STOP.F          640.0000:   STOP DEPTH
 STEP.F            0.5000:   STEP LENGTH
 NULL.          -999.2500:   NO VALUE
 COMP. LAWRENCE/ALLISON INC:   COMPANY
 WELL. NPR 3 #81-11-SX-15:   WELL
 FLD .             TEAPOT:   FIELD
 LOC .      S15 T38N R78W:   LOCATION
 CNTY.            NATRONA:   COUNTY
 STAT.            WYOMING:   STATE
 CTRY. UNITED STATES OF AMERICA:   COUNTRY
 SRVC.           Gearhart:   SERVICE COMPANY
 DATE.        15-JUL-1987:   LOGDATE
 API .       490251115100:   API NUMBER
~CURVE INFORMATION
#MNEM.UNIT       API CODE    CURVE DESCRIPTION
#----------   ------------   ------------------------------
 DEPT.F                  :   
 GRR .GAPI   07 310 01 00:   GAMMA RAY
 RILD.OHMM   07 120 46 00:   INDUCTION LOG DEEP RESISTIVITY
 RILM.OHMM   07 120 44 00:   INDUCTION LOG MEDIUM RESISTIVITY
~PARAMETER INFORMATION
#MNEM.UNIT          VALUE    DESCRIPTION
#----------   ------------   ------------------------------
 PD  .                 GL:   PERMANENT DATUM
 EPD .F            5265.4:   ELEVATION PERMANENT DATUM
 LMF .                 KB:   LOG MEASURED FROM
 DAPD.F                 8:   FEET ABOVE PERMANENT DATUM
 DMF .                 KB:   DRILLING MEASURED FROM
 EKB .F            5273.4:   KELLING BUSHING
 EDF .F            5271.4:   DRILLING FLOOR
 EGL .F            5265.4:   GROUND LEVEL
 DATE.        15-JUL-1987:   RUN DATE
 RUN .                  1:   RUN NUMBER
 DD  .F               646:   DEPTH DRILLER
 DL  .F               648:   DEPTH LOGGER
 BLI .F               640:   BOTTOM LOG INTERVAL
 TLI .F                 6:   TOP LOG INTERVAL
 CS  .IN            8.625:   CASING SIZE
 CBD .F                50:   CASING BOTTOM DRILLER
 CBL .F                50:   CASING BOTTOM LOGGER
 BS  .IN             7.87:   BIT SIZE
 BSD .F               646:   BIT SIZE AT DEPTH
 DFT .                AIR:   DRILLING FLUID TYPE
 TCS .HRS            2400:   TIME CURCULATED STOPPED
 TLAB.HRS            0112:   TIME LOGGER AT BOTTOM
 LUN .               7597:   LOGGING UNIT NUMBER
 LUL .           GILLETTE:   LOGGING UNIT LOCATION
 ENGI.           JOHNSTON:   RECORDING ENGINEER
 WITN.         MR. STRONG:   WITNESSED BY
 CLNT.            A2DTECH:   CLIENT CODE
 ORIG.      2" , 5" PRINT:   ORIGIN OF DATA
 UWI .       490251115100:   UNIQUE WELL ID
 DICO. A2D Technologies, Inc.:   DIGITIZING COMPANY
~OTHER INFORMATION
~A    DEPT     GRR       RILD       RILM   
# ...
  370.0000   129.5620     7.1749     7.1059
  370.5000   131.9912     7.3817     7.3206
  371.0000   132.6152     7.6397     7.6818
  371.5000   132.3133     7.8558     7.8480
  372.0000   130.8092     8.1343     8.0111
  372.5000   129.0024     8.1921     8.1810
  373.0000   127.1957     8.2431     8.2966
  373.5000   123.8761     8.2992     8.2978
  374.0000   122.3719     8.3485     8.2991
  374.5000   126.6187     8.3405     8.1856
  375.0000   126.3248     8.3993     8.1300
  375.5000   126.3335     8.3416     8.0188
  376.0000   127.8551     8.2846     7.9644
  376.5000   129.9819     8.2852     7.9102
  377.0000   129.0849     8.2859     7.9115
  377.5000   126.9755     8.2754     7.9126
  378.0000   129.1022     8.2218     7.8931
  378.5000   132.7418     8.1732     7.8054
  379.0000   136.0788     8.1739     7.8639
  379.5000   135.6943     8.1744     7.9723
  380.0000   131.2571     8.1749     8.0290
  380.5000   127.6349     8.1190     8.0300
  381.0000   124.6179     8.0634     7.9755
  381.5000   124.5557     8.0639     7.9765
  382.0000   128.0040     8.0087     7.8675
  382.5000   130.6975     7.9456     7.7061
  383.0000   132.2191     7.6832     7.5722
  383.5000   133.3212     7.5776     7.3935
  384.0000   134.6570     7.4737     7.2924
  384.5000   134.6757     7.3203     7.2298
  385.0000   133.4641     7.1699     7.2046
  385.5000   135.5929     7.0717     7.0955
  386.0000   136.5093     6.8785     6.9985
  386.5000   135.3077     6.6906     6.9026
  387.0000   133.5010     6.5532     6.7612
  387.5000   131.3666     6.3741     6.5769
  388.0000   132.9154     6.2826     6.4421
  388.5000   137.1600     6.2004     6.2228
  389.0000   142.0099     6.1580     5.8870
  389.5000   146.2546     6.0735     5.6082
  390.0000   143.8427     6.0740     5.2299
  390.5000   138.4072     6.1593     5.4941
  391.0000   135.0876     6.2960     5.8903
  391.5000   132.3731     6.4669     6.1420
  392.0000   129.9612     6.6957     6.3601
  392.5000   128.7596     6.8847     6.5859
  393.0000   127.2254     6.9814     6.7795
  393.5000   125.1483     7.1287     6.9646
  394.0000   127.2750     7.0800     6.9173
  394.5000   131.2171     6.9346     6.8227
  395.0000   126.6872     6.6522     6.5905
  395.5000   121.5371     6.3811     6.2308
  396.0000   117.0223     6.1640     5.8577
  396.5000   120.3614     6.0374     5.6192
  397.0000   125.2112     6.0379     5.4658
  397.5000   128.8508     5.9964     5.3537
  398.0000   130.0697     5.9969     5.3173
  398.5000   127.8547     5.9557     5.4349
  399.0000   126.4562     5.9562     5.6623
  399.5000   127.6774     6.0886     5.8634
  400.0000   129.5015     6.4297     6.1565
  400.5000   129.2076     6.7973     6.4969
  401.0000   127.6934     7.1859     6.8382
  401.5000   125.8988     7.4401     7.2774
  402.0000   126.2101     7.7592     7.5358
  402.5000   125.6136     8.0876     7.8034
  403.0000   124.7146     8.3158     8.0244
  403.5000   123.5130     8.4326     8.1946
  404.0000   121.6259     8.6106     8.3747
  404.5000   120.5046     8.7315     8.4870
  405.0000   119.9103     8.8542     8.5473
  405.5000   117.8010     8.8549     8.5676
  406.0000   119.3225     8.8694     8.6092
  406.5000   121.1770     8.9373     8.6104
  407.0000   123.2755     8.9805     8.6118
  407.5000   125.0996     8.8573     8.6130
  408.0000   126.3164     8.8579     8.6141
  408.5000   123.6041     8.9203     8.6753
  409.0000   119.3768     8.9425     8.7039
  409.5000   116.3146     8.9970     8.7382
  410.0000   117.2768     9.1098     8.8145
  410.5000   120.6160     9.1748     8.9872
  411.0000   121.2297     9.3029     9.1026
  411.5000   120.3307     9.4292     9.1791
  412.0000   119.4316     9.5660     9.2443
  412.5000   118.8351     9.7680     9.4407
  413.0000   118.5412     9.7010     9.4420
  413.5000   117.6443     9.3508     9.0575
  414.0000   117.0456     8.5630     8.3337
  414.5000   118.5693     7.8247     7.7751
  415.0000   122.8139     7.5582     7.1440
  415.5000   128.2710     7.3010     6.1832
  416.0000   135.5414     7.1016     5.6106
  416.5000   140.0886     7.0041     5.4573
  417.0000   140.3977     7.2019     5.8919
  417.5000   136.1725     7.4051     6.2297
  418.0000   128.3164     7.7743     6.7935
  418.5000   121.0633     8.3336     7.5621
  419.0000   117.4389     9.0163     8.5495
  419.5000   117.4497    10.1228     9.4333
  420.0000   117.7610    11.0794    10.0430
  420.5000   116.2589    11.4714    10.6180
  421.0000   112.3341    11.6325    10.8515
  421.5000   107.8020    11.7143    11.1491
  422.0000   108.4180    11.8790    10.9959
  422.5000   110.2421    12.2143    10.9202
  423.0000   114.1863    12.7345    10.9212
  423.5000   117.5232    13.1851    11.0047
  424.0000   118.7422    13.6516    11.3880
  424.5000   115.1199    14.1636    12.0400
  425.0000   101.8154    14.9429    13.1795
  425.5000    87.0002    15.6878    14.6289
  426.0000    75.2086    17.0515    16.2559
  426.5000    73.4018    18.4056    18.1494
  427.0000    73.1057    19.9119    20.1453
  427.5000    72.8139    22.5128    21.8992
  428.0000    71.6144    24.3005    23.6410
  428.5000    67.9922    25.8686    25.0051
  429.0000    64.3700    27.1583    26.7960
  429.5000    62.8636    28.5149    28.1339
  430.0000    64.6899    29.5215    28.9291
  430.5000    67.1212    30.2258    29.9542
  431.0000    68.9453    30.7810    30.1652
  431.5000    69.2544    31.2133    30.3781
  432.0000    67.1472    31.4328    30.1692
  432.5000    65.9455    31.4350    30.1717
  433.0000    68.0743    31.0041    30.1735
  433.5000    71.1087    30.1572    29.7694
  434.0000    73.5379    29.5377    29.1174
  434.5000    74.7569    29.1324    28.3499
  435.0000    74.7655    28.7327    27.7667
  435.5000    72.9587    28.3390    27.1950
  436.0000    76.2978    28.1017    27.0088
  436.5000    76.9116    27.7582    26.4532
  437.0000    75.4074    27.5681    26.2717
  437.5000    73.2980    27.8594    26.2739
  438.0000    71.4934    28.3489    26.2756
  438.5000    73.6201    28.7841    26.4607
  439.0000    76.6544    29.3538    26.7474
  439.5000    78.7811    29.7661    27.2108
  440.0000    80.7565    29.9754    27.4024
  440.5000    81.8241    30.5151    28.0459
  441.0000    78.2040    31.2547    28.7725
  441.5000    76.6998    31.9145    29.3904
  442.0000    74.8930    32.3627    30.4224
  442.5000    74.2965    32.5903    31.7202
  443.0000    73.3975    32.8195    34.7224
  443.5000    73.4083    32.8222    36.4562
  444.0000    73.7195    32.3718    34.9660
  444.5000    74.3333    31.7069    33.0805
  445.0000    74.6445    30.8407    31.5114
  445.5000    77.3784    30.2072    29.8089
  446.0000    78.8999    29.5514    28.7926
  446.5000    80.1189    28.5799    28.0049
  447.0000    79.5224    27.6069    27.0505
  447.5000    78.3207    26.8528    26.3105
  448.0000    79.2393    26.1193    25.7688
  448.5000    80.4582    25.5639    25.2391
  449.0000    83.1900    25.0572    24.7198
  449.5000    86.2243    24.5020    24.1884
  450.0000    86.8381    24.0387    23.6859
  450.5000    86.5442    23.5449    23.2257
  451.0000    87.4627    23.2219    22.5903
  451.5000    88.9842    22.5879    22.1256
  452.0000    87.1774    22.2780    21.6544
  452.5000    85.3707    21.9724    21.5217
  453.0000    84.4716    21.6709    21.2263
  453.5000    86.4616    21.5224    20.7893
  454.0000    87.0483    21.6738    20.5040
  454.5000    87.5232    21.3768    20.3633
  455.0000    84.5083    21.5271    20.6501
  455.5000    82.0985    21.6785    20.9406
  456.0000    80.8948    21.8309    21.2351
  456.5000    82.1158    22.1375    21.5545
  457.0000    83.6373    22.7626    21.8429
  457.5000    84.2511    23.2431    22.2988
  458.0000    84.2619    23.8990    22.6124
  458.5000    84.2706    24.2347    22.7717
  459.0000    82.7664    23.8978    22.9320
  459.5000    81.2622    23.2493    22.6169
  460.0000    80.5491    22.6145    22.3062
  460.5000    83.4158    21.8446    21.9997
