~VERSION INFORMATION
 VERS.                2.0:   CWLS LOG ASCII STANDARD - VERSION 2.0
 WRAP.                 NO:   ONE LINE PER DEPTH STEP
~WELL INFORMATION
#MNEM.UNIT      DATA TYPE    INFORMATION
#----------   ------------   ------------------------------
 STRT.F           52.5000:   START DEPTH
 STOP.F         2929.0000:   STOP DEPTH
 STEP.F            0.5000:   STEP LENGTH
 NULL.          -999.2500:   NO VALUE
 COMP.   FLUOR DANIEL INC:   COMPANY
 WELL. NAVAL PETROLEUM RESERVE 3 X-23 #52-23:   WELL
 FLD .            WILDCAT:   FIELD
 LOC .      S23 T38N R78W:   LOCATION
 CNTY.            NATRONA:   COUNTY
 STAT.            WYOMING:   STATE
 CTRY. UNITED STATES OF AMERICA:   COUNTRY
 SRVC.            Unknown:   SERVICE COMPANY
 DATE.        23-APR-1995:   LOGDATE
 API .       490252271500:   API NUMBER
~CURVE INFORMATION
#MNEM.UNIT       API CODE    CURVE DESCRIPTION
#----------   ------------   ------------------------------
 DEPT.F                  :   
 ROP .MIN/FT 91 810 01 00:   RAT OF DRILLING PENETRATION
 TGAS.UNITS  91 830 01 00:   TOTAL GAS FROM HOTWIRE
~PARAMETER INFORMATION
#MNEM.UNIT          VALUE    DESCRIPTION
#----------   ------------   ------------------------------
 EKB .F              5344:   KELLING BUSHING
 EGL .F              5334:   GROUND LEVEL
 DATE.            4-23-95:   RUN DATE
 DD  .F              2929:   DEPTH DRILLER
 CS  .IN            9.625:   CASING SIZE
 CBD .F                53:   CASING BOTTOM DRILLER
 BS  .IN             8.75:   BIT SIZE
 BSD .F              2929:   BIT SIZE AT DEPTH
 ENGI.              TOWER:   RECORDING ENGINEER
 WITN.               HUSK:   WITNESSED BY
 CLNT.            A2DTECH:   CLIENT CODE
 ORIG.           5" PRINT:   ORIGIN OF DATA
 UWI .       490252271500:   UNIQUE WELL ID
 DICO. A2D Technologies, Inc.:   DIGITIZING COMPANY
~OTHER INFORMATION
~A   DEPT        ROP     TGAS   
# ...
 2239.5000     0.4913     2.5561
 2240.0000     0.4919     2.5689
 2240.5000     0.4926     2.5729
 2241.0000     0.4932     2.5769
 2241.5000     0.4938     2.5809
 2242.0000     0.4944     2.5849
 2242.5000     0.4951     2.5889
 2243.0000     0.4957     2.5929
 2243.5000     0.4963     2.5969
 2244.0000     0.4968     2.6009
 2244.5000     0.4968     2.6049
 2245.0000     0.4968     2.6089
 2245.5000     0.4968     2.6129
 2246.0000     0.4968     2.6116
 2246.5000     0.4968     2.5896
 2247.0000     0.4968     2.5675
 2247.5000     0.4968     2.5455
 2248.0000     0.4968     2.5235
 2248.5000     0.4968     2.5049
 2249.0000     0.4968     2.4958
 2249.5000     0.4968     2.4866
 2250.0000     0.4968     2.4775
 2250.5000     0.4968     2.4683
 2251.0000     0.4968     2.4592
 2251.5000     0.4968     2.4500
 2252.0000     0.4968     2.4409
 2252.5000     0.4968     2.4317
 2253.0000     0.4968     2.4226
 2253.5000     0.4968     2.4134
 2254.0000     0.4968     2.4043
 2254.5000     0.4968     2.3951
 2255.0000     0.4968     2.3860
 2255.5000     0.4968     2.3803
 2256.0000     0.4968     2.3855
 2256.5000     0.4968     2.3908
 2257.0000     0.4968     2.3960
 2257.5000     0.4968     2.4013
 2258.0000     0.4968     2.4065
 2258.5000     0.4968     2.4117
 2259.0000     0.4968     2.4170
 2259.5000     0.4968     2.4222
 2260.0000     0.4968     2.4275
 2260.5000     0.4968     2.4327
 2261.0000     0.4968     2.4379
 2261.5000     0.4968     2.4432
 2262.0000     0.4968     2.4483
 2262.5000     0.4968     2.3448
 2263.0000     0.4968     2.2429
 2263.5000     0.4968     2.1410
 2264.0000     0.4968     2.0391
 2264.5000     0.4968     1.9332
 2265.0000     0.4968     2.0201
 2265.5000     0.4968     2.1106
 2266.0000     0.4968     2.2011
 2266.5000     0.4968     2.2916
 2267.0000     0.4968     2.3821
 2267.5000     0.4968     2.4726
 2268.0000     0.4968     2.5776
 2268.5000     0.4968     2.6816
 2269.0000     0.4968     2.8056
 2269.5000     0.4968     2.9295
 2270.0000     0.4968     3.0534
 2270.5000     0.5724     3.1774
 2271.0000     0.5724     3.0072
 2271.5000     0.5724     2.7924
 2272.0000     0.5724     2.7924
 2272.5000     0.5724     2.7924
 2273.0000     0.5717     2.5776
 2273.5000     0.5681     2.5776
 2274.0000     0.5646     2.3628
 2274.5000     0.5611     2.5776
 2275.0000     0.5576     2.5776
 2275.5000     0.5541     2.5776
 2276.0000     0.5479     2.5776
 2276.5000     0.5032     2.5776
 2277.0000     0.4752     2.3628
 2277.5000     0.4752     2.3628
 2278.0000     0.4752     2.3628
 2278.5000     0.4752     2.5776
 2279.0000     0.4752     2.5776
 2279.5000     0.4752     2.5776
 2280.0000     0.4752     2.5776
 2280.5000     0.4752     2.5776
 2281.0000     0.4752     2.5776
 2281.5000     0.4752     2.5776
 2282.0000     0.4752     2.5776
 2282.5000     0.4759     2.5776
 2283.0000     0.4789     2.5776
 2283.5000     0.4819     2.5776
 2284.0000     0.4848     2.5776
 2284.5000     0.4878     2.7924
 2285.0000     0.4908     2.7924
 2285.5000     0.4938     2.7366
 2286.0000     0.4968     2.6807
 2286.5000     0.4998     2.6249
 2287.0000     0.5028     2.5691
 2287.5000     0.5057     2.5133
 2288.0000     0.5087     2.4575
 2288.5000     0.5117     2.4017
 2289.0000     0.5147     2.3628
 2289.5000     0.5177     2.3628
 2290.0000     0.5180     2.3628
 2290.5000     0.5175     2.3628
 2291.0000     0.5170     2.3628
 2291.5000     0.5166     2.3628
 2292.0000     0.5161     2.3628
 2292.5000     0.5156     2.3628
 2293.0000     0.5152     2.3628
 2293.5000     0.5147     2.3628
 2294.0000     0.5142     2.3628
 2294.5000     0.5137     2.3628
 2295.0000     0.5133     2.3628
 2295.5000     0.5128     2.3628
 2296.0000     0.5123     2.3628
 2296.5000     0.5119     2.3628
 2297.0000     0.5114     2.3628
 2297.5000     0.5109     2.3323
 2298.0000     0.5104     2.3012
 2298.5000     0.5100     2.2701
 2299.0000     0.5095     2.2390
 2299.5000     0.5090     2.2080
 2300.0000     0.5086     2.1769
 2300.5000     0.5081     2.1458
 2301.0000     0.5076     2.1147
 2301.5000     0.5076     2.0836
 2302.0000     0.5076     2.0525
 2302.5000     0.5076     2.0214
 2303.0000     0.5076     1.9903
 2303.5000     0.5076     1.9592
 2304.0000     0.5076     1.9332
 2304.5000     0.5076     1.9332
 2305.0000     0.5076     1.9332
 2305.5000     0.5076     1.9332
 2306.0000     0.5066     1.9332
 2306.5000     0.5054     1.9412
 2307.0000     0.5042     1.9604
 2307.5000     0.5030     1.9795
 2308.0000     0.5018     1.9987
 2308.5000     0.5007     2.0179
 2309.0000     0.4995     2.0370
 2309.5000     0.4983     2.0562
 2310.0000     0.4971     2.0753
 2310.5000     0.4959     2.0945
 2311.0000     0.4948     2.1137
 2311.5000     0.4936     2.1328
 2312.0000     0.4924     2.1480
 2312.5000     0.4912     2.1480
 2313.0000     0.4900     2.1480
 2313.5000     0.4889     2.1480
 2314.0000     0.4877     2.1480
 2314.5000     0.4865     2.1480
 2315.0000     0.4856     2.1480
 2315.5000     0.4848     2.1480
 2316.0000     0.4841     2.1480
 2316.5000     0.4834     2.1480
 2317.0000     0.4826     2.1480
 2317.5000     0.4819     2.1480
 2318.0000     0.4812     2.1480
 2318.5000     0.4804     2.1480
 2319.0000     0.4797     2.1480
 2319.5000     0.4789     2.1310
 2320.0000     0.4782     2.1111
 2320.5000     0.4775     2.0912
 2321.0000     0.4767     2.0714
 2321.5000     0.4760     2.0515
 2322.0000     0.4752     2.0316
 2322.5000     0.7235     2.0117
 2323.0000     0.7235     1.9918
 2323.5000     0.7235     1.9720
 2324.0000     0.7235     1.9521
 2324.5000     0.7235     1.9313
 2325.0000     0.7169     1.8934
 2325.5000     0.7094     1.8555
 2326.0000     0.7020     1.8176
 2326.5000     0.6946     1.7797
 2327.0000     0.6871     1.7418
 2327.5000     0.6797     1.7039
 2328.0000     0.6723     1.6660
 2328.5000     0.6649     1.6281
 2329.0000     0.6574     1.5902
 2329.5000     0.6500     1.5522
 2330.0000     0.6426     1.5143
 2330.5000     0.7983     1.5143
 2331.0000     0.7954     1.5293
 2331.5000     0.7925     1.5442
 2332.0000     0.7895     1.5592
 2332.5000     0.7866     1.5741
 2333.0000     0.7837     1.5891
 2333.5000     0.7808     1.6040
 2334.0000     0.7775     1.6190
 2334.5000     0.9267     1.6339
 2335.0000     0.9241     1.6489
 2335.5000     0.9214     1.6639
 2336.0000     0.9187     1.6788
 2336.5000     0.5290     1.6938
 2337.0000     0.5285     1.7087
 2337.5000     0.5280     1.7346
 2338.0000     0.5275     1.7802
 2338.5000     0.5270     1.8259
 2339.0000     0.5264     1.8715
 2339.5000     0.5259     1.9172
 2340.0000     0.5254     1.9628
 2340.5000     0.5249     2.0084
 2341.0000     0.5244     2.0541
 2341.5000     0.5239     2.0997
 2342.0000     0.5234     2.1454
 2342.5000     0.5229     2.1910
 2343.0000     0.5224     2.2367
 2343.5000     0.5219     2.2823
 2344.0000     0.5214     2.3280
 2344.5000     0.5209     2.3555
 2345.0000     0.5204     2.3249
 2345.5000     0.5199     2.2944
 2346.0000     0.5194     2.2638
 2346.5000     0.5189     2.2332
 2347.0000     0.5184     2.2026
 2347.5000     0.5181     2.1720
 2348.0000     0.5178     2.1480
 2348.5000     0.5176     2.1480
 2349.0000     0.5173     2.1480
 2349.5000     0.5170     2.1480
 2350.0000     0.5167     2.1480
 2350.5000     0.5165     2.1480
 2351.0000     0.5162     2.1480
 2351.5000     0.5159     2.1480
 2352.0000     0.5157     2.1480
 2352.5000     0.5154     2.1480
 2353.0000     0.5151     2.1480
 2353.5000     0.5149     2.1480
 2354.0000     0.5151     2.1480
 2354.5000     0.5154     2.1480
 2355.0000     0.5157     2.1480
 2355.5000     0.5159     2.1480
 2356.0000     0.5162     2.1480
 2356.5000     0.5165     2.1480
 2357.0000     0.5167     2.1480
 2357.5000     0.5170     2.1480
 2358.0000     0.5173     2.1480
 2358.5000     0.5175     2.1480
 2359.0000     0.5178     2.1480
 2359.5000     0.5181     2.1480
 2360.0000     0.5184     2.1480
 2360.5000     0.5186     2.1480
