~VERSION INFORMATION
 VERS.                2.0:   CWLS LOG ASCII STANDARD - VERSION 2.0
 WRAP.                 NO:   ONE LINE PER DEPTH STEP
~WELL INFORMATION
#MNEM.UNIT      DATA TYPE    INFORMATION
#----------   ------------   ------------------------------
 STRT.F            9.5000:   START DEPTH
 STOP.F          640.5000:   STOP DEPTH
 STEP.F            0.5000:   STEP LENGTH
 NULL.          -999.2500:   NO VALUE
 COMP. FENIX & SCISSON INC:   COMPANY
 WELL. 27-32 SX 11 WI #27-32 SX:   WELL
 FLD .            WILDCAT:   FIELD
 LOC .      S11 T38N R78W:   LOCATION
 CNTY.            NATRONA:   COUNTY
 STAT.            WYOMING:   STATE
 CTRY. UNITED STATES OF AMERICA:   COUNTRY
 SRVC.      Dresser Atlas:   SERVICE COMPANY
 DATE.        01-AUG-1980:   LOGDATE
 API .       490251083700:   API NUMBER
~CURVE INFORMATION
#MNEM.UNIT       API CODE    CURVE DESCRIPTION
#----------   ------------   ------------------------------
 DEPT.F                  :   
 SPR .MV     07 010 01 00:   SPONTANEOUS POTENTIAL
 SFL .OHMM   07 220 01 00:   SHALLOW FOCUSED LOG RESISTIVITY
 ILD .OHMM   07 120 46 00:   INDUCTION LOG DEEP
 ILM .OHMM   07 120 44 00:   INDUCTION LOG MEDIUM
 GRD .GAPI   45 310 01 00:   GAMMA RAY FROM DENSITY LOG
 CALD.IN     45 280 60 00:   CALIPER
 RHOB.G/C3   45 350 01 00:   BULK DENSITY
 CORR.G/C3   45 356 01 00:   DENSITY CORRECTION
 DPHI.DEC    45 890 12 00:   DENSITY POROSITY SANDSTONE
 NPHI.DEC    42 890 03 00:   NEUTRON POROSITY SANDSTONE
~PARAMETER INFORMATION
#MNEM.UNIT          VALUE    DESCRIPTION
#----------   ------------   ------------------------------
 PD  .                 GL:   PERMANENT DATUM
 EPD .F              5189:   ELEVATION PERMANENT DATUM
 LMF .                 KB:   LOG MEASURED FROM
 DAPD.F                 5:   FEET ABOVE PERMANENT DATUM
 DMF .                 KB:   DRILLING MEASURED FROM
 EKB .F              5194:   KELLING BUSHING
 EGL .F              5189:   GROUND LEVEL
 DATE.             8-1-80:   RUN DATE
 RUN .                  1:   RUN NUMBER
 DD  .F               625:   DEPTH DRILLER
 DL  .F               634:   DEPTH LOGGER
 BLI .F               632:   BOTTOM LOG INTERVAL
 TLI .F                12:   TOP LOG INTERVAL
 BS  .IN            7.875:   BIT SIZE
 BSD .F               625:   BIT SIZE AT DEPTH
 DFT .           CHEM GEL:   DRILLING FLUID TYPE
 DFD .                9.1:   DRILLING FLUID DENSITY
 DFV .                 44:   DRILLING FLUID VISCOSITY
 DFPH.                9.5:   DRILLING FLUID PH
 DFL .                7.6:   DRILLING FLUID LOSS
 MSS .           FLOWLINE:   MUD SAMPLE SOURCE
 RMS .OHMM            .27:   RESISTIVITY MUD SAMPLE
 MST .F                70:   MUD SAMPLE TEMPERATURE
 RMF .OHMM            .16:   RESISTIVITY MUD FILTRATE SAMPLE
 MFST.F                65:   MUD FILTRATE SAMPLE TEMPERATURE
 MFSS.               MEAS:   MUD FILTRATE SAMPLE SOURCE
 MCSS.               MEAS:   MUD CAKE SAMPLE SOURCE
 RMB .OHMM            .21:   RESISTIVITY MUD AT BHT
 BHT .F                94:   BOTTOM HOLE TEMPERATURE
 TCS .HRS            0040:   TIME CURCULATED STOPPED
 MRT .F                94:   MAXIMUM RECORDED TEMPERATURE
 LUN .               6145:   LOGGING UNIT NUMBER
 LUL .              GLTTE:   LOGGING UNIT LOCATION
 ENGI.              HENRY:   RECORDING ENGINEER
 WITN.              AMEND:   WITNESSED BY
 CLNT.            A2DTECH:   CLIENT CODE
 ORIG.     1", 2.5" PRINT:   ORIGIN OF DATA
 UWI .       490251083700:   UNIQUE WELL ID
 DICO. A2D Technologies, Inc.:   DIGITIZING COMPANY
~OTHER INFORMATION
~A    DEPT     SPR         SFL         ILD        ILM      GRD       CALD       RHOB       CORR       DPHI       NPHI   
# ...
  512.0000   -48.7253    16.5013    12.1201    13.3081    74.1986     8.0325     2.4322     0.0135     0.1489     0.2499
  512.5000   -48.5763    16.4602    12.0696    13.0808    74.5483     8.0376     2.4331     0.0131     0.1449     0.2465
  513.0000   -48.4301    16.4126    12.0192    12.9698    74.9035     8.0427     2.4335     0.0127     0.1472     0.2425
  513.5000   -48.2783    16.3609    11.9691    13.2806    75.2902     8.0479     2.4338     0.0121     0.1481     0.2386
  514.0000   -48.1346    16.3093    11.9192    13.6470    75.6315     8.0530     2.4342     0.0136     0.1466     0.2347
  514.5000   -47.9886    16.2584    11.8695    13.5183    75.7396     8.0582     2.4343     0.0174     0.1453     0.2354
  515.0000   -47.8167    16.2072    11.8200    13.3685    74.5539     8.0632     2.4381     0.0210     0.1441     0.2362
  515.5000   -47.9257    16.1561    11.7707    13.2204    73.2535     8.0683     2.4455     0.0246     0.1401     0.2369
  516.0000   -48.3244    16.0982    11.7189    13.0739    72.1986     8.0738     2.4540     0.0283     0.1369     0.2376
  516.5000   -48.7004    16.0354    11.6662    12.9290    72.8022     8.0763     2.4633     0.0317     0.1293     0.2384
  517.0000   -49.0738    15.9659    11.6137    12.7858    73.3040     8.0742     2.4748     0.0358     0.1233     0.2386
  517.5000   -49.3879    15.8933    11.5614    12.6663    73.8819     8.0725     2.4742     0.0331     0.1233     0.2385
  518.0000   -49.4535    15.8353    11.5094    12.6080    74.4145     8.0708     2.4671     0.0294     0.1270     0.2384
  518.5000   -49.5142    14.8880    11.4576    12.4519    74.9829     8.0689     2.4604     0.0256     0.1325     0.2383
  519.0000   -49.5691    14.6975    11.4061    12.2976    76.1226     8.0672     2.4531     0.0217     0.1361     0.2382
  519.5000   -49.6252    14.7847    11.3547    12.1453    78.1385     8.0655     2.4551     0.0203     0.1345     0.2380
  520.0000   -49.6817    14.9272    11.3036    11.9949    78.3502     8.0637     2.4596     0.0211     0.1318     0.2379
  520.5000   -49.7374    15.0709    11.2529    11.8464    78.6832     8.0619     2.4642     0.0217     0.1290     0.2358
  521.0000   -49.7935    15.2619    11.2021    11.6996    78.9387     8.0602     2.4685     0.0223     0.1263     0.2327
  521.5000   -49.8497    15.2395    11.1517    11.5389    79.2010     8.0584     2.4733     0.0230     0.1236     0.2296
  522.0000   -49.9060    15.2053    11.1015    11.6474    79.4974     8.0567     2.4776     0.0237     0.1209     0.2283
  522.5000   -49.9623    15.1711    11.0516    11.7706    79.8197     8.0549     2.4801     0.0226     0.1192     0.2230
  523.0000   -50.0186    15.1365    11.0019    11.8952    81.0551     8.0532     2.4668     0.0176     0.1281     0.2178
  523.5000   -50.0749    15.1018    10.9523    12.0210    82.4818     8.0514     2.4525     0.0126     0.1361     0.2196
  524.0000   -50.1313    15.0674    10.9112    12.1482    83.9544     8.0497     2.4600     0.0170     0.1315     0.2217
  524.5000   -50.1876    15.0331    11.0410    12.2767    85.3132     8.0479     2.4704     0.0217     0.1250     0.2238
  525.0000   -50.2437    14.9810    11.1536    12.4066    86.9960     8.0462     2.4843     0.0277     0.1160     0.2256
  525.5000   -50.2999    15.0364    11.2674    12.5379    88.9692     8.0444     2.4828     0.0274     0.1184     0.2275
  526.0000   -50.3564    15.1812    11.3823    12.6705    90.0411     8.0427     2.4775     0.0268     0.1222     0.2293
  526.5000   -50.4115    15.3281    11.4984    12.8045    87.4690     8.0409     2.4735     0.0259     0.1258     0.2335
  527.0000   -50.4689    15.5448    11.5389    12.8716    84.9154     8.0392     2.4623     0.0251     0.1312     0.2394
  527.5000   -50.5258    15.5241    11.4267    12.7452    82.1550     8.0372     2.4482     0.0243     0.1361     0.2376
  528.0000   -50.5744    15.4616    11.2986    12.6201    80.7706     8.0379     2.4590     0.0235     0.1316     0.2341
  528.5000   -50.7107    15.3990    11.1719    12.4962    81.6697     8.0434     2.4690     0.0227     0.1273     0.2306
  529.0000   -50.9336    15.3373    11.0467    12.3736    80.0221     8.0486     2.4669     0.0219     0.1278     0.2266
  529.5000   -51.1486    15.2768    10.9228    12.2521    78.3428     8.0539     2.4654     0.0212     0.1283     0.2286
  530.0000   -51.3626    15.2169    10.8004    12.1318    79.6125     8.0592     2.4645     0.0203     0.1289     0.2326
  530.5000   -51.5801    15.1573    10.6793    12.0127    81.3643     8.0645     2.4684     0.0205     0.1261     0.2365
  531.0000   -51.7948    15.0984    10.5595    11.8947    83.1169     8.0698     2.4745     0.0212     0.1233     0.2403
  531.5000   -52.0091    15.0397    10.5118    11.7560    84.8649     8.0751     2.4806     0.0219     0.1201     0.2396
  532.0000   -52.2323    14.9812    10.5118    11.6404    84.2986     8.0804     2.4810     0.0226     0.1186     0.2389
  532.5000   -52.4373    14.9220    10.5118    11.5389    83.6233     8.0857     2.4812     0.0232     0.1168     0.2409
  533.0000   -52.6263    14.8621    10.5118    11.7560    85.4349     8.0910     2.4858     0.0239     0.1153     0.2440
  533.5000   -52.3964    14.8027    10.5118    12.0105    87.3723     8.0963     2.4806     0.0212     0.1211     0.2459
  534.0000   -52.1770    14.7154    10.5118    12.2568    87.0256     8.1016     2.4726     0.0173     0.1261     0.2448
  534.5000   -51.9639    14.9787    11.2308    12.6663    85.3150     8.1070     2.4639     0.0135     0.1310     0.2404
  535.0000   -51.5009    15.9356    11.9359    13.7098    83.3912     8.1122     2.4547     0.0097     0.1391     0.2360
  535.5000   -50.7883    16.9537    12.7369    14.9624    81.5586     8.1168     2.4278     0.0060     0.1542     0.2323
  536.0000   -50.0995    18.0368    13.7041    16.3294    76.8192     8.1144     2.4001     0.0022     0.1693     0.2352
  536.5000   -49.4137    19.1891    14.7446    17.8213    72.4691     8.1107     2.3749    -0.0020     0.1844     0.2390
  537.0000   -48.7182    20.1873    15.8642    19.4495    67.8254     8.1070     2.3493    -0.0030     0.1986     0.2411
  537.5000   -48.0355    22.7719    17.0688    21.2265    66.0600     8.1033     2.3426     0.0011     0.2034     0.2374
  538.0000   -47.3403    25.2172    18.3649    23.1658    67.7498     8.0996     2.3360     0.0047     0.2041     0.2338
  538.5000   -46.6399    27.9251    19.7594    25.2824    69.2407     8.0959     2.3337     0.0084     0.2050     0.2303
  539.0000   -46.2229    30.9237    21.2598    27.5923    69.7550     8.0922     2.3413     0.0122     0.2009     0.2268
  539.5000   -46.5738    34.0251    22.8741    30.1132    69.3460     8.0885     2.3506     0.0158     0.1970     0.2235
  540.0000   -46.9016    34.1811    23.4345    30.9965    68.6392     8.0848     2.3505     0.0196     0.1947     0.2243
  540.5000   -47.2494    34.3286    23.4345    30.9965    68.0840     8.0811     2.3513     0.0233     0.1904     0.2250
  541.0000   -47.6102    34.4767    22.6208    30.9965    67.4527     8.0774     2.3748     0.0269     0.1800     0.2259
  541.5000   -47.7754    34.6255    21.9021    30.9965    68.5931     8.0738     2.3979     0.0310     0.1615     0.2236
  542.0000   -47.7621    35.7951    21.2062    28.7668    70.4276     8.0701     2.4288     0.0302     0.1511     0.2213
  542.5000   -47.7618    38.7685    20.5324    26.9215    71.4118     8.0664     2.4170     0.0262     0.1641     0.2186
  543.0000   -47.7695    34.4244    19.8800    25.1945    71.0879     8.0627     2.3865     0.0224     0.1845     0.2247
  543.5000   -47.7713    29.4638    19.2484    23.8755    70.9137     8.0590     2.3722     0.0181     0.1827     0.2323
  544.0000   -48.0698    25.2490    18.6368    23.8755    71.2579     8.0553     2.3717     0.0163     0.1824     0.2342
  544.5000   -48.4538    25.7708    18.0446    23.8755    72.2212     8.0516     2.3602     0.0134     0.1939     0.2355
  545.0000   -48.8634    26.2992    17.6448    23.8755    72.2205     8.0479     2.3491     0.0181     0.1999     0.2341
