~VERSION INFORMATION
 VERS.                2.0:   CWLS LOG ASCII STANDARD - VERSION 2.0
 WRAP.                 NO:   ONE LINE PER DEPTH STEP
~WELL INFORMATION
#MNEM.UNIT      DATA TYPE    INFORMATION
#----------   ------------   ------------------------------
 STRT.F           29.0000:   START DEPTH
 STOP.F          500.0000:   STOP DEPTH
 STEP.F            0.5000:   STEP LENGTH
 NULL.          -999.2500:   NO VALUE
 COMP.    FENIX & SCISSON:   COMPANY
 WELL.        NPR #48-S-3:   WELL
 FLD .             TEAPOT:   FIELD
 LOC .       S3 T38N R78W:   LOCATION
 CNTY.            NATRONA:   COUNTY
 STAT.            WYOMING:   STATE
 CTRY. UNITED STATES OF AMERICA:   COUNTRY
 SRVC.              Welex:   SERVICE COMPANY
 DATE.        24-APR-1977:   LOGDATE
 API .       490251034900:   API NUMBER
~CURVE INFORMATION
#MNEM.UNIT       API CODE    CURVE DESCRIPTION
#----------   ------------   ------------------------------
 DEPT.F                  :   
 SPR .MV     07 010 01 00:   SPONTANEOUS POTENTIAL
 ILD .OHMM   07 120 46 00:   INDUCTION LOG DEEP
 ILM .OHMM   07 120 44 00:   INDUCTION LOG MEDIUM
 SGRD.OHMM   07 221 05 00:   SHALLOW SHORT GUARD RESISTIVITY
 GRD .GAPI   45 310 01 00:   GAMMA RAY FROM DENSITY LOG
 CALD.IN     45 280 60 00:   CALIPER FROM DENSITY LOG
 CORR.G/C3   45 356 01 00:   DENSITY CORRECTION
 RHOB.G/C3   45 350 01 00:   BULK DENSITY
 DPHI.DEC    45 890 12 00:   DENSITY POROSITY SANDSTONE
~PARAMETER INFORMATION
#MNEM.UNIT          VALUE    DESCRIPTION
#----------   ------------   ------------------------------
 PD  .                 GL:   PERMANENT DATUM
 EPD .F              5199:   ELEVATION PERMANENT DATUM
 LMF .                 GL:   LOG MEASURED FROM
 DMF .                 GL:   DRILLING MEASURED FROM
 EGL .F              5199:   GROUND LEVEL
 DATE.        24-APR-1977:   RUN DATE
 RUN .                  1:   RUN NUMBER
 DD  .F               500:   DEPTH DRILLER
 DL  .F               499:   DEPTH LOGGER
 BLI .F               497:   BOTTOM LOG INTERVAL
 TLI .F                30:   TOP LOG INTERVAL
 CS  .IN            8.625:   CASING SIZE
 BS  .IN               12:   BIT SIZE
 BSD .F               500:   BIT SIZE AT DEPTH
 DFT .             KCLMUD:   DRILLING FLUID TYPE
 DFD .                8.9:   DRILLING FLUID DENSITY
 TCS .HRS               1:   TIME CURCULATED STOPPED
 MRT .F                70:   MAXIMUM RECORDED TEMPERATURE
 ENGI.          T. JOYNER:   RECORDING ENGINEER
 WITN.            R. LYON:   WITNESSED BY
 CLNT.            A2DTECH:   CLIENT CODE
 ORIG.           5" PRINT:   ORIGIN OF DATA
 UWI .       490251034900:   UNIQUE WELL ID
 DICO. A2D Technologies, Inc.:   DIGITIZING COMPANY
~OTHER INFORMATION
~A   DEPT      SPR        ILD        ILM       SGRD        GRD         CALD      CORR        RHOB     DPHI   
   29.0000  -999.2500  -999.2500  -999.2500  -999.2500   102.0119     7.8839    -0.2432     2.0008  -999.2500
   29.5000  -999.2500  -999.2500  -999.2500  -999.2500   102.3100     7.9012    -0.2432     2.0021  -999.2500
   30.0000  -999.2500  -999.2500  -999.2500  -999.2500   106.0358     7.9283    -0.2410     2.0050  -999.2500
   30.5000  -999.2500  -999.2500  -999.2500  -999.2500   103.7472     7.9280    -0.2395     2.0113  -999.2500
   31.0000  -999.2500  -999.2500  -999.2500  -999.2500   101.4325     7.9277    -0.2373     2.0176  -999.2500
   31.5000  -999.2500  -999.2500  -999.2500  -999.2500    98.4352     7.9125    -0.2343     2.0238  -999.2500
   32.0000  -999.2500  -999.2500  -999.2500  -999.2500   100.6706     7.9123    -0.2306     2.0301  -999.2500
   32.5000  -999.2500  -999.2500  -999.2500  -999.2500   102.9061     7.9121    -0.2253     2.0364  -999.2500
   33.0000  -999.2500  -999.2500  -999.2500  -999.2500   104.3964     7.9118    -0.2222     2.0416  -999.2500
   33.5000  -999.2500  -999.2500  -999.2500  -999.2500   105.5887     7.9115    -0.2170     2.0393  -999.2500
   34.0000  -999.2500  -999.2500  -999.2500  -999.2500   106.0358     7.9113    -0.2111     2.0431  -999.2500
   34.5000  -999.2500  -999.2500  -999.2500  -999.2500   106.1848     7.9110    -0.2051     2.0541  -999.2500
   35.0000  -999.2500  -999.2500  -999.2500  -999.2500   107.0790     7.9108    -0.1999     2.0661  -999.2500
   35.5000  -999.2500  -999.2500  -999.2500  -999.2500   107.0790     7.9106    -0.1932     2.0758  -999.2500
   36.0000  -999.2500  -999.2500  -999.2500  -999.2500   106.7809     7.9103    -0.1849     2.0832  -999.2500
   36.5000  -999.2500  -999.2500  -999.2500  -999.2500   105.8404     7.9100    -0.1767     2.0846  -999.2500
   37.0000  -999.2500  -999.2500  -999.2500  -999.2500   103.8003     7.8948    -0.1639     2.0838  -999.2500
   37.5000  -999.2500  -999.2500  -999.2500  -999.2500   102.6080     7.8946    -0.1512     2.0808  -999.2500
   38.0000  -999.2500  -999.2500  -999.2500  -999.2500   102.6080     7.8794    -0.1317     2.0747  -999.2500
   38.5000  -999.2500  -999.2500  -999.2500  -999.2500   103.2042     7.8792    -0.1174     2.0777  -999.2500
   39.0000  -999.2500  -999.2500  -999.2500  -999.2500   104.5455     7.8789    -0.1024     2.0806  -999.2500
   39.5000  -999.2500  -999.2500  -999.2500  -999.2500   106.1848     7.8787    -0.0829     2.0858  -999.2500
   40.0000  -999.2500  -999.2500  -999.2500  -999.2500   108.7183     7.8784    -0.0604     2.1219     0.3000
   40.5000  -999.2500  -999.2500  -999.2500  -999.2500   112.2951     7.8931    -0.0332     2.2482     0.2633
   41.0000  -999.2500  -999.2500  -999.2500  -999.2500   115.2757     7.8960    -0.0209     2.3253     0.1916
   41.5000  -999.2500  -999.2500  -999.2500  -999.2500   119.1900     7.9225    -0.0087     2.3822     0.1578
   42.0000  -999.2500  -999.2500  -999.2500  -999.2500   125.2904     7.9223    -0.0035     2.4248     0.1283
   42.5000   -44.4405     0.3287     5.2280     9.6546   128.6885     7.8921    -0.0020     2.4517     0.1205
   43.0000   -44.1302     0.2750     5.7672    10.2099   127.0492     7.8918    -0.0012     2.4570     0.1178
   43.5000   -43.8199     0.2951     6.5311    10.7228   125.5589     7.8766    -0.0005     2.4546     0.1172
   44.0000   -43.8064     0.3869     7.0874    11.3395   124.0686     7.8764    -0.0005     2.4538     0.1190
   44.5000   -43.6445     0.5906     7.5534    11.9917   123.0253     7.8762    -0.0005     2.4545     0.1203
   45.0000   -43.4826     0.9931     8.0332    12.5075   121.9821     7.8759     0.0002     2.4574     0.1197
   45.5000   -43.1723     1.4050     8.3769    13.0455   120.3428     7.8757     0.0017     2.4603     0.1173
   46.0000   -43.0104     3.3387     8.8326    13.6066   117.6371     7.8754     0.0024     2.4655     0.1161
   46.5000   -43.1452     6.0585     8.8954    14.3892   119.2996     7.8751     0.0024     2.4647     0.1149
   47.0000   -43.2835     6.5906     8.9587    14.8023   120.9488     7.8749     0.0024     2.4594     0.1152
   47.5000   -43.4183     6.7836     8.9603    14.9152   123.3897     7.8597     0.0023     2.4541     0.1176
   48.0000   -43.5531     7.4306     9.0240    14.9254   126.4531     7.8595     0.0023     2.4511     0.1203
   48.5000   -43.6880     8.3100     9.0882    14.9357   127.1982     7.8293     0.0016     2.4533     0.1212
   49.0000   -43.8194     9.2293     9.1528    14.9460   125.7079     7.8141     0.0008     2.4584     0.1206
   49.5000   -43.8059     9.7660     9.0909    14.8508   124.3666     7.8139     0.0000     2.4606     0.1186
   50.0000   -43.7923     9.9938     9.0929    14.5564   123.6215     7.8137    -0.0007     2.4621     0.1165
   50.5000   -43.7788     9.3918     9.0314    14.2702   123.0253     7.8134    -0.0008     2.4620     0.1162
   51.0000   -43.6169     8.6450     8.9711    14.2801   122.7273     7.8131    -0.0009     2.4619     0.1162
   51.5000   -43.6034     9.4145     8.9726    14.4886   122.7538     7.8129    -0.0009     2.4611     0.1168
   52.0000   -43.5898    10.1708     8.9741    14.9045   122.2802     7.8126    -0.0002     2.4581     0.1174
   52.5000   -43.7253     9.3076     8.9757    15.1222   121.9821     7.8124    -0.0002     2.4565     0.1177
   53.0000   -43.7111     8.4591     8.9772    15.1326   121.5084     7.8122     0.0012     2.4565     0.1177
   53.5000   -43.9948     7.8490     9.0411    15.1430   121.0614     7.8119     0.0019     2.4587     0.1174
   54.0000   -44.4259     7.4871     9.0426    15.0466   120.7899     7.8116     0.0034     2.4661     0.1148
   54.5000   -44.7094     7.2915     9.1070    14.8530   120.7899     7.8114     0.0041     2.4714     0.1052
   55.0000   -44.5472     7.2002     9.1085    14.8632   120.7899     7.8111     0.0048     2.4787     0.1004
   55.5000   -44.3853     7.1591     9.1101    15.1847   120.9389     7.8109     0.0048     2.4824     0.0996
   56.0000   -44.0750     7.1184     9.1117    14.9868   121.3860     7.7957     0.0046     2.4853     0.1005
   56.5000   -43.6164     7.1271     9.1132    14.9971   121.9821     7.7955     0.0039     2.4868     0.0969
   57.0000   -43.4545     7.1357     9.0520    15.1114   122.7273     7.7952     0.0031     2.4867     0.0963
   57.5000   -43.4409     7.1444     9.0535    15.3321   124.3666     7.7949     0.0023     2.4851     0.0981
   58.0000   -43.8773     7.1530     8.9923    15.1318   126.1550     7.7947     0.0023     2.4813     0.1005
   58.5000   -44.1634     7.1616     8.9943    15.2476   128.1124     7.7945     0.0015     2.4768     0.1020
   59.0000   -44.3011     7.1703     8.9334    15.4702   128.2414     7.7942     0.0014     2.4715     0.1032
   59.5000   -44.4254     7.1790     8.8734    15.3743   128.3905     7.7940     0.0014     2.4677     0.1056
   60.0000   -44.5763     7.1381     8.8753    14.8629   128.7931     7.7946     0.0013     2.4676     0.1107
   60.5000   -45.0107     7.0975     8.8768    14.6689   128.0905     7.7991     0.0013     2.4698     0.1128
   61.0000   -45.5935     7.0571     8.8784    14.7809   126.7474     7.8036     0.0013     2.4705     0.1131
   61.5000   -46.3498     7.0656     8.9415    14.9968   129.1297     7.8081     0.0012     2.4712     0.1101
   62.0000   -47.2041     7.0254     8.9430    15.2158   130.4697     7.7929     0.0004     2.4704     0.1057
   62.5000   -47.9016     7.0340     8.8826    15.2262   127.6359     7.7928    -0.0011     2.4703     0.1057
   63.0000   -48.1882     6.9939     8.7625    15.1318   129.4326     7.7926    -0.0019     2.4695     0.1069
   63.5000   -48.4714     6.9541     8.6436    14.8319   133.5932     7.8074    -0.0035     2.4672     0.1096
   64.0000   -48.6062     6.9145     8.5264    14.4378   135.2312     7.8072    -0.0050     2.4634     0.1135
   64.5000   -48.5893     6.9230     8.4690    14.0529   134.1858     7.7920    -0.0073     2.4581     0.1162
   65.0000   -48.4274     6.8834     8.4705    13.6782   133.5879     7.7919    -0.0074     2.4610     0.1153
