~VERSION INFORMATION
 VERS.                2.0:   CWLS LOG ASCII STANDARD - VERSION 2.0
 WRAP.                 NO:   ONE LINE PER DEPTH STEP
~WELL INFORMATION
#MNEM.UNIT      DATA TYPE    INFORMATION
#----------   ------------   ------------------------------
 STRT.F           42.0000:   START DEPTH
 STOP.F          533.0000:   STOP DEPTH
 STEP.F            0.5000:   STEP LENGTH
 NULL.          -999.2500:   NO VALUE
 COMP.    FENIX & SCISSON:   COMPANY
 WELL.      NPR-3 #38S3-3:   WELL
 FLD .             TEAPOT:   FIELD
 LOC .       S3 T38N R78W:   LOCATION
 CNTY.            NATRONA:   COUNTY
 STAT.            WYOMING:   STATE
 CTRY. UNITED STATES OF AMERICA:   COUNTRY
 SRVC.           BIRDWELL:   SERVICE COMPANY
 DATE.        29-JUN-1978:   LOGDATE
 API .       490251066300:   API NUMBER
~CURVE INFORMATION
#MNEM.UNIT       API CODE    CURVE DESCRIPTION
#----------   ------------   ------------------------------
 DEPT.F                  :   
 ILD .OHMM   05 120 46 00:   INDUCTION LOG DEEP
 SN  .OHMM   05 040 16 00:   SHORT NORMAL 16"
 SPR .MV     05 010 01 00:   SPONTANEOUS POTENTIAL FROM RES.
 CALD.IN     45 280 60 00:   CALIPER FROM DENSITY LOG
 CORR.G/C3   45 356 01 00:   DENSITY CORRECTION
 DPHI.DEC    45 890 12 00:   DENSITY POROSITY SANDSTONE
 GRD .GAPI   45 310 01 00:   GAMMA RAY FROM DENSITY LOG
 RHOB.G/C3   45 350 01 00:   BULK DENSITY
~PARAMETER INFORMATION
#MNEM.UNIT          VALUE    DESCRIPTION
#----------   ------------   ------------------------------
 PD  .                 GL:   PERMANENT DATUM
 EPD .F              5238:   ELEVATION PERMANENT DATUM
 LMF .                 KB:   LOG MEASURED FROM
 DAPD.F                 4:   FEET ABOVE PERMANENT DATUM
 DMF .                 KB:   DRILLING MEASURED FROM
 EKB .F              5242:   KELLING BUSHING
 EGL .F              5238:   GROUND LEVEL
 DATE.        29-JUN-1978:   RUN DATE
 RUN .                  1:   RUN NUMBER
 DD  .F               530:   DEPTH DRILLER
 DL  .F               540:   DEPTH LOGGER
 BLI .F               533:   BOTTOM LOG INTERVAL
 TLI .F                40:   TOP LOG INTERVAL
 CS  .IN            8.625:   CASING SIZE
 CBD .F                40:   CASING BOTTOM DRILLER
 BS  .IN            7.875:   BIT SIZE
 BSD .F               530:   BIT SIZE AT DEPTH
 DFT .                KCL:   DRILLING FLUID TYPE
 DFD .                8.7:   DRILLING FLUID DENSITY
 DFV .                 34:   DRILLING FLUID VISCOSITY
 DFPH.                9.5:   DRILLING FLUID PH
 MSS .           FLOWLINE:   MUD SAMPLE SOURCE
 RMS .OHMM            0.2:   RESISTIVITY MUD SAMPLE
 MST .F                82:   MUD SAMPLE TEMPERATURE
 RMF .OHMM           0.18:   RESISTIVITY MUD FILTRATE SAMPLE
 MFST.F                82:   MUD FILTRATE SAMPLE TEMPERATURE
 RMC .OHMM           0.14:   RESISTIVITY MUD CAKE
 MCST.F                82:   MUD CAKE SAMPLE TEMPERATURE
 MFSS.               MEAS:   MUD FILTRATE SAMPLE SOURCE
 TCS .HRS               1:   TIME CURCULATED STOPPED
 LUN .               2958:   LOGGING UNIT NUMBER
 LUL .             CASPER:   LOGGING UNIT LOCATION
 ENGI.             MILLER:   RECORDING ENGINEER
 WITN.         ZARGARNIAN:   WITNESSED BY
 CLNT.            A2DTECH:   CLIENT CODE
 ORIG.           5" PRINT:   ORIGIN OF DATA
 UWI .       490251066300:   UNIQUE WELL ID
 DICO. A2D Technologies, Inc.:   DIGITIZING COMPANY
~OTHER INFORMATION
~A   DEPT      ILD         SN        SPR       CALD       CORR       DPHI         GRD      RHOB   
# ...
  487.5000    10.8555    10.8934   -11.6543     7.5348     0.0489     0.1008    55.0298     2.5231
  488.0000    10.7053    10.7405   -11.8075     7.5946     0.0787     0.1082    59.5139     2.5013
  488.5000    10.6302    10.6638   -11.9614     7.6843     0.1182     0.1163    60.2582     2.4924
  489.0000    10.6288    10.5877   -12.0441     7.6993     0.1532     0.1190    59.8021     2.4909
  489.5000    10.6271    10.4398   -12.2678     7.6543     0.1233     0.1226    59.9536     2.5209
  490.0000    10.5526    10.4363   -12.4211     7.5644     0.0606     0.1322    61.1368     2.5419
  490.5000    10.5512    10.4239   -12.5750     7.4595     0.0720     0.1403    63.0773     2.4782
  491.0000    10.5320    10.3591   -12.5778     7.3846     0.1023     0.1538    65.0178     2.3889
  491.5000    10.4454    10.3564   -12.7310     7.3683     0.0440     0.1565    67.4060     2.4910
  492.0000    10.3588    10.2824   -12.8843     7.3994     0.0082     0.1493    69.3466     2.4610
  492.5000    10.2721    10.2084   -13.0382     7.4203     0.0036     0.1414    69.6418     2.4594
  493.0000    10.1855    10.2057   -13.1914     7.4639     0.0066     0.1339    70.5480     2.4783
  493.5000    10.1147    10.1328   -13.4950     7.5040     0.0081     0.1345    72.1741     2.4813
  494.0000    10.1134    10.2710   -13.4978     7.5039     0.0080     0.1286    67.5264     2.4768
  494.5000    10.1822    10.3388   -13.6511     7.5188     0.0095     0.1258    67.9183     2.4866
  495.0000    10.2514    10.4084   -13.6546     7.5187     0.0094     0.1309    69.4608     2.4806
  495.5000    10.2497    10.4778   -13.8078     7.5186     0.0094     0.1336    70.3535     2.4784
  496.0000    10.3194    10.5470   -14.1114     7.5335     0.0078     0.1201    69.0006     2.4874
  496.5000    10.3177    10.5441   -14.2647     7.5185     0.0063     0.1308    69.5924     2.4867
  497.0000    10.2454    10.4682   -14.4186     7.5184     0.0047     0.1317    69.8862     2.4807
  497.5000    10.2441    10.3934   -14.5718     7.5183     0.0032     0.1269    69.7295     2.4853
  498.0000    10.2427    10.3907   -14.7250     7.5183     0.0017     0.1203    68.5263     2.4935
  498.5000    10.2411    10.3165   -14.7278     7.5161     0.0001     0.1263    65.0776     2.4861
  499.0000    10.2397    10.2422   -14.4306     7.5031     0.0016     0.1341    63.3952     2.4718
  499.5000    10.2384    10.0991   -14.4335     7.5031     0.0060     0.1416    65.3644     2.4643
  500.0000    10.2371    10.0965   -14.5867     7.5030     0.0089     0.1308    72.1338     2.4719
  500.5000    10.0950    10.0244   -14.8127     7.5029     0.0119     0.1271    72.3720     2.4788
  501.0000    10.0937     9.9582   -15.1584     7.5028     0.0134     0.1256    72.6102     2.4877
  501.5000     9.9540     9.9582   -15.6152     7.5028     0.0148     0.1160    72.8484     2.4989
  502.0000     9.8162     9.8216   -15.9105     7.4990     0.0147     0.1160    73.0867     2.4982
  502.5000     9.8146     9.8085   -16.2041     7.4880     0.0128     0.1172    72.8543     2.4975
  503.0000     9.7458     9.6870   -16.4977     7.4880     0.0102     0.1181    71.6652     2.4983
  503.5000     9.6775     9.6870   -16.6391     7.4880     0.0086     0.1184    70.3207     2.5005
  504.0000     9.5436     9.5526   -16.7823     7.4880     0.0071     0.1178    69.1259     2.5013
  504.5000     9.4111     9.4231   -16.7733     7.4731     0.0056     0.1162    67.9311     2.5012
  505.0000     9.3452     9.4188   -16.7661     7.4880     0.0070     0.1178    67.3358     2.5012
  505.5000     9.2423     9.2939   -16.7589     7.4880     0.0085     0.1259    66.8895     2.4975
  506.0000     9.1409     9.1664   -16.7518     7.4731     0.0084     0.1199    65.8444     2.4907
  506.5000     9.0760     9.0407   -16.7444     7.4731     0.0108     0.1133    65.2484     2.5020
  507.0000     8.8880     8.9167   -16.7368     7.4581     0.0128     0.1130    66.7489     2.5028
  507.5000     8.6436     8.7944   -16.7284     7.4431     0.0128     0.1127    70.9433     2.4968
  508.0000     8.4645     8.6738   -17.0220     7.4281     0.0127     0.1238    75.7365     2.4863
  508.5000     8.2321     8.4960   -17.3156     7.4431     0.0127     0.1289    78.1353     2.4795
  509.0000     8.0061     8.3142   -17.6091     7.4431     0.0111     0.1319    78.5872     2.4788
  509.5000     7.7863     8.0952   -17.7523     7.4581     0.0081     0.1316    78.1409     2.4810
  510.0000     7.5204     7.8747   -17.8955     7.4731     0.0066     0.1294    77.9940     2.4841
  510.5000     7.1144     7.7667   -17.8866     7.4880     0.0065     0.1262    76.9496     2.4818
  511.0000     6.7306     7.5551   -17.8794     7.5038     0.0080     0.1378    75.7548     2.4743
  511.5000     6.3675     7.2988   -18.1730     7.5329     0.0109     0.1498    78.1528     2.4511
  512.0000     6.1927     7.0511   -18.1640     7.5415     0.0183     0.1624    88.1862     2.4166
  512.5000     6.0227     6.8118   -18.1568     7.5479     0.0287     0.1841    94.1771     2.3896
  513.0000     5.8976     6.7650   -18.3000     7.5479     0.0196     0.1861    99.5691     2.4023
  513.5000     5.9375     7.2037   -18.2928     7.5451     0.0092     0.1489   101.9671     2.4444
  514.0000     6.0187     7.7667   -18.4361     7.5329     0.0077     0.1171    95.3838     2.4826
  514.5000     6.1856     8.2077   -18.4286     7.5329     0.0092     0.1159    86.5542     2.5014
  515.0000     6.4014     8.5549   -18.7224     7.5329     0.0123     0.1144    71.7367     2.5037
  515.5000     6.9046     9.0407   -18.8656     7.5180     0.0120     0.1096    68.2964     2.5052
  516.0000     7.7094     9.4289   -18.8566     7.5180     0.0090     0.1051    69.7969     2.5202
  516.5000     8.6080     9.6870   -18.3983     7.5180     0.0045     0.1126    72.3446     2.5082
  517.0000     8.8476     9.6870   -18.0902     7.5180     0.0000     0.1135    73.9941     2.5007
  517.5000     8.8452     9.8216   -17.7807     7.5180    -0.0016     0.1330    74.2963     2.4887
  518.0000     8.8432     9.8216   -17.4727     7.5180    -0.0016     0.1348    73.7003     2.4677
  518.5000     8.8408     9.9582   -17.1648     7.5180    -0.0002     0.1282    73.7038     2.4790
  519.0000     8.9617    10.0967   -16.8569     7.5030     0.0043     0.1276    74.0060     2.4835
  519.5000     9.1473    10.2371   -16.5489     7.5030     0.0102     0.1273    75.2072     2.4812
  520.0000     9.4665    10.3794   -16.3896     7.5030     0.0161     0.1240    75.5087     2.5008
  520.5000     9.6625    10.5237   -16.2320     7.5030     0.0191     0.1113    74.0152     2.5210
  521.0000     9.6599    10.6700   -15.9241     7.5030     0.0190     0.1083    73.2695     2.5308
  521.5000     9.7252    10.8184   -15.7665     7.5030     0.0190     0.1035    73.7221     2.5293
  522.0000     9.7225    10.9688   -15.6090     7.5030     0.0174     0.0981    74.9225     2.5263
  522.5000     9.8561    11.0448   -15.6015     7.5030     0.0159     0.0972    75.3744     2.5248
  523.0000     9.8534    11.1213   -15.5940     7.5180     0.0141     0.0969    75.5269     2.5318
  523.5000     9.9194    11.1213   -15.5856     7.5118     0.0113     0.0981    76.4286     2.5353
  524.0000     9.9167    11.1213   -15.5785     7.5030     0.0083     0.1092    74.3356     2.5263
  524.5000     9.9145    11.1213   -15.5714     7.5030     0.0053     0.1179    71.7935     2.5151
  525.0000     9.9125    11.1213   -15.6474     7.5030     0.0067     0.1188    69.5515     2.4993
  525.5000     9.9102    10.9613   -15.7073     7.5030     0.0111     0.1188    68.3097     2.4949
  526.0000     9.8397    10.8184   -15.5498     7.5030     0.0141     0.1169    69.4076     2.4949
  526.5000     9.8371    10.6700   -15.6917     7.5180     0.0155     0.1110    73.6021     2.4979
  527.0000     9.9037    10.6700   -15.5338     7.5180     0.0125     0.1152    77.0480     2.5121
  527.5000     9.9009    10.6700   -15.5263     7.5283     0.0110     0.1179    77.6496     2.5091
