~VERSION INFORMATION
 VERS.                2.0:   CWLS LOG ASCII STANDARD - VERSION 2.0
 WRAP.                 NO:   ONE LINE PER DEPTH STEP
~WELL INFORMATION
#MNEM.UNIT      DATA TYPE    INFORMATION
#----------   ------------   ------------------------------
 STRT.F           24.5000:   START DEPTH
 STOP.F          750.0000:   STOP DEPTH
 STEP.F            0.5000:   STEP LENGTH
 NULL.          -999.2500:   NO VALUE
 COMP. FENIX & SCISSON INC:   COMPANY
 WELL.    NPR 3 SX #35-11:   WELL
 FLD .          N.P.R. #3:   FIELD
 LOC .      S11 T38N R78W:   LOCATION
 CNTY.            NATRONA:   COUNTY
 STAT.            WYOMING:   STATE
 CTRY. UNITED STATES OF AMERICA:   COUNTRY
 SRVC.            Unknown:   SERVICE COMPANY
 DATE.        23-FEB-1978:   LOGDATE
 API .       490251027200:   API NUMBER
~CURVE INFORMATION
#MNEM.UNIT       API CODE    CURVE DESCRIPTION
#----------   ------------   ------------------------------
 DEPT.F                  :   
 ILM .OHMM   07 120 44 00:   INDUCTION LOG MEDIUM
 ILD .OHMM   07 120 46 00:   INDUCTION LOG DEEP
 LL8 .OHMM   07 220 08 00:   LATEROLOG-8 RES.
 SPR .MV     07 010 01 00:   SPONTANEOUS POTENTIAL
 CALD.IN     45 280 60 00:   CALIPER FROM DENSITY LOG
 CORR.G/C3   45 356 01 00:   DENSITY CORRECTION
 DPHI.DEC    45 890 12 00:   DENSITY POROSITY SANDSTONE
 GRD .GAPI   45 310 01 00:   GAMMA RAY FROM DENSITY LOG
 RHOB.G/C3   45 350 01 00:   BULK DENSITY
 IL  .OHMM   05 120 40 00:   INDUCTION RESISTIVITY
 SN  .OHMM   05 040 16 00:   SHORT NORMAL 16"
 SPR1.MV     05 010 01 00:   SPONTANEOUS POTENTIAL INDUCTION ELECTRICAL LOG
~PARAMETER INFORMATION
#MNEM.UNIT          VALUE    DESCRIPTION
#----------   ------------   ------------------------------
 PD  .                 GL:   PERMANENT DATUM
 EPD .F              5204:   ELEVATION PERMANENT DATUM
 LMF .                 KB:   LOG MEASURED FROM
 DAPD.F                 4:   FEET ABOVE PERMANENT DATUM
 DMF .                 KB:   DRILLING MEASURED FROM
 EKB .F              5208:   KELLING BUSHING
 EGL .F              5204:   GROUND LEVEL
 DATE.        23-FEB-1978:   RUN DATE
 RUN .                  1:   RUN NUMBER
 DD  .F               755:   DEPTH DRILLER
 DL  .F               751:   DEPTH LOGGER
 BLI .F               745:   BOTTOM LOG INTERVAL
 TLI .F                45:   TOP LOG INTERVAL
 CS  .IN            8.625:   CASING SIZE
 CBD .F                40:   CASING BOTTOM DRILLER
 CBL .F                40:   CASING BOTTOM LOGGER
 BS  .IN            7.875:   BIT SIZE
 BSD .F               755:   BIT SIZE AT DEPTH
 DFT .         LIGNO SULF:   DRILLING FLUID TYPE
 DFD .                8.7:   DRILLING FLUID DENSITY
 DFV .                 33:   DRILLING FLUID VISCOSITY
 DFPH.                 10:   DRILLING FLUID PH
 DFL .                  4:   DRILLING FLUID LOSS
 MSS .           FLOWLINE:   MUD SAMPLE SOURCE
 RMS .OHMM            2.0:   RESISTIVITY MUD SAMPLE
 MST .F                60:   MUD SAMPLE TEMPERATURE
 RMF .OHMM            1.9:   RESISTIVITY MUD FILTRATE SAMPLE
 MFST.F                62:   MUD FILTRATE SAMPLE TEMPERATURE
 RMC .OHMM            3.5:   RESISTIVITY MUD CAKE
 MCST.F                60:   MUD CAKE SAMPLE TEMPERATURE
 MFSS.               MEAS:   MUD FILTRATE SAMPLE SOURCE
 RMB .OHMM           1.69:   RESISTIVITY MUD AT BHT
 BHT .F                71:   BOTTOM HOLE TEMPERATURE
 TCS .HRS               3:   TIME CURCULATED STOPPED
 MRT .F                71:   MAXIMUM RECORDED TEMPERATURE
 CLNT.            A2DTECH:   CLIENT CODE
 ORIG.           5" PRINT:   ORIGIN OF DATA
 UWI .       490251027200:   UNIQUE WELL ID
 DICO. A2D Technologies, Inc.:   DIGITIZING COMPANY
~OTHER INFORMATION
~A   DEPT      ILM        ILD        LL8        SPR       CALD       CORR       DPHI         GRD      RHOB         IL         SN       SPR1   
# ...
  696.5000    11.5877    11.4400    11.0563   -28.0594     8.0303     0.0256     0.1313    94.7859     2.4255     9.3396    10.2722   -39.6333
  697.0000    11.6011    11.3708    10.9908   -28.0414     8.0319     0.0317     0.1234    94.0645     2.4377     9.2770    10.2743   -39.6170
  697.5000    11.4504    11.3804    10.9257   -27.7261     8.0250     0.0356     0.1312    94.6823     2.4250     9.2147    10.2764   -39.6008
  698.0000    11.3045    11.3116    10.8609   -27.8574     8.0202     0.0380     0.1267    97.5323     2.4364     9.1529    10.2072   -39.4349
  698.5000    11.2377    11.1658    10.8399   -27.9881     8.0219     0.0509     0.1203   100.9776     2.4493     9.0915     9.9984   -39.2689
  699.0000    11.0182    10.9462    10.8515   -27.9692     8.0235     0.0420     0.1239   102.1907     2.4418     9.0305     9.8989   -39.2527
  699.5000    10.7287    10.7309    10.8631   -28.1043     8.0252     0.0375     0.1265   102.5109     2.4329     8.9078     9.7060   -39.0867
  700.0000    10.8884    10.6638    10.8890   -28.5320     8.0268     0.0354     0.1304   102.8255     2.4255     8.7261     9.5953   -38.8483
  700.5000    10.5993    10.4562    10.5735   -28.5094     8.0285     0.0393     0.1331    99.7288     2.4195     8.4906     9.4650   -38.5845
  701.0000    10.3894    10.2243    10.2504   -28.6445     8.0152     0.0424     0.1267    97.9657     2.4309     8.3764     9.2083   -38.3207
  701.5000    10.2539     9.9182    10.1187   -29.0677     8.0019     0.0402     0.1294    97.0391     2.4325     8.3207     9.0205   -38.0569
  702.0000    10.1206     9.8577    10.0577   -29.3468     7.9887     0.0464     0.1287    96.3155     2.4273     8.2660     8.8133   -37.7836
  702.5000    10.0577     9.8001     9.9971   -29.9231     7.9904     0.0488     0.1185    94.1588     2.4546     8.1548     8.5366   -37.7614
  703.0000     9.9267     9.6783    10.0060   -30.2068     7.9770     0.0564     0.1224    94.3324     2.4426     7.8801     8.3393   -37.7392
  703.5000     9.6635     9.4246     9.9458   -30.3373     7.9788     0.0678     0.1168    95.9898     2.4632     7.5090     8.0786   -37.7170
  704.0000     9.4069     9.1121     9.4197   -30.3148     7.9804     0.0800     0.1096   101.2208     2.4880     7.2052     7.9138   -37.8445
  704.5000     8.8466     9.0478     9.0455   -30.2968     7.9821     0.0658     0.1162   103.9220     2.4580     6.8184     7.4872   -37.8218
  705.0000     8.4937     8.6809     8.8065   -30.2823     7.9688     0.0539     0.1213   103.2887     2.4385     6.1892     6.9856   -37.7994
  705.5000     8.0431     7.9930     8.6933   -30.1159     7.9705     0.0457     0.1269  -999.2500     2.4235     5.6965     6.4276   -37.7769
  706.0000     7.5640     7.4256     8.5819   -29.9336     7.9721     0.0503     0.1359  -999.2500     2.4198     5.3164     6.0389   -37.7544
  706.5000     6.9677     6.8861     8.3555   -29.4859     7.9585     0.0617     0.1320  -999.2500     2.4343     5.1364     5.6737   -37.7321
  707.0000     6.4629     6.3039     8.0791   -29.3175     7.9452     0.0626     0.1295  -999.2500     2.4351     5.0327     5.4053   -37.7114
  707.5000     5.4425     5.6887     7.8119   -28.8557     7.9320     0.0619     0.1334  -999.2500     2.4179     5.0695     5.3689   -37.8506
  708.0000     4.8770     5.2153     7.3478   -28.5405     7.9187     0.0775     0.1328  -999.2500     2.4346     5.2504     5.6390   -37.9664
  708.5000     4.8460     5.1872     4.7613   -27.9281     7.9055     0.0872     0.1318  -999.2500     2.4316     5.9926     6.9507   -37.9416
  709.0000     4.8838     5.1926     3.4933   -27.6129     7.8926     0.0963     0.1360  -999.2500     2.4212     6.5607     8.0471   -37.9220
  709.5000     5.4577     5.1986     3.4239   -27.1491     7.8790     0.0870     0.1450  -999.2500     2.4010     7.0346     9.0606   -38.0671
  710.0000     6.5348     5.3122     9.2590   -26.9825     7.8363     0.0663     0.1326  -999.2500     2.4124     7.5954     9.5158   -38.2186
  710.5000     7.3028     5.5044    10.7864   -26.9644     7.8082     0.0822     0.1157  -999.2500     2.4517     8.0878     9.7193   -38.4542
  711.0000     8.1610     5.7828    11.4060   -26.9464     7.7796     0.0854     0.0997  -999.2500     2.4886     8.4934     9.9965   -38.4320
  711.5000     8.9332     6.2454    10.1544   -27.0814     7.7369     0.0869     0.0942  -999.2500     2.4977     8.6751    10.1395   -38.5595
  712.0000     9.2648     6.8860     9.8865   -27.2120     7.6790     0.0863     0.1008  -999.2500     2.4865     8.6781    10.2845   -38.5373
  712.5000     9.5944     8.7160     9.7573   -27.4911     7.6061     0.0939     0.1044  -999.2500     2.4791     8.6811    10.2874   -38.7226
  713.0000     9.9358     9.7437     9.7679   -27.4686     7.5482     0.1166     0.0911  -999.2500     2.4995     8.7446    10.3621   -38.9701
  713.5000    10.2186    10.1661     9.8441   -27.5991     7.5168     0.1243     0.0868  -999.2500     2.5072     8.8699    10.3650   -39.0990
  714.0000    10.4372    10.3181     9.9895   -27.5811     7.4593     0.1214     0.0937  -999.2500     2.5133     8.9970    10.5133   -39.2645
  714.5000    10.6579    10.4724    10.1371   -27.5630     7.4018     0.1185     0.0961  -999.2500     2.4923     9.2535    10.6636   -39.4685
  715.0000    10.6653    10.4833    10.2869   -27.3964     7.3443     0.1367     0.0886  -999.2500     2.5045     9.4514    10.9678   -39.4461
  715.5000    10.5264    10.4942    10.4389   -27.3784     7.2857     0.1375     0.0909  -999.2500     2.4985     9.7209    11.2806   -39.4236
  716.0000    10.3892    10.5051    10.7404   -27.3640     7.2143     0.1399     0.1029  -999.2500     2.4828     9.8602    11.6024   -39.4012
  716.5000    10.3251    10.3719    10.8991   -27.3468     7.1718     0.1355     0.1049  -999.2500     2.4761    10.0015    11.8228   -39.3787
  717.0000    10.1906    10.2377    11.0601   -27.4773     7.1586     0.1439     0.1022  -999.2500     2.4801    10.1448    12.1040   -39.3562
  717.5000    10.1273    10.2510    11.1464   -27.4591     7.1155     0.1583     0.0982  -999.2500     2.4857    10.2901    12.2771   -39.3338
  718.0000    10.1343    10.1885    11.2318   -27.2947     6.9681     0.1489     0.1075  -999.2500     2.4652    10.3654    12.4525   -39.3618
  718.5000  -999.2500  -999.2500  -999.2500  -999.2500     6.8506     0.1277     0.1292  -999.2500     2.4394    10.3690    12.5432   -39.4387
  719.0000  -999.2500  -999.2500  -999.2500  -999.2500     6.7032     0.1339     0.1342  -999.2500     2.4314    10.3726    12.5464   -39.4162
  719.5000  -999.2500  -999.2500  -999.2500  -999.2500     6.5856     0.1324     0.1354  -999.2500     2.4270    10.3762    12.5502   -39.4494
  720.0000  -999.2500  -999.2500  -999.2500  -999.2500     6.4978     0.1265     0.1492  -999.2500     2.4120    10.3798    12.6411   -39.8654
  720.5000  -999.2500  -999.2500  -999.2500  -999.2500     6.3803     0.1274     0.1712  -999.2500     2.3896    10.4557    12.6452   -40.8699
  721.0000  -999.2500  -999.2500  -999.2500  -999.2500     6.2329     0.1124     0.1958  -999.2500     2.3445    10.5321    12.6487   -41.7545
  721.5000  -999.2500  -999.2500  -999.2500  -999.2500     6.1451     0.1035     0.2301  -999.2500     2.2798    10.6092    12.6519   -42.0611
  722.0000  -999.2500  -999.2500  -999.2500  -999.2500     6.1216     0.0956     0.2455  -999.2500     2.2482    10.6867    12.6554   -42.1901
  722.5000  -999.2500  -999.2500  -999.2500  -999.2500  -999.2500  -999.2500  -999.2500  -999.2500  -999.2500    10.6904    12.7474   -42.2530
  723.0000  -999.2500  -999.2500  -999.2500  -999.2500  -999.2500  -999.2500  -999.2500  -999.2500  -999.2500    10.7684    12.7507   -42.2984
  723.5000  -999.2500  -999.2500  -999.2500  -999.2500  -999.2500  -999.2500  -999.2500  -999.2500  -999.2500    10.7522    12.7545   -42.3578
  724.0000  -999.2500  -999.2500  -999.2500  -999.2500  -999.2500  -999.2500  -999.2500  -999.2500  -999.2500    10.7014    12.7580   -42.4067
