~VERSION INFORMATION
 VERS.                2.0:   CWLS LOG ASCII STANDARD - VERSION 2.0
 WRAP.                 NO:   ONE LINE PER DEPTH STEP
~WELL INFORMATION
#MNEM.UNIT      DATA TYPE    INFORMATION
#----------   ------------   ------------------------------
 STRT.F           30.0000:   START DEPTH
 STOP.F          481.0000:   STOP DEPTH
 STEP.F            0.5000:   STEP LENGTH
 NULL.          -999.2500:   NO VALUE
 COMP. FENIX & SCISSON INC:   COMPANY
 WELL.       NPR-3 #47-10:   WELL
 FLD .             TEAPOT:   FIELD
 LOC .      S10 T38N R78W:   LOCATION
 CNTY.            NATRONA:   COUNTY
 STAT.            WYOMING:   STATE
 CTRY. UNITED STATES OF AMERICA:   COUNTRY
 SRVC.           BIRDWELL:   SERVICE COMPANY
 DATE.        16-JUN-1978:   LOGDATE
 API .       490251064800:   API NUMBER
~CURVE INFORMATION
#MNEM.UNIT       API CODE    CURVE DESCRIPTION
#----------   ------------   ------------------------------
 DEPT.F                  :   
 SPR .MV     05 010 01 00:   SPONTANEOUS POTENTIAL FROM RES.
 SN  .OHMM   05 040 16 00:   SHORT NORMAL 16"
 ILD .OHMM   05 120 46 00:   INDUCTION LOG DEEP
 CALD.IN     45 280 60 00:   CALIPER FROM DENSITY LOG
 GRD .GAPI   45 310 01 00:   GAMMA RAY FROM DENSITY LOG
 CORR.G/C3   45 356 01 00:   DENSITY CORRECTION
 DPHI.DEC    45 890 12 00:   DENSITY POROSITY SANDSTONE
 DEN .G/C3   45 350 01 00:   COMPENSATED BULK DENSITY
~PARAMETER INFORMATION
#MNEM.UNIT          VALUE    DESCRIPTION
#----------   ------------   ------------------------------
 PD  .                 GL:   PERMANENT DATUM
 EPD .F              5200:   ELEVATION PERMANENT DATUM
 LMF .                 KB:   LOG MEASURED FROM
 DAPD.F                 4:   FEET ABOVE PERMANENT DATUM
 DMF .                 KB:   DRILLING MEASURED FROM
 EKB .F              5204:   KELLING BUSHING
 EGL .F              5200:   GROUND LEVEL
 DATE.        16-JUN-1978:   RUN DATE
 RUN .                  1:   RUN NUMBER
 DD  .F               513:   DEPTH DRILLER
 DL  .F               481:   DEPTH LOGGER
 BLI .F               475:   BOTTOM LOG INTERVAL
 TLI .F                40:   TOP LOG INTERVAL
 CS  .IN            8.625:   CASING SIZE
 CBD .F                40:   CASING BOTTOM DRILLER
 CBL .F                40:   CASING BOTTOM LOGGER
 BS  .IN            7.875:   BIT SIZE
 BSD .F               513:   BIT SIZE AT DEPTH
 DFT .                KCL:   DRILLING FLUID TYPE
 DFD .                8.6:   DRILLING FLUID DENSITY
 DFV .                 30:   DRILLING FLUID VISCOSITY
 DFPH.                 10:   DRILLING FLUID PH
 DFL .                 16:   DRILLING FLUID LOSS
 MSS .           FLOWLINE:   MUD SAMPLE SOURCE
 RMS .OHMM            .36:   RESISTIVITY MUD SAMPLE
 MST .F                72:   MUD SAMPLE TEMPERATURE
 RMF .OHMM            .34:   RESISTIVITY MUD FILTRATE SAMPLE
 MFST.F                70:   MUD FILTRATE SAMPLE TEMPERATURE
 RMC .OHMM            .52:   RESISTIVITY MUD CAKE
 MCST.F                72:   MUD CAKE SAMPLE TEMPERATURE
 MFSS.               MEAS:   MUD FILTRATE SAMPLE SOURCE
 MCSS.               MEAS:   MUD CAKE SAMPLE SOURCE
 RMB .OHMM            .32:   RESISTIVITY MUD AT BHT
 BHT .F                82:   BOTTOM HOLE TEMPERATURE
 TCS .HRS            0400:   TIME CURCULATED STOPPED
 MRT .F                82:   MAXIMUM RECORDED TEMPERATURE
 LUN .               2958:   LOGGING UNIT NUMBER
 LUL .               CASP:   LOGGING UNIT LOCATION
 ENGI.           REYNOLDS:   RECORDING ENGINEER
 WITN.           MCGINLEY:   WITNESSED BY
 CLNT.            A2DTECH:   CLIENT CODE
 ORIG.           5" PRINT:   ORIGIN OF DATA
 UWI .       490251064800:   UNIQUE WELL ID
 DICO. A2D Technologies, Inc.:   DIGITIZING COMPANY
~OTHER INFORMATION
~A   DEPT      SPR         SN        ILD       CALD         GRD      CORR       DPHI        DEN   
# ...
  435.0000   -41.5015    17.0253    13.3958     6.9600    77.6577     0.0315     0.1992     2.3468
  435.5000   -41.5045    16.9034    13.3912     6.9315    77.8203     0.0301     0.2009     2.3446
  436.0000   -41.5075    16.6668    13.3866     6.9633    77.9828     0.0257     0.2129     2.3342
  436.5000   -41.5105    16.5475    13.3820     7.0538    78.1453     0.0154     0.2060     2.3403
  437.0000   -41.5137    16.5430    13.3774     6.9958    78.6064     0.0066     0.2058     2.3396
  437.5000   -41.5165    16.4246    13.3728     6.9383    78.1716     0.0052     0.2026     2.3379
  438.0000   -41.5195    16.3070    13.2761     6.9102    78.4837     0.0232     0.2032     2.3323
  438.5000   -41.5231    16.1902    13.1802     6.8968    79.3925     0.0308     0.2109     2.3398
  439.0000   -41.3752    16.1858    13.1756     6.9283    79.7045     0.0354     0.2052     2.3481
  439.5000   -41.5291    16.0699    13.0804     6.9895    79.4060     0.0370     0.2037     2.3505
  440.0000   -41.5321    15.9549    12.8076     7.0357    78.8354     0.0401     0.2005     2.3580
  440.5000   -41.5351    15.8407    12.7151     6.9168    79.5252     0.0417     0.1975     2.3603
  441.0000   -41.5381    15.6190    12.7999     6.9214    80.8056     0.0448     0.1931     2.3634
  441.5000   -41.6912    15.6147    12.9736     6.9536    81.8636     0.0464     0.1922     2.3672
  442.0000   -41.6942    15.6104    13.2396     6.9827    84.5635     0.0480     0.1898     2.3927
  442.5000   -41.8473    15.6061    13.5123     6.8805    81.8902     0.0437     0.1748     2.3965
  443.0000   -41.8503    15.8200    13.7905     6.7928    78.3214     0.0378     0.1763     2.4130
  443.5000   -42.3037    16.4839    13.8826     6.7945    76.2451     0.0305     0.1574     2.4258
  444.0000   -42.6070    16.9412    13.9740     6.8258    74.3148     0.0366     0.1523     2.4281
  444.5000   -42.9103    17.2925    13.9680     6.9316    77.0180     0.0382     0.1501     2.4297
  445.0000   -43.0635    17.4076    13.9632     7.0374    80.4641     0.0428     0.1477     2.4335
  445.5000   -42.7661    17.4016    13.8623     7.0539    80.6267     0.0444     0.1525     2.4186
  446.0000   -42.3179    17.3968    13.7621     7.0853    80.7892     0.0535     0.1638     2.4120
  446.5000   -42.1708    17.3920    13.7574     7.1613    81.8473     0.0580     0.1665     2.3956
  447.0000   -42.1745    17.3873    13.4705     7.1778    83.2038     0.0433     0.1676     2.3957
  447.5000   -42.3277    17.2628    13.2811     7.1794    82.9186     0.0359     0.1679     2.3941
  448.0000   -42.3306    17.2580    13.0041     7.0917    81.8871     0.0420     0.1712     2.3864
  448.5000   -42.3336    17.2533    12.7330     7.1678    81.9004     0.0406     0.1801     2.3824
  449.0000   -42.3366    17.2486    12.6409     7.1843    84.4510     0.0363     0.1774     2.3945
  449.5000   -42.3396    17.2438    12.6366     7.1710    85.3598     0.0304     0.1741     2.3953
  450.0000   -42.3426    17.2391    12.6322     7.1280    86.8657     0.0261     0.1726     2.3954
  450.5000   -42.3475    17.0778    12.6654     7.0998    86.8791     0.0262     0.1722     2.3820
  451.0000   -42.3525    16.9165    12.6986     7.0851    86.3543     0.0263     0.1767     2.3798
  451.5000   -42.3574    16.6422    12.7319     7.0734    84.0697     0.0264     0.1772     2.3769
  452.0000   -42.3724    16.4100    12.7651     7.0456    83.9338     0.0236     0.1859     2.3755
  452.5000   -42.5175    16.2933    12.7810     7.0170    83.9504     0.0222     0.1832     2.3823
  453.0000   -42.6877    16.2895    12.9504     6.9889    83.9637     0.0208     0.1810     2.3831
  453.5000   -43.1631    16.3987    13.0377     6.9462    83.9769     0.0180     0.1825     2.3847
  454.0000   -43.6036    16.5137    13.2095     6.9177    84.1395     0.0136     0.1783     2.3997
  454.5000   -43.8889    16.7403    13.2035     6.9346    82.9587     0.0063     0.1642     2.4237
  455.0000   -44.0440    16.8466    13.2889     6.9511    80.1362     0.0034     0.1588     2.4387
  455.5000   -44.1992    16.9595    13.1912     6.9676    81.6420     0.0051     0.1462     2.4418
  456.0000   -44.2052    16.9555    13.1791     6.9990    85.2374     0.0081     0.1411     2.4419
  456.5000   -44.2102    16.8266    12.9982     7.0006    86.4414     0.0098     0.1416     2.4419
  457.0000   -44.2152    16.3722    12.9028     7.0022    85.4133     0.0143     0.1434     2.4420
  457.5000   -44.2202    16.1346    12.8968     7.0187    85.7250     0.0160     0.1410     2.4406
  458.0000   -44.0737    15.9186    12.8021     7.0352    87.0816     0.0161     0.1478     2.4231
  458.5000   -43.9286    15.9149    12.6206     7.0368    88.7367     0.0162     0.1634     2.4130
  459.0000   -43.6345    15.8017    12.5279     7.0682    89.6422     0.0178     0.1642     2.4133
  459.5000   -43.6395    15.6893    12.5222     7.1145    85.9269     0.0179     0.1645     2.4155
  460.0000   -43.6445    15.6857    12.2596     7.1161    85.6418     0.0165     0.1639     2.4171
  460.5000   -43.6495    15.7909    12.1696     7.0418    84.0137     0.0167     0.1623     2.4179
  461.0000   -43.6544    15.7872    12.0700     6.9676    83.7213     0.0168     0.1626     2.4187
  461.5000   -43.8096    15.7836    11.8985     6.9104    84.9358     0.0154     0.1611     2.4195
  462.0000   -44.2650    15.6569    11.8215     6.8993    89.3310     0.0156     0.1587     2.4203
  462.5000   -44.4201    15.4526    11.7104     6.9162    89.0298     0.0157     0.1613     2.4219
  463.0000   -44.8756    15.3274    11.6197     6.9476    86.6175     0.0113     0.1606     2.4227
  463.5000   -45.0307    15.1287    11.5290     6.9641    87.4536     0.0054     0.1580     2.4250
  464.0000   -45.1858    15.0210    11.4384     6.9806    90.2295     0.0041     0.1529     2.4258
  464.5000   -45.1908    15.0176    11.3938     6.9971    92.6308     0.0042     0.1546     2.4222
  465.0000   -45.1958    15.0141    11.3886     7.0136    95.4799     0.0058     0.1570     2.4230
  465.5000   -45.2008    15.1149    11.3833     6.9999    95.7917     0.0104     0.1591     2.4238
  466.0000   -45.2058    15.2161    11.3781     6.9867    91.7752     0.0135     0.1572     2.4262
  466.5000   -45.2108    15.3374    11.3729     6.9734    88.0538     0.0121     0.1518     2.4397
  467.0000   -45.0656    15.5277    11.3676     6.9754    89.7122     0.0078     0.1464     2.4495
  467.5000   -45.2207    15.6527    11.3623     6.9175    91.3673     0.0064     0.1407     2.4525
  468.0000   -45.2261    15.8447    11.3561     6.9638    92.1235     0.0065     0.1362     2.4519
  468.5000   -45.2307    16.2859    11.3509     6.9974    86.9162     0.0067     0.1400     2.4504
  469.0000   -45.2357    15.8374    11.3456     6.9819    87.3773     0.0068     0.1403     2.4498
  469.5000   -45.2407    14.7767    11.3404     6.9686    88.5846     0.0084     0.1424     2.4545
  470.0000   -45.2457    13.7870    11.3352     6.9702    90.8367     0.0100     0.1349     2.4604
  470.5000   -45.2503    13.6897    11.3300     6.9719    90.4022     0.0131     0.1348     2.4605
  471.0000   -45.2553    14.7665    11.3248     6.9884    88.9230     0.0179     0.1366     2.4643
  471.5000   -45.2606    15.3889    11.3196     7.0050    88.7866     0.0208     0.1348     2.4681
  472.0000   -45.5659    15.8165    11.2365     7.0515    88.9496     0.0254     0.1317     2.4682
  472.5000   -46.7721    16.0329    11.2313     7.0531    89.2614     0.0285     0.1293     2.4705
  473.0000   -46.7771    16.1404    11.1488     7.0395    89.5732     0.0256     0.1287     2.4758
  473.5000   -46.9322    16.2485    11.0670     7.0262    94.3626     0.0257     0.1266     2.4796
  474.0000   -47.3876    16.3574    11.0619     7.0282    89.8982     0.0259     0.1256     2.4812
  474.5000   -50.8461    16.3527    11.0568     6.9997  -999.2500     0.0260     0.1256     2.4835
  475.0000   -59.8601    16.3490    11.1296     6.9570  -999.2500     0.0261     0.1221     2.4851
