~VERSION INFORMATION
 VERS.                2.0:   CWLS LOG ASCII STANDARD - VERSION 2.0
 WRAP.                 NO:   ONE LINE PER DEPTH STEP
~WELL INFORMATION
#MNEM.UNIT      DATA TYPE    INFORMATION
#----------   ------------   ------------------------------
 STRT.F           32.0000:   START DEPTH
 STOP.F          502.0000:   STOP DEPTH
 STEP.F            0.5000:   STEP LENGTH
 NULL.          -999.2500:   NO VALUE
 COMP.    FENIX & SCISSON:   COMPANY
 WELL. NPR # #3 65-36-SX-3-FP:   WELL
 FLD .             TEAPOT:   FIELD
 LOC .       S3 T38N R78W:   LOCATION
 CNTY.            NATRONA:   COUNTY
 STAT.            WYOMING:   STATE
 CTRY. UNITED STATES OF AMERICA:   COUNTRY
 SRVC.              Welex:   SERVICE COMPANY
 DATE.        15-JUN-1980:   LOGDATE
 API .       490251082600:   API NUMBER
~CURVE INFORMATION
#MNEM.UNIT       API CODE    CURVE DESCRIPTION
#----------   ------------   ------------------------------
 DEPT.F                  :   
 CALD.IN     45 280 60 00:   CALIPER FROM DENSITY LOG
 CORR.G/C3   45 356 01 00:   DENSITY CORRECTION
 DPHI.DEC    45 890 12 00:   DENSITY POROSITY SANDSTONE
 GRD .GAPI   45 310 01 00:   GAMMA RAY FROM DENSITY LOG
 RHOB.G/C3   45 350 01 00:   BULK DENSITY
 NPHI.DEC    42 890 03 00:   NEUTRON POROSITY SANDSTONE
 ILD .OHMM   07 120 46 00:   INDUCTION LOG DEEP
 ILM .OHMM   07 120 44 00:   INDUCTION LOG MEDIUM
 SGRD.OHMM   07 220 05 00:   SHALLOW GUARD RESISTIVITY
 SPR .MV     07 010 01 00:   SPONTANEOUS POTENTIAL FROM RES.
~PARAMETER INFORMATION
#MNEM.UNIT          VALUE    DESCRIPTION
#----------   ------------   ------------------------------
 PD  .                 GL:   PERMANENT DATUM
 EPD .F              5159:   ELEVATION PERMANENT DATUM
 LMF .                 KB:   LOG MEASURED FROM
 DAPD.F                 5:   FEET ABOVE PERMANENT DATUM
 DMF .                 KB:   DRILLING MEASURED FROM
 EKB .F              5164:   KELLING BUSHING
 EGL .F              5159:   GROUND LEVEL
 DATE.            6-15-80:   RUN DATE
 RUN .                  1:   RUN NUMBER
 DD  .F               505:   DEPTH DRILLER
 DL  .F               504:   DEPTH LOGGER
 BLI .F               502:   BOTTOM LOG INTERVAL
 TLI .F                30:   TOP LOG INTERVAL
 BS  .IN            9.875:   BIT SIZE
 BSD .F               505:   BIT SIZE AT DEPTH
 DFT .             2% KCL:   DRILLING FLUID TYPE
 DFD .                9.4:   DRILLING FLUID DENSITY
 DFV .                 51:   DRILLING FLUID VISCOSITY
 DFPH.                 12:   DRILLING FLUID PH
 DFL .                5.6:   DRILLING FLUID LOSS
 MSS .           FLOWLINE:   MUD SAMPLE SOURCE
 RMS .OHMM            .36:   RESISTIVITY MUD SAMPLE
 MST .F                65:   MUD SAMPLE TEMPERATURE
 RMF .OHMM            .29:   RESISTIVITY MUD FILTRATE SAMPLE
 MFST.F                65:   MUD FILTRATE SAMPLE TEMPERATURE
 RMC .OHMM            .42:   RESISTIVITY MUD CAKE
 MCST.F                65:   MUD CAKE SAMPLE TEMPERATURE
 MFSS.           MEASURED:   MUD FILTRATE SAMPLE SOURCE
 MCSS.           MEASURED:   MUD CAKE SAMPLE SOURCE
 RMB .OHMM            .32:   RESISTIVITY MUD AT BHT
 BHT .F                74:   BOTTOM HOLE TEMPERATURE
 TCS .HRS               2:   TIME CURCULATED STOPPED
 MRT .F                74:   MAXIMUM RECORDED TEMPERATURE
 LUN .               1892:   LOGGING UNIT NUMBER
 LUL .             CASPER:   LOGGING UNIT LOCATION
 ENGI.               REIN:   RECORDING ENGINEER
 WITN.              AMEND:   WITNESSED BY
 CLNT.            A2DTECH:   CLIENT CODE
 ORIG.       2", 5" PRINT:   ORIGIN OF DATA
 UWI .       490251082600:   UNIQUE WELL ID
 DICO. A2D Technologies, Inc.:   DIGITIZING COMPANY
~OTHER INFORMATION
~A   DEPT     CALD       CORR       DPHI        GRD       RHOB       NPHI         ILD         ILM       SGRD      SPR   
# ...
  166.0000    10.4037     0.0844     0.1166    98.0988     2.4555     0.3295     7.6550     5.9735     5.0289   -56.1605
  166.5000    10.4047     0.0936     0.1156    99.8798     2.4623     0.3255     7.3438     5.8497     4.8230   -56.4470
  167.0000    10.4059     0.0968     0.1093    99.2987     2.4564     0.3204     7.1422     5.8080     4.6897   -56.7335
  167.5000    10.4072     0.0909     0.1032    99.3075     2.4587     0.3185     7.1403     5.8867     4.5433   -57.0201
  168.0000    10.4084     0.1076     0.1118   101.2338     2.4841     0.3181     7.1384     6.0916     4.4950   -57.0201
  168.5000    10.4096     0.1168     0.1226   102.5701     2.4744     0.3145     7.2357     6.4353     4.5246   -57.0201
  169.0000    10.3960     0.0973     0.1240   102.7242     2.4573     0.3105     7.4870     6.6593     4.5538   -57.0201
  169.5000    10.4120     0.0778     0.1195   101.5553     2.4408     0.3057     8.1306     6.8432     4.6144   -56.8768
  170.0000    10.4132     0.0717     0.1069   100.5295     2.4439     0.3065     8.4717     7.0814     4.7407   -56.5903
  170.5000    10.4142     0.0796     0.1036   102.1630     2.4738     0.3116     8.8331     7.2280     4.9047   -56.1605
  171.0000    10.4155     0.0858     0.0997   102.7596     2.4866     0.3169     8.8860     7.4276     5.0744   -56.0172
  171.5000    10.4315     0.0859     0.0949   100.8532     2.4979     0.3121     8.8831     7.5283     5.2863   -56.1605
  172.0000    10.4326     0.0830     0.0983   101.1571     2.4934     0.3066     8.8807     7.6313     5.5065   -56.1605
  172.5000    10.4338     0.0832     0.0994   100.8709     2.4905     0.3042     8.8174     7.7353     5.7364   -56.3037
  173.0000    10.4497     0.0879     0.0990   100.4373     2.4950     0.3035     8.7540     7.8401     5.9349   -56.1605
  173.5000    10.4804     0.0825     0.1089    99.8562     2.4920     0.3002     8.7517     7.9234     6.1402   -56.0172
  174.0000    10.4816     0.0558     0.1157    98.2404     2.4644     0.2990     8.8100     8.0549     6.3519   -55.5874
  174.5000    10.4975     0.0532     0.1174    99.7264     2.4479     0.2977     8.8686     8.1648     6.5266   -55.4256
  175.0000    10.4987     0.0504     0.1186   101.3577     2.4562     0.2967     9.0510     8.2760     6.6142   -55.0143
  175.5000    10.4999     0.0442     0.1198   100.4816     2.4473     0.2966     9.1118     8.3037     6.7029   -55.0143
  176.0000    10.4860     0.0457     0.1116    99.0155     2.4600     0.2963     9.2992     8.4440     6.7997   -54.8711
  176.5000    10.4580     0.0650     0.0950    98.5796     2.4833     0.2914     9.4910     8.4996     6.8368   -55.0143
  177.0000    10.4445     0.0757     0.0884    98.2935     2.4983     0.2878     9.5599     8.6154     6.8329   -55.8739
  177.5000    10.4306     0.0913     0.0763    98.3046     2.5283     0.2892     9.6178     8.6727     6.8298   -56.3037
  178.0000    10.4321     0.1108     0.0664    98.3134     2.5552     0.2931     9.6818     8.8511     6.7797   -56.4470
  178.5000    10.4035     0.1210     0.0744    98.6173     2.5568     0.2999     9.8136     8.9106     6.7759   -56.2900
  179.0000    10.3899     0.0976     0.0828    98.9211     2.5448     0.3008     9.8783     8.9077     6.7263   -55.5874
  179.5000    10.3763     0.0636     0.0947    99.9624     2.5052     0.3043     9.8751     8.8441     6.7232   -54.8711
  180.0000    10.3795     0.0472     0.1037   101.8886     2.4895     0.3082     9.7373     8.5856     6.7201   -54.7278
  180.5000    10.3948     0.0339     0.1117   103.6674     2.4634     0.3066     9.7348     8.3647     6.8096   -55.0257
  181.0000    10.4097     0.0295     0.1213   103.8215     2.4432     0.3059     9.6654     8.2480     6.9968   -55.5874
  181.5000    10.4157     0.0191     0.1227   102.3577     2.4387     0.3059     9.5959     8.2458     7.1900   -55.8739
  182.0000    10.4268     0.0239     0.1187   103.6940     2.4508     0.3058     9.5934     8.2437     7.1365   -56.0172
  182.5000    10.4129     0.0346     0.1178   103.9978     2.4560     0.3064     9.5909     8.2410     7.0348   -56.1605
  183.0000    10.3993     0.0392     0.1201   103.2692     2.4463     0.3081     9.5225     8.1822     6.9833   -56.0172
  183.5000    10.4006     0.0378     0.1225   101.6556     2.4419     0.3096     9.4496     8.1239     6.8845   -55.9775
  184.0000    10.4020     0.0440     0.1149    99.8945     2.4602     0.3074     9.3221     8.0106     6.8341   -55.7307
  184.5000    10.4139     0.0683     0.1032    99.0162     2.4850     0.3044     9.0662     7.8441     6.7367   -55.4441
  185.0000    10.4199     0.0790     0.1004    99.6173     2.4839     0.3091     8.8783     7.4212     6.6414   -55.0143
  185.5000    10.4348     0.0792     0.0998   100.5111     2.4874     0.3088     8.6943     7.1187     6.5928   -54.5845
  186.0000    10.4507     0.0763     0.0979   104.3547     2.4930     0.3075     8.2820     6.9232     6.4996   -54.5845
  186.5000    10.4519     0.0703     0.1033   103.1836     2.4945     0.3113     8.0546     6.5897     6.2326   -54.4413
  187.0000    10.4678     0.0599     0.1140   101.5701     2.4646     0.3133     7.7797     6.3260     6.0604   -54.6042
  187.5000    10.4690     0.0480     0.1193   100.3990     2.4542     0.3166     7.5141     6.1524     5.9747   -54.7278
  188.0000    10.4702     0.0496     0.1202    99.6703     2.4530     0.3166     7.2502     5.8207     5.8902   -55.0143
  188.5000    10.4566     0.0558     0.1300    99.2367     2.4293     0.3171     6.8660     5.5021     5.5603   -55.3027
  189.0000    10.4578     0.0605     0.1303    98.6556     2.4236     0.3174     6.6775     5.0681     4.9868   -56.0172
  189.5000    10.4590     0.0666     0.1260    98.5147     2.4393     0.3170     6.4052     4.7949     4.6206   -56.7335
  190.0000    10.4602     0.0789     0.1311    98.3761     2.4244     0.3149     5.9199     4.5052     4.3406   -57.0201
  190.5000    10.4614     0.0896     0.1262    99.2721     2.4342     0.3211     5.2055     4.2624     3.9883   -57.3066
  191.0000    10.4625     0.1003     0.1279    99.1335     2.4245     0.3232     4.9249     3.7898     3.6497   -57.5931
  191.5000    10.4637     0.1080     0.1327    98.2574     2.4245     0.3276     4.6594     3.4880     3.3816   -58.0229
  192.0000    10.4501     0.1126     0.1407    97.8237     2.4096     0.3308     4.3180     3.2999     3.2208   -58.5960
  192.5000    10.4365     0.1082     0.1614    96.8001     2.3797     0.3365     4.0636     2.7388     2.6143   -59.1691
  193.0000    10.4378     0.0842     0.1760    95.0391     2.3251     0.3391     3.6073     2.5693     2.4590   -60.3152
  193.5000    10.4389     0.0572     0.1976    92.9830     2.2989     0.3388     3.3430     2.4011     2.3260   -60.4585
  194.0000    10.4413     0.0452     0.2116    92.9919     2.2707     0.3384     3.2512     2.3192     2.2307   -60.4585
  194.5000    10.4560     0.0378     0.2256    93.4432     2.2564     0.3381     3.3017     2.3026     2.1841   -60.4585
  195.0000    10.4720     0.0334     0.2262    94.4845     2.2264     0.3377     3.7815     2.3020     2.1982   -59.8854
  195.5000    10.4732     0.0320     0.2225    96.5583     2.2275     0.3371     4.1923     2.3332     2.2428   -59.2472
  196.0000    10.4743     0.0367     0.2141    98.3370     2.2556     0.3286     4.9796     2.4649     2.3365   -58.4527
  196.5000    10.4755     0.0414     0.1906   100.4108     2.2876     0.3193     5.7981     2.7898     2.4678   -57.8797
  197.0000    10.4767     0.0354     0.1642   101.3046     2.3216     0.3135     7.3215     3.1794     2.8506   -57.0201
  197.5000    10.4779     0.0250     0.1449   102.0509     2.3920     0.3090     8.0613     3.5983     3.1816   -56.5903
  198.0000    10.4791     0.0146     0.1431   102.2072     2.3951     0.3101     8.1155     4.0447     3.6004   -56.3037
  198.5000    10.4803     0.0056     0.1376   102.5111     2.4075     0.3097     8.0571     4.4227     3.9908   -56.1605
  199.0000    10.4962     0.0390     0.1163   102.8149     2.4570     0.3091     8.0545     4.8361     4.4230   -56.4470
