~VERSION INFORMATION
 VERS.                2.0:   CWLS LOG ASCII STANDARD - VERSION 2.0
 WRAP.                 NO:   ONE LINE PER DEPTH STEP
~WELL INFORMATION
#MNEM.UNIT      DATA TYPE    INFORMATION
#----------   ------------   ------------------------------
 STRT.F           32.0000:   START DEPTH
 STOP.F          456.0000:   STOP DEPTH
 STEP.F            0.5000:   STEP LENGTH
 NULL.          -999.2500:   NO VALUE
 COMP. LAWRENCE/ALLISON INC:   COMPANY
 WELL.    52-62 SX #10-10:   WELL
 FLD .             TEAPOT:   FIELD
 LOC .      S10 T38N R78W:   LOCATION
 CNTY.            NATRONA:   COUNTY
 STAT.            WYOMING:   STATE
 CTRY. UNITED STATES OF AMERICA:   COUNTRY
 SRVC.           Gearhart:   SERVICE COMPANY
 DATE.        06-AUG-1987:   LOGDATE
 API .       490251116500:   API NUMBER
~CURVE INFORMATION
#MNEM.UNIT       API CODE    CURVE DESCRIPTION
#----------   ------------   ------------------------------
 DEPT.F                  :   
 GRR .GAPI   07 310 01 00:   GAMMA RAY
 RILD.OHMM   07 120 46 00:   INDUCTION LOG DEEP RESISTIVITY
 RILM.OHMM   07 120 44 00:   INDUCTION LOG MEDIUM RESISTIVITY
 RLL .OHMM   07 220 00 00:   LATEROLOG RESISTIVITY
~PARAMETER INFORMATION
#MNEM.UNIT          VALUE    DESCRIPTION
#----------   ------------   ------------------------------
 PD  .                 GL:   PERMANENT DATUM
 EPD .F              5173:   ELEVATION PERMANENT DATUM
 LMF .                 KB:   LOG MEASURED FROM
 DAPD.F                 8:   FEET ABOVE PERMANENT DATUM
 DMF .                 KB:   DRILLING MEASURED FROM
 EKB .F              5181:   KELLING BUSHING
 EDF .F              5180:   DRILLING FLOOR
 EGL .F              5173:   GROUND LEVEL
 DATE.        06-AUG-1987:   RUN DATE
 RUN .                  1:   RUN NUMBER
 DD  .F               455:   DEPTH DRILLER
 DL  .F               456:   DEPTH LOGGER
 BLI .F               448:   BOTTOM LOG INTERVAL
 TLI .F                30:   TOP LOG INTERVAL
 CS  .IN            8.625:   CASING SIZE
 CBD .F                48:   CASING BOTTOM DRILLER
 CBL .F                48:   CASING BOTTOM LOGGER
 BS  .IN            7.875:   BIT SIZE
 BSD .F               455:   BIT SIZE AT DEPTH
 DFT .          OIL/WATER:   DRILLING FLUID TYPE
 DFD .               10.2:   DRILLING FLUID DENSITY
 DFV .                 40:   DRILLING FLUID VISCOSITY
 MSS .           MUD TANK:   MUD SAMPLE SOURCE
 RMS .OHMM            .22:   RESISTIVITY MUD SAMPLE
 MST .F                70:   MUD SAMPLE TEMPERATURE
 RMF .OHMM            .17:   RESISTIVITY MUD FILTRATE SAMPLE
 MFST.F                70:   MUD FILTRATE SAMPLE TEMPERATURE
 RMC .OHMM            .30:   RESISTIVITY MUD CAKE
 MCST.F                70:   MUD CAKE SAMPLE TEMPERATURE
 MFSS.              CHART:   MUD FILTRATE SAMPLE SOURCE
 TCS .HRS            1600:   TIME CURCULATED STOPPED
 TLAB.HRS            1807:   TIME LOGGER AT BOTTOM
 LUN .               7597:   LOGGING UNIT NUMBER
 LUL .           GILLETTE:   LOGGING UNIT LOCATION
 ENGI.         WEATHERMON:   RECORDING ENGINEER
 WITN.              FIVAS:   WITNESSED BY
 CLNT.            A2DTECH:   CLIENT CODE
 ORIG.           5" PRINT:   ORIGIN OF DATA
 UWI .       490251116500:   UNIQUE WELL ID
 DICO. A2D Technologies, Inc.:   DIGITIZING COMPANY
~OTHER INFORMATION
~A   DEPT       GRR      RILD       RILM        RLL   
# ...
  324.0000    79.8811    15.3336    13.4268    12.9594
  324.5000    78.3737    15.1276    13.2448    12.7832
  325.0000    79.3017    14.8194    13.0665    12.5267
  325.5000    80.8384    14.7214    13.0731    12.5341
  326.0000    82.9840    14.4216    12.8972    12.4513
  326.5000    84.5208    14.3262    12.8127    12.4587
  327.0000    85.7757    14.3322    12.8178    12.4646
  327.5000    86.6848    14.3370    12.7339    12.5578
  328.0000    87.0039    14.7475    12.6504    12.5638
  328.5000    87.0186    14.9596    12.6568    12.6689
  329.0000    86.7252    15.3878    12.9298    13.1153
  329.5000    86.7435    16.3044    13.6776    13.5877
  330.0000    85.8450    17.3373    14.4686    14.3751
  330.5000    84.6190    18.3380    17.2896    15.2082
  331.0000    82.2251    19.6689    19.6859    16.5453
  331.5000    79.1956    21.8447    20.3930    19.0341
  332.0000    75.8618    23.5939    20.9367    23.9782
  332.5000    70.3970    25.1303    21.5365    23.4948
  333.0000    67.9764    26.4434    22.3071    23.0186
  333.5000    68.5999    28.3141    23.5941    22.3951
  334.0000    70.7946    29.9484    25.4831    21.3369
  334.5000    71.3727    31.6770    27.3321    22.4163
  335.0000    68.9521    33.0413    29.3152    29.0386
  335.5000    65.0094    33.0525    31.2237    37.3947
  336.0000    60.4579    32.8338    30.3745    40.9294
  336.5000    59.2549    32.1363    29.5464    39.8208
  337.0000    59.5740    30.6458    27.1806    35.1341
  337.5000    63.0136    28.9930    23.1568    30.1451
  338.0000    67.2175    27.4293    19.5915    26.4121
  338.5000    66.9277    26.1315    19.4604    25.5175
  339.0000    66.0292    25.5989    19.8776    25.3523
  339.5000    64.2174    25.7870    20.1809    24.8164
  340.0000    63.3152    25.5930    20.5958    23.6675
  340.5000    67.2909    25.2703    20.6014    22.8663
  341.0000    69.7412    24.9308    20.6069    23.0374
  341.5000    68.5416    24.2533    20.3255    23.3724
  342.0000    67.3387    23.4283    20.1896    23.3835
  342.5000    67.0453    23.4381    20.3378    23.2317
  343.0000    67.3681    23.2831    19.9100    22.9204
  343.5000    67.9916    23.2912    19.3788    22.1470
  344.0000    68.0063    23.1369    19.1154    21.5446
  344.5000    66.7763    22.8242    19.1218    20.6728
  345.0000    65.9048    22.6732    19.2609    20.1129
  345.5000    66.2276    22.8415    18.9978    19.9800
  346.0000    68.6776    22.3762    18.4812    19.8525
  346.5000    71.4320    21.9204    17.8470    20.0014
  347.0000    73.5776    21.4739    17.3657    20.0131
  347.5000    74.8099    21.3319    17.1296    20.0226
  348.0000    73.5505    21.1926    17.1354    20.3138
  348.5000    72.1033    21.1997    17.2600    20.6092
  349.0000    70.9003    21.0577    17.5073    20.6189
  349.5000    69.0885    21.0666    18.1338    20.4851
  350.0000    67.8855    20.3535    18.3936    20.2106
  350.5000    68.2047    20.2230    18.1094    19.9397
  351.0000    69.7414    19.9537    16.4606    19.4019
  351.5000    70.3653    19.8231    15.6802    19.1197
  352.0000    70.0752    19.5614    15.2517    19.0005
  352.5000    69.7855    19.5724    15.3636    19.0069
  353.0000    73.7436    19.5833    15.2599    19.0121
  353.5000    78.0172    19.8713    15.1589    18.7534
  354.0000    81.3775    20.0212    14.9529    18.3696
  354.5000    76.2142    20.3133    14.8529    18.2466
  355.0000    73.1818    20.8990    15.0667    18.1247
  355.5000    71.3671    21.6521    15.1763    18.0034
  356.0000    69.8407    21.3638    15.6100    17.8830
  356.5000    69.2597    20.3385    15.9446    17.8890
  357.0000    69.5788    19.1319    16.1730    18.0192
  357.5000    70.5038    18.3580    16.2906    18.1504
  358.0000    71.7332    18.3666    15.6269    17.9035
  358.5000    72.6582    18.6367    14.2766    17.4151
  359.0000    74.1920    18.2608    11.9112    17.1782
  359.5000    75.4389    17.7681    12.2516    17.1840
  360.0000    76.6538    17.4097    12.8683    17.3091
  360.5000    77.2744    17.4191    14.5944    17.4351
  361.0000    77.2861    17.4285    14.9071    17.5620
  361.5000    76.6891    17.5601    14.8075    17.5668
  362.0000    75.1787    17.8186    14.8124    17.6947
  362.5000    73.0596    18.0785    14.8164    17.9484
  363.0000    70.5997    18.0883    14.8204    18.2059
  363.5000    68.5198    18.0981    14.8244    18.3395
  364.0000    68.5316    18.1078    15.1421    18.3444
  364.5000    69.1522    18.1176    15.7938    18.2205
  365.0000    69.4684    18.0014    16.4851    18.0986
  365.5000    69.4801    18.0115    16.9454    17.9787
  366.0000    70.7095    18.0233    16.7151    17.9836
  366.5000    71.9391    18.0330    16.6022    18.1146
  367.0000    71.6492    18.0428    16.3766    18.1206
  367.5000    70.7477    18.0525    16.0427    17.9982
  368.0000    69.8433    17.8121    15.7147    17.7545
  368.5000    69.2462    17.6978    15.3873    17.5119
  369.0000    69.5653    17.3331    14.9736    17.1535
  369.5000    70.4903    17.1101    14.6684    16.8035
  370.0000    71.1314    16.7672    14.1693    16.5750
  370.5000    72.6477    16.4290    13.9758    16.3495
  371.0000    74.7903    16.2080    13.8823    16.1282
  371.5000    77.5418    16.1041    13.6946    15.9089
  372.0000    79.9889    15.8918    13.4145    15.6925
  372.5000    79.3918    15.7899    13.4043    15.6967
  373.0000    77.2727    15.6887    13.3284    15.4832
  373.5000    73.8934    15.6993    13.3329    15.4874
  374.0000    74.8638    15.7078    13.3365    15.3838
  374.5000    76.7020    15.7162    13.3401    15.3890
  375.0000    76.1050    15.6134    13.2508    15.3931
  375.5000    74.8991    15.6239    13.3473    15.3973
  376.0000    74.6035    15.5236    13.2581    15.5094
  376.5000    75.8358    15.5323    13.3554    15.5136
  377.0000    75.5432    15.5426    13.5468    15.5178
  377.5000    75.2505    15.5510    13.7409    15.4140
  378.0000    74.9578    15.4492    14.0353    15.3108
  378.5000    77.1034    15.4596    13.9405    15.3160
  379.0000    76.8108    15.3584    13.7520    15.3201
  379.5000    75.6049    15.2617    13.4707    15.2177
  380.0000    73.4857    15.1641    13.3807    15.1148
  380.5000    71.0622    15.1726    13.2912    15.0137
  381.0000    71.0769    15.0686    13.2957    14.9142
  381.5000    72.6107    15.1895    13.2993    14.9183
  382.0000    75.0578    14.9892    13.2095    14.8185
  382.5000    75.6783    14.7876    13.1220    14.8235
  383.0000    75.6901    14.6928    13.0344    14.8275
  383.5000    76.3107    14.6005    12.9472    14.7273
  384.0000    79.7688    14.5050    12.9516    14.5270
  384.5000    82.1210    14.4137    12.7756    14.3304
  385.0000    81.5210    14.5226    12.6893    14.2345
  385.5000    79.7092    14.5307    12.7825    14.2385
  386.0000    78.5004    14.5402    12.9656    14.2432
  386.5000    78.2077    14.5481    12.7004    14.3468
  387.0000    78.5268    14.6578    12.4310    14.5525
  387.5000    78.8686    14.6657    12.1024    14.5565
  388.0000    79.7709    14.7763    12.0206    14.6624
  388.5000    80.0871    14.7843    12.1937    14.6664
  389.0000    80.0988    14.7924    12.4550    14.5683
  389.5000    81.3283    14.3951    12.6334    14.4718
  390.0000    82.2533    14.2034    12.7253    14.1756
  390.5000    81.0472    14.1124    12.8179    13.9819
  391.0000    80.4503    14.1200    12.7322    13.8883
  391.5000    80.1576    13.8352    12.5591    13.8930
  392.0000    79.8650    13.6507    12.3031    13.8000
  392.5000    79.5723    13.5634    12.2200    13.6124
  393.0000    79.4606    13.4765    12.1383    13.5089
  393.5000    80.6988    13.4856    12.1424    13.4308
  394.0000    84.0679    13.3060    12.1457    13.5295
  394.5000    86.2193    13.1288    12.0645    13.5332
  395.0000    84.9010    13.1359    11.8186    13.5368
  395.5000    80.7860    13.0499    11.4964    13.5405
  396.0000    80.1926    12.8779    11.2613    13.4499
  396.5000    81.7403    12.7007    11.1075    13.3538
