~VERSION INFORMATION
 VERS.                2.0:   CWLS LOG ASCII STANDARD - VERSION 2.0
 WRAP.                 NO:   ONE LINE PER DEPTH STEP
~WELL INFORMATION
#MNEM.UNIT      DATA TYPE    INFORMATION
#----------   ------------   ------------------------------
 STRT.F           30.0000:   START DEPTH
 STOP.F         1358.0000:   STOP DEPTH
 STEP.F            0.5000:   STEP LENGTH
 NULL.          -999.2500:   NO VALUE
 COMP. FENIX & SCISSON INC:   COMPANY
 WELL.      3 SX14 #85-14:   WELL
 FLD .             TEAPOT:   FIELD
 LOC .      S14 T38N R78W:   LOCATION
 CNTY.            NATRONA:   COUNTY
 STAT.            WYOMING:   STATE
 CTRY. UNITED STATES OF AMERICA:   COUNTRY
 SRVC.              Welex:   SERVICE COMPANY
 DATE.        10-FEB-1977:   LOGDATE
 API .       490251027500:   API NUMBER
~CURVE INFORMATION
#MNEM.UNIT       API CODE    CURVE DESCRIPTION
#----------   ------------   ------------------------------
 DEPT.F                  :   
 ILM .OHMM   07 120 44 00:   INDUCTION LOG MEDIUM
 ILD .OHMM   07 120 46 00:   INDUCTION LOG DEEP
 CALD.IN     45 280 60 00:   CALIPER
 GRD .GAPI   45 310 01 00:   GAMMA RAY FROM DENSITY LOG
 RHOB.G/C3   45 350 01 00:   BULK DENSITY
 DPHI.DEC    45 890 12 00:   DENSITY POROSITY SANDSTONE
 CORR.G/C3   45 356 01 00:   DENSITY CORRECTION
~PARAMETER INFORMATION
#MNEM.UNIT          VALUE    DESCRIPTION
#----------   ------------   ------------------------------
 PD  .                 GL:   PERMANENT DATUM
 EPD .F              5345:   ELEVATION PERMANENT DATUM
 LMF .                 GL:   LOG MEASURED FROM
 DMF .                 GL:   DRILLING MEASURED FROM
 EGL .F              5345:   GROUND LEVEL
 DATE.          2-10-1977:   RUN DATE
 RUN .                  1:   RUN NUMBER
 DD  .F              1362:   DEPTH DRILLER
 DL  .F              1361:   DEPTH LOGGER
 BLI .F              1359:   BOTTOM LOG INTERVAL
 TLI .F                43:   TOP LOG INTERVAL
 CS  .IN            8.625:   CASING SIZE
 CBD .F                43:   CASING BOTTOM DRILLER
 CBL .F                43:   CASING BOTTOM LOGGER
 BS  .IN            7.875:   BIT SIZE
 BSD .F              1362:   BIT SIZE AT DEPTH
 DFT .           AIR MIST:   DRILLING FLUID TYPE
 TCS .HRS               4:   TIME CURCULATED STOPPED
 MRT .F               104:   MAXIMUM RECORDED TEMPERATURE
 LUN .               8611:   LOGGING UNIT NUMBER
 LUL .           GILLETTE:   LOGGING UNIT LOCATION
 ENGI.               DOAK:   RECORDING ENGINEER
 WITN. PETTINGILL/STUEBINGER:   WITNESSED BY
 CLNT.            A2DTECH:   CLIENT CODE
 ORIG.       2", 5" PRINT:   ORIGIN OF DATA
 UWI .       490251027500:   UNIQUE WELL ID
 DICO. A2D Technologies, Inc.:   DIGITIZING COMPANY
~OTHER INFORMATION
~A   DEPT      ILM        ILD         CALD      GRD         RHOB     DPHI        CORR  
# ...
  212.0000     6.8058     5.8828     8.2822   107.4936     2.4139     0.1521     0.0316
  212.5000     6.8344     5.9122     8.2832   108.3853     2.4085     0.1541     0.0309
  213.0000     6.8632     5.9705     8.2831   109.4264     2.4121     0.1522     0.0302
  213.5000     6.8920     6.0288     8.2831   110.4510     2.4156     0.1501     0.0295
  214.0000     6.9210     6.0877     8.2831   110.6926     2.4182     0.1481     0.0288
  214.5000     6.9421     6.1471     8.2831   109.0791     2.4158     0.1502     0.0280
  215.0000     6.9754     6.2070     8.2831   107.1472     2.4134     0.1533     0.0273
  215.5000     7.0420     6.2676     8.2831   105.2180     2.4120     0.1536     0.0266
  216.0000     7.1094     6.3287     8.2831   103.2830     2.4177     0.1525     0.0262
  216.5000     7.1773     6.3905     8.2831   101.3587     2.4234     0.1487     0.0285
  217.0000     7.2459     6.4494     8.2831    99.9738     2.4292     0.1449     0.0308
  217.5000     7.3152     6.5892     8.2831   100.8306     2.4350     0.1411     0.0331
  218.0000     7.3851     6.6315     8.2833   101.7380     2.4407     0.1372     0.0353
  218.5000     7.4557     6.6741     8.2820   101.5399     2.4465     0.1334     0.0377
  219.0000     7.5270     6.7170     8.2641   100.2543     2.4516     0.1328     0.0381
  219.5000     7.5999     6.7601     8.2824    99.0032     2.4483     0.1337     0.0378
  220.0000     7.6688     6.8036     8.2825    97.7041     2.4449     0.1346     0.0374
  220.5000     7.7503     6.8473     8.2830    98.0306     2.4433     0.1355     0.0371
  221.0000     7.8391     6.8913     8.2833    99.6317     2.4453     0.1350     0.0367
  221.5000     7.9072     6.9355     8.2904   101.5079     2.4471     0.1345     0.0363
  222.0000     7.9759     6.9801     8.2976   103.3842     2.4460     0.1356     0.0360
  222.5000     8.0431     7.0915     8.3046   105.2404     2.4433     0.1387     0.0356
  223.0000     8.2926     7.3004     8.3119   106.3080     2.4358     0.1415     0.0353
  223.5000     8.6966     7.5173     8.3193   106.7823     2.4319     0.1426     0.0349
  224.0000     9.1489     7.7510     8.3208   105.5030     2.4281     0.1436     0.0345
  224.5000     8.8938     7.7250     8.3027   104.2586     2.4267     0.1446     0.0342
  225.0000     8.6286     7.6956     8.2995   103.0233     2.4311     0.1425     0.0338
  225.5000     8.3713     7.6664     8.2972   101.7963     2.4354     0.1405     0.0335
  226.0000     8.1196     7.6373     8.2950   101.6621     2.4397     0.1384     0.0331
  226.5000     7.9671     7.5414     8.2927   103.3572     2.4411     0.1363     0.0327
  227.0000     7.9694     7.5414     8.2905   105.0267     2.4372     0.1373     0.0324
  227.5000     8.2511     7.7384     8.2882   106.7079     2.4335     0.1391     0.0318
  228.0000     8.5082     7.8905     8.2859   107.9546     2.4297     0.1422     0.0308
  228.5000     8.7734     8.0455     8.2835   108.8613     2.4259     0.1454     0.0298
  229.0000     9.0468     8.2683     8.2866   109.7550     2.4274     0.1443     0.0288
  229.5000     9.3288     8.2414     8.2912   110.4435     2.4296     0.1428     0.0278
  230.0000     9.5796     8.2023     8.2959   111.7307     2.4310     0.1413     0.0268
  230.5000     9.2828     8.0861     8.3006   112.9774     2.4299     0.1436     0.0258
  231.0000     8.9532     7.9021     8.3053   114.2095     2.4251     0.1472     0.0247
  231.5000     8.6353     7.7223     8.3099   115.0654     2.4188     0.1509     0.0233
  232.0000     8.3287     7.5466     8.3146   114.9008     2.4088     0.1545     0.0185
  232.5000     8.0329     7.3749     8.3193   114.4053     2.4018     0.1582     0.0136
  233.0000     7.7743     7.2070     8.3242   113.5623     2.3975     0.1613     0.0094
  233.5000     7.6262     7.0430     8.3244   112.7462     2.3931     0.1638     0.0093
  234.0000     7.4809     6.8828     8.3244   112.1570     2.3885     0.1662     0.0093
  234.5000     7.3384     6.7262     8.3244   112.6955     2.3931     0.1629     0.0093
  235.0000     7.1987     6.5731     8.3244   113.8509     2.4005     0.1600     0.0096
  235.5000     7.0616     6.4234     8.3244   115.0477     2.4065     0.1570     0.0175
  236.0000     6.9270     6.2777     8.3244   116.2020     2.4127     0.1540     0.0206
  236.5000     6.7951     6.1545     8.3244   117.3522     2.4118     0.1512     0.0220
  237.0000     6.6657     6.1337     8.3244   118.5049     2.4080     0.1559     0.0234
  237.5000     6.5692     6.1117     8.3244   119.5919     2.4050     0.1578     0.0248
  238.0000     6.6089     6.0900     8.3243   119.7438     2.4050     0.1567     0.0261
  238.5000     6.6411     6.0683     8.3242   118.1447     2.4072     0.1556     0.0275
  239.0000     6.6734     6.0467     8.3266   116.3699     2.4106     0.1546     0.0289
  239.5000     6.7059     6.0252     8.2804   114.0300     2.4140     0.1527     0.0303
  240.0000     6.7385     6.0037     8.3148   111.7641     2.4174     0.1509     0.0316
  240.5000     6.7713     5.9917     8.3443   110.5155     2.4205     0.1490     0.0338
  241.0000     6.8042     5.9917     8.3427   110.3698     2.4168     0.1497     0.0363
  241.5000     6.8373     5.9917     8.3416   110.6794     2.4129     0.1520     0.0382
  242.0000     6.8706     6.0713     8.3401   110.9367     2.4112     0.1542     0.0365
  242.5000     6.8785     6.1594     8.3386   111.1738     2.4081     0.1565     0.0349
  243.0000     6.8277     6.1525     8.3372   110.5772     2.4061     0.1583     0.0334
  243.5000     6.7430     6.1456     8.3358   109.8755     2.4027     0.1595     0.0318
  244.0000     6.6597     6.1386     8.3343   109.1662     2.3993     0.1608     0.0302
  244.5000     6.5777     6.1317     8.3329   108.8683     2.3959     0.1620     0.0287
  245.0000     6.5090     6.1247     8.3314   108.9618     2.3923     0.1633     0.0289
  245.5000     6.5199     6.1178     8.3300   109.5787     2.3943     0.1634     0.0312
  246.0000     6.5292     6.1109     8.3285   110.1970     2.3978     0.1613     0.0337
  246.5000     6.5387     6.1040     8.3271   110.8013     2.4013     0.1593     0.0334
  247.0000     6.5482     6.0672     8.3256   111.1897     2.4011     0.1606     0.0320
  247.5000     6.5576     6.0261     8.3264   110.3692     2.3945     0.1650     0.0305
  248.0000     6.5670     5.9853     8.3415   109.3549     2.3871     0.1694     0.0290
  248.5000     6.5692     5.9448     8.3568   108.4450     2.3787     0.1728     0.0269
  249.0000     6.2851     5.7873     8.3720   108.9601     2.3721     0.1750     0.0231
  249.5000     6.0876     5.6066     8.3874   109.6727     2.3695     0.1774     0.0193
  250.0000     5.8963     5.4399     8.4035   110.4121     2.3682     0.1782     0.0155
  250.5000     5.7110     5.2868     8.4032   110.3053     2.3730     0.1755     0.0118
  251.0000     5.5316     5.1381     8.3825   110.0051     2.3779     0.1728     0.0114
  251.5000     5.3577     4.9935     8.3747   109.7051     2.3827     0.1701     0.0114
  252.0000     5.1894     4.8529     8.3677   109.4777     2.3876     0.1673     0.0115
  252.5000     5.0772     4.7154     8.3657   109.4529     2.3924     0.1646     0.0150
  253.0000     4.9846     4.6269     8.3479   109.9839     2.3972     0.1619     0.0183
  253.5000     4.9846     4.6136     8.3273   110.8746     2.4030     0.1592     0.0216
  254.0000     4.9846     4.6018     8.3068   111.7700     2.4117     0.1566     0.0249
  254.5000     5.0916     4.5885     8.2862   112.6496     2.4228     0.1463     0.0280
  255.0000     5.2178     4.6720     8.2657   113.5184     2.4214     0.1481     0.0276
  255.5000     5.3471     4.8320     8.2451   114.5344     2.4178     0.1499     0.0272
  256.0000     5.4797     4.9976     8.2245   114.9677     2.4145     0.1511     0.0268
  256.5000     5.6155     5.1688     8.2211   114.3011     2.4151     0.1504     0.0264
  257.0000     5.7547     5.3459     8.2289   113.6269     2.4165     0.1510     0.0260
