~VERSION INFORMATION
 VERS.                2.0:   CWLS LOG ASCII STANDARD - VERSION 2.0
 WRAP.                 NO:   ONE LINE PER DEPTH STEP
~WELL INFORMATION
#MNEM.UNIT      DATA TYPE    INFORMATION
#----------   ------------   ------------------------------
 STRT.F           24.0000:   START DEPTH
 STOP.F          570.0000:   STOP DEPTH
 STEP.F            0.5000:   STEP LENGTH
 NULL.          -999.2500:   NO VALUE
 COMP. FENIX & SCISSON INC:   COMPANY
 WELL.   NPR-3 #32SX10-10:   WELL
 FLD .  TEAPOT COME NPR-3:   FIELD
 LOC .      S10 T38N R78W:   LOCATION
 CNTY.            NATRONA:   COUNTY
 STAT.            WYOMING:   STATE
 CTRY. UNITED STATES OF AMERICA:   COUNTRY
 SRVC.            Unknown:   SERVICE COMPANY
 DATE.        27-JUN-1978:   LOGDATE
 API .       490251065300:   API NUMBER
~CURVE INFORMATION
#MNEM.UNIT       API CODE    CURVE DESCRIPTION
#----------   ------------   ------------------------------
 DEPT.F                  :   
 CALD.IN     45 280 60 00:   CALIPER FROM DENSITY LOG
 GRD .GAPI   45 310 01 00:   GAMMA RAY FROM DENSITY LOG
 CORR.G/C3   45 356 01 00:   DENSITY CORRECTION
 DPHI.DEC    45 890 12 00:   DENSITY POROSITY SANDSTONE
 RHOB.G/C3   45 350 01 00:   BULK DENSITY
 SPR .MV     05 010 01 00:   SPONTANEOUS POTENTIAL FROM RES.
 SN  .OHMM   05 040 16 00:   SHORT NORMAL 16"
 ILD .OHMM   05 120 46 00:   INDUCTION LOG DEEP
~PARAMETER INFORMATION
#MNEM.UNIT          VALUE    DESCRIPTION
#----------   ------------   ------------------------------
 PD  .                 GL:   PERMANENT DATUM
 EPD .F              5239:   ELEVATION PERMANENT DATUM
 LMF .                 GL:   LOG MEASURED FROM
 DAPD.F                 4:   FEET ABOVE PERMANENT DATUM
 DMF .                 GL:   DRILLING MEASURED FROM
 EKB .F              5243:   KELLING BUSHING
 EGL .F              5239:   GROUND LEVEL
 DATE.        27-JUN-1978:   RUN DATE
 RUN .                  1:   RUN NUMBER
 DD  .F               565:   DEPTH DRILLER
 DL  .F               574:   DEPTH LOGGER
 BLI .F               572:   BOTTOM LOG INTERVAL
 TLI .F                30:   TOP LOG INTERVAL
 CS  .IN            8.625:   CASING SIZE
 CBD .F                40:   CASING BOTTOM DRILLER
 CBL .F                40:   CASING BOTTOM LOGGER
 BS  .IN            7.875:   BIT SIZE
 BSD .F               565:   BIT SIZE AT DEPTH
 DFT .                KCL:   DRILLING FLUID TYPE
 DFD .                8.7:   DRILLING FLUID DENSITY
 DFV .                 35:   DRILLING FLUID VISCOSITY
 DFPH.                 10:   DRILLING FLUID PH
 DFL .                 14:   DRILLING FLUID LOSS
 MSS .           FLOWLINE:   MUD SAMPLE SOURCE
 RMS .OHMM            .36:   RESISTIVITY MUD SAMPLE
 MST .F                78:   MUD SAMPLE TEMPERATURE
 RMF .OHMM             .3:   RESISTIVITY MUD FILTRATE SAMPLE
 MFST.F                86:   MUD FILTRATE SAMPLE TEMPERATURE
 RMC .OHMM            .36:   RESISTIVITY MUD CAKE
 MCST.F                87:   MUD CAKE SAMPLE TEMPERATURE
 MFSS.               MEAS:   MUD FILTRATE SAMPLE SOURCE
 MCSS.               MEAS:   MUD CAKE SAMPLE SOURCE
 RMB .OHMM            3.9:   RESISTIVITY MUD AT BHT
 BHT .F                72:   BOTTOM HOLE TEMPERATURE
 TCS .HRS            0300:   TIME CURCULATED STOPPED
 MRT .F                72:   MAXIMUM RECORDED TEMPERATURE
 LUN .               2938:   LOGGING UNIT NUMBER
 LUL .               CASP:   LOGGING UNIT LOCATION
 ENGI.            POINTER:   RECORDING ENGINEER
 WITN.         ZARGARNIAN:   WITNESSED BY
 CLNT.            A2DTECH:   CLIENT CODE
 ORIG.     2.5", 5" PRINT:   ORIGIN OF DATA
 UWI .       490251065300:   UNIQUE WELL ID
 DICO. A2D Technologies, Inc.:   DIGITIZING COMPANY
~OTHER INFORMATION
~A   DEPT     CALD         GRD      CORR       DPHI       RHOB        SPR         SN        ILD   
   24.0000  -999.2500    91.0014  -999.2500  -999.2500  -999.2500  -999.2500  -999.2500  -999.2500
   24.5000  -999.2500    89.8317  -999.2500  -999.2500  -999.2500  -999.2500  -999.2500  -999.2500
   25.0000  -999.2500    89.7020  -999.2500  -999.2500  -999.2500  -999.2500  -999.2500  -999.2500
   25.5000  -999.2500    94.4806  -999.2500  -999.2500  -999.2500  -999.2500  -999.2500  -999.2500
   26.0000  -999.2500    95.9854  -999.2500  -999.2500  -999.2500  -999.2500  -999.2500  -999.2500
   26.5000  -999.2500    81.1455  -999.2500  -999.2500  -999.2500  -999.2500  -999.2500  -999.2500
   27.0000  -999.2500    81.7588  -999.2500  -999.2500  -999.2500  -999.2500  -999.2500  -999.2500
   27.5000  -999.2500    88.3157  -999.2500  -999.2500  -999.2500  -999.2500  -999.2500  -999.2500
   28.0000  -999.2500    94.4267  -999.2500  -999.2500  -999.2500  -999.2500  -999.2500  -999.2500
   28.5000  -999.2500    95.4811  -999.2500  -999.2500  -999.2500  -999.2500  -999.2500  -999.2500
   29.0000  -999.2500    96.3963  -999.2500  -999.2500  -999.2500  -999.2500  -999.2500  -999.2500
   29.5000  -999.2500    98.4955  -999.2500  -999.2500  -999.2500  -999.2500  -999.2500  -999.2500
   30.0000  -999.2500    97.9201  -999.2500  -999.2500  -999.2500  -999.2500  -999.2500  -999.2500
   30.5000  -999.2500    97.0475  -999.2500  -999.2500  -999.2500  -999.2500  -999.2500  -999.2500
   31.0000  -999.2500   103.5076  -999.2500  -999.2500  -999.2500  -999.2500  -999.2500  -999.2500
   31.5000  -999.2500   105.7527  -999.2500  -999.2500  -999.2500  -999.2500  -999.2500  -999.2500
   32.0000  -999.2500    99.1893  -999.2500  -999.2500  -999.2500  -999.2500  -999.2500  -999.2500
   32.5000  -999.2500    92.3685  -999.2500  -999.2500  -999.2500  -999.2500  -999.2500  -999.2500
   33.0000  -999.2500   104.4278  -999.2500  -999.2500  -999.2500  -999.2500  -999.2500  -999.2500
   33.5000  -999.2500   102.9609  -999.2500  -999.2500  -999.2500  -999.2500  -999.2500  -999.2500
   34.0000  -999.2500   103.2770  -999.2500  -999.2500  -999.2500  -999.2500  -999.2500  -999.2500
   34.5000  -999.2500   103.7418  -999.2500  -999.2500  -999.2500  -999.2500  -999.2500  -999.2500
   35.0000  -999.2500   103.6074  -999.2500  -999.2500  -999.2500  -999.2500  -999.2500  -999.2500
   35.5000  -999.2500   103.6930  -999.2500  -999.2500  -999.2500  -999.2500  -999.2500  -999.2500
   36.0000  -999.2500   103.9504  -999.2500  -999.2500  -999.2500  -999.2500  -999.2500  -999.2500
   36.5000  -999.2500   104.7123  -999.2500  -999.2500  -999.2500  -999.2500  -999.2500  -999.2500
   37.0000  -999.2500   108.5945  -999.2500  -999.2500  -999.2500  -999.2500  -999.2500  -999.2500
   37.5000  -999.2500   112.1796  -999.2500  -999.2500  -999.2500  -999.2500  -999.2500  -999.2500
   38.0000  -999.2500   115.7647  -999.2500  -999.2500  -999.2500  -999.2500  -999.2500  -999.2500
   38.5000  -999.2500   124.5503  -999.2500  -999.2500  -999.2500  -999.2500  -999.2500  -999.2500
   39.0000  -999.2500   127.5411  -999.2500  -999.2500  -999.2500  -999.2500  -999.2500  -999.2500
   39.5000  -999.2500   129.1945  -999.2500  -999.2500  -999.2500  -999.2500  -999.2500  -999.2500
   40.0000     7.7542   129.9564     0.0168     0.1352     2.4694  -999.2500  -999.2500  -999.2500
   40.5000     7.7405   130.1416     0.0171     0.1388     2.4560  -999.2500  -999.2500  -999.2500
   41.0000     7.6829   127.9140     0.0174     0.1348     2.4592  -999.2500  -999.2500  -999.2500
   41.5000     7.6398   122.8722     0.0176     0.1443     2.4540  -999.2500  -999.2500  -999.2500
   42.0000     7.6265   122.6028     0.0179     0.1380     2.4459  -999.2500  -999.2500  -999.2500
   42.5000     7.6132   124.4874     0.0227     0.1359     2.4565  -999.2500  -999.2500  -999.2500
   43.0000     7.5705   128.5889     0.0245     0.1382     2.4589  -999.2500  -999.2500  -999.2500
   43.5000     7.5274   130.9853     0.0264     0.1393     2.4575  -999.2500  -999.2500  -999.2500
   44.0000     7.5290   132.4901     0.0356     0.1303     2.4636  -999.2500  -999.2500  -999.2500
   44.5000     7.5902   132.8015     0.0478     0.1236     2.4765  -999.2500  -999.2500  -999.2500
   45.0000     7.7260   132.2309     0.0586     0.1332     2.4757  -999.2500  -999.2500  -999.2500
   45.5000     7.7872   131.8041     0.0618     0.1226     2.4648  -999.2500  -999.2500  -999.2500
   46.0000     7.7888   126.0281     0.0666     0.1199     2.4829     0.0000     1.2709     2.3170
   46.5000     7.6712   125.5965     0.0684     0.1198     2.4868    -0.8543     3.8757     4.0424
   47.0000     7.5387   126.6603     0.0717     0.1186     2.4869    -2.6514     5.0634     5.0117
   47.5000     7.5105   127.2736     0.0749     0.1164     2.4885    -5.9410     6.0621     5.7294
   48.0000     7.4972   126.6783     0.0767     0.1128     2.4924    -8.9321     6.7466     6.1291
   48.5000     7.4365   121.1030     0.0723     0.1097     2.4963   -12.8187     7.0546     6.4722
   49.0000     7.3190   119.5921     0.0527     0.1073     2.4994   -14.9143     7.0900     6.7415
   49.5000     7.2192   120.3674     0.0357     0.1168     2.5017   -15.8159     7.1539     7.0202
   50.0000     7.1314   121.7236     0.0270     0.1339     2.4996   -17.3144     7.1549     7.0202
   50.5000     7.0883   122.2001     0.0242     0.1428     2.4542   -18.5145     7.1559     7.1169
   51.0000     7.0601   123.6365     0.0320     0.1482     2.4392   -19.1175     7.1569     7.1169
   51.5000     7.0021   129.2146     0.0353     0.1442     2.4424   -19.7206     7.2566     7.1169
   52.0000     6.9884   130.1204     0.0326     0.1367     2.4560   -19.7254     7.2575     7.1169
   52.5000     7.0202   129.2525     0.0254     0.1339     2.4606   -20.0299     7.2585     7.1169
   53.0000     7.2007   128.5286     0.0212     0.1351     2.4585   -20.1990     7.3597     7.1169
   53.5000     7.2917   127.8046     0.0200     0.1377     2.4556   -20.3403     7.3607     7.1169
   54.0000     7.3380   126.6348     0.0202     0.1395     2.4535   -20.4975     7.3618     7.1169
   54.5000     7.3851   125.9108     0.0205     0.1397     2.4521   -20.7960     7.3628     7.1169
   55.0000     7.4665   125.1868     0.0209     0.1391     2.4530   -20.9552     7.2634     7.2150
   55.5000     7.6860   124.7593     0.0226     0.1381     2.4538   -21.3931     7.1655     7.2150
   56.0000     7.8068   124.6300     0.0259     0.1378     2.4555   -21.6915     7.0486     7.1169
   56.5000     7.8681   124.7979     0.0322     0.1383     2.4564   -21.9901     6.8598     7.1169
   57.0000     7.8697   125.1253     0.0399     0.1371     2.4587   -22.2885     6.6762     7.1169
   57.5000     7.8560   125.2823     0.0402     0.1295     2.4678   -22.5871     6.4974     7.1169
   58.0000     7.8133   125.3053     0.0345     0.1193     2.4830   -23.1841     6.4107     7.1169
   58.5000     7.7996   125.7700     0.0288     0.1189     2.4890   -23.3851     6.2391     7.1169
   59.0000     7.7867   125.7890     0.0276     0.1231     2.4795   -23.6906     6.1559     7.1169
   59.5000     7.7883   125.9565     0.0279     0.1227     2.4781   -23.1519     6.0855     7.1169
   60.0000     7.7601   128.0557     0.0266     0.1182     2.4842   -22.4936     6.0865     7.2150
   60.5000     7.7019   130.3035     0.0270     0.1151     2.4881   -22.3599     6.0872     7.2150
   61.0000     7.6414   128.5394     0.0257     0.1148     2.4904   -22.5150     6.0787     7.2150
   61.5000     7.5861   127.3649     0.0245     0.1150     2.4913   -22.5350     6.0060     7.2150
   62.0000     7.6328   127.9829     0.0263     0.1201     2.4825   -22.8073     6.0068     7.2150
   62.5000     7.6940   132.6081     0.0281     0.1158     2.4923   -22.8228     5.9259     7.2150
   63.0000     7.7105   134.7073     0.0299     0.1131     2.4985   -22.8228     5.8460     7.1169
   63.5000     7.6525   135.4799     0.0316     0.1133     2.4978   -22.8228     5.8468     7.1169
   64.0000     7.5945   134.2525     0.0334     0.1136     2.4972   -22.8228     5.8476     7.2150
