~VERSION INFORMATION
 VERS.                2.0:   CWLS LOG ASCII STANDARD - VERSION 2.0
 WRAP.                 NO:   ONE LINE PER DEPTH STEP
~WELL INFORMATION
#MNEM.UNIT      DATA TYPE    INFORMATION
#----------   ------------   ------------------------------
 STRT.F           19.5000:   START DEPTH
 STOP.F         1292.5000:   STOP DEPTH
 STEP.F            0.5000:   STEP LENGTH
 NULL.          -999.2500:   NO VALUE
 COMP. FENIX & SCISSON INC:   COMPANY
 WELL.  NPR-3 "SX" #74-14:   WELL
 FLD .             TEAPOT:   FIELD
 LOC .      S14 T38N R78W:   LOCATION
 CNTY.            NATRONA:   COUNTY
 STAT.            WYOMING:   STATE
 CTRY. UNITED STATES OF AMERICA:   COUNTRY
 SRVC.            Unknown:   SERVICE COMPANY
 DATE.        22-MAR-1978:   LOGDATE
 API .       490251060300:   API NUMBER
~CURVE INFORMATION
#MNEM.UNIT       API CODE    CURVE DESCRIPTION
#----------   ------------   ------------------------------
 DEPT.F                  :   
 SPR .MV     05 010 01 00:   SPONTANEOUS POTENTIAL
 SN  .OHMM   05 040 16 00:   SHORT NORMAL 16'
 ILD .OHMM   05 120 46 00:   INDUCTION LOG DEEP
 CALD.IN     45 280 60 00:   CALIPER
 GRD .GAPI   45 310 01 00:   GAMMA RAY FROM DENSITY LOG
 CORR.G/C3   45 356 01 00:   DENSITY CORRECTION
 RHOB.G/C3   45 350 01 00:   BULK DENSITY
 DPHI.DEC    45 890 12 00:   DENSITY POROSITY SANDSTONE
~PARAMETER INFORMATION
#MNEM.UNIT          VALUE    DESCRIPTION
#----------   ------------   ------------------------------
 PD  .                 GL:   PERMANENT DATUM
 EPD .F              5312:   ELEVATION PERMANENT DATUM
 LMF .                 KB:   LOG MEASURED FROM
 DMF .                 KB:   DRILLING MEASURED FROM
 EKB .F              5316:   KELLING BUSHING
 EGL .F              5312:   GROUND LEVEL
 DATE.          3-22-1978:   RUN DATE
 RUN .                  1:   RUN NUMBER
 DD  .F              1280:   DEPTH DRILLER
 DL  .F              1292:   DEPTH LOGGER
 BLI .F              1286:   BOTTOM LOG INTERVAL
 TLI .F                50:   TOP LOG INTERVAL
 CS  .IN            8.625:   CASING SIZE
 CBD .F                50:   CASING BOTTOM DRILLER
 CBL .F                50:   CASING BOTTOM LOGGER
 BS  .IN            7.875:   BIT SIZE
 BSD .F              1280:   BIT SIZE AT DEPTH
 DFT .                KCL:   DRILLING FLUID TYPE
 DFD .                8.6:   DRILLING FLUID DENSITY
 DFV .                 31:   DRILLING FLUID VISCOSITY
 DFPH.               10.5:   DRILLING FLUID PH
 DFL .               11.6:   DRILLING FLUID LOSS
 MSS .            MUD PIT:   MUD SAMPLE SOURCE
 RMS .OHMM            .38:   RESISTIVITY MUD SAMPLE
 MST .F                52:   MUD SAMPLE TEMPERATURE
 RMF .OHMM            .32:   RESISTIVITY MUD FILTRATE SAMPLE
 MFST.F                66:   MUD FILTRATE SAMPLE TEMPERATURE
 RMC .OHMM             .4:   RESISTIVITY MUD CAKE
 MCST.F                68:   MUD CAKE SAMPLE TEMPERATURE
 MFSS.           MEASURED:   MUD FILTRATE SAMPLE SOURCE
 RMB .OHMM            .24:   RESISTIVITY MUD AT BHT
 BHT .F                82:   BOTTOM HOLE TEMPERATURE
 TCS .HRS               4:   TIME CURCULATED STOPPED
 MRT .F                82:   MAXIMUM RECORDED TEMPERATURE
 LUN .               2958:   LOGGING UNIT NUMBER
 LUL .               CASP:   LOGGING UNIT LOCATION
 ENGI.            POINTER:   RECORDING ENGINEER
 WITN.           MCGINLEY:   WITNESSED BY
 CLNT.            A2DTECH:   CLIENT CODE
 ORIG.        2" 5" PRINT:   ORIGIN OF DATA
 UWI .       490251060300:   UNIQUE WELL ID
 DICO. A2D Technologies, Inc.:   DIGITIZING COMPANY
~OTHER INFORMATION
~A   DEPT      SPR         SN        ILD       CALD         GRD      CORR       RHOB       DPHI   
# ...
  546.0000   -51.5885     5.4008     5.0442     8.2376    92.6300     0.0103     2.4046     0.1345
  546.5000   -51.8978     5.4069     5.0196     8.2376    93.4795     0.0058     2.4041     0.1345
  547.0000   -51.8505     5.4179     4.9950     8.2376    94.4238     0.0021     2.4031     0.1353
  547.5000   -51.8129     5.4287     4.9706     8.2376    96.0040     0.0036     2.3997     0.1376
  548.0000   -51.7772     5.4397     4.9463     8.2376    97.0402     0.0051     2.3971     0.1371
  548.5000   -51.7403     5.4507     4.9252     8.2376    97.1981     0.0068     2.4001     0.1342
  549.0000   -51.6965     5.4617     4.9653     8.2376    94.3398     0.0095     2.4039     0.1314
  549.5000   -51.9467     5.4727     5.0091     8.2376    91.8046     0.0121     2.4127     0.1293
  550.0000   -52.2986     5.4838     5.0533     8.2376    89.9963     0.0131     2.4138     0.1269
  550.5000   -52.6459     5.4948     5.0979     8.2376    87.3310     0.0100     2.4161     0.1257
  551.0000   -52.4408     5.5059     5.1429     8.2376    86.7951     0.0114     2.4183     0.1255
  551.5000   -52.1599     5.5170     5.1619     8.2376    88.6036     0.0130     2.4172     0.1253
  552.0000   -51.8780     5.5282     5.1678     8.2376    94.8049     0.0140     2.4159     0.1233
  552.5000   -51.5945     5.5393     5.1737     8.2376    93.4402     0.0140     2.4201     0.1228
  553.0000   -51.4503     5.5506     5.1798     8.2376    90.2048     0.0140     2.4234     0.1243
  553.5000   -51.3790     5.5553     5.1858     8.2376    89.0991     0.0140     2.4212     0.1261
  554.0000   -51.3086     5.5621     5.1919     8.2376    92.1070     0.0162     2.4173     0.1281
  554.5000   -51.2383     5.5690     5.1979     8.2376    95.7572     0.0184     2.4141     0.1261
  555.0000   -51.1674     5.5759     5.2058     8.2376    92.8121     0.0188     2.4174     0.1257
  555.5000   -51.0989     5.5828     5.1788     8.2376    91.1897     0.0147     2.4194     0.1277
  556.0000   -51.1425     5.5899     5.1347     8.2376    90.5316     0.0116     2.4165     0.1304
  556.5000   -51.1923     5.5967     5.0909     8.2376    92.4449     0.0107     2.4084     0.1348
  557.0000   -51.2416     5.6034     5.0476     8.2376    96.1417     0.0112     2.4006     0.1389
  557.5000   -51.2908     5.4893     5.0046     8.2376    98.0631     0.0163     2.3928     0.1419
  558.0000   -51.3400     5.3730     4.9619     8.2376    96.7620     0.0212     2.3914     0.1428
  558.5000   -51.3893     5.2590     4.9239     8.2376    95.7549     0.0220     2.3910     0.1426
  559.0000   -51.4391     5.1984     4.9146     8.2376    92.0934     0.0250     2.3900     0.1425
  559.5000   -51.4874     5.1391     4.9053     8.2376    88.2223     0.0325     2.3868     0.1445
  560.0000   -51.3706     5.0808     4.8959     8.2376    84.4752     0.0397     2.3857     0.1444
  560.5000   -51.2274     5.0232     4.8866     8.2376    85.0725     0.0408     2.3904     0.1421
  561.0000   -51.1217     4.9662     4.8486     8.2376    87.3790     0.0417     2.3868     0.1449
  561.5000   -51.7432     4.9252     4.7392     8.2376    98.4396     0.0426     2.3819     0.1564
  562.0000   -52.6910     4.6639     4.5725     8.2376   103.5795     0.0434     2.3714     0.1696
  562.5000   -53.3721     4.3802     4.2538     8.2376   103.5899     0.0382     2.3429     0.1879
  563.0000   -53.6002     4.1138     3.9605     8.2376   107.4852     0.0270     2.3142     0.2035
  563.5000   -53.8181     3.7706     3.5991     8.2376   110.0503     0.0152     2.2857     0.2176
  564.0000   -54.0825     3.4081     3.2544     8.2376   110.6022     0.0178     2.2677     0.2236
  564.5000   -53.9707     3.0806     2.9430     8.2376   104.7326     0.0265     2.2516     0.2205
  565.0000   -53.2377     2.9390     2.7300     8.2376    95.8481     0.0157     2.2637     0.2137
  565.5000   -52.9446     2.7300     2.6555     8.2376    91.4521     0.0000     2.2909     0.2069
  566.0000   -52.9506     2.8027     2.6312     8.2376    97.1274    -0.0074     2.2894     0.1938
  566.5000   -52.4919     3.0013     2.8095     8.2376   101.6067     0.0149     2.2918     0.1710
  567.0000   -52.4882     3.2221     3.0040     8.2376   101.3770     0.0302     2.3367     0.1469
  567.5000   -52.4926     3.5356     3.2228     8.2376    98.3002     0.0275     2.3853     0.1309
  568.0000   -52.7649     3.8946     3.4476     8.2376    90.9319     0.0254     2.3965     0.1372
  568.5000   -53.3447     4.2899     3.7139     8.2376    84.3895     0.0247     2.3968     0.1382
  569.0000   -53.8424     4.6142     4.0913     8.2376    85.0135     0.0274     2.3980     0.1362
  569.5000   -53.1122     4.8573     4.5064     8.2376    87.4078     0.0300     2.4004     0.1324
  570.0000   -53.0899     5.1131     5.0133     8.2376    89.7960     0.0319     2.4057     0.1287
  570.5000   -52.5476     5.3022     5.1301     8.2376    90.5136     0.0313     2.4142     0.1262
  571.0000   -51.7164     5.4486     5.2643     8.2376    90.6033     0.0307     2.4187     0.1239
  571.5000   -51.6865     5.5840     5.3995     8.2376    90.6803     0.0302     2.4222     0.1216
  572.0000   -51.6117     5.7238     5.5013     8.2376    92.3760     0.0297     2.4257     0.1194
  572.5000   -51.3962     5.8680     5.5996     8.2376    96.5376     0.0291     2.4295     0.1174
  573.0000   -51.6321     5.9773     5.7060     8.2376    97.5819     0.0286     2.4337     0.1154
  573.5000   -52.6280     6.1140     5.8127     8.2376    99.7062     0.0280     2.4346     0.1154
  574.0000   -53.6140     6.2124     5.9219     8.2376   101.2690     0.0275     2.4346     0.1167
  574.5000   -54.5425     6.3125     6.0321     8.2376    98.2975     0.0270     2.4346     0.1172
  575.0000   -54.3034     6.4356     6.2018     8.2376    96.2112     0.0264     2.4346     0.1152
  575.5000   -52.9389     6.4344     6.1556     8.2376    95.9583     0.0261     2.4355     0.1153
  576.0000   -52.0556     6.4344     6.0789     8.2376    95.6068     0.0290     2.4365     0.1186
  576.5000   -51.5617     6.3538     6.0031     8.2378    92.0701     0.0318     2.4338     0.1165
  577.0000   -51.1014     6.2511     5.9282     8.2380    90.3867     0.0333     2.4319     0.1160
  577.5000   -51.1417     6.1500     5.8542     8.2382    90.1001     0.0302     2.4334     0.1201
  578.0000   -51.2011     6.0506     5.7812     8.2384    90.1095     0.0271     2.4321     0.1248
  578.5000   -51.2689     5.9529     5.7091     8.2386    90.2709     0.0269     2.4186     0.1298
  579.0000   -51.4535     5.8462     5.6379     8.2387    91.9449     0.0285     2.4086     0.1329
  579.5000   -51.4168     5.6679     5.5332     8.2389    96.4757     0.0300     2.4054     0.1325
  580.0000   -51.3313     5.4951     5.3641     8.2391   103.1907     0.0316     2.4036     0.1357
  580.5000   -51.2471     5.3276     5.2002     8.2393   104.2545     0.0332     2.4017     0.1385
  581.0000   -51.1657     5.1651     5.0413     8.2395   103.6937     0.0326     2.3962     0.1438
  581.5000   -51.1180     5.0074     4.8873     8.2397   102.8734     0.0293     2.3912     0.1489
  582.0000   -51.2724     4.7628     4.7469     8.2399   101.5816     0.0141     2.3796     0.1617
  582.5000   -51.4283     4.4306     4.2720     8.2400    99.2578     0.0086     2.3674     0.1552
  583.0000   -51.5920     4.1338     4.1497     8.2402    96.5764     0.0141     2.3577     0.1412
  583.5000   -51.8569     4.0958     4.0582     8.2404    88.0020     0.0135     2.3671     0.1298
  584.0000   -52.0024     4.0958     4.0579     8.2406    86.2209     0.0098     2.4187     0.1278
  584.5000   -52.1187     4.2738     4.1213     8.2408    86.6088     0.0060     2.4132     0.1297
  585.0000   -52.6706     4.5051     4.2786     8.2410    88.1418     0.0077     2.4099     0.1317
  585.5000   -53.0976     4.7484     4.4606     8.2411    89.3165     0.0099     2.4087     0.1337
  586.0000   -53.1972     5.1102     4.7335     8.2413    88.9253     0.0121     2.4067     0.1332
