~VERSION INFORMATION
 VERS.                2.0:   CWLS LOG ASCII STANDARD - VERSION 2.0
 WRAP.                 NO:   ONE LINE PER DEPTH STEP
~WELL INFORMATION
#MNEM.UNIT      DATA TYPE    INFORMATION
#----------   ------------   ------------------------------
 STRT.F           34.0000:   START DEPTH
 STOP.F         1014.5000:   STOP DEPTH
 STEP.F            0.5000:   STEP LENGTH
 NULL.          -999.2500:   NO VALUE
 COMP. FENIX & SCISSON INC:   COMPANY
 WELL.       NPR-3 #54-14:   WELL
 FLD .             TEAPOT:   FIELD
 LOC .      S14 T38N R78W:   LOCATION
 CNTY.            NATRONA:   COUNTY
 STAT.            WYOMING:   STATE
 CTRY. UNITED STATES OF AMERICA:   COUNTRY
 SRVC.            Unknown:   SERVICE COMPANY
 DATE.        20-APR-1978:   LOGDATE
 API .       490251062100:   API NUMBER
~CURVE INFORMATION
#MNEM.UNIT       API CODE    CURVE DESCRIPTION
#----------   ------------   ------------------------------
 DEPT.F                  :   
 SPR .MV     05 010 01 00:   SPONTANEOUS POTENTIAL FROM RES.
 SN  .OHMM   05 040 16 00:   SHORT NORMAL 16"
 ILD .OHMM   05 120 46 00:   INDUCTION LOG DEEP
 CALD.IN     45 280 60 00:   CALIPER
 GRD .GAPI   45 310 01 00:   GAMMA RAY FROM DENSITY LOG
 RHOB.G/C3   45 350 01 00:   BULK DENSITY
 DPOR.DEC    45 890 12 00:   DENSITY POROSITY SANDSTONE
 CORR.G/C3   45 356 01 00:   DENSITY CORRECTION
~PARAMETER INFORMATION
#MNEM.UNIT          VALUE    DESCRIPTION
#----------   ------------   ------------------------------
 PD  .                 GL:   PERMANENT DATUM
 EPD .F              5268:   ELEVATION PERMANENT DATUM
 LMF .                 KB:   LOG MEASURED FROM
 DAPD.F                 4:   FEET ABOVE PERMANENT DATUM
 DMF .                 KB:   DRILLING MEASURED FROM
 EKB .F              5272:   KELLING BUSHING
 EGL .F              5268:   GROUND LEVEL
 DATE.          4-20-1978:   RUN DATE
 RUN .                  1:   RUN NUMBER
 DD  .F              1030:   DEPTH DRILLER
 DL  .F              1021:   DEPTH LOGGER
 BLI .F              1014:   BOTTOM LOG INTERVAL
 TLI .F                50:   TOP LOG INTERVAL
 CS  .IN            8.625:   CASING SIZE
 CBD .F                40:   CASING BOTTOM DRILLER
 BS  .IN            7.875:   BIT SIZE
 BSD .F              1030:   BIT SIZE AT DEPTH
 DFT .                KCL:   DRILLING FLUID TYPE
 DFD .                8.6:   DRILLING FLUID DENSITY
 DFV .                 33:   DRILLING FLUID VISCOSITY
 DFPH.                 10:   DRILLING FLUID PH
 DFL .                  8:   DRILLING FLUID LOSS
 MSS .          FLOW LINE:   MUD SAMPLE SOURCE
 RMS .OHMM            .34:   RESISTIVITY MUD SAMPLE
 MST .F                64:   MUD SAMPLE TEMPERATURE
 RMF .OHMM            .36:   RESISTIVITY MUD FILTRATE SAMPLE
 MFST.F                60:   MUD FILTRATE SAMPLE TEMPERATURE
 RMC .OHMM            .48:   RESISTIVITY MUD CAKE
 MCST.F                68:   MUD CAKE SAMPLE TEMPERATURE
 MFSS.               MEAS:   MUD FILTRATE SAMPLE SOURCE
 MCSS.               MEAS:   MUD CAKE SAMPLE SOURCE
 RMB .OHMM            .29:   RESISTIVITY MUD AT BHT
 BHT .F                74:   BOTTOM HOLE TEMPERATURE
 TCS .HRS               6:   TIME CURCULATED STOPPED
 MRT .F                74:   MAXIMUM RECORDED TEMPERATURE
 LUN .               2958:   LOGGING UNIT NUMBER
 LUL .               CASP:   LOGGING UNIT LOCATION
 ENGI.             MILLER:   RECORDING ENGINEER
 WITN.           MCGINELY:   WITNESSED BY
 CLNT.            A2DTECH:   CLIENT CODE
 ORIG.       2", 5" PRINT:   ORIGIN OF DATA
 UWI .       490251062100:   UNIQUE WELL ID
 DICO. A2D Technologies, Inc.:   DIGITIZING COMPANY
~OTHER INFORMATION
~A   DEPT      SPR         SN        ILD       CALD         GRD      RHOB       DPOR       CORR   
   34.0000  -999.2500  -999.2500  -999.2500  -999.2500    79.9466  -999.2500  -999.2500  -999.2500
   34.5000  -999.2500  -999.2500  -999.2500  -999.2500    87.2517  -999.2500  -999.2500  -999.2500
   35.0000  -999.2500  -999.2500  -999.2500  -999.2500    87.6490  -999.2500  -999.2500  -999.2500
   35.5000  -999.2500  -999.2500  -999.2500  -999.2500    83.5203  -999.2500  -999.2500  -999.2500
   36.0000  -999.2500  -999.2500  -999.2500  -999.2500    74.5007  -999.2500  -999.2500  -999.2500
   36.5000  -999.2500  -999.2500  -999.2500  -999.2500    72.4244  -999.2500  -999.2500  -999.2500
   37.0000  -999.2500  -999.2500  -999.2500  -999.2500    77.3303  -999.2500  -999.2500  -999.2500
   37.5000  -999.2500  -999.2500  -999.2500  -999.2500    72.4309  -999.2500  -999.2500  -999.2500
   38.0000  -999.2500  -999.2500  -999.2500  -999.2500    69.4129  -999.2500  -999.2500  -999.2500
   38.5000  -999.2500  -999.2500  -999.2500  -999.2500    75.0752  -999.2500  -999.2500  -999.2500
   39.0000  -999.2500  -999.2500  -999.2500  -999.2500    70.6808  -999.2500  -999.2500  -999.2500
   39.5000  -999.2500  -999.2500  -999.2500  -999.2500    68.1839  -999.2500  -999.2500  -999.2500
   40.0000  -999.2500  -999.2500  -999.2500  -999.2500    74.5191  -999.2500  -999.2500  -999.2500
   40.5000  -999.2500  -999.2500  -999.2500  -999.2500    79.9414  -999.2500  -999.2500  -999.2500
   41.0000  -999.2500  -999.2500  -999.2500  -999.2500    72.6846  -999.2500  -999.2500  -999.2500
   41.5000  -999.2500  -999.2500  -999.2500  -999.2500    73.8571  -999.2500  -999.2500  -999.2500
   42.0000  -999.2500  -999.2500  -999.2500  -999.2500    75.4609  -999.2500  -999.2500  -999.2500
   42.5000  -999.2500  -999.2500  -999.2500  -999.2500    76.1695  -999.2500  -999.2500  -999.2500
   43.0000  -999.2500  -999.2500  -999.2500  -999.2500    76.7150  -999.2500  -999.2500  -999.2500
   43.5000  -999.2500  -999.2500  -999.2500  -999.2500    75.4421  -999.2500  -999.2500  -999.2500
   44.0000  -999.2500  -999.2500  -999.2500  -999.2500    73.3049  -999.2500  -999.2500  -999.2500
   44.5000  -999.2500  -999.2500  -999.2500     7.2761    71.0013  -999.2500  -999.2500  -999.2500
   45.0000  -999.2500  -999.2500  -999.2500     7.1285    67.9210  -999.2500  -999.2500  -999.2500
   45.5000  -999.2500  -999.2500  -999.2500     7.1070    65.0216  -999.2500  -999.2500  -999.2500
   46.0000  -999.2500  -999.2500  -999.2500     7.0792    64.8462  -999.2500  -999.2500  -999.2500
   46.5000  -999.2500  -999.2500  -999.2500     7.2421    72.4708  -999.2500  -999.2500  -999.2500
   47.0000  -999.2500  -999.2500  -999.2500     7.4248    81.0040  -999.2500  -999.2500  -999.2500
   47.5000  -999.2500  -999.2500  -999.2500     7.5859    88.0706  -999.2500  -999.2500    -0.0018
   48.0000  -999.2500  -999.2500  -999.2500     7.5960    86.9150  -999.2500  -999.2500     0.0311
   48.5000  -999.2500  -999.2500  -999.2500     7.6095    87.1230     2.3669     0.1771     0.0494
   49.0000  -999.2500  -999.2500  -999.2500     7.6233    88.6017     2.4081     0.1627     0.0640
   49.5000  -999.2500  -999.2500  -999.2500     7.6365    89.2700     2.4020     0.1574     0.0755
   50.0000   -27.4578  -999.2500  -999.2500     7.6444    92.6626     2.4360     0.1542     0.0251
   50.5000   -28.3461  -999.2500  -999.2500     7.7494    97.4384     2.3903     0.1505     0.0223
   51.0000   -29.2345     9.8678  -999.2500     7.8516    94.9044     2.4163     0.1496     0.0247
   51.5000   -29.9570     9.9295  -999.2500     7.9530    91.3260     2.4094     0.1522     0.0268
   52.0000   -30.5436     9.9689     5.6724     8.0543    94.0576     2.4045     0.1472     0.0287
   52.5000   -30.8785     9.9621     5.5639     8.1565    96.0695     2.4346     0.1400     0.0443
   53.0000   -31.0581     9.9995     5.5981     8.2037    94.1884     2.4308     0.1304     0.0639
   53.5000   -31.2345    10.0335     5.6325     8.2005    90.9582     2.4531     0.1370     0.0413
   54.0000   -31.4109    10.0676     5.6724     8.1252    89.1470     2.4312     0.1473     0.0158
   54.5000   -31.5876    10.1019     5.6689     8.0508    87.2387     2.4125     0.1551     0.0194
   55.0000   -31.7642    10.1362     5.6647     7.9172    83.7217     2.4073     0.1553     0.0334
   55.5000   -31.9408    10.1707     5.6606     7.7867    83.0338     2.4109     0.1549     0.0471
   56.0000   -32.1175    10.2053     5.6564     7.6568    84.2106     2.4100     0.1561     0.0534
   56.5000   -32.2937    10.2400     5.6523     7.5271    83.9276     2.4033     0.1584     0.0593
   57.0000   -32.5411    10.2748     5.6481     7.4060    82.4047     2.3966     0.1608     0.0654
   57.5000   -32.8413    10.3098     5.6440     7.3439    80.0192     2.3903     0.1663     0.0715
   58.0000   -33.1414    10.3448     5.6398     7.3784    77.6373     2.3791     0.1731     0.0738
   58.5000   -33.4417    10.3800     5.6357     7.4174    81.7050     2.3752     0.1687     0.0560
   59.0000   -33.7419    10.4153     5.6316     7.4571    87.3722     2.3824     0.1636     0.0341
   59.5000   -34.0420    10.4508     5.6276     7.4503    93.0993     2.3889     0.1584     0.0131
   60.0000   -34.3424    10.4863     5.6235     7.2314    96.6419     2.3939     0.1581     0.0092
   60.5000   -34.6448    10.5262     5.6221     7.0113    97.2023     2.3974     0.1592     0.0084
   61.0000   -34.9476    10.4657     5.4727     7.0220    97.6086     2.3981     0.1611     0.0076
   61.5000   -34.9725    10.3973     5.3599     7.1966   100.1500     2.3929     0.1636     0.0107
   62.0000   -34.9812    10.3294     5.2490     7.4045    97.5328     2.3842     0.1659     0.0180
   62.5000   -34.9915    10.2619     5.1400     7.6121    95.7420     2.3869     0.1646     0.0252
   63.0000   -35.0021    10.1949     5.0316     7.8192    96.2333     2.3909     0.1633     0.0325
   63.5000   -35.0127    10.1283     5.0688     7.9814    97.2138     2.3885     0.1627     0.0397
   64.0000   -35.0234    10.0625     5.1093     8.0573    94.8861     2.3892     0.1628     0.0470
   64.5000   -35.0340    10.0020     5.1495     8.1027    93.4010     2.3905     0.1630     0.0563
   65.0000   -35.0446     9.6058     5.1899     8.1482    94.3883     2.3866     0.1631     0.0688
   65.5000   -35.0553     8.8445     5.2302     8.1941    95.6280     2.3881     0.1627     0.0808
   66.0000   -35.0659     8.1410     5.2694     8.2182    95.6001     2.3908     0.1590     0.1139
   66.5000   -35.0765     7.5510     5.3809     8.0694    95.5979     2.3986     0.1551     0.1496
   67.0000   -35.0872     7.1938     5.4885     7.8738    95.6058     2.4063     0.1529     0.1479
   67.5000   -35.0978     6.8816     5.5977     7.6828    95.2500     2.4083     0.1566     0.1370
   68.0000   -35.1085     6.5830     5.7091     7.6194    94.4676     2.3966     0.1613     0.1048
   68.5000   -35.1191     6.3398     5.8226     7.6053    93.1646     2.3871     0.1651     0.0724
   69.0000   -35.1297     6.1384     5.9403     7.6142    91.8289     2.4077     0.1488     0.0403
   69.5000   -35.1404     5.9433     5.9403     7.6235    92.8911     2.4128     0.1552     0.0148
   70.0000   -35.1510     5.7876     5.8738     7.6326    94.1120     2.3954     0.1600     0.0135
   70.5000   -35.1617     5.6822     5.8188     7.6328    92.7642     2.3986     0.1603     0.0138
   71.0000   -35.1723     5.5787     5.7644     7.6113    91.4490     2.3951     0.1599     0.0142
   71.5000   -35.1829     5.4771     5.7105     7.5903    89.4538     2.3932     0.1576     0.0145
   72.0000   -35.1936     5.3774     5.6571     7.5691    89.6092     2.4002     0.1548     0.0148
   72.5000   -35.2042     5.3669     5.6203     7.5481    90.1609     2.4069     0.1519     0.0151
   73.0000   -35.2149     5.3878     5.6203     7.5172    90.0875     2.4138     0.1484     0.0154
   73.5000   -35.2255     5.4108     5.6203     7.4808    91.8823     2.4232     0.1426     0.0131
   74.0000   -35.2361     5.4340     5.5687     7.4737    95.2992     2.4418     0.1348     0.0093
