~VERSION INFORMATION
 VERS.                2.0:   CWLS LOG ASCII STANDARD - VERSION 2.0
 WRAP.                 NO:   ONE LINE PER DEPTH STEP
~WELL INFORMATION
#MNEM.UNIT      DATA TYPE    INFORMATION
#----------   ------------   ------------------------------
 STRT.F           26.0000:   START DEPTH
 STOP.F          535.5000:   STOP DEPTH
 STEP.F            0.5000:   STEP LENGTH
 NULL.          -999.2500:   NO VALUE
 COMP. BROWN JOHN E&C INC:   COMPANY
 WELL.       NPR 86 #11-3:   WELL
 FLD .             TEAPOT:   FIELD
 LOC .       S3 T38N R78W:   LOCATION
 CNTY.            NATRONA:   COUNTY
 STAT.            WYOMING:   STATE
 CTRY. UNITED STATES OF AMERICA:   COUNTRY
 SRVC.       Schlumberger:   SERVICE COMPANY
 DATE.        21-SEP-1990:   LOGDATE
 API .       490251130800:   API NUMBER
~CURVE INFORMATION
#MNEM.UNIT       API CODE    CURVE DESCRIPTION
#----------   ------------   ------------------------------
 DEPT.F                  :   
 ILD .OHMM   07 120 46 00:   INDUCTION LOG DEEP
 ILM .OHMM   07 120 44 00:   INDUCTION LOG MEDIUM
 GRD .GAPI   45 310 01 00:   GAMMA RAY FROM DENSITY LOG
 CALD.IN     45 280 60 00:   CALIPER
 DRHO.G/C3   45 356 01 00:   DENSITY CORRECTION
 DPHI.DEC    45 890 00 00:   DENSITY POROSITY
 RHOB.G/C3   45 350 01 00:   BULK DENSITY
~PARAMETER INFORMATION
#MNEM.UNIT          VALUE    DESCRIPTION
#----------   ------------   ------------------------------
 PD  .                 GL:   PERMANENT DATUM
 EPD .F              5144:   ELEVATION PERMANENT DATUM
 LMF .                 KB:   LOG MEASURED FROM
 DAPD.F                10:   FEET ABOVE PERMANENT DATUM
 DMF .                 KB:   DRILLING MEASURED FROM
 EKB .F              5154:   KELLING BUSHING
 EDF .F              5153:   DRILLING FLOOR
 EGL .F              5144:   GROUND LEVEL
 DATE.            9-21-90:   RUN DATE
 RUN .                  1:   RUN NUMBER
 DD  .F               540:   DEPTH DRILLER
 DL  .F               539:   DEPTH LOGGER
 BLI .F               533:   BOTTOM LOG INTERVAL
 TLI .F                49:   TOP LOG INTERVAL
 CS  .IN            8.625:   CASING SIZE
 CBD .F                50:   CASING BOTTOM DRILLER
 CBL .F                48:   CASING BOTTOM LOGGER
 BS  .IN            7.875:   BIT SIZE
 BSD .F               540:   BIT SIZE AT DEPTH
 DFT .                AIR:   DRILLING FLUID TYPE
 TCS .HRS            0315:   TIME CURCULATED STOPPED
 TLAB.HRS            0409:   TIME LOGGER AT BOTTOM
 LUN .               5882:   LOGGING UNIT NUMBER
 LUL .               CODY:   LOGGING UNIT LOCATION
 ENGI.          M. FISHER:   RECORDING ENGINEER
 WITN.          G. STRONG:   WITNESSED BY
 CLNT.            A2DTECH:   CLIENT CODE
 ORIG.   2" 2.5" 5" PRINT:   ORIGIN OF DATA
 UWI .       490251130800:   UNIQUE WELL ID
 DICO. A2D Technologies, Inc.:   DIGITIZING COMPANY
~OTHER INFORMATION
~A   DEPT      ILD        ILM         GRD      CALD       DRHO       DPHI       RHOB   
# ...
  253.5000     9.0650     9.1055   128.6952     7.9661    -0.0080     0.0988     2.4893
  254.0000     8.9620     8.9643   129.9327     7.9661    -0.0080     0.0974     2.4904
  254.5000     8.8603     8.8665   127.5507     7.9661    -0.0063     0.0995     2.4872
  255.0000     8.7597     8.7729   124.8828     7.9661    -0.0046     0.1018     2.4835
  255.5000     8.6606     8.4846   124.7006     7.9661    -0.0028     0.1038     2.4797
  256.0000     8.5616     8.2177   126.1956     7.9661    -0.0020     0.1036     2.4795
  256.5000     8.3624     8.1231   128.1968     7.9661    -0.0019     0.1024     2.4810
  257.0000     8.1293     8.0862   130.2216     7.9661    -0.0009     0.1018     2.4824
  257.5000     7.9027     8.0516   132.1746     7.9661    -0.0001     0.1046     2.4796
  258.0000     7.6824     8.0136   130.3680     7.9661     0.0006     0.1078     2.4727
  258.5000     7.3969     7.4053   128.1491     7.9661     0.0010     0.1146     2.4578
  259.0000     7.1042     6.9103   127.1941     7.9660     0.0010     0.1219     2.4418
  259.5000     6.8344     6.5407   129.0294     7.9658     0.0010     0.1292     2.4149
  260.0000     5.8605     5.9691   131.0789     7.9667     0.0013     0.1369     2.3840
  260.5000     5.0562     5.2117   129.2189     8.0057     0.0033     0.1501     2.3379
  261.0000     4.3622     4.5504   126.4833     8.0481     0.0053     0.1649     2.2790
  261.5000     3.7635     3.9730   123.6644     8.0905     0.0075     0.1817     2.2249
  262.0000     3.2470     3.4688   120.8291     8.1329     0.0104     0.1985     2.1616
  262.5000     2.8629     2.9867   118.6007     8.1775     0.0130     0.2160     2.0855
  263.0000     2.8629     2.6098   116.8213     8.1377     0.0133     0.2200     2.0656
  263.5000     2.8695     2.6341   116.8019     8.0744     0.0153     0.2047     2.1113
  264.0000     2.9058     2.6888   119.5997     8.0106     0.0173     0.1809     2.2032
  264.5000     2.9425     2.8318   125.0313     7.9475     0.0183     0.1561     2.3273
  265.0000     3.0264     3.0927   131.1721     7.9029     0.0132     0.1425     2.3932
  265.5000     3.3952     3.5426   136.4601     7.8958     0.0083     0.1278     2.4188
  266.0000     3.8856     4.0579   136.0309     7.8880     0.0046     0.1170     2.4464
  266.5000     4.4469     4.5902   135.1596     7.8803     0.0030     0.1073     2.4737
  267.0000     5.0893     5.1229   135.6252     7.8726     0.0036     0.1047     2.4776
  267.5000     5.7106     5.6646   138.8833     7.8674     0.0054     0.1020     2.4818
  268.0000     6.1494     6.2456   142.1165     7.8756     0.0072     0.0994     2.4861
  268.5000     6.6220     6.7710   145.3569     7.8836     0.0080     0.0968     2.4904
  269.0000     6.8863     6.9446   146.1026     7.8917     0.0076     0.0941     2.4947
  269.5000     6.9694     7.0092   142.4774     7.8996     0.0048     0.0915     2.4990
  270.0000     7.0561     7.0722   138.8522     7.9033     0.0021     0.0898     2.5026
  270.5000     7.1573     7.1581   135.5985     7.8847     0.0014     0.0913     2.4996
  271.0000     7.0280     7.0991   137.3419     7.8671     0.0022     0.0939     2.4945
  271.5000     6.8766     7.0085   139.2413     7.8737     0.0030     0.0992     2.4872
  272.0000     6.7714     6.8620   141.1385     7.8815     0.0018     0.1077     2.4711
  272.5000     6.4567     6.5242   142.5341     7.8892    -0.0002     0.1221     2.4395
  273.0000     6.1932     6.2030   143.8291     7.8969    -0.0022     0.1365     2.3997
  273.5000     5.9403     5.8975   145.0566     7.9046    -0.0042     0.1429     2.3631
  274.0000     5.6978     5.6074   143.9385     7.9124    -0.0050     0.1429     2.3589
  274.5000     5.4652     5.3297   140.2863     7.9200    -0.0050     0.1373     2.3803
  275.0000     5.3195     5.2092   135.5042     7.9222    -0.0050     0.1334     2.3956
  275.5000     5.2307     5.1281   130.6534     7.8986    -0.0059     0.1306     2.4074
  276.0000     5.1295     5.0354   128.3661     7.8752    -0.0068     0.1278     2.4196
  276.5000     5.2530     5.1963   129.5958     7.8664    -0.0077     0.1249     2.4319
  277.0000     5.4511     5.3790   132.7616     7.8663    -0.0087     0.1211     2.4443
  277.5000     5.6567     5.5681   135.9108     7.8663    -0.0080     0.1173     2.4571
  278.0000     5.9284     5.8291   139.0461     7.8663    -0.0063     0.1101     2.4693
  278.5000     6.2257     6.1325   141.5534     7.8663    -0.0050     0.1021     2.4817
  279.0000     6.5379     6.4508   140.0202     7.8663    -0.0054     0.0953     2.4917
  279.5000     6.8657     6.7792   136.3055     7.8663    -0.0063     0.0927     2.4997
  280.0000     7.2111     7.1258   132.7863     7.8663    -0.0073     0.0917     2.4982
  280.5000     7.5137     7.4885   131.9923     7.8663    -0.0082     0.0967     2.4910
  281.0000     7.7394     7.7481   133.3144     7.8663    -0.0092     0.1011     2.4840
  281.5000     7.9700     7.9316   132.9093     7.8663    -0.0098     0.1035     2.4780
  282.0000     8.1486     8.1207   132.3284     7.8663    -0.0085     0.1050     2.4765
  282.5000     8.0983     8.2243   132.7411     7.8663    -0.0074     0.1050     2.4765
  283.0000     8.0582     8.1118   134.8005     7.8663    -0.0062     0.1050     2.4766
  283.5000     8.0183     8.0357   136.6803     7.8663    -0.0060     0.1054     2.4765
  284.0000     7.9258     7.9604   136.7201     7.8663    -0.0044     0.1073     2.4748
  284.5000     7.7856     7.8266   136.8287     7.8663    -0.0025     0.1091     2.4710
  285.0000     7.6476     7.6446   139.3617     7.8663    -0.0010     0.1102     2.4695
  285.5000     7.5123     7.4664   141.9360     7.8663    -0.0017     0.1096     2.4698
  286.0000     7.3790     7.2926   144.4998     7.8663    -0.0034     0.1083     2.4723
  286.5000     7.2483     7.1286   145.8289     7.8663    -0.0050     0.1070     2.4736
  287.0000     6.8956     6.9900   143.4524     7.8663    -0.0049     0.1092     2.4716
  287.5000     6.5134     6.8513   140.5121     7.8663    -0.0024     0.1164     2.4604
  288.0000     6.1522     6.5283   137.6207     7.8663     0.0010     0.1246     2.4276
  288.5000     5.8392     6.0783   134.7675     7.8663     0.0030     0.1362     2.3872
  289.0000     5.5484     5.6646   133.0000     7.8663     0.0050     0.1469     2.3427
  289.5000     5.3725     5.2739   131.4427     7.8663     0.0071     0.1449     2.3555
  290.0000     5.3230     5.0354   131.0348     7.8663     0.0089     0.1290     2.4138
  290.5000     5.3230     5.1729   135.1532     7.8663     0.0079     0.1139     2.4620
  291.0000     5.5960     5.4395   139.4823     7.8663     0.0059     0.0998     2.4820
  291.5000     5.8975     5.7198   140.4584     7.8663     0.0030     0.0958     2.4925
  292.0000     6.2147     6.0272   141.3132     7.8663     0.0009     0.0980     2.4872
  292.5000     6.5488     6.3708   142.1765     7.8663    -0.0010     0.1035     2.4791
  293.0000     6.9008     6.7339   143.0415     7.8663    -0.0020     0.1086     2.4714
  293.5000     7.2716     7.0922   143.9000     7.8663    -0.0020     0.1086     2.4729
  294.0000     7.6625     7.3773   144.7854     7.8663    -0.0020     0.1033     2.4790
  294.5000     7.7802     7.6556   146.5486     7.8663    -0.0029     0.0998     2.4848
  295.0000     7.8621     7.8524   148.2571     7.8663    -0.0039     0.0998     2.4855
  295.5000     7.9448     7.8825   149.5748     7.8663    -0.0050     0.0998     2.4856
  296.0000     8.0106     7.9138   146.7176     7.8663    -0.0060     0.0989     2.4876
  296.5000     8.0865     7.9455   142.7990     7.8663    -0.0070     0.0958     2.4920
  297.0000     8.1630     7.9777   139.7918     7.8663    -0.0070     0.0928     2.4964
  297.5000     8.2243     8.0100   143.9058     7.8663    -0.0070     0.0918     2.4997
  298.0000     8.1486     8.0424   147.6916     7.8663    -0.0080     0.0937     2.4945
  298.5000     8.1486     8.0735   149.6719     7.8663    -0.0088     0.0963     2.4889
