~VERSION INFORMATION
 VERS.                2.0:   CWLS LOG ASCII STANDARD - VERSION 2.0
 WRAP.                 NO:   ONE LINE PER DEPTH STEP
~WELL INFORMATION
#MNEM.UNIT      DATA TYPE    INFORMATION
#----------   ------------   ------------------------------
 STRT.F           36.0000:   START DEPTH
 STOP.F          518.0000:   STOP DEPTH
 STEP.F            0.5000:   STEP LENGTH
 NULL.          -999.2500:   NO VALUE
 COMP.    FENIX & SCISSON:   COMPANY
 WELL.        NPR #57S-10:   WELL
 FLD .             TEAPOT:   FIELD
 LOC .      S10 T38N R78W:   LOCATION
 CNTY.            NATRONA:   COUNTY
 STAT.            WYOMING:   STATE
 CTRY. UNITED STATES OF AMERICA:   COUNTRY
 SRVC.              Welex:   SERVICE COMPANY
 DATE.        11-MAR-1977:   LOGDATE
 API .       490251029100:   API NUMBER
~CURVE INFORMATION
#MNEM.UNIT       API CODE    CURVE DESCRIPTION
#----------   ------------   ------------------------------
 DEPT.F                  :   
 SPR .MV     07 010 01 00:   SPONTANEOUS POTENTIAL
 ILD .OHMM   07 120 46 00:   INDUCTION LOG DEEP
 ILM .OHMM   07 120 44 00:   INDUCTION LOG MEDIUM
 SGUR.OHMM   07 220 01 00:   SHORT GUARD RESISITIVITY
 CORR.G/C3   45 356 01 00:   DENSITY CORRECTION
 CALD.IN     45 280 60 00:   CALIPER
 GRD .GAPI   45 310 01 00:   GAMMA RAY FROM DENSITY LOG
 RHOB.G/C3   45 350 01 00:   BULK DENSITY
 DPOR.DEC    45 890 12 00:   DENSITY POROSITY SANDSTONE
~PARAMETER INFORMATION
#MNEM.UNIT          VALUE    DESCRIPTION
#----------   ------------   ------------------------------
 PD  .                 GL:   PERMANENT DATUM
 EPD .F              5244:   ELEVATION PERMANENT DATUM
 LMF .                 GL:   LOG MEASURED FROM
 DMF .                 GL:   DRILLING MEASURED FROM
 EGL .F              5244:   GROUND LEVEL
 DATE.          3-11-1977:   RUN DATE
 RUN .                  1:   RUN NUMBER
 DD  .F               530:   DEPTH DRILLER
 DL  .F               522:   DEPTH LOGGER
 BLI .F               520:   BOTTOM LOG INTERVAL
 TLI .F                35:   TOP LOG INTERVAL
 CS  .IN            8.625:   CASING SIZE
 CBD .F                40:   CASING BOTTOM DRILLER
 CBL .F                44:   CASING BOTTOM LOGGER
 BS  .IN            7.875:   BIT SIZE
 BSD .F               530:   BIT SIZE AT DEPTH
 DFT .            KCL MUD:   DRILLING FLUID TYPE
 DFD .                8.8:   DRILLING FLUID DENSITY
 DFV .                  8:   DRILLING FLUID VISCOSITY
 DFPH.                 10:   DRILLING FLUID PH
 DFL .               12.4:   DRILLING FLUID LOSS
 MSS .           FLOWLINE:   MUD SAMPLE SOURCE
 RMS .OHMM           .398:   RESISTIVITY MUD SAMPLE
 MST .F                50:   MUD SAMPLE TEMPERATURE
 RMF .OHMM           .276:   RESISTIVITY MUD FILTRATE SAMPLE
 MFST.F                60:   MUD FILTRATE SAMPLE TEMPERATURE
 RMC .OHMM            .42:   RESISTIVITY MUD CAKE
 MCST.F                60:   MUD CAKE SAMPLE TEMPERATURE
 MFSS.           MEASURED:   MUD FILTRATE SAMPLE SOURCE
 RMB .OHMM            .31:   RESISTIVITY MUD AT BHT
 BHT .F                64:   BOTTOM HOLE TEMPERATURE
 TCS .HRS             2.5:   TIME CURCULATED STOPPED
 MRT .F                64:   MAXIMUM RECORDED TEMPERATURE
 LUN .               8611:   LOGGING UNIT NUMBER
 LUL .           GILLETTE:   LOGGING UNIT LOCATION
 ENGI.               DOAK:   RECORDING ENGINEER
 WITN.         STUEBINGER:   WITNESSED BY
 CLNT.            A2DTECH:   CLIENT CODE
 ORIG.      2" & 5" PRINT:   ORIGIN OF DATA
 UWI .       490251029100:   UNIQUE WELL ID
 DICO. A2D Technologies, Inc.:   DIGITIZING COMPANY
~OTHER INFORMATION
~A   DEPT      SPR        ILD        ILM       SGUR        CORR        CALD      GRD       RHOB       DPOR   
# ...
  401.0000   -37.6008    18.9322    23.5427    29.1429     0.0466     7.8849    94.5290     2.4075     0.1420
  401.5000   -37.7153    18.6141    24.4874    28.5851     0.0498     7.8612    95.0652     2.4017     0.1451
  402.0000   -37.8312    18.4105    24.7192    27.6765     0.0491     7.8367    94.3763     2.3958     0.1482
  402.5000   -37.9474    19.1201    24.9676    26.7843     0.0481     7.8123    92.5455     2.3908     0.1512
  403.0000   -38.0658    19.4555    25.1727    26.1254     0.0471     7.7879    90.7174     2.3972     0.1521
  403.5000   -38.1925    19.1676    24.4885    27.8539     0.0461     7.7635    88.8336     2.3998     0.1495
  404.0000   -37.7517    18.9587    23.9239    27.1688     0.0452     7.7394    87.9071     2.3926     0.1519
  404.5000   -37.2442    18.7528    23.3863    26.3368     0.0442     7.7152    87.0968     2.3843     0.1601
  405.0000   -36.8171    18.5499    24.0243    25.8773     0.0433     7.7356    86.4366     2.3795     0.1593
  405.5000   -37.0092    18.3491    24.6630    27.3607     0.0423     7.7976    87.3188     2.3857     0.1554
  406.0000   -37.1930    18.2419    25.4054    28.3712     0.0413     7.8593    89.1637     2.3917     0.1523
  406.5000   -37.3747    18.5721    25.0388    26.6597     0.0404     7.7962    91.0067     2.3957     0.1514
  407.0000   -37.5558    18.8015    24.6298    25.8773     0.0394     7.7230    92.8601     2.3919     0.1546
  407.5000   -37.7412    19.1007    24.1914    26.7919     0.0384     7.6506    93.9127     2.3853     0.1577
  408.0000   -37.6936    18.8093    23.3863    27.0956     0.0375     7.5781    92.9838     2.3787     0.1620
  408.5000   -37.5439    18.4087    23.4747    25.6599     0.0365     7.5918    93.4487     2.3791     0.1543
  409.0000   -37.3906    17.9907    23.5967    25.1756     0.0359     7.6793    94.7839     2.3849     0.1407
  409.5000   -37.2305    17.4398    23.7193    25.3026     0.0359     7.7668    93.7867     2.3907     0.1356
  410.0000   -37.3574    16.9058    23.8207    25.4054     0.0360     7.8372    91.8616     2.3966     0.1333
  410.5000   -37.5595    16.3881    23.1753    25.0979     0.0360     7.7975    92.8161     2.4020     0.1313
  411.0000   -37.7633    15.8863    22.6410    24.7107     0.0396     7.7571    93.7808     2.4205     0.1269
  411.5000   -37.9669    15.5772    22.1302    24.3294     0.0458     7.7172    94.7383     2.4418     0.1188
  412.0000   -38.1723    15.5214    23.8649    23.8838     0.0519     7.6894    95.6851     2.4634     0.1094
  412.5000   -38.3813    15.4658    26.3579    23.2913     0.0581     7.7321    96.1559     2.4706     0.1046
  413.0000   -38.2744    15.4104    25.8773    22.7459     0.0603     7.7751    95.5713     2.4592     0.1114
  413.5000   -38.1392    15.3552    21.4561    22.3368     0.0562     7.8183    95.0289     2.4403     0.1181
  414.0000   -38.0049    15.0666    18.8723    22.5987     0.0523     7.8610    94.4797     2.4216     0.1249
  414.5000   -37.8712    13.8417    18.6879    23.0019     0.0483     7.8566    94.7117     2.4069     0.1317
  415.0000   -37.7374    14.4705    18.5053    23.6025     0.0462     7.8496    95.6801     2.4111     0.1326
  415.5000   -37.6039    15.6280    18.2419    23.4040     0.0467     7.8429    96.6659     2.4148     0.1307
  416.0000   -37.4714    15.8902    20.7362    23.0324     0.0472     7.8362    97.3156     2.4105     0.1289
  416.5000   -37.4589    15.5686    25.4955    22.6656     0.0479     7.8296    96.6403     2.4058     0.1291
  417.0000   -37.5816    15.1506    19.7640    22.3048     0.0454     7.8229    95.4862     2.4083     0.1293
  417.5000   -37.7028    14.7439    14.2750    21.9499     0.0423     7.8162    94.3246     2.4123     0.1288
  418.0000   -37.8256    14.3481    12.3947    21.6008     0.0392     7.8095    93.1599     2.4163     0.1279
  418.5000   -37.9435    13.9697    14.1536    21.2239     0.0362     7.8032    91.9992     2.4175     0.1285
  419.0000   -38.3785    13.9050    16.1526    20.7345     0.0331     7.8148    91.8502     2.4124     0.1303
  419.5000   -39.0099    13.8266    17.4902    20.2565     0.0300     7.8274    92.7129     2.4074     0.1305
  420.0000   -39.6455    13.7486    17.8874    20.0000     0.0267     7.8399    93.5721     2.4037     0.1289
  420.5000   -40.2860    13.6711    13.8444    20.0679     0.0295     7.8524    94.4163     2.4079     0.1277
  421.0000   -40.9395    13.5940    15.6604    20.1148     0.0329     7.8648    94.8590     2.4116     0.1285
  421.5000   -40.9773    13.5174    17.4217    20.1849     0.0328     7.8773    93.1800     2.4108     0.1292
  422.0000   -40.9742    13.4411    17.9057    20.0406     0.0305     7.8900    91.5677     2.4090     0.1299
  422.5000   -40.9762    13.3654    16.5458    19.7575     0.0281     7.9018    93.3842     2.4104     0.1301
  423.0000   -40.9533    13.2900    15.0474    19.4786     0.0262     7.8921    95.2106     2.4217     0.1277
  423.5000   -40.3487    13.2151    15.3160    19.2039     0.0310     7.8815    94.0399     2.4327     0.1216
  424.0000   -39.7203    13.1405    15.1379    18.9258     0.0358     7.8710    91.9476     2.4436     0.1156
  424.5000   -39.0941    13.0665    14.7626    18.7525     0.0406     7.8605    91.2985     2.4546     0.1096
  425.0000   -38.4653    12.9928    14.8990    18.9040     0.0441     7.8499    92.6512     2.4656     0.1050
  425.5000   -37.8242    12.8644    15.1325    19.0146     0.0446     7.8395    94.2888     2.4773     0.1043
  426.0000   -37.5172    12.7240    15.4576    19.1007     0.0450     7.8291    95.9005     2.4821     0.1028
  426.5000   -37.2220    12.5851    15.4196    18.9230     0.0455     7.8256    95.4292     2.4855     0.1014
  427.0000   -36.9208    12.4477    15.3633    19.1022     0.0460     7.8328    91.8587     2.4853     0.0994
  427.5000   -36.8458    12.3118    15.3177    19.4512     0.0465     7.8398    94.3630     2.4837     0.0972
  428.0000   -36.9071    12.1774    16.3721    18.8561     0.0470     7.8470    98.7070     2.4820     0.0970
  428.5000   -36.9742    12.0573    16.7921    18.3049     0.0475     7.8541    97.3499     2.4813     0.1014
  429.0000   -37.2023    12.1952    15.1172    17.7735     0.0475     7.8614    94.9039     2.4876     0.0958
  429.5000   -37.6177    12.3222    14.7626    17.4217     0.0446     7.8601    93.2157     2.4939     0.0898
  430.0000   -38.0304    12.5086    15.2638    18.1526     0.0416     7.8573    94.3305     2.5003     0.0923
  430.5000   -38.4450    12.4615    15.6169    18.7525     0.0386     7.8543    96.5811     2.5006     0.0931
  431.0000   -38.8583    12.3705    15.7042    18.4105     0.0356     7.8513    98.8382     2.5004     0.0909
  431.5000   -39.2244    12.2812    15.7975    19.6422     0.0325     7.8484   101.1075     2.4962     0.0890
  432.0000   -39.3807    12.4118    15.8902    21.7267     0.0343     7.8454   103.2417     2.4917     0.0920
  432.5000   -39.5406    12.5461    17.2621    19.6082     0.0374     7.8428   103.3225     2.4872     0.0961
  433.0000   -39.7009    12.6250    16.1675    17.5827     0.0406     7.8448   101.8953     2.4827     0.0994
  433.5000   -39.8613    12.5811    15.4306    17.8518     0.0414     7.8471    99.7049     2.4829     0.0977
  434.0000   -40.0218    12.5502    15.0367    18.0753     0.0382     7.8492    97.5147     2.4844     0.0983
  434.5000   -40.1829    12.5194    15.5527    18.2389     0.0350     7.8514    94.5587     2.4748     0.1027
  435.0000   -40.3502    12.4119    16.0314    17.7127     0.0318     7.8536    95.7452     2.4648     0.1071
  435.5000   -40.2219    12.2680    15.5377    17.4235     0.0286     7.8558    98.5221     2.4646     0.1090
  436.0000   -40.0252    12.1257    14.4934    17.9073     0.0260     7.8580   101.3264     2.4691     0.1062
  436.5000   -39.8270    12.0342    14.7347    17.8127     0.0270     7.8602   102.0795     2.4739     0.1035
  437.0000   -39.6293    11.9893    15.2149    17.6187     0.0279     7.8624   101.6523     2.4785     0.1007
