~VERSION INFORMATION
 VERS.                2.0:   CWLS LOG ASCII STANDARD - VERSION 2.0
 WRAP.                 NO:   ONE LINE PER DEPTH STEP
~WELL INFORMATION
#MNEM.UNIT      DATA TYPE    INFORMATION
#----------   ------------   ------------------------------
 STRT.F            0.0000:   START DEPTH
 STOP.F         1340.0000:   STOP DEPTH
 STEP.F            0.5000:   STEP LENGTH
 NULL.          -999.2500:   NO VALUE
 COMP. U S NAVY-INTEX OIL:   COMPANY
 WELL. NAVAL PETROLEUM RESERVE 3 S #81-14:   WELL
 FLD .             TEAPOT:   FIELD
 LOC .      S14 T38N R78W:   LOCATION
 CNTY.            NATRONA:   COUNTY
 STAT.            WYOMING:   STATE
 CTRY. UNITED STATES OF AMERICA:   COUNTRY
 SRVC.       Schlumberger:   SERVICE COMPANY
 DATE.        20-AUG-1966:   LOGDATE
 API .       490250971600:   API NUMBER
~CURVE INFORMATION
#MNEM.UNIT       API CODE    CURVE DESCRIPTION
#----------   ------------   ------------------------------
 DEPT.F                  :   
 SPR .MV     07 010 01 00:   SPONTANEOUS POTENTIAL
 CILD.MMHO   07 110 46 00:   CONDUCTIVITY INDUCTION LOG DEEP
 ILD .OHMM   07 120 46 00:   INDUCTION LOG DEEP
 ASN .OHMM   01 041 16 00:   AMPLIFIED SHORT NORMAL 16"
 CALD.IN     45 280 60 00:   CALIPER
 RHOB.G/C3   45 350 01 00:   BULK DENSITY
 DPHI.DEC    45 890 12 00:   DENSITY POROSITY SANDSTONE
 GRD .GAPI   45 310 01 00:   GAMMA RAY FROM DENSITY LOG
 CORR.G/C3   45 356 01 00:   DENSITY CORRECTION
~PARAMETER INFORMATION
#MNEM.UNIT          VALUE    DESCRIPTION
#----------   ------------   ------------------------------
 PD  .                 GL:   PERMANENT DATUM
 EPD .F              5283:   ELEVATION PERMANENT DATUM
 LMF .                 KB:   LOG MEASURED FROM
 DAPD.F                 5:   FEET ABOVE PERMANENT DATUM
 DMF .                 KB:   DRILLING MEASURED FROM
 EKB .F              5288:   KELLING BUSHING
 EGL .F              5283:   GROUND LEVEL
 DATE.            8-20-66:   RUN DATE
 RUN .                  1:   RUN NUMBER
 DD  .F              1340:   DEPTH DRILLER
 DL  .F              1337:   DEPTH LOGGER
 BLI .F              1336:   BOTTOM LOG INTERVAL
 TLI .F                17:   TOP LOG INTERVAL
 CS  .IN            8.625:   CASING SIZE
 CBD .F                15:   CASING BOTTOM DRILLER
 CBL .F                17:   CASING BOTTOM LOGGER
 BS  .IN            7.875:   BIT SIZE
 BSD .F              1340:   BIT SIZE AT DEPTH
 DFT .           GEL-CHEM:   DRILLING FLUID TYPE
 DFD .                9.8:   DRILLING FLUID DENSITY
 DFV .                 70:   DRILLING FLUID VISCOSITY
 DFL .                  8:   DRILLING FLUID LOSS
 MSS .          FLOW LINE:   MUD SAMPLE SOURCE
 RMS .OHMM           1.26:   RESISTIVITY MUD SAMPLE
 MST .F                71:   MUD SAMPLE TEMPERATURE
 RMF .OHMM            .71:   RESISTIVITY MUD FILTRATE SAMPLE
 MFST.F                71:   MUD FILTRATE SAMPLE TEMPERATURE
 MFSS.                  M:   MUD FILTRATE SAMPLE SOURCE
 RMB .OHMM           1.04:   RESISTIVITY MUD AT BHT
 BHT .F                86:   BOTTOM HOLE TEMPERATURE
 TCS .HRS               2:   TIME CURCULATED STOPPED
 MRT .F                86:   MAXIMUM RECORDED TEMPERATURE
 LUN .               3527:   LOGGING UNIT NUMBER
 LUL .               CSPR:   LOGGING UNIT LOCATION
 ENGI.          TOLLEFSON:   RECORDING ENGINEER
 WITN.                MAY:   WITNESSED BY
 CLNT.            A2DTECH:   CLIENT CODE
 ORIG.        2" 5" PRINT:   ORIGIN OF DATA
 UWI .       490250971600:   UNIQUE WELL ID
 DICO. A2D Technologies, Inc.:   DIGITIZING COMPANY
~OTHER INFORMATION
~A    DEPT     SPR       CILD        ILD        ASN         CALD     RHOB       DPHI          GRD     CORR   
# ...
  876.0000   -46.5621   121.2575     8.0107    10.0040     7.9477     2.5575     0.0617   105.8310     0.0746
  876.5000   -46.5369   121.2579     7.9887     9.9971     7.9486     2.5741     0.0505   105.6795     0.0622
  877.0000   -46.5117   121.2575     7.9667     9.9902     7.9494     2.5772     0.0423   106.0630     0.0582
  877.5000   -46.4865   121.2566     7.9445     9.9834     7.9502     2.5612     0.0578   107.0438     0.0684
  878.0000   -46.4613   121.2575     7.9224     9.9770     7.9511     2.5500     0.0633   108.7083     0.0899
  878.5000   -46.4360   121.2575     7.9003     9.9666     7.9519     2.5470     0.0604   110.6351     0.0928
  879.0000   -46.4109   122.2023     7.8781     9.8922     7.9528     2.5444     0.0646   110.7441     0.0822
  879.5000   -46.3924   123.0689     7.8559     9.8195     7.9536     2.5423     0.0675   110.7013     0.0572
  880.0000   -46.3928   123.9355     7.8354     9.7617     7.9544     2.5385     0.0647   109.6676     0.0508
  880.5000   -46.3928   124.8021     7.8150     9.7130     7.9553     2.5288     0.0757   108.7947     0.0591
  881.0000   -46.3928   125.6687     7.7918     9.6645     7.9561     2.5160     0.0850   110.0431     0.0533
  881.5000   -46.3928   126.3384     7.7685     9.6159     7.9569     2.5096     0.0878   112.6686     0.0343
  882.0000   -46.3928   126.6120     7.7452     9.5673     7.9578     2.5153     0.0778   115.3202     0.0395
  882.5000   -46.3928   126.8857     7.7219     9.5185     7.9586     2.5209     0.0874   116.2816     0.0509
  883.0000   -46.3928   127.1594     7.6987     9.5001     7.9594     2.5171     0.0786   114.1566     0.0482
  883.5000   -46.3928   127.4330     7.6754     9.5037     7.9603     2.5120     0.0852   113.2413     0.0389
  884.0000   -46.3941   127.7074     7.6521     9.5489     7.9611     2.5068     0.0825   114.2419     0.0422
  884.5000   -46.3256   127.9837     7.6288     9.5944     7.9619     2.5016     0.0877   115.2570     0.0509
  885.0000   -46.2307   128.2395     7.6055     9.5567     7.9609     2.5094     0.0906   115.4545     0.0581
  885.5000   -46.1352   127.7479     7.5823     9.4719     7.9599     2.5222     0.0841   115.9187     0.0526
  886.0000   -46.0408   127.2465     7.5590     9.3917     7.9589     2.5351     0.0814   117.7170     0.0353
  886.5000   -46.0379   129.1132     7.5390     9.3295     7.9579     2.5464     0.0623   119.6480     0.0408
  887.0000   -46.2012   131.1413     7.4006     9.2672     7.9569     2.5241     0.0723   117.9883     0.0571
  887.5000   -46.3655   133.1642     7.2276     9.2262     7.9559     2.5006     0.0901   116.2050     0.0700
  888.0000   -46.3691   135.1522     7.0539     9.2129     7.9549     2.4777     0.1006   114.9707     0.0604
  888.5000   -46.3392   137.2256     6.8806     9.1087     7.9539     2.4706     0.1014   113.7486     0.0363
  889.0000   -46.3089   141.1681     6.7072     8.9746     7.9529     2.4898     0.0999   114.6295     0.0249
  889.5000   -46.2789   145.3773     6.5333     8.7499     7.9519     2.4850     0.0935   117.0601     0.0325
  890.0000   -46.2490   149.5865     6.3604     8.5257     7.9509     2.4842     0.0981   118.1927     0.0557
  890.5000   -46.2192   154.1600     6.3041     8.3010     7.9499     2.4962     0.0962   120.5298     0.0512
  891.0000   -46.1922   157.5257     6.2539     8.1213     7.9489     2.5085     0.0845   121.2495     0.0460
  891.5000   -46.1558   161.1828     6.1308     7.9783     7.9479     2.5121     0.0798   117.9720     0.0622
  892.0000   -46.1155   159.3700     6.1555     7.8730     7.9469     2.4973     0.0856   116.4015     0.0591
  892.5000   -46.0751   157.0952     6.2048     7.8747     7.9459     2.5095     0.0890   114.5596     0.0544
  893.0000   -46.0347   154.8204     6.2767     7.9442     7.9449     2.5257     0.0776   112.1724     0.0594
  893.5000   -45.9934   152.5455     6.4127     8.1915     7.9439     2.5393     0.0631   109.8469     0.0699
  894.0000   -46.0686   150.2707     6.5474     8.4431     7.9429     2.5173     0.0757   108.4517     0.0816
  894.5000   -46.2080   147.9959     6.6827     8.6954     7.9418     2.5102     0.0862   107.9712     0.0767
  895.0000   -46.3489   145.7211     6.8178     8.7735     7.9393     2.5164     0.0866   108.4671     0.0595
  895.5000   -46.3664   143.4462     6.9398     8.7444     7.9366     2.5125     0.0835   108.7891     0.0394
  896.0000   -46.2576   141.1714     6.9364     8.6827     7.9340     2.5069     0.0806   107.8877     0.0418
  896.5000   -46.1526   140.6228     6.9365     8.6204     7.9313     2.5164     0.0889   105.1874     0.0486
  897.0000   -46.0503   141.3160     6.9026     8.5732     7.9286     2.5303     0.0735   102.5692     0.0549
  897.5000   -46.1089   142.0093     6.8498     8.5814     7.9259     2.5459     0.0665   104.0750     0.0606
  898.0000   -46.4303   143.3690     6.7963     8.5883     7.9232     2.5471     0.0628   106.0721     0.0683
  898.5000   -46.5521   145.0110     6.7430     8.5935     7.9216     2.4906     0.0909   106.5960     0.0635
  899.0000   -46.5045   146.6530     6.6896     8.5510     7.9225     2.5185     0.0809   106.5979     0.0503
  899.5000   -46.4503   148.2950     6.6362     8.4476     7.9235     2.5324     0.0703   105.8193     0.0386
  900.0000   -46.3978   149.9370     6.5827     8.3427     7.9245     2.5303     0.0782   105.4251     0.0302
  900.5000   -46.3455   151.5789     6.5351     8.2350     7.9254     2.5243     0.0767   105.6812     0.0421
  901.0000   -46.2932   153.2209     6.5564     8.1922     7.9264     2.5183     0.0786   106.4307     0.0636
  901.5000   -46.2409   154.1916     6.5821     8.1482     7.9274     2.5121     0.0843   108.8000     0.0601
  902.0000   -46.1886   152.8593     6.6062     8.1862     7.9283     2.5223     0.0850   111.2439     0.0521
  902.5000   -46.1363   152.1956     6.6593     8.2656     7.9293     2.5031     0.0790   112.8448     0.0600
  903.0000   -46.0838   149.6224     6.7653     8.3463     7.9303     2.5120     0.0866   114.6353     0.0727
  903.5000   -46.0317   146.8060     6.8257     8.4268     7.9313     2.5225     0.0774   117.9787     0.0745
  904.0000   -45.9912   143.9895     6.8827     8.5076     7.9322     2.5200     0.0796   117.9560     0.0633
  904.5000   -45.9912   141.1731     6.9405     8.5877     7.9332     2.5201     0.0794   116.8983     0.0622
  905.0000   -45.9764   138.2788     6.9983     8.6916     7.9342     2.5242     0.0756   114.7554     0.0703
  905.5000   -45.9620   138.7588     7.0560     8.8024     7.9352     2.5269     0.0723   110.7142     0.0665
  906.0000   -45.9477   139.2388     7.1142     8.8866     7.9361     2.5115     0.0860   106.6956     0.0559
  906.5000   -45.9333   139.7187     7.1307     8.8384     7.9371     2.5009     0.0934   105.0627     0.0519
  907.0000   -45.9190   140.1987     7.1073     8.7930     7.9381     2.5213     0.0800   107.2888     0.0460
  907.5000   -45.9047   140.6786     7.0841     8.7477     7.9390     2.5374     0.0690   109.2033     0.0543
  908.0000   -45.8904   141.1586     7.0609     8.7014     7.9401     2.5392     0.0683   109.8267     0.0607
  908.5000   -45.8760   141.6386     7.0378     8.6931     7.9415     2.5018     0.0871   110.4597     0.0417
  909.0000   -45.8617   142.1185     7.0147     8.6873     7.9370     2.4984     0.0954   110.5018     0.0463
  909.5000   -45.8474   142.5985     6.9916     8.7051     7.9227     2.5024     0.0910   109.8870     0.0545
  910.0000   -45.8330   143.0785     6.9686     8.7514     7.9229     2.5128     0.0914   109.1482     0.0501
  910.5000   -45.8185   143.5584     6.9453     8.7668     7.9239     2.5019     0.0857   108.9621     0.0371
  911.0000   -45.8040   144.0384     6.9295     8.7578     7.9247     2.5165     0.0870   109.5757     0.0421
  911.5000   -45.7993   144.5709     6.8933     8.7484     7.9256     2.5365     0.0655   111.0002     0.0519
  912.0000   -45.8740   145.1330     6.8580     8.7388     7.9264     2.5379     0.0751   113.3637     0.0627
