~VERSION INFORMATION
 VERS.                2.0:   CWLS LOG ASCII STANDARD - VERSION 2.0
 WRAP.                 NO:   ONE LINE PER DEPTH STEP
~WELL INFORMATION
#MNEM.UNIT      DATA TYPE    INFORMATION
#----------   ------------   ------------------------------
 STRT.F           20.0000:   START DEPTH
 STOP.F          436.5000:   STOP DEPTH
 STEP.F            0.5000:   STEP LENGTH
 NULL.          -999.2500:   NO VALUE
 COMP. FENIX & SCISSON INC:   COMPANY
 WELL. NPR 3 SX-10 #55-10:   WELL
 FLD .        YEAPOT DOME:   FIELD
 LOC .      S10 T38N R78W:   LOCATION
 CNTY.            NATRONA:   COUNTY
 STAT.            WYOMING:   STATE
 CTRY. UNITED STATES OF AMERICA:   COUNTRY
 SRVC.           BIRDWELL:   SERVICE COMPANY
 DATE.        06-JUN-1978:   LOGDATE
 API .       490251062900:   API NUMBER
~CURVE INFORMATION
#MNEM.UNIT       API CODE    CURVE DESCRIPTION
#----------   ------------   ------------------------------
 DEPT.F                  :   
 GRD .GAPI   45 310 01 00:   GAMMA RAY FROM DENSITY LOG
 CALD.IN     45 280 60 00:   CALIPER FROM DENSITY LOG
 RHOB.G/C3   45 350 01 00:   BULK DENSITY
 DPHI.DEC    45 890 12 00:   DENSITY POROSITY SANDSTONE
 CORR.G/C3   45 356 01 00:   DENSITY CORRECTION
 SPR .MV     05 010 01 00:   SPONTANEOUS POTENTIAL FROM RES.
 SN  .OHMM   05 040 16 00:   SHORT NORMAL 16"
 ILD .OHMM   05 120 46 00:   INDUCTION LOG DEEP
~PARAMETER INFORMATION
#MNEM.UNIT          VALUE    DESCRIPTION
#----------   ------------   ------------------------------
 PD  .                 GL:   PERMANENT DATUM
 EPD .F              5202:   ELEVATION PERMANENT DATUM
 LMF .                 KB:   LOG MEASURED FROM
 DAPD.F                 4:   FEET ABOVE PERMANENT DATUM
 DMF .                 KB:   DRILLING MEASURED FROM
 EKB .F              5206:   KELLING BUSHING
 EGL .F              5202:   GROUND LEVEL
 DATE.             6-6-78:   RUN DATE
 RUN .                  1:   RUN NUMBER
 DD  .F               425:   DEPTH DRILLER
 DL  .F               436:   DEPTH LOGGER
 BLI .F               432:   BOTTOM LOG INTERVAL
 TLI .F                40:   TOP LOG INTERVAL
 CS  .IN            8.625:   CASING SIZE
 CBD .F                40:   CASING BOTTOM DRILLER
 CBL .F                40:   CASING BOTTOM LOGGER
 BS  .IN            7.875:   BIT SIZE
 BSD .F               425:   BIT SIZE AT DEPTH
 DFT .            KCL/OIL:   DRILLING FLUID TYPE
 DFD .                8.6:   DRILLING FLUID DENSITY
 DFV .                 34:   DRILLING FLUID VISCOSITY
 DFPH.                 10:   DRILLING FLUID PH
 DFL .                7.6:   DRILLING FLUID LOSS
 MSS .                PIT:   MUD SAMPLE SOURCE
 TCS .HRS               4:   TIME CURCULATED STOPPED
 LUN .               2958:   LOGGING UNIT NUMBER
 LUL .               CASP:   LOGGING UNIT LOCATION
 ENGI.            POINTER:   RECORDING ENGINEER
 WITN.           MCGINLEY:   WITNESSED BY
 CLNT.            A2DTECH:   CLIENT CODE
 ORIG. 1", 2", 2.5", 5" PRINT:   ORIGIN OF DATA
 UWI .       490251062900:   UNIQUE WELL ID
 DICO. A2D Technologies, Inc.:   DIGITIZING COMPANY
~OTHER INFORMATION
~A   DEPT       GRD      CALD       RHOB       DPHI       CORR        SPR         SN        ILD   
# ...
  384.5000    76.0425     7.9225     2.4826     0.1236     0.0314   -27.3547    11.2602     7.1720
  385.0000    75.5517     7.9212     2.4815     0.1224     0.0301   -27.3545    11.2215     7.1226
  385.5000    75.5857     7.9201     2.4809     0.1213     0.0288   -27.3525    11.1829     7.0735
  386.0000    75.7251     7.9187     2.4774     0.1233     0.0275   -27.4382    11.1443     7.0248
  386.5000    75.8160     7.9176     2.4721     0.1282     0.0262   -27.5422    11.1277     6.9764
  387.0000    76.4633     7.9163     2.4688     0.1297     0.0249   -27.6465    11.1075     6.9283
  387.5000    77.5126     7.9151     2.4701     0.1284     0.0236   -27.7505    11.0873     6.8806
  388.0000    78.4686     7.9138     2.4713     0.1271     0.0223   -27.8545    11.0672     6.8396
  388.5000    79.4707     7.9126     2.4727     0.1268     0.0210   -27.9585    11.0471     6.8509
  389.0000    80.4043     7.9113     2.4740     0.1268     0.0197   -28.0625    11.0270     6.8608
  389.5000    81.3652     7.9101     2.4728     0.1268     0.0185   -28.1665    11.0070     6.8708
  390.0000    80.5353     7.9089     2.4708     0.1290     0.0171   -28.2705    10.9870     6.8809
  390.5000    79.6061     7.9076     2.4688     0.1316     0.0205   -28.3745    10.9670     6.8907
  391.0000    78.6259     7.9064     2.4725     0.1289     0.0261   -28.4786    10.9471     6.9029
  391.5000    77.8465     7.9052     2.4773     0.1260     0.0314   -28.5826    10.9272     6.8096
  392.0000    77.5399     7.9039     2.4819     0.1231     0.0362   -28.6866    10.9073     6.7596
  392.5000    78.3267     7.9027     2.4863     0.1202     0.0364   -28.7907    10.8875     6.7100
  393.0000    78.9681     7.9015     2.4910     0.1173     0.0365   -28.8943    10.8678     6.6607
  393.5000    77.8065     7.9002     2.4954     0.1143     0.0365   -28.9841    10.8480     6.6118
  394.0000    76.6565     7.8990     2.4995     0.1126     0.0365   -29.0502    10.7886     6.5633
  394.5000    75.3901     7.8978     2.4962     0.1142     0.0365   -29.1167    10.7028     6.5151
  395.0000    75.1115     7.8965     2.4926     0.1159     0.0365   -29.1831    10.6177     6.4673
  395.5000    75.1466     7.8953     2.4883     0.1166     0.0365   -29.2494    10.5333     6.4198
  396.0000    75.6200     7.8941     2.4869     0.1174     0.0365   -29.3158    10.4495     6.3727
  396.5000    76.0125     7.8928     2.4898     0.1164     0.0365   -29.3820    10.3665     6.3259
  397.0000    76.4474     7.8916     2.4924     0.1142     0.0365   -29.4479    10.2840     6.2795
  397.5000    76.8370     7.8903     2.4949     0.1142     0.0365   -29.5157    10.2023     6.1806
  398.0000    78.8456     7.8892     2.4978     0.1142     0.0365   -29.6987    10.1212     6.0436
  398.5000    80.5952     7.8879     2.4980     0.1142     0.0365   -30.1313    10.0112     5.9559
  399.0000    81.3305     7.8863     2.4981     0.1142     0.0365   -30.5605     9.8522     5.8695
  399.5000    81.9085     7.8865     2.4979     0.1142     0.0365   -30.9606     9.6956     5.7844
  400.0000    82.5967     7.8734     2.4982     0.1146     0.0363   -31.0689     9.5416     5.7005
  400.5000    82.5360     7.8510     2.4980     0.1150     0.0336   -31.1669     9.3899     5.6178
  401.0000    82.3343     7.8305     2.4973     0.1156     0.0315   -31.2629     9.2407     5.5363
  401.5000    82.0998     7.8091     2.4880     0.1166     0.0291   -31.3818     9.0939     5.4560
  402.0000    81.2085     7.7889     2.4801     0.1213     0.0268   -31.9625     8.9494     5.3831
  402.5000    83.8914     7.7678     2.4716     0.1300     0.0246   -32.5472     8.8072     5.1854
  403.0000    84.2671     7.7773     2.4633     0.1326     0.0220   -33.1334     8.5083     4.8503
  403.5000    84.5710     7.7889     2.4546     0.1354     0.0216   -33.3637     8.1664     4.3402
  404.0000    84.6936     7.8017     2.4421     0.1431     0.0249   -33.3678     7.8382     3.8285
  404.5000    86.2673     7.8136     2.4287     0.1519     0.0279   -33.3681     7.5232     3.8747
  405.0000    87.6939     7.8258     2.4173     0.1590     0.0309   -33.1422     7.0963     3.9283
  405.5000    89.3386     7.8387     2.4219     0.1555     0.0341   -32.7242     7.1571     3.9828
  406.0000    92.1363     7.8476     2.4461     0.1502     0.0370   -32.3049     7.2639     4.0380
  406.5000    95.8376     7.8515     2.4741     0.1261     0.0402   -31.8851     7.3626     4.0939
  407.0000    98.3355     7.8562     2.5022     0.1042     0.0388   -31.4530     7.9274     4.1506
  407.5000    99.3649     7.8608     2.5233     0.0976     0.0371   -31.3177     8.4840     4.2738
  408.0000    98.4217     7.8653     2.5221     0.0985     0.0353   -31.2380     9.0797     4.7298
  408.5000    96.6544     7.8698     2.5195     0.1003     0.0335   -31.1601     9.7171     5.2344
  409.0000    93.1327     7.8744     2.5163     0.1022     0.0317   -31.0810     9.8632     5.7929
  409.5000    89.4539     7.8789     2.5135     0.1040     0.0300   -31.0019     9.9406     6.0744
  410.0000    87.1451     7.8834     2.5106     0.1059     0.0281   -30.9228    10.0185     6.0866
  410.5000    86.1784     7.8880     2.5074     0.1077     0.0264   -30.8438    10.0970     6.0989
  411.0000    85.1735     7.8925     2.5058     0.1096     0.0247   -30.7646    10.1762     6.1107
  411.5000    84.2927     7.8971     2.5059     0.1095     0.0247   -30.6855    10.2559     6.1239
  412.0000    83.9718     7.9016     2.5057     0.1084     0.0246   -30.6068    10.3364     6.2513
  412.5000    83.9394     7.9062     2.5026     0.1096     0.0247   -30.5608    10.5168     6.3879
  413.0000    84.2704     7.9106     2.4995     0.1124     0.0247   -30.5611    10.7252     6.5275
  413.5000    84.5499     7.9153     2.4958     0.1152     0.0247   -30.5611    10.9377     6.6702
  414.0000    84.8456     7.9197     2.4944     0.1158     0.0247   -30.5611    11.1548     6.8160
  414.5000    85.1413     7.9242     2.4960     0.1139     0.0247   -30.5611    11.3754     6.9650
  415.0000    85.4288     7.9216     2.4972     0.1133     0.0249   -30.5611    11.4666     7.1173
  415.5000    85.7332     7.9186     2.4986     0.1153     0.0253   -30.5611    11.4811     7.2731
  416.0000    86.0019     7.9153     2.5001     0.1132     0.0257   -30.5611    11.4965     7.4312
  416.5000    86.6610     7.9122     2.5046     0.1097     0.0260   -30.5611    11.5118     7.5016
  417.0000    88.5312     7.9091     2.5095     0.1062     0.0264   -30.5611    11.5273     7.5069
  417.5000    88.1983     7.9059     2.5136     0.1032     0.0267   -30.5611    11.5427     7.5116
  418.0000    86.5570     7.9028     2.5139     0.1039     0.0271   -30.5611    11.5608     7.5163
  418.5000    85.2398     7.8996     2.5125     0.1039     0.0275   -30.5611    11.5542     7.5210
  419.0000    84.3215     7.8965     2.5093     0.1061     0.0278   -30.5611    11.5439     7.5257
  419.5000    84.5566     7.8933     2.5047     0.1081     0.0282   -30.5610    11.5336     7.5304
  420.0000    83.8955     7.8902     2.5016     0.1100     0.0287   -30.5612    11.5233     7.5351
  420.5000    81.6307     7.8872     2.4998     0.1094     0.0308   -30.5604    11.5130     7.5398
  421.0000    80.7581     7.8797     2.5029     0.1060     0.0331   -30.6361    11.5027     7.5445
  421.5000    80.3923     7.8643     2.5082     0.1026     0.0358   -30.7595    11.4925     7.5492
  422.0000    79.9985     7.8490     2.5131     0.1000     0.0348   -30.8840    11.4822     7.5540
  422.5000    79.6341     7.8336     2.5181     0.0992     0.0315   -31.0084    11.4720     7.5587
  423.0000    79.2124     7.8181     2.5212     0.0992     0.0285   -31.1327    11.4618     7.5634
  423.5000    78.7973     7.8027     2.5191     0.0996     0.0256   -31.2571    11.4516     7.5697
  424.0000    78.3396     7.7874     2.5126     0.1026     0.0223   -31.3814    11.4414     7.5459
  424.5000    78.8144     7.7716     2.5056     0.1067     0.0206   -31.5057    11.4312     7.5121
