~VERSION INFORMATION
 VERS.                2.0:   CWLS LOG ASCII STANDARD - VERSION 2.0
 WRAP.                 NO:   ONE LINE PER DEPTH STEP
~WELL INFORMATION
#MNEM.UNIT      DATA TYPE    INFORMATION
#----------   ------------   ------------------------------
 STRT.F            0.0000:   START DEPTH
 STOP.F         3024.5000:   STOP DEPTH
 STEP.F            0.5000:   STEP LENGTH
 NULL.          -999.2500:   NO VALUE
 COMP. LAWRENCE/ALLISON INC:   COMPANY
 WELL.   NPR 3 77X #77-28:   WELL
 FLD .           N.P.R. 3:   FIELD
 LOC .      S28 T39N R78W:   LOCATION
 CNTY.            NATRONA:   COUNTY
 STAT.            WYOMING:   STATE
 CTRY. UNITED STATES OF AMERICA:   COUNTRY
 SRVC.      Dresser Atlas:   SERVICE COMPANY
 DATE.        19-OCT-1986:   LOGDATE
 API .       490251110400:   API NUMBER
~CURVE INFORMATION
#MNEM.UNIT       API CODE    CURVE DESCRIPTION
#----------   ------------   ------------------------------
 DEPT.F                  :   
 PORD.DEC    45 890 12 00:   DENSITY POROSITY SANDSTONE
 CNC .DEC    42 890 03 00:   NEUTRON POROSITY SANDSTONE
 DEN .G/C3   45 350 01 00:   COMPENSATED BULK DENSTIY
 CORR.G/C3   45 356 01 00:   DENSITY CORRECTION
 CALD.IN     45 280 60 00:   CALIPER FROM DENSITY LOG
 GRR .GAPI   07 310 01 00:   GAMMA RAY FROM RES. LOG.
 RFOC.OHMM   07 220 04 00:   RESISTIVITY FOCUSED LOG
 RILD.OHMM   07 120 46 00:   INDUCTION LOG DEEP RESISTIVITY
 RILM.OHMM   07 120 44 00:   INDUCTION LOG MEDIUM RESISTIVITY
 SPR .MV     07 010 01 00:   SPONTANEOUS POTENTIAL
~PARAMETER INFORMATION
#MNEM.UNIT          VALUE    DESCRIPTION
#----------   ------------   ------------------------------
 PD  .                 GL:   PERMANENT DATUM
 EPD .F              5074:   ELEVATION PERMANENT DATUM
 LMF .                 KB:   LOG MEASURED FROM
 DAPD.F                12:   FEET ABOVE PERMANENT DATUM
 DMF .                 KB:   DRILLING MEASURED FROM
 EKB .F              5086:   KELLING BUSHING
 EGL .F              5074:   GROUND LEVEL
 DATE.           10-19-86:   RUN DATE
 RUN .                  1:   RUN NUMBER
 DD  .F              3021:   DEPTH DRILLER
 DL  .F              3025:   DEPTH LOGGER
 BLI .F              3023:   BOTTOM LOG INTERVAL
 CS  .IN            8.625:   CASING SIZE
 CBD .F               620:   CASING BOTTOM DRILLER
 CBL .F               615:   CASING BOTTOM LOGGER
 BS  .IN            7.875:   BIT SIZE
 BSD .F              3021:   BIT SIZE AT DEPTH
 DFT .        KCL POLYMER:   DRILLING FLUID TYPE
 DFD .                8.9:   DRILLING FLUID DENSITY
 DFV .                 38:   DRILLING FLUID VISCOSITY
 DFPH.                9.5:   DRILLING FLUID PH
 DFL .               11.2:   DRILLING FLUID LOSS
 MSS .           FLOWLINE:   MUD SAMPLE SOURCE
 RMS .OHMM            .25:   RESISTIVITY MUD SAMPLE
 MST .F                65:   MUD SAMPLE TEMPERATURE
 RMF .OHMM           .203:   RESISTIVITY MUD FILTRATE SAMPLE
 MFST.F                65:   MUD FILTRATE SAMPLE TEMPERATURE
 RMC .OHMM            .31:   RESISTIVITY MUD CAKE
 MCST.F                65:   MUD CAKE SAMPLE TEMPERATURE
 MFSS.               MEAS:   MUD FILTRATE SAMPLE SOURCE
 MCSS.               CALC:   MUD CAKE SAMPLE SOURCE
 RMB .OHMM           .136:   RESISTIVITY MUD AT BHT
 BHT .F               119:   BOTTOM HOLE TEMPERATURE
 TCS .HRS               5:   TIME CURCULATED STOPPED
 MRT .F               119:   MAXIMUM RECORDED TEMPERATURE
 LUN .               6274:   LOGGING UNIT NUMBER
 LUL .               GLTE:   LOGGING UNIT LOCATION
 ENGI.             RAUTIO:   RECORDING ENGINEER
 WITN.             STRONG:   WITNESSED BY
 CLNT.            A2DTECH:   CLIENT CODE
 ORIG.       2", 5" PRINT:   ORIGIN OF DATA
 UWI .       490251110400:   UNIQUE WELL ID
 DICO. A2D Technologies, Inc.:   DIGITIZING COMPANY
~OTHER INFORMATION
~A    DEPT    PORD        CNC        DEN       CORR       CALD        GRR       RFOC       RILD       RILM        SPR   
# ...
 1105.5000  -999.2500  -999.2500  -999.2500  -999.2500  -999.2500   103.5424     8.2683     7.6822     7.3098   -82.0076
 1106.0000  -999.2500  -999.2500  -999.2500  -999.2500  -999.2500   103.0353     8.4037     7.6380     7.3365   -82.0046
 1106.5000  -999.2500  -999.2500  -999.2500  -999.2500  -999.2500    98.7485     8.5606     7.5735     7.3292   -82.1609
 1107.0000  -999.2500  -999.2500  -999.2500  -999.2500  -999.2500    94.4226     8.7204     7.5103     7.3088   -82.3678
 1107.5000  -999.2500  -999.2500  -999.2500  -999.2500  -999.2500    93.4834     8.8183     7.4724     7.2884   -82.5868
 1108.0000  -999.2500  -999.2500  -999.2500  -999.2500  -999.2500    98.9159     8.6783     7.5605     7.2681   -82.1663
 1108.5000  -999.2500  -999.2500  -999.2500  -999.2500  -999.2500   102.6556     8.5782     7.6242     7.2477   -81.6381
 1109.0000  -999.2500  -999.2500  -999.2500  -999.2500  -999.2500   105.6194     8.5782     7.6815     7.2275   -81.8143
 1109.5000  -999.2500  -999.2500  -999.2500  -999.2500  -999.2500   104.5655     8.5782     7.6810     7.2073   -82.0477
 1110.0000  -999.2500  -999.2500  -999.2500  -999.2500  -999.2500   101.7850     8.5782     7.6762     7.1871   -82.2774
 1110.5000  -999.2500  -999.2500  -999.2500  -999.2500  -999.2500    99.2000     8.5099     7.6727     7.1671   -82.5063
 1111.0000  -999.2500  -999.2500  -999.2500  -999.2500  -999.2500   100.7203     8.3944     7.6692     7.1470   -82.7354
 1111.5000  -999.2500  -999.2500  -999.2500  -999.2500  -999.2500   102.5332     8.2807     7.6658     7.1364   -82.9668
 1112.0000  -999.2500  -999.2500  -999.2500  -999.2500  -999.2500   104.3139     8.1693     7.6623     7.2023   -83.1889
 1112.5000  -999.2500  -999.2500  -999.2500  -999.2500  -999.2500   104.3782     8.1175     7.6588     7.2017   -83.0092
 1113.0000  -999.2500  -999.2500  -999.2500  -999.2500  -999.2500   104.0713     8.2044     7.6553     7.2023   -82.8053
 1113.5000  -999.2500  -999.2500  -999.2500  -999.2500  -999.2500   103.9471     8.2968     7.6519     7.2023   -82.6033
 1114.0000  -999.2500  -999.2500  -999.2500  -999.2500  -999.2500   104.6032     8.3902     7.6484     7.2023   -82.4018
 1114.5000  -999.2500  -999.2500  -999.2500  -999.2500  -999.2500   105.3269     8.4218     7.6449     7.2023   -82.2004
 1115.0000  -999.2500  -999.2500  -999.2500  -999.2500  -999.2500   106.0476     8.4216     7.6415     7.2023   -81.9989
 1115.5000  -999.2500  -999.2500  -999.2500  -999.2500  -999.2500   106.8773     8.4217     7.6380     7.2023   -81.7969
 1116.0000  -999.2500  -999.2500  -999.2500  -999.2500  -999.2500   105.7184     8.4212     7.6346     7.2023   -81.5948
 1116.5000  -999.2500  -999.2500  -999.2500  -999.2500  -999.2500   103.9715     8.4218     7.6311     7.2023   -81.4128
 1117.0000  -999.2500  -999.2500  -999.2500  -999.2500  -999.2500   102.2048     8.3495     7.6276     7.2023   -81.5120
 1117.5000  -999.2500  -999.2500  -999.2500  -999.2500  -999.2500   100.4498     8.2368     7.6242     7.2022   -81.7128
 1118.0000  -999.2500  -999.2500  -999.2500  -999.2500  -999.2500   102.3502     8.1256     7.6207     7.2026   -81.9131
 1118.5000  -999.2500  -999.2500  -999.2500  -999.2500  -999.2500   105.6933     7.9695     7.6171     7.2288   -82.1135
 1119.0000  -999.2500  -999.2500  -999.2500  -999.2500  -999.2500   106.9335     8.0852     7.6137     7.3056   -82.3141
 1119.5000  -999.2500  -999.2500  -999.2500  -999.2500  -999.2500   104.0384     8.2914     7.6111     7.3832   -82.5138
 1120.0000  -999.2500  -999.2500  -999.2500  -999.2500  -999.2500   101.2390     8.5029     7.6974     7.4617   -82.7152
 1120.5000  -999.2500  -999.2500  -999.2500  -999.2500  -999.2500   100.0088     8.6575     7.7689     7.5410   -82.7148
 1121.0000  -999.2500  -999.2500  -999.2500  -999.2500  -999.2500   101.1899     8.6575     7.8411     7.6211   -82.5619
 1121.5000  -999.2500  -999.2500  -999.2500  -999.2500  -999.2500   103.1550     8.7027     7.9140     7.7021   -82.4062
 1122.0000  -999.2500  -999.2500  -999.2500  -999.2500  -999.2500   105.1388     8.8330     7.9875     7.7525   -82.2504
 1122.5000  -999.2500  -999.2500  -999.2500  -999.2500  -999.2500   107.1157     8.9653     8.0618     7.7525   -82.0950
 1123.0000  -999.2500  -999.2500  -999.2500  -999.2500  -999.2500   109.1130     9.0651     8.1175     7.7525   -81.9395
 1123.5000  -999.2500  -999.2500  -999.2500  -999.2500  -999.2500   109.8669     8.9843     8.1175     7.7525   -81.7841
 1124.0000  -999.2500  -999.2500  -999.2500  -999.2500  -999.2500   107.6760     8.9204     8.1175     7.7525   -81.6285
 1124.5000  -999.2500  -999.2500  -999.2500  -999.2500  -999.2500   106.2656     8.8570     8.1175     7.7525   -81.4726
 1125.0000  -999.2500  -999.2500  -999.2500  -999.2500  -999.2500   105.9886     8.8183     8.1175     7.7525   -81.3194
 1125.5000  -999.2500  -999.2500  -999.2500  -999.2500  -999.2500   105.9211     8.8183     8.1175     7.7525   -81.2279
 1126.0000  -999.2500  -999.2500  -999.2500  -999.2500  -999.2500   103.0790     8.8183     8.1176     7.7525   -81.2838
 1126.5000  -999.2500  -999.2500  -999.2500  -999.2500  -999.2500    99.9753     8.8183     8.1177     7.7525   -81.3369
 1127.0000  -999.2500  -999.2500  -999.2500  -999.2500  -999.2500    96.8969     8.8180     8.1184     7.7525   -81.3906
 1127.5000  -999.2500  -999.2500  -999.2500  -999.2500  -999.2500    95.1997     8.7819     8.0554     7.7525   -81.4441
 1128.0000  -999.2500  -999.2500  -999.2500  -999.2500  -999.2500    96.6754     8.7162     8.0007     7.7525   -81.4976
 1128.5000  -999.2500  -999.2500  -999.2500  -999.2500  -999.2500    98.7022     8.6509     7.9466     7.7525   -81.5511
 1129.0000  -999.2500  -999.2500  -999.2500  -999.2500  -999.2500   100.7861     8.5788     7.8965     7.7525   -81.6046
 1129.5000  -999.2500  -999.2500  -999.2500  -999.2500  -999.2500   101.5605     8.6733     7.9916     7.7525   -81.6581
 1130.0000  -999.2500  -999.2500  -999.2500  -999.2500  -999.2500   101.0208     8.7820     8.0815     7.7950   -81.7115
 1130.5000  -999.2500  -999.2500  -999.2500  -999.2500  -999.2500   100.4536     8.8927     8.1725     7.8548   -81.7651
 1131.0000  -999.2500  -999.2500  -999.2500  -999.2500  -999.2500   100.4047     8.9821     8.1925     7.9151   -81.8185
 1131.5000  -999.2500  -999.2500  -999.2500  -999.2500  -999.2500   101.1343     8.9821     8.2413     7.9759   -81.8723
 1132.0000  -999.2500  -999.2500  -999.2500  -999.2500  -999.2500   101.9270     8.9821     8.3561     8.0371   -81.9260
 1132.5000  -999.2500  -999.2500  -999.2500  -999.2500  -999.2500   102.4185     8.8998     8.4731     8.0988   -81.9770
 1133.0000  -999.2500  -999.2500  -999.2500  -999.2500  -999.2500   101.3957     9.0704     8.5915     8.1609   -81.8970
 1133.5000  -999.2500  -999.2500  -999.2500  -999.2500  -999.2500   100.8021     9.1945     8.7385     8.2235   -81.6540
 1134.0000  -999.2500  -999.2500  -999.2500  -999.2500  -999.2500    99.7019     9.3203     8.7372     8.2867   -81.4123
 1134.5000  -999.2500  -999.2500  -999.2500  -999.2500  -999.2500    97.6408     9.4479     8.7378     8.3503   -81.1697
 1135.0000  -999.2500  -999.2500  -999.2500  -999.2500  -999.2500    95.5488     9.4919     8.7375     8.4143   -80.9272
 1135.5000  -999.2500  -999.2500  -999.2500  -999.2500  -999.2500    93.8103     9.4928     8.7375     8.4218   -80.6837
 1136.0000  -999.2500  -999.2500  -999.2500  -999.2500  -999.2500    97.3728     9.4932     8.6845     8.3841   -80.4387
 1136.5000  -999.2500  -999.2500  -999.2500  -999.2500  -999.2500   100.9829     9.3128     8.5854     8.3135   -80.5596
 1137.0000  -999.2500  -999.2500  -999.2500  -999.2500  -999.2500   104.0773     9.0812     8.4874     8.2435   -80.7216
 1137.5000  -999.2500  -999.2500  -999.2500  -999.2500  -999.2500   103.2748     8.8554     8.3905     8.1741   -80.8834
 1138.0000  -999.2500  -999.2500  -999.2500  -999.2500  -999.2500   102.4031     8.7375     8.2941     8.1053   -81.0444
 1138.5000  -999.2500  -999.2500  -999.2500  -999.2500  -999.2500   103.0544     8.7369     8.1915     8.0370   -81.2052
