~VERSION INFORMATION
 VERS.                2.0:   CWLS LOG ASCII STANDARD - VERSION 2.0
 WRAP.                 NO:   ONE LINE PER DEPTH STEP
~WELL INFORMATION
#MNEM.UNIT      DATA TYPE    INFORMATION
#----------   ------------   ------------------------------
 STRT.F           95.0000:   START DEPTH
 STOP.F          914.0000:   STOP DEPTH
 STEP.F            0.5000:   STEP LENGTH
 NULL.          -999.2500:   NO VALUE
 COMP. LAWRENCE/ALLISON INC:   COMPANY
 WELL. NPR ##3 31-61 SX 2:   WELL
 FLD .             TEAPOT:   FIELD
 LOC .       S2 T38N R78W:   LOCATION
 CNTY.            NATRONA:   COUNTY
 STAT.            WYOMING:   STATE
 CTRY. UNITED STATES OF AMERICA:   COUNTRY
 SRVC.      Dresser Atlas:   SERVICE COMPANY
 DATE.        30-JAN-1986:   LOGDATE
 API .       490251106800:   API NUMBER
~CURVE INFORMATION
#MNEM.UNIT       API CODE    CURVE DESCRIPTION
#----------   ------------   ------------------------------
 DEPT.F                  :   
 RILD.OHMM   07 120 46 00:   INDUCTION LOG DEEP RESISTIVITY
 RILM.OHMM   07 120 44 00:   INDUCTION LOG MEDIUM RESISTIVITY
 CALD.IN     45 280 60 00:   CALIPER FROM DENSITY
 GRD .GAPI   45 310 01 00:   GAMMA RAY FROM DENSITY LOG
 CORR.G/C3   45 356 01 00:   DENSITY CORRECTION
 PORD.DEC    45 890 10 00:   POROSITY DENSITY LIMESTONE
 DEN .G/C3   45 350 01 00:   COMPENSATED BULK DENSITY
~PARAMETER INFORMATION
#MNEM.UNIT          VALUE    DESCRIPTION
#----------   ------------   ------------------------------
 PD  .                 GL:   PERMANENT DATUM
 EPD .F              5126:   ELEVATION PERMANENT DATUM
 LMF .                 GL:   LOG MEASURED FROM
 DMF .                 GL:   DRILLING MEASURED FROM
 EGL .F              5126:   GROUND LEVEL
 DATE.        30-JAN-1986:   RUN DATE
 RUN .                  1:   RUN NUMBER
 DD  .F               925:   DEPTH DRILLER
 DL  .F               918:   DEPTH LOGGER
 BLI .F               910:   BOTTOM LOG INTERVAL
 CS  .IN            8.625:   CASING SIZE
 CBD .F               127:   CASING BOTTOM DRILLER
 CBL .F               127:   CASING BOTTOM LOGGER
 BS  .IN             6.25:   BIT SIZE
 BSD .F               925:   BIT SIZE AT DEPTH
 DFT .                AIR:   DRILLING FLUID TYPE
 LUN .            HL-6264:   LOGGING UNIT NUMBER
 LUL .           GILLETTE:   LOGGING UNIT LOCATION
 ENGI.     P. M. FAHLSING:   RECORDING ENGINEER
 WITN.        LINOA FIVAS:   WITNESSED BY
 CLNT.            A2DTECH:   CLIENT CODE
 ORIG.           5" PRINT:   ORIGIN OF DATA
 UWI .       490251106800:   UNIQUE WELL ID
 DICO. A2D Technologies, Inc.:   DIGITIZING COMPANY
~OTHER INFORMATION
~A   DEPT     RILD       RILM       CALD         GRD      CORR       PORD        DEN   
# ...
  641.0000     3.2184     3.3509     6.6788   133.4268     0.1312     0.1305     2.4669
  641.5000     2.8204     2.9776     6.6791   131.3180     0.1341     0.1389     2.4448
  642.0000     2.6306     2.5559     6.6794   129.5113     0.1356     0.1710     2.4011
  642.5000     2.4879     2.3189     6.6797   128.6095     0.1385     0.1982     2.3333
  643.0000     2.3693     2.2706     6.6802   127.1064     0.1444     0.2272     2.2851
  643.5000     2.3656     2.3176     6.6953   125.2997     0.1489     0.2510     2.2594
  644.0000     2.4342     2.3987     6.6956   123.7951     0.1549     0.2541     2.2496
  644.5000     2.5543     2.5347     6.6959   124.7074     0.1473     0.2309     2.2827
  645.0000     2.7941     2.7347     6.6963   127.7346     0.1307     0.1992     2.3384
  645.5000     3.1863     3.0758     6.6966   131.3660     0.1201     0.1905     2.3587
  646.0000     3.6842     3.5078     6.6969   134.9973     0.1427     0.1808     2.3722
  646.5000     4.1434     4.0003     6.6972   135.9082     0.1576     0.1700     2.3963
  647.0000     4.4700     4.4067     6.6975   136.8235     0.1620     0.1356     2.4369
  647.5000     4.8560     4.8208     6.6978   141.0591     0.1438     0.1199     2.4745
  648.0000     5.2753     5.2374     6.6981   144.9906     0.0999     0.1133     2.4866
  648.5000     5.6129     5.5729     6.6984   151.0409     0.0821     0.1115     2.4926
  649.0000     5.8492     5.7280     6.6836   152.2554     0.1001     0.1137     2.4903
  649.5000     6.0533     5.7264     6.6839   148.0318     0.1166     0.1143     2.4895
  650.0000     6.2213     5.7647     6.6691   145.6193     0.1266     0.1116     2.4910
  650.5000     6.3071     5.7625     6.6692   148.9501     0.1392     0.1086     2.4932
  651.0000     6.3054     5.8821     6.6692   150.4667     0.1480     0.1093     2.4947
  651.5000     6.1744     6.0036     6.6541   148.0558     0.1524     0.1093     2.4954
  652.0000     5.9629     5.7966     6.6541   143.2280     0.1568     0.1075     2.4984
  652.5000     5.6401     5.4442     6.6391   143.2340     0.1598     0.1045     2.5022
  653.0000     5.3348     5.0779     6.6391   142.9379     0.1597     0.1018     2.5059
  653.5000     5.0461     4.7363     6.6391   142.0360     0.1521     0.1000     2.5082
  654.0000     4.8061     4.5105     6.6391   141.7384     0.1415     0.1061     2.5074
  654.5000     4.5776     4.3253     6.6391   144.4665     0.1294     0.1221     2.4833
  655.0000     4.4208     4.1765     6.6391   147.1915     0.1218     0.1402     2.4328
  655.5000     4.2693     4.1176     6.6391   149.0102     0.1217     0.1588     2.4095
  656.0000     4.2089     4.1448     6.6391   147.5057     0.1216     0.1593     2.4132
  656.5000     4.1798     4.2304     6.6391   141.4694     0.1231     0.1468     2.4313
  657.0000     4.3288     4.3478     6.6391   134.5268     0.1245     0.1425     2.4433
  657.5000     4.4542     4.5309     6.6391   134.2292     0.1260     0.1446     2.4365
  658.0000     4.6442     4.7545     6.6391   139.3726     0.1244     0.1387     2.4455
  658.5000     4.9040     4.9551     6.6391   143.0040     0.1228     0.1331     2.4568
  659.0000     5.1759     5.2362     6.6391   146.6354     0.1167     0.1302     2.4606
  659.5000     5.5079     5.4972     6.6391   148.7562     0.1091     0.1277     2.4643
  660.0000     5.8611     5.8074     6.6391   149.3650     0.1045     0.1231     2.4748
  660.5000     6.1940     6.0985     6.6391   146.9556     0.0984     0.1200     2.4786
  661.0000     6.4556     6.4013     6.6391   144.5446     0.0983     0.1219     2.4733
  661.5000     6.7283     6.6667     6.6241   140.9253     0.1028     0.1236     2.4725
  662.0000     6.9641     6.8934     6.6241   138.2123     0.1147     0.1177     2.4823
  662.5000     7.0115     6.9872     6.6241   138.2183     0.1237     0.1133     2.4891
  663.0000     7.0588     6.9275     6.6241   138.2243     0.1116     0.1161     2.4830
  663.5000     7.0570     6.7440     6.6241   138.2303     0.1040     0.1209     2.4732
  664.0000     7.0068     6.6029     6.6241   138.2363     0.1009     0.1247     2.4702
  664.5000     6.8612     6.4648     6.6241   138.2423     0.1129     0.1199     2.4800
  665.0000     6.7186     6.2859     6.6241   138.5504     0.1478     0.1124     2.4920
  665.5000     6.4437     6.1120     6.6241   145.8072     0.1595     0.1063     2.4995
  666.0000     6.2229     5.9841     6.6241   150.0428     0.1464     0.1055     2.5010
  666.5000     5.9270     5.7783     6.6241   147.3298     0.1075     0.1112     2.4950
  667.0000     5.7240     5.5411     6.6241   144.6168     0.1005     0.1128     2.4897
  667.5000     5.5279     5.3136     6.6391   144.0171     0.1052     0.1110     2.4919
  668.0000     5.3756     5.0954     6.6391   145.2330     0.1187     0.1046     2.5010
  668.5000     5.1556     4.7856     6.6391   145.5397     0.1325     0.0983     2.5130
  669.0000     4.9446     4.5260     6.6541   144.6393     0.1468     0.1011     2.5160
  669.5000     4.8084     4.4317     6.6541   145.8553     0.1343     0.1111     2.4964
  670.0000     4.8030     4.7149     6.6541   150.0924     0.1224     0.1232     2.4761
  670.5000     4.8735     4.9134     6.6541   149.1921     0.1353     0.1319     2.4587
  671.0000     5.0095     5.1558     6.6692   147.3854     0.1544     0.1332     2.4577
  671.5000     5.2940     5.4102     6.6692   145.8809     0.1629     0.1214     2.4843
  672.0000     5.5176     5.6380     6.6692   143.4700     0.1474     0.1054     2.5008
  672.5000     5.7927     5.8754     6.6692   140.4548     0.1258     0.1052     2.4993
  673.0000     6.1215     6.1653     6.6692   139.8536     0.1038     0.1106     2.4933
  673.5000     6.3408     6.3805     6.6692   142.8838     0.1025     0.1125     2.4918
  674.0000     6.5608     6.5581     6.6541   145.6088     0.1117     0.1095     2.4948
  674.5000     6.6987     6.6930     6.6541   145.6148     0.1206     0.1077     2.4978
  675.0000     6.7922     6.7378     6.6692   145.6208     0.1343     0.1080     2.5008
  675.5000     6.8301     6.7823     6.6692   147.4395     0.1413     0.1017     2.5068
  676.0000     6.8762     6.8271     6.6541   148.6540     0.1262     0.0987     2.5113
  676.5000     6.8744     6.8723     6.6541   147.4516     0.1294     0.1014     2.5097
  677.0000     6.9212     6.9177     6.6541   144.7385     0.1353     0.1042     2.5060
  677.5000     6.9675     6.9147     6.6541   142.3276     0.1341     0.1066     2.5007
  678.0000     6.9661     6.8646     6.6541   141.7264     0.1133     0.1078     2.4984
  678.5000     6.9646     6.8622     6.6391   143.5481     0.1014     0.1073     2.5037
  679.0000     6.9632     6.8125     6.6391   143.8562     0.1043     0.1006     2.5112
  679.5000     6.9137     6.8101     6.6391   143.5602     0.1361     0.0922     2.5172
  680.0000     6.9122     6.8078     6.6241   144.4725     0.1496     0.0898     2.5232
  680.5000     6.8631     6.8054     6.6241   146.8954     0.1345     0.0959     2.5202
  681.0000     6.8617     6.7561     6.6391   148.7141     0.1299     0.0965     2.5202
  681.5000     6.8129     6.7071     6.6391   148.4180     0.1419     0.0938     2.5209
  682.0000     6.8115     6.7048     6.6391   148.4240     0.1478     0.0908     2.5201
  682.5000     6.8101     6.7025     6.6541   149.9406     0.1447     0.0939     2.5171
  683.0000     6.7149     6.6539     6.6541   150.8530     0.1341     0.0966     2.5126
  683.5000     6.5754     6.5144     6.6541   148.4421     0.1205     0.1018     2.5080
  684.0000     6.4836     6.2895     6.6541   145.4269     0.1099     0.1063     2.5035
  684.5000     6.2615     6.0704     6.6541   145.7351     0.0993     0.1085     2.5005
  685.0000     6.0890     5.7394     6.6541   146.6474     0.1007     0.1094     2.4967
  685.5000     5.9213     5.5056     6.6391   149.0704     0.1127     0.1103     2.4914
  686.0000     5.7983     5.4311     6.6391   153.3060     0.1187     0.1137     2.4823
