~VERSION INFORMATION
 VERS.                2.0:   CWLS LOG ASCII STANDARD - VERSION 2.0
 WRAP.                 NO:   ONE LINE PER DEPTH STEP
~WELL INFORMATION
#MNEM.UNIT      DATA TYPE    INFORMATION
#----------   ------------   ------------------------------
 STRT.F           10.0000:   START DEPTH
 STOP.F          519.0000:   STOP DEPTH
 STEP.F            0.5000:   STEP LENGTH
 NULL.          -999.2500:   NO VALUE
 COMP. LAWRENCE/ALLISON INC:   COMPANY
 WELL.     56-16 SX #56-3:   WELL
 FLD .             TEAPOT:   FIELD
 LOC .       S3 T38N R78W:   LOCATION
 CNTY.            NATRONA:   COUNTY
 STAT.            WYOMING:   STATE
 CTRY. UNITED STATES OF AMERICA:   COUNTRY
 SRVC.           Gearhart:   SERVICE COMPANY
 DATE.        02-AUG-1987:   LOGDATE
 API .       490251115700:   API NUMBER
~CURVE INFORMATION
#MNEM.UNIT       API CODE    CURVE DESCRIPTION
#----------   ------------   ------------------------------
 DEPT.F                  :   
 GRR .GAPI   07 310 01 00:   GAMMA RAY
 ILD .OHMM   07 120 46 00:   INDUCTION LOG DEEP
 ILM .OHMM   07 120 44 00:   INDUCTION LOG MEDIUM
~PARAMETER INFORMATION
#MNEM.UNIT          VALUE    DESCRIPTION
#----------   ------------   ------------------------------
 PD  .                 GL:   PERMANENT DATUM
 EPD .F              5192:   ELEVATION PERMANENT DATUM
 LMF .                 KB:   LOG MEASURED FROM
 DAPD.F                 8:   FEET ABOVE PERMANENT DATUM
 DMF .                 KB:   DRILLING MEASURED FROM
 EKB .F              5200:   KELLING BUSHING
 EGL .F              5192:   GROUND LEVEL
 DATE.        02-JUN-1997:   RUN DATE
 RUN .                  1:   RUN NUMBER
 DD  .F               530:   DEPTH DRILLER
 DL  .F               527:   DEPTH LOGGER
 BLI .F               518:   BOTTOM LOG INTERVAL
 TLI .F                30:   TOP LOG INTERVAL
 CS  .IN            8.625:   CASING SIZE
 CBD .F                46:   CASING BOTTOM DRILLER
 CBL .F                48:   CASING BOTTOM LOGGER
 BS  .IN            7.875:   BIT SIZE
 BSD .F               530:   BIT SIZE AT DEPTH
 DFT .           NONE/AIR:   DRILLING FLUID TYPE
 TCS .HRS            0530:   TIME CURCULATED STOPPED
 MRT .F                80:   MAXIMUM RECORDED TEMPERATURE
 LUN .               7597:   LOGGING UNIT NUMBER
 LUL .           GILLETTE:   LOGGING UNIT LOCATION
 ENGI.        K.HUCKFELDT:   RECORDING ENGINEER
 WITN.        LYNDA FIVAS:   WITNESSED BY
 CLNT.            A2DTECH:   CLIENT CODE
 ORIG.           5" PRINT:   ORIGIN OF DATA
 UWI .       490251115700:   UNIQUE WELL ID
 DICO. A2D Technologies, Inc.:   DIGITIZING COMPANY
~OTHER INFORMATION
~A   DEPT       GRR       ILD        ILM   
# ...
  374.0000    74.4617    33.5680    36.1924
  374.5000    74.1836    33.1170    34.9718
  375.0000    74.5601    32.6787    34.2622
  375.5000    75.7449    32.0208    33.7546
  376.0000    76.3718    31.3729    32.4350
  376.5000    76.6970    30.9545    31.7769
  377.0000    76.4189    30.5448    31.1295
  377.5000    75.8333    30.1375    31.1427
  378.0000    74.9519    29.7356    30.5108
  378.5000    75.8863    29.3421    30.3073
  379.0000    77.1165    28.9508    29.6949
  379.5000    79.5757    28.9625    29.2951
  380.0000    81.7295    28.7716    28.7007
  380.5000    83.5279    28.7862    28.3144
  381.0000    84.7581    28.5965    27.9332
  381.5000    84.7817    28.6110    27.7492
  382.0000    84.4977    28.8211    27.7610
  382.5000    80.0023    29.0330    27.9640
  383.0000    78.8192    29.0450    27.9735
  383.5000    78.5352    29.0593    28.1780
  384.0000    78.5647    29.2727    28.5818
  384.5000    79.4942    29.2846    28.7908
  385.0000    80.4525    29.4997    28.8006
  385.5000    81.9595    29.3053    28.6109
  386.0000    82.8880    29.1152    28.4225
  386.5000    84.1182    29.1299    28.0423
  387.0000    84.4435    29.1417    27.8576
  387.5000    84.1595    28.7368    27.2900
  388.0000    84.7922    27.9828    26.7386
  388.5000    86.9274    27.4194    26.3786
  389.0000    89.3643    26.8646    26.0213
  389.5000    90.3016    25.9648    25.6732
  390.0000    86.5962    25.2667    25.1523
  390.5000    81.4942    24.5874    24.9696
  391.0000    79.8054    23.9263    24.4797
  391.5000    81.3432    23.2831    23.9850
  392.0000    83.7800    22.8122    23.4983
  392.5000    85.3119    22.2009    23.1800
  393.0000    85.3354    22.0568    22.7116
  393.5000    85.3590    21.6127    22.4059
  394.0000    86.2875    21.1797    21.9494
  394.5000    87.5177    20.6103    21.5059
  395.0000    87.5415    19.9179    21.2164
  395.5000    86.9231    19.5169    20.6137
  396.0000    85.4768    19.2563    19.9459
  396.5000    84.9029    18.8688    19.6757
  397.0000    84.3232    18.6114    19.2781
  397.5000    84.0392    18.3690    18.8869
  398.0000    84.0686    18.1241    18.3756
  398.5000    84.3939    17.8824    18.1267
  399.0000    84.1099    17.5241    17.7604
  399.5000    82.9327    17.4086    17.6433
  400.0000    81.7496    17.1765    17.5273
  400.5000    81.1652    16.8323    17.0528
  401.0000    82.6992    16.6109    16.7097
  401.5000    84.2280    16.3886    16.3717
  402.0000    84.8519    16.3982    16.0407
  402.5000    85.1741    16.0692    15.9253
  403.0000    83.6864    15.9659    15.7227
  403.5000    82.8020    15.8599    15.6202
  404.0000    86.7493    15.6388    15.5184
  404.5000    88.2781    15.5524    15.4173
  405.0000    89.2037    15.3461    15.4252
  405.5000    89.2243    15.2475    15.4315
  406.0000    89.2448    15.2565    15.3293
  406.5000    88.6621    15.2638    15.2310
  407.0000    87.7777    15.2710    15.2372
  407.5000    86.5916    15.2782    15.2434
  408.0000    86.0088    15.2854    15.2497
  408.5000    88.0171    15.3988    15.2564
  409.0000    92.6916    15.2998    15.4761
  409.5000    94.8187    15.2034    15.3752
  410.0000    92.4311    15.2106    15.3816
  410.5000    91.8484    15.3233    15.2813
  411.0000    92.1706    15.3306    15.1833
  411.5000    93.0961    15.3378    15.1895
  412.0000    93.1167    15.2375    15.0889
  412.5000    93.1373    15.0371    14.8884
  413.0000    93.1584    14.8375    14.8944
  413.5000    93.4852    14.6374    14.9005
  414.0000    94.4107    14.4465    14.7009
  414.5000    95.6379    14.3537    14.4037
  415.0000    98.0718    14.1633    14.3097
  415.5000   100.8073    14.0723    14.4154
  416.0000   101.7277    14.0806    14.4214
  416.5000   101.4510    13.9885    14.4286
  417.0000   101.1704    13.8046    14.2354
  417.5000   100.8896    13.8111    14.1412
  418.0000   101.2127    14.0100    14.1484
  418.5000   100.9307    14.1172    14.3522
  419.0000   100.0514    14.3174    14.4581
  419.5000    98.8653    14.4251    14.5633
  420.0000    98.2775    14.3307    14.4684
  420.5000    98.3032    14.1423    14.4758
  421.0000    99.5304    14.1489    14.4817
  421.5000    99.5509    14.0564    14.3873
  422.0000    98.3488    13.8699    14.1946
  422.5000    98.4263    13.7822    14.0045
  423.0000   100.2211    13.5996    13.8170
  423.5000   101.1467    13.4191    13.8240
  424.0000    99.9606    13.4257    13.6389
  424.5000    96.6629    13.4334    13.5500
  425.0000    95.1752    13.3456    13.5555
  425.5000    94.8889    13.1701    13.4658
  426.0000    95.2163    13.0839    13.2868
  426.5000    95.8402    12.9999    13.2001
  427.0000    97.3977    12.8274    13.1142
  427.5000   100.1097    12.7463    13.0287
  428.0000   102.2419    12.5774    12.7666
  428.5000   102.2624    12.4967    12.5956
  429.0000   101.0764    12.4164    12.3408
  429.5000   100.7901    12.1672    12.0076
  430.0000   100.5090    11.7607    11.6833
  430.5000   100.8364    11.3664    11.2891
  431.0000   101.4603    11.1370    10.7578
  431.5000   103.6088    10.7649    10.2514
  432.0000   104.5189    10.4762     9.9744
  432.5000   102.4321    10.1250     9.5051
  433.0000   101.2409     9.4530     9.1141
  433.5000   101.5683     8.6945     8.6665
  434.0000   104.6054     7.7681     7.8901
  434.5000   109.4526     7.0324     7.1619
  435.0000   113.3947     6.8430     6.4112
  435.5000   119.4484     6.7991     5.6208
  436.0000   126.1457     6.8031     5.3192
  436.5000   130.3499     6.8063     5.3958
  437.0000   125.2468     7.0005     5.8672
  437.5000   112.2960     7.2002     6.4691
  438.0000   105.6801     7.7729     7.3336
  438.5000   106.0023     8.6945     8.0870
  439.0000   106.3246     9.5345     8.7545
  439.5000   106.9484    10.3365     9.5968
  440.0000   106.9690    10.9295    10.4693
  440.5000   106.6845    11.0870    10.9193
  441.0000   107.3135    11.2467    10.9998
  441.5000   107.3341    11.4087    11.0810
  442.0000   106.7390    11.5730    11.0856
  442.5000   108.3208    11.7397    11.2452
  443.0000   111.7767    11.9088    11.5668
  443.5000   113.4547    12.1670    11.9804
  444.0000   112.8719    12.4367    12.3230
  444.5000   112.5857    12.6929    12.5876
  445.0000   112.6114    12.9651    12.9477
  445.5000   112.9336    13.1519    13.3191
  446.0000   111.4459    13.3413    13.5109
  446.5000   106.6399    13.6274    13.6106
  447.0000   103.9214    13.7284    13.7111
  447.5000   101.2512    13.9262    13.8123
  448.0000   103.0869    14.0294    14.0112
  448.5000   102.8058    14.1367    14.1146
  449.0000   101.9162    14.2516    14.2188
  449.5000   100.7301    14.5452    14.1260
  450.0000   100.7559    14.3508    14.0341
  450.5000   102.2847    14.4552    14.1378
  451.0000   103.2103    14.4591    14.4415
  451.5000   103.2308    14.6644    14.6507
  452.0000   100.8105    14.6684    14.6968
  452.5000    99.0539    14.4708    14.7591
  453.0000    97.8678    14.3750    14.7640
  453.5000    97.2799    14.3789    14.5653
  454.0000    98.5123    14.3837    14.5714
  454.5000    99.7395    14.2874    14.5764
  455.0000   100.9667    14.0960    14.5813
  455.5000   101.5906    14.0017    14.5862
  456.0000   100.7062    14.0064    14.4902
  456.5000    98.5993    14.0101    14.5958
  457.0000    97.0316    14.0139    14.6018
  457.5000    95.0415    14.0177    14.6068
  458.0000    94.1519    14.0215    14.6117
  458.5000    93.8708    13.9295    14.4150
  459.0000    94.1982    13.8363    14.2197
  459.5000    96.0287    13.6500    14.0295
  460.0000    99.0659    13.4670    13.7448
  460.5000   101.4997    13.1941    13.4659
  461.0000   104.6088    12.8376    13.1849
  461.5000   108.4949    12.5773    12.7477
  462.0000   111.8593    12.2376    12.4026
  462.5000   112.1456    12.1497    12.3199
  463.0000   110.9595    11.9110    12.0709
  463.5000   109.7734    11.8321    12.0750
  464.0000   107.9839    11.6728    11.9125
  464.5000   107.0995    11.5947    11.7520
