~VERSION INFORMATION
 VERS.                2.0:   CWLS LOG ASCII STANDARD - VERSION 2.0
 WRAP.                 NO:   ONE LINE PER DEPTH STEP
~WELL INFORMATION
#MNEM.UNIT      DATA TYPE    INFORMATION
#----------   ------------   ------------------------------
 STRT.F           12.5000:   START DEPTH
 STOP.F          688.0000:   STOP DEPTH
 STEP.F            0.5000:   STEP LENGTH
 NULL.          -999.2500:   NO VALUE
 COMP. FENIX & SCISSON INC:   COMPANY
 WELL. 26-66 SX 11 WO #26-11:   WELL
 FLD .             TEAPOT:   FIELD
 LOC .      S11 T38N R78W:   LOCATION
 CNTY.            NATRONA:   COUNTY
 STAT.            WYOMING:   STATE
 CTRY. UNITED STATES OF AMERICA:   COUNTRY
 SRVC.      Dresser Atlas:   SERVICE COMPANY
 DATE.        28-AUG-1980:   LOGDATE
 API .       490251084700:   API NUMBER
~CURVE INFORMATION
#MNEM.UNIT       API CODE    CURVE DESCRIPTION
#----------   ------------   ------------------------------
 DEPT.F                  :   
 SFL .OHMM   07 220 01 00:   SHALLOW FOCUSED LOG RESISTIVITY
 ILD .OHMM   07 120 46 00:   INDUCTION LOG DEEP
 ILM .OHMM   07 120 44 00:   INDUCTION LOG MEDIUM
 SPR .MV     07 010 01 00:   SPONTANEOUS POTENTIAL
 CORR.G/C3   45 356 01 00:   DENSITY CORRECTION
 RHOB.G/C3   45 350 01 00:   BULK DENSITY
 DPOR.DEC    45 890 12 00:   DENSITY POROSITY SANDSTONE
 NPOR.DEC    42 890 03 00:   NEUTRON POROSITY SANDSTONE
 GRD .GAPI   45 310 01 00:   GAMMA RAY FROM DENSITY LOG
~PARAMETER INFORMATION
#MNEM.UNIT          VALUE    DESCRIPTION
#----------   ------------   ------------------------------
 PD  .                 GL:   PERMANENT DATUM
 EPD .F              5194:   ELEVATION PERMANENT DATUM
 LMF .                 KB:   LOG MEASURED FROM
 DAPD.F                 5:   FEET ABOVE PERMANENT DATUM
 DMF .                 KB:   DRILLING MEASURED FROM
 EKB .F              5199:   KELLING BUSHING
 EGL .F              5194:   GROUND LEVEL
 DATE.          8-28-1980:   RUN DATE
 RUN .                  1:   RUN NUMBER
 DD  .F               700:   DEPTH DRILLER
 DL  .F               689:   DEPTH LOGGER
 BLI .F               688:   BOTTOM LOG INTERVAL
 TLI .F                14:   TOP LOG INTERVAL
 BS  .IN             8.75:   BIT SIZE
 BSD .F               700:   BIT SIZE AT DEPTH
 DFT .                KCL:   DRILLING FLUID TYPE
 DFD .                8.8:   DRILLING FLUID DENSITY
 DFV .                 55:   DRILLING FLUID VISCOSITY
 DFPH.                 11:   DRILLING FLUID PH
 DFL .                  8:   DRILLING FLUID LOSS
 MSS .           FLOWLINE:   MUD SAMPLE SOURCE
 RMS .OHMM            .72:   RESISTIVITY MUD SAMPLE
 MST .F                66:   MUD SAMPLE TEMPERATURE
 RMF .OHMM            .21:   RESISTIVITY MUD FILTRATE SAMPLE
 MFST.F                66:   MUD FILTRATE SAMPLE TEMPERATURE
 RMC .OHMM           1.24:   RESISTIVITY MUD CAKE
 MCST.F                66:   MUD CAKE SAMPLE TEMPERATURE
 MFSS.               MEAS:   MUD FILTRATE SAMPLE SOURCE
 MCSS.               MEAS:   MUD CAKE SAMPLE SOURCE
 BHT .F               100:   BOTTOM HOLE TEMPERATURE
 TCS .HRS               2:   TIME CURCULATED STOPPED
 MRT .F               100:   MAXIMUM RECORDED TEMPERATURE
 LUN .               6240:   LOGGING UNIT NUMBER
 LUL .               RYTN:   LOGGING UNIT LOCATION
 ENGI.           J. GETTY:   RECORDING ENGINEER
 WITN.              FIVAS:   WITNESSED BY
 CLNT.            A2DTECH:   CLIENT CODE
 ORIG.      1" 2.5" PRINT:   ORIGIN OF DATA
 UWI .       490251084700:   UNIQUE WELL ID
 DICO. A2D Technologies, Inc.:   DIGITIZING COMPANY
~OTHER INFORMATION
~A   DEPT      SFL        ILD        ILM        SPR       CORR       RHOB       DPOR         NPOR      GRD   
# ...
  158.5000     6.9528     6.5165     6.8270   -77.6939     0.0443     2.4701     0.1310     0.3597   129.5212
  159.0000     6.9572     6.5786     6.8270   -77.2713     0.0480     2.4843     0.1234     0.3607   129.4274
  159.5000     6.9586     6.6258     6.8270   -76.4832     0.0474     2.4936     0.1159     0.3500   129.2499
  160.0000     6.9499     6.6751     6.8270   -75.7057     0.0454     2.4846     0.1104     0.3366   125.9050
  160.5000     7.2652     6.7247     6.9528   -75.1997     0.0435     2.4636     0.1213     0.3232   120.7502
  161.0000     7.6299     6.7748     7.2173   -75.2219     0.0416     2.4495     0.1379     0.3167   117.6174
  161.5000     7.4704     6.8270     7.1671   -75.2176     0.0397     2.4560     0.1357     0.3147   117.1448
  162.0000     7.2414     6.6969     7.0057   -75.9766     0.0380     2.4575     0.1315     0.3004   119.2490
  162.5000     7.0194     6.5645     6.8477   -76.9656     0.0362     2.4532     0.1343     0.3093   121.2010
  163.0000     6.8042     6.4348     6.6932   -77.7046     0.0422     2.4586     0.1363     0.3315   123.5713
  163.5000     6.4578     6.3077     6.5423   -77.2601     0.0515     2.4769     0.1240     0.3448   127.2197
  164.0000     6.4783     6.2228     6.3406   -76.4365     0.0603     2.4937     0.1139     0.3408   131.5886
  164.5000     6.5427     6.2228     6.3734   -75.9845     0.0680     2.5066     0.1037     0.3353   133.1505
  165.0000     6.6077     6.2228     6.4321   -76.0355     0.0581     2.4873     0.1037     0.3229   132.9574
  165.5000     6.6733     6.2221     6.4924   -76.0162     0.0433     2.4647     0.1216     0.3145   124.8002
  166.0000     6.7396     6.2650     6.5521   -75.9687     0.0286     2.4457     0.1394     0.3115   119.5552
  166.5000     6.8065     6.3748     6.6124   -75.3965     0.0169     2.4517     0.1378     0.3041   120.3069
  167.0000     6.8741     6.4865     6.6732   -75.0063     0.0201     2.4594     0.1338     0.2996   124.3972
  167.5000     6.9547     6.6000     6.7819   -74.5580     0.0227     2.4677     0.1299     0.3163   126.0685
  168.0000     7.1045     6.7031     6.9345   -74.4764     0.0276     2.4750     0.1259     0.3302   126.4083
  168.5000     7.2912     6.8833     7.0904   -74.7006     0.0183     2.4455     0.1235     0.3440   123.0154
  169.0000     7.4829     7.0501     7.2498   -74.9085    -0.0037     2.3981     0.1542     0.3396   120.8557
  169.5000     7.6796     7.2193     7.4129   -75.0998    -0.0227     2.3680     0.1849     0.3256   120.6826
  170.0000     7.8814     7.3943     7.5796   -75.3039    -0.0260     2.3909     0.1849     0.2916   121.7235
  170.5000     8.2170     7.4898     7.7500   -75.5145     0.0033     2.4318     0.1562     0.2749   123.6644
  171.0000     8.1669     7.4286     7.9180   -75.6207     0.0145     2.4718     0.1323     0.2948   122.2952
  171.5000     8.0407     7.3737     7.7171   -75.6097     0.0321     2.4827     0.1181     0.2967   121.1880
  172.0000     7.9165     7.3070     7.5279   -75.5137     0.0410     2.4811     0.1183     0.2996   120.6056
  172.5000     7.7726     7.1287     7.3434   -75.4249     0.0414     2.4936     0.1137     0.3054   121.3843
  173.0000     7.5907     6.9547     7.1634   -75.3294     0.0433     2.5010     0.1068     0.3068   122.1203
  173.5000     7.3750     6.7849     6.9878   -75.2317     0.0449     2.4912     0.1092     0.3044   119.5958
  174.0000     7.1655     6.6193     6.8165   -75.3174     0.0463     2.4853     0.1170     0.3112   116.8918
  174.5000     6.9619     6.4578     6.6495   -75.4766     0.0478     2.4880     0.1161     0.3180   115.6977
  175.0000     6.7640     6.3002     6.4578   -75.6030     0.0443     2.4887     0.1137     0.3234   118.3261
  175.5000     6.4606     6.1464     6.4578   -75.4389     0.0393     2.4848     0.1138     0.3187   121.4974
  176.0000     6.5036     6.1086     6.5233   -75.3048     0.0336     2.4796     0.1175     0.3123   124.6058
  176.5000     6.6278     6.1838     6.6116   -75.1640     0.0359     2.4748     0.1212     0.3202   125.8832
  177.0000     6.7545     6.2965     6.7012   -75.0186     0.0435     2.4766     0.1235     0.3361   127.0752
  177.5000     6.8838     6.4111     6.7919   -74.8680     0.0507     2.4852     0.1211     0.3353   127.4219
  178.0000     7.0156     6.5279     6.8839   -74.7829     0.0577     2.4973     0.1151     0.3318   128.3249
  178.5000     7.1497     6.6468     6.9772   -74.6833     0.0561     2.4874     0.1084     0.3282   129.7939
  179.0000     7.2862     6.7678     7.0717   -74.5862     0.0374     2.4579     0.1203     0.3202   131.3301
  179.5000     7.4251     6.8911     7.1674   -74.4729     0.0167     2.4299     0.1402     0.2996   131.7274
  180.0000     7.5595     7.0848     7.2645   -74.3735     0.0157     2.4418     0.1490     0.3008   129.5781
  180.5000     7.6299     6.9547     7.3523   -74.0605     0.0377     2.4981     0.1390     0.3147   125.4802
  181.0000     7.6299     6.9992     7.3534   -73.7803     0.0514     2.4935     0.1092     0.2978   121.8399
  181.5000     7.6299     7.0397     7.3511   -73.6909     0.0344     2.4730     0.1146     0.2841   120.6787
  182.0000     7.6299     7.0848     7.3977   -74.2022     0.0141     2.4512     0.1281     0.2733   120.4791
  182.5000     7.6589     7.1749     7.4751   -74.6784     0.0278     2.4714     0.1363     0.2749   122.5065
  183.0000     7.7133     7.2771     7.5535   -75.1627     0.0549     2.5001     0.1209     0.2880   124.9114
  183.5000     7.7680     7.3808     7.6329   -74.7599     0.0600     2.5226     0.0933     0.2953   126.1363
  184.0000     7.8232     7.4898     7.7130   -74.3669     0.0489     2.4861     0.1006     0.3012   124.9749
  184.5000     7.8787     7.4471     7.7940   -73.9959     0.0183     2.4397     0.1104     0.3115   123.6906
  185.0000     7.9347     7.4031     7.9180   -74.1656     0.0221     2.4473     0.1433     0.2996   124.3684
  185.5000     7.9910     7.3593     7.8586   -74.3207     0.0284     2.4578     0.1372     0.2876   125.3907
  186.0000     8.0661     7.3158     7.7322   -74.3379     0.0359     2.4695     0.1291     0.2725   125.8087
  186.5000     7.9576     7.2725     7.6078   -74.1310     0.0372     2.4560     0.1243     0.2898   123.3338
  187.0000     7.8004     7.2295     7.4855   -73.9178     0.0269     2.4412     0.1334     0.3000   121.2674
  187.5000     7.6490     7.1868     7.3651   -73.7091     0.0172     2.4229     0.1426     0.3086   121.0244
  188.0000     7.4977     7.1443     7.2231   -73.7027     0.0070     2.4051     0.1558     0.3137   122.2082
  188.5000     7.3547     7.1020     7.2349   -74.1894    -0.0035     2.3922     0.1689     0.3147   124.8843
  189.0000     7.4339     7.0596     7.2584   -74.6720    -0.0080     2.3892     0.1697     0.3155   125.6063
  189.5000     7.5114     7.0175     7.2820   -74.4693     0.0003     2.4095     0.1689     0.3107   124.7078
  190.0000     7.5896     6.9555     7.3056   -74.0605     0.0126     2.4446     0.1507     0.3071   124.4805
  190.5000     7.6684     6.9613     7.3294   -73.5918     0.0250     2.4764     0.1325     0.3104   125.9456
  191.0000     7.7722     6.9780     7.3523   -73.6597     0.0359     2.4705     0.1179     0.3171   124.0338
  191.5000     7.6819     6.9948     7.3743   -73.7379     0.0346     2.4646     0.1230     0.3237   123.1061
  192.0000     7.5491     7.0116     7.3956   -73.8379     0.0320     2.4567     0.1293     0.3290   123.9323
  192.5000     7.3551     7.0283     7.4170   -73.9441     0.0277     2.4530     0.1339     0.3070   126.0435
  193.0000     7.4512     7.0448     7.4384   -73.9084     0.0281     2.4499     0.1363     0.2924   129.1541
  193.5000     7.6750     7.0613     7.4599   -73.7657     0.0297     2.4576     0.1363     0.2861   130.2620
  194.0000     7.9144     7.0779     7.4815   -73.6293     0.0353     2.4753     0.1287     0.2940   129.1675
  194.5000     7.9414     7.0980     7.4900   -73.5017     0.0304     2.4671     0.1211     0.3010   122.9377
