~VERSION INFORMATION
 VERS.                2.0:   CWLS LOG ASCII STANDARD - VERSION 2.0
 WRAP.                 NO:   ONE LINE PER DEPTH STEP
~WELL INFORMATION
#MNEM.UNIT      DATA TYPE    INFORMATION
#----------   ------------   ------------------------------
 STRT.F           28.5000:   START DEPTH
 STOP.F          781.0000:   STOP DEPTH
 STEP.F            0.5000:   STEP LENGTH
 NULL.          -999.2500:   NO VALUE
 COMP. FENIX & SCISSON INC:   COMPANY
 WELL. NPR 3 23 SX 14 #23-14:   WELL
 FLD .        TEAPOT DOME:   FIELD
 LOC .      S14 T38N R78W:   LOCATION
 CNTY.            NATRONA:   COUNTY
 STAT.            WYOMING:   STATE
 CTRY. UNITED STATES OF AMERICA:   COUNTRY
 SRVC.            Unknown:   SERVICE COMPANY
 DATE.        13-MAY-1978:   LOGDATE
 API .       490251063400:   API NUMBER
~CURVE INFORMATION
#MNEM.UNIT       API CODE    CURVE DESCRIPTION
#----------   ------------   ------------------------------
 DEPT.F                  :   
 RHOB.G/C3   45 350 01 00:   BULK DENSITY
 DPHI.DEC    45 890 12 00:   DENSITY POROSITY SANDSTONE
 GRD .GAPI   45 310 01 00:   GAMMA RAY FROM DENSITY LOG
 CALD.IN     45 280 60 00:   CALIPER FROM DENSITY LOG
 CORR.G/C3   45 356 01 00:   DENSITY CORRECTION
 SN  .OHMM   05 040 16 00:   SHORT NORMAL 16"
 SPR .MV     05 010 01 00:   SPONTANEOUS POTENTIAL FROM RES.
 ILD .OHMM   05 120 46 00:   INDUCTION LOG DEEP
~PARAMETER INFORMATION
#MNEM.UNIT          VALUE    DESCRIPTION
#----------   ------------   ------------------------------
 PD  .                 GL:   PERMANENT DATUM
 EPD .F              5202:   ELEVATION PERMANENT DATUM
 LMF .                 KB:   LOG MEASURED FROM
 DMF .                 KB:   DRILLING MEASURED FROM
 EKB .F              5206:   KELLING BUSHING
 EGL .F              5202:   GROUND LEVEL
 DATE.          5-13-1978:   RUN DATE
 RUN .                  1:   RUN NUMBER
 DD  .F               785:   DEPTH DRILLER
 DL  .F               776:   DEPTH LOGGER
 BLI .F               770:   BOTTOM LOG INTERVAL
 TLI .F                50:   TOP LOG INTERVAL
 CS  .IN            8.625:   CASING SIZE
 CBD .F                40:   CASING BOTTOM DRILLER
 CBL .F                40:   CASING BOTTOM LOGGER
 BS  .IN            7.875:   BIT SIZE
 BSD .F               785:   BIT SIZE AT DEPTH
 DFT .                KCL:   DRILLING FLUID TYPE
 DFD .                8.6:   DRILLING FLUID DENSITY
 DFV .                 30:   DRILLING FLUID VISCOSITY
 DFPH.                 10:   DRILLING FLUID PH
 DFL .                 14:   DRILLING FLUID LOSS
 MSS .           FLOWLINE:   MUD SAMPLE SOURCE
 RMS .OHMM             .4:   RESISTIVITY MUD SAMPLE
 MST .F                69:   MUD SAMPLE TEMPERATURE
 RMF .OHMM            .36:   RESISTIVITY MUD FILTRATE SAMPLE
 MFST.F                72:   MUD FILTRATE SAMPLE TEMPERATURE
 RMC .OHMM            .56:   RESISTIVITY MUD CAKE
 MCST.F                73:   MUD CAKE SAMPLE TEMPERATURE
 MFSS.               MEAS:   MUD FILTRATE SAMPLE SOURCE
 RMB .OHMM            .35:   RESISTIVITY MUD AT BHT
 BHT .F                79:   BOTTOM HOLE TEMPERATURE
 TCS .HRS               2:   TIME CURCULATED STOPPED
 MRT .F                79:   MAXIMUM RECORDED TEMPERATURE
 LUN .               3006:   LOGGING UNIT NUMBER
 LUL .              CASP.:   LOGGING UNIT LOCATION
 ENGI.             MILLER:   RECORDING ENGINEER
 WITN.           MCGINLEY:   WITNESSED BY
 CLNT.            A2DTECH:   CLIENT CODE
 ORIG.           5" PRINT:   ORIGIN OF DATA
 UWI .       490251063400:   UNIQUE WELL ID
 DICO. A2D Technologies, Inc.:   DIGITIZING COMPANY
~OTHER INFORMATION
~A   DEPT     RHOB       DPHI         GRD      CALD       CORR         SN        SPR        ILD   
# ...
  352.5000     2.4824     0.1013    72.8265     7.6500     0.0651    10.7069   -62.3562     9.4316
  353.0000     2.4768     0.1068    70.0577     7.6500     0.0555    10.6255   -62.4288     9.3634
  353.5000     2.4748     0.1070    70.9087     7.6502     0.0480    10.5448   -62.5015     9.3475
  354.0000     2.4763     0.1054    71.7372     7.6440     0.0487    10.4647   -62.5742     9.3391
  354.5000     2.4778     0.1037    72.4882     7.6367     0.0492    10.3851   -62.6468     9.3306
  355.0000     2.4794     0.1022    72.5040     7.6294     0.0497    10.3467   -62.7196     9.3222
  355.5000     2.4826     0.0937    72.5005     7.6222     0.0500    10.4051   -62.7928     9.3138
  356.0000     2.4913     0.0918    73.2257     7.6149     0.0473    10.4559   -62.8651     9.3054
  356.5000     2.4984     0.0931    74.6820     7.6076     0.0448    10.5069   -62.8978     9.2969
  357.0000     2.4957     0.0948    75.1853     7.6004     0.0422    10.5582   -62.7515     9.2885
  357.5000     2.4917     0.0987    69.6921     7.5928     0.0397    10.6097   -62.6091     9.2801
  358.0000     2.4806     0.1026    68.3061     7.6202     0.0377    10.6359   -62.4670     9.2717
  358.5000     2.4695     0.1069    68.3844     7.6677     0.0367    10.3756   -62.3249     9.2529
  359.0000     2.4650     0.1113    68.8811     7.6518     0.0356    10.2008   -62.1829     9.2033
  359.5000     2.4638     0.1153    70.8882     7.5790     0.0346    10.0294   -62.0406     9.1542
  360.0000     2.4578     0.1182    72.8676     7.4691     0.0341     9.8610   -61.8971     9.1054
  360.5000     2.4512     0.1210    73.7837     7.4042     0.0341     9.7928   -61.7426     9.0569
  361.0000     2.4461     0.1231    70.7109     7.3924     0.0341     9.9399   -62.1875     9.0086
  361.5000     2.4446     0.1234    68.0403     7.3807     0.0341    10.0886   -62.7198     8.9606
  362.0000     2.4453     0.1234    69.5891     7.3688     0.0338    10.2396   -62.9036     8.9128
  362.5000     2.4460     0.1251    72.1968     7.3032     0.0334    10.3478   -63.0799     8.8653
  363.0000     2.4466     0.1299    73.9113     7.2329     0.0330    10.2353   -63.0943     8.7928
  363.5000     2.4374     0.1373    73.0998     7.2376     0.0327    10.1340   -63.0576     8.6794
  364.0000     2.4257     0.1446    70.9217     7.2470     0.0323    10.0337   -63.0195     8.5675
  364.5000     2.4140     0.1479    69.6095     7.2248     0.0320     9.9343   -62.9818     8.4571
  365.0000     2.4071     0.1457    70.2462     7.1849     0.0374     9.8359   -62.9420     8.3480
  365.5000     2.4136     0.1415    71.1588     7.1140     0.0456     9.7385   -62.8010     8.2404
  366.0000     2.4210     0.1373    72.0773     7.0181     0.0494     9.6421   -62.5164     8.1757
  366.5000     2.4266     0.1343    72.8912     6.9047     0.0478     9.5466   -62.2309     8.1189
  367.0000     2.4287     0.1345    72.8251     6.6675     0.0463     9.4521   -61.9439     8.0625
  367.5000     2.4299     0.1340    72.7482     6.3273     0.0448     9.3531   -62.1329     8.0065
  368.0000     2.4308     0.1287    72.7439     6.3505     0.0446     9.4187   -62.3618     7.9509
  368.5000     2.4352     0.1235    72.8656     6.4614     0.0455     9.4889   -62.5869     7.8957
  369.0000     2.4395     0.1222    74.1638     6.6431     0.0464     9.5596   -62.7068     7.8409
  369.5000     2.4389     0.1297    75.7112     6.8750     0.0474     9.6144   -62.6586     7.7864
  370.0000     2.4349     0.1359    76.2114     7.1076     0.0487     9.5393   -62.6131     7.7323
  370.5000     2.4310     0.1319    76.7316     7.3276     0.0514     9.4241   -62.5671     7.6786
  371.0000     2.4303     0.1255    76.8681     7.3878     0.0599     9.3101   -62.4943     7.6253
  371.5000     2.4363     0.1192    74.3322     7.4425     0.0693     9.1975   -62.2248     7.5724
  372.0000     2.4451     0.1128    69.1548     7.5063     0.0787     9.0862   -61.9530     7.5198
  372.5000     2.4540     0.1065    68.0440     7.5814     0.0881     8.9764   -61.7203     7.4675
  373.0000     2.4629     0.1034    70.9078     7.6563     0.0960     8.8678   -61.9015     7.4160
  373.5000     2.4713     0.1191    72.9251     7.7338     0.0879     8.7606   -62.2792     7.3652
  374.0000     2.4612     0.1331    72.8885     7.7378     0.0570     8.6546   -63.0400     7.2483
  374.5000     2.4341     0.1395    73.2287     7.7163     0.0272     8.5500   -63.7850     7.1351
  375.0000     2.4245     0.1348    73.6475     7.6936     0.0301     8.4466   -64.3588     7.0241
  375.5000     2.4331     0.1301    73.8336     7.6996     0.0343     8.3766   -64.4906     6.9148
  376.0000     2.4419     0.1254    73.5494     7.7116     0.0380     8.3766   -64.6243     6.8072
  376.5000     2.4508     0.1206    72.8243     7.7232     0.0384     8.3000   -64.6900     6.7013
  377.0000     2.4572     0.1186    72.3331     7.7107     0.0387     8.3705   -64.6230     6.6575
  377.5000     2.4531     0.1257    72.5448     7.6686     0.0390     8.4313   -64.5583     6.7744
  378.0000     2.4440     0.1276    72.7414     7.6268     0.0393     8.4927   -64.4932     6.8599
  378.5000     2.4351     0.1329    72.9357     7.5807     0.0396     8.5542   -64.4282     6.9465
  379.0000     2.4270     0.1347    73.0118     7.5141     0.0399     8.6122   -64.3633     7.0342
  379.5000     2.4258     0.1366    72.3269     7.4461     0.0424     8.5138   -64.2986     7.1230
  380.0000     2.4250     0.1355    71.8184     7.3630     0.0508     8.4066   -64.2362     7.1653
  380.5000     2.4388     0.1281    72.0166     7.2045     0.0661     8.3008   -64.1702     7.1653
  381.0000     2.4546     0.1207    74.0445     7.0461     0.0785     8.1963   -63.9113     7.1653
  381.5000     2.4587     0.1133    76.3588     6.8889     0.0782     8.0744   -62.6853     7.1916
  382.0000     2.4638     0.1106    78.0570     6.7661     0.0745     8.1266   -61.5359     7.2359
  382.5000     2.4670     0.1177    77.5975     6.8426     0.0692     8.1902   -62.1872     7.2804
  383.0000     2.4551     0.1244    76.9398     6.9514     0.0563     8.4716   -62.9862     7.3253
  383.5000     2.4427     0.1286    75.1406     7.0648     0.0436     8.6756   -63.7716     7.3656
  384.0000     2.4406     0.1269    72.8331     7.1121     0.0426     8.8514   -64.2880     7.3302
  384.5000     2.4438     0.1252    72.8901     7.1509     0.0414     8.8458   -63.9983     7.2983
  385.0000     2.4469     0.1236    72.8857     7.1255     0.0401     8.8397   -63.7284     7.2666
  385.5000     2.4501     0.1219    73.5363     7.0990     0.0393     8.8337   -63.7499     7.2350
  386.0000     2.4531     0.1203    73.8950     7.0727     0.0385     8.8277   -63.7868     7.2036
  386.5000     2.4563     0.1186    74.1690     7.0464     0.0369     8.8217   -63.8225     7.1723
  387.0000     2.4546     0.1206    75.2364     7.0203     0.0340     8.8157   -63.8582     7.1411
  387.5000     2.4502     0.1239    77.4659     6.9952     0.0310     8.8097   -63.8912     7.1101
  388.0000     2.4458     0.1271    79.2570     6.9349     0.0321     8.8036   -63.8114     7.0792
  388.5000     2.4413     0.1295    79.6771     6.8692     0.0352     8.7977   -63.4591     7.0349
  389.0000     2.4373     0.1301    79.2205     6.8496     0.0392     8.7916   -63.1116     7.0467
  389.5000     2.4373     0.1301    78.5067     6.8501     0.0493     8.7857   -62.7638     7.0679
  390.0000     2.4435     0.1255    77.9273     6.9636     0.0595     8.7798   -62.4162     7.0891
  390.5000     2.4549     0.1210    77.9640     7.0650     0.0700     8.7737   -62.0684     7.1104
  391.0000     2.4649     0.1164    78.0136     7.2126     0.0727     8.7308   -61.7203     7.1318
  391.5000     2.4672     0.1118    78.0617     7.3959     0.0734     8.6448   -61.3774     7.1533
  392.0000     2.4669     0.1105    77.9880     7.4818     0.0740     8.5598   -61.1283     7.1748
  392.5000     2.4678     0.1063    77.3646     7.5473     0.0747     8.4531   -61.1305     7.1964
