~VERSION INFORMATION
 VERS.                2.0:   CWLS LOG ASCII STANDARD - VERSION 2.0
 WRAP.                 NO:   ONE LINE PER DEPTH STEP
~WELL INFORMATION
#MNEM.UNIT      DATA TYPE    INFORMATION
#----------   ------------   ------------------------------
 STRT.F           34.5000:   START DEPTH
 STOP.F          756.0000:   STOP DEPTH
 STEP.F            0.5000:   STEP LENGTH
 NULL.          -999.2500:   NO VALUE
 COMP. FENIX & SCISSON INC:   COMPANY
 WELL.    36 SX 11 #36-11:   WELL
 FLD .        TEAPOT DOME:   FIELD
 LOC .      S11 T38N R78W:   LOCATION
 CNTY.            NATRONA:   COUNTY
 STAT.            WYOMING:   STATE
 CTRY. UNITED STATES OF AMERICA:   COUNTRY
 SRVC.           BIRDWELL:   SERVICE COMPANY
 DATE.        21-FEB-1978:   LOGDATE
 API .       490251059700:   API NUMBER
~CURVE INFORMATION
#MNEM.UNIT       API CODE    CURVE DESCRIPTION
#----------   ------------   ------------------------------
 DEPT.F                  :   
 SPR .MV     05 010 01 00:   SPONTANEOUS POTENTIAL FROM RES.
 SN  .OHMM   05 040 16 00:   SHORT NORMAL 16"
 ILD .OHMM   05 120 46 00:   INDUCTION LOG DEEP
 RHOB.G/C3   45 350 01 00:   BULK DENSITY
 DPHI.DEC    45 890 12 00:   DENSITY POROSITY SANDSTONE
 GRD .GAPI   45 310 01 00:   GAMMA RAY FROM DENSITY LOG
 CALD.IN     45 280 60 00:   CALIPER
 CORR.G/C3   45 356 01 00:   DENSITY CORRECTION
~PARAMETER INFORMATION
#MNEM.UNIT          VALUE    DESCRIPTION
#----------   ------------   ------------------------------
 PD  .                 GL:   PERMANENT DATUM
 EPD .F              5175:   ELEVATION PERMANENT DATUM
 LMF .                 KB:   LOG MEASURED FROM
 DAPD.F                 4:   FEET ABOVE PERMANENT DATUM
 DMF .                 KB:   DRILLING MEASURED FROM
 EKB .F              5179:   KELLING BUSHING
 EGL .F              5175:   GROUND LEVEL
 DATE.          2-21-1978:   RUN DATE
 RUN .                  1:   RUN NUMBER
 DD  .F               765:   DEPTH DRILLER
 DL  .F               760:   DEPTH LOGGER
 BLI .F               754:   BOTTOM LOG INTERVAL
 TLI .F                40:   TOP LOG INTERVAL
 CS  .IN            8.625:   CASING SIZE
 CBD .F                39:   CASING BOTTOM DRILLER
 CBL .F                40:   CASING BOTTOM LOGGER
 BS  .IN            7.875:   BIT SIZE
 BSD .F               765:   BIT SIZE AT DEPTH
 DFT .         LIGNO/SULF:   DRILLING FLUID TYPE
 DFD .                8.6:   DRILLING FLUID DENSITY
 DFV .                 33:   DRILLING FLUID VISCOSITY
 DFPH.               10.5:   DRILLING FLUID PH
 DFL .                 84:   DRILLING FLUID LOSS
 MSS .          FLOW LINE:   MUD SAMPLE SOURCE
 RMS .OHMM            1.8:   RESISTIVITY MUD SAMPLE
 MST .F                56:   MUD SAMPLE TEMPERATURE
 RMF .OHMM            1.8:   RESISTIVITY MUD FILTRATE SAMPLE
 MFST.F                58:   MUD FILTRATE SAMPLE TEMPERATURE
 RMC .OHMM              4:   RESISTIVITY MUD CAKE
 MCST.F                62:   MUD CAKE SAMPLE TEMPERATURE
 MFSS.               MEAS:   MUD FILTRATE SAMPLE SOURCE
 RMB .OHMM           1.48:   RESISTIVITY MUD AT BHT
 BHT .F                68:   BOTTOM HOLE TEMPERATURE
 TCS .HRS               5:   TIME CURCULATED STOPPED
 MRT .F                68:   MAXIMUM RECORDED TEMPERATURE
 LUN .               2958:   LOGGING UNIT NUMBER
 LUL .               CASP:   LOGGING UNIT LOCATION
 ENGI.            POINTER:   RECORDING ENGINEER
 WITN.           MCGINLEY:   WITNESSED BY
 CLNT.            A2DTECH:   CLIENT CODE
 ORIG.       2", 5" PRINT:   ORIGIN OF DATA
 UWI .       490251059700:   UNIQUE WELL ID
 DICO. A2D Technologies, Inc.:   DIGITIZING COMPANY
~OTHER INFORMATION
~A   DEPT      SPR         SN        ILD       RHOB       DPHI         GRD      CALD       CORR   
# ...
  237.0000   -24.6920     9.3342     8.5105     2.4604     0.1210   129.2628     7.9939     0.0185
  237.5000   -24.9376     9.4619     8.5991     2.4647     0.1197   127.9898     7.9939     0.0226
  238.0000   -25.2094     9.5914     8.6886     2.4691     0.1167   129.7064     7.9940     0.0266
  238.5000   -25.4814     9.7227     8.7791     2.4736     0.1142   127.8481     7.9940     0.0306
  239.0000   -25.7528     9.8558     8.8705     2.4762     0.1134   125.2743     7.9911     0.0356
  239.5000   -26.0261     9.9907     8.9628     2.4787     0.1120   123.9850     7.9871     0.0422
  240.0000   -26.2974    10.1356     9.0362     2.4840     0.1107   123.9754     7.9831     0.0487
  240.5000   -26.2335    10.1889     9.1030     2.4897     0.1115   120.6689     7.9791     0.0548
  241.0000   -26.1460    10.2611     9.1702     2.4850     0.1146   117.0577     7.9752     0.0534
  241.5000   -26.0822    10.3338     9.2379     2.4765     0.1159   119.9739     7.9712     0.0516
  242.0000   -26.0020    10.4070     9.3062     2.4752     0.1152   123.9035     7.9672     0.0497
  242.5000   -25.9242    10.4808     9.3749     2.4832     0.1146   125.6830     7.9632     0.0366
  243.0000   -25.7225    10.5550     9.4441     2.4796     0.1131   117.2247     7.9592     0.0129
  243.5000   -25.4121    10.6152     9.5008     2.4762     0.1117   108.8615     7.9551     0.0147
  244.0000   -25.1362    10.6152     9.5003     2.4832     0.1106   107.0293     7.9639     0.0146
  244.5000   -24.6872    10.6152     9.5004     2.4912     0.1127   107.4360     7.9807     0.0100
  245.0000   -24.7959    10.5536     9.5003     2.4964     0.1224   112.9842     7.9976     0.0062
  245.5000   -24.9097    10.4070     9.4727     2.4848     0.1262   117.7234     8.0146     0.0050
  246.0000   -25.0274    10.2729     9.4080     2.4592     0.1262   118.7111     8.0317     0.0051
  246.5000   -25.1444    10.1539     9.3437     2.4466     0.1241   116.2150     8.0323     0.0069
  247.0000   -25.2633    10.0361     9.2799     2.4596     0.1221   113.3486     8.0276     0.0087
  247.5000   -25.3225     9.9196     9.2165     2.4558     0.1202   113.0541     8.0230     0.0105
  248.0000   -25.4186     9.8583     9.1533     2.4565     0.1186   117.9236     8.0184     0.0129
  248.5000   -25.5107     9.8583     9.0714     2.4762     0.1152   118.0361     8.0142     0.0119
  249.0000   -25.6054     9.8583     9.1136     2.4754     0.1121   114.4729     8.0139     0.0110
  249.5000   -25.7024     9.8583     9.1786     2.4764     0.1107   111.1460     8.0136     0.0101
  250.0000   -25.9188     9.8583     9.2434     2.4878     0.1095   114.2913     8.0134     0.0092
  250.5000   -25.8633     9.8583     9.3086     2.4950     0.1082   120.6223     8.0131     0.0083
  251.0000   -25.8151     9.8583     9.3743     2.4874     0.1080   122.1842     8.0128     0.0074
  251.5000   -25.7715     9.8583     9.4405     2.4790     0.1101   113.2620     8.0126     0.0065
  252.0000   -25.7271     9.8583     9.5005     2.4872     0.1135   111.8860     8.0123     0.0056
  252.5000   -25.7108     9.8583     9.5004     2.4902     0.1166   112.0463     8.0120     0.0056
  253.0000   -25.8144     9.8583     9.5003     2.4756     0.1074   111.3134     8.0118     0.0102
  253.5000   -25.9160     9.8583     9.5002     2.4878     0.0962   110.9882     8.0115     0.0204
  254.0000   -26.0170     9.8583     9.4999     2.5108     0.0956   111.2410     8.0112     0.0305
  254.5000   -26.1080     9.8583     9.5003     2.5266     0.0975   112.0717     8.0110     0.0266
  255.0000   -26.1094     9.8583     9.2918     2.5031     0.1013   115.0756     8.0107     0.0218
  255.5000   -26.1091     9.8592     9.0654     2.4972     0.1054   118.6677     8.0105     0.0170
  256.0000   -26.1097     9.8095     8.8446     2.4892     0.1069   118.4991     8.0102     0.0120
  256.5000   -26.1084     9.7399     9.0626     2.4810     0.1089   119.5698     8.0099     0.0089
  257.0000   -26.0459     9.6708     8.9958     2.4762     0.1161   121.0437     8.0097     0.0111
  257.5000   -25.7671     9.6022     8.9135     2.4717     0.1218   120.0010     8.0094     0.0134
  258.0000   -25.4997     9.5341     8.8312     2.4666     0.1218   118.2538     8.0091     0.0156
  258.5000   -25.3091     9.4666     8.6887     2.4634     0.1223   117.4832     8.0089     0.0192
  259.0000   -25.3627     9.3995     8.5417     2.4686     0.1229   121.3717     8.0086     0.0196
  259.5000   -25.4109     9.3328     8.3974     2.4778     0.1235   121.8161     8.0084     0.0212
  260.0000   -25.4589     9.2667     8.2718     2.4780     0.1238   121.5651     8.0081     0.0228
  260.5000   -25.5068     9.2012     8.2960     2.4644     0.1220   124.5319     8.0078     0.0243
  261.0000   -25.5547     9.1132     8.3204     2.4621     0.1201   131.9432     8.0076     0.0296
  261.5000   -25.6026     8.9739     8.3447     2.4658     0.1182   137.4616     8.0073     0.0373
  262.0000   -25.6507     8.8364     8.1924     2.4694     0.1190   141.4015     8.0070     0.0448
  262.5000   -25.6987     8.7416     8.0243     2.4689     0.1202   145.2974     8.0068     0.0447
  263.0000   -25.7065     8.5545     7.8597     2.4652     0.1196   146.8608     8.0065     0.0432
  263.5000   -25.6574     8.3513     7.6985     2.4677     0.1172   141.8734     8.0063     0.0387
  264.0000   -25.5845     8.1529     7.5402     2.4753     0.1174   136.4401     8.0060     0.0335
  264.5000   -25.5108     7.9592     7.3668     2.4741     0.1175   131.0750     8.0057     0.0282
  265.0000   -25.4372     7.7549     7.3185     2.4721     0.1234   125.5242     8.0055     0.0231
  265.5000   -25.3635     7.7822     7.2701     2.4619     0.1304   124.3629     8.0052     0.0248
  266.0000   -25.2899     7.8166     7.2654     2.4570     0.1312   128.1262     8.0049     0.0269
  266.5000   -25.2162     7.8511     7.2832     2.4688     0.1321   126.7714     8.0047     0.0258
  267.0000   -25.1432     7.8857     7.3431     2.4616     0.1293   120.4767     8.0044     0.0231
  267.5000   -25.0989     7.9740     7.4032     2.4562     0.1227   113.7636     8.0042     0.0236
  268.0000   -25.2077     8.0865     7.4639     2.4653     0.1184   115.6947     8.0039     0.0244
  268.5000   -25.3738     8.2006     7.5743     2.4759     0.1171   119.3692     8.0036     0.0253
  269.0000   -25.5417     8.3163     7.6919     2.4774     0.1159   120.3717     8.0034     0.0262
  269.5000   -25.7097     8.4338     7.8114     2.4732     0.1139   117.4400     8.0031     0.0270
  270.0000   -25.8808     8.5526     7.8962     2.4809     0.1117   113.6555     8.0028     0.0261
  270.5000   -25.8232     8.6612     7.8962     2.4896     0.1094   113.1776     8.0026     0.0250
  271.0000   -25.6914     8.6649     7.8962     2.4985     0.1085   112.8796     8.0023     0.0240
  271.5000   -25.5528     8.6690     7.8962     2.4908     0.1115   111.4442     8.0020     0.0229
  272.0000   -25.7100     8.6731     7.8962     2.4780     0.1127   106.2274     8.0018     0.0213
  272.5000   -25.8507     8.6773     7.8962     2.4821     0.1140   105.4370     8.0015     0.0197
  273.0000   -25.7036     8.6814     7.8962     2.4813     0.1154   105.7033     8.0013     0.0181
  273.5000   -25.5601     8.6855     7.8962     2.4731     0.1158   105.9837     8.0010     0.0166
  274.0000   -25.4169     8.6897     7.8961     2.4704     0.1165   106.4056     8.0007     0.0150
  274.5000   -25.3409     8.6938     7.8961     2.4770     0.1203   110.3744     8.0005     0.0134
  275.0000   -25.5764     8.6980     7.8962     2.4684     0.1226   113.2448     8.0002     0.0118
  275.5000   -25.8062     8.7021     7.9054     2.4587     0.1211   113.8898     7.9999     0.0110
  276.0000   -26.0372     8.7063     7.9381     2.4677     0.1222   116.8367     7.9997     0.0109
  276.5000   -26.2563     8.7104     7.9706     2.4660     0.1230   115.2061     7.9994     0.0107
  277.0000   -26.5338     8.7146     8.0032     2.4617     0.1208   112.4994     7.9991     0.0106
