~VERSION INFORMATION
 VERS.                2.0:   CWLS LOG ASCII STANDARD - VERSION 2.0
 WRAP.                 NO:   ONE LINE PER DEPTH STEP
~WELL INFORMATION
#MNEM.UNIT      DATA TYPE    INFORMATION
#----------   ------------   ------------------------------
 STRT.F            8.0000:   START DEPTH
 STOP.F          420.0000:   STOP DEPTH
 STEP.F            0.5000:   STEP LENGTH
 NULL.          -999.2500:   NO VALUE
 COMP.    FENIX & SCISSON:   COMPANY
 WELL.    NPR 3 SX #61-10:   WELL
 FLD .             TEAPOT:   FIELD
 LOC .      S10 T38N R78W:   LOCATION
 CNTY.            NATRONA:   COUNTY
 STAT.            WYOMING:   STATE
 CTRY. UNITED STATES OF AMERICA:   COUNTRY
 SRVC.            Unknown:   SERVICE COMPANY
 DATE.        20-NOV-1978:   LOGDATE
 API .       490251074900:   API NUMBER
~CURVE INFORMATION
#MNEM.UNIT       API CODE    CURVE DESCRIPTION
#----------   ------------   ------------------------------
 DEPT.F                  :   
 ILD .OHMM   01 120 46 00:   LOG INDUCTION
 SN  .OHMM   01 040 00 00:   SHORT NORMAL
 SPR .MV     01 010 01 00:   SPONTANEOUS POTENSIAL
 CALD.IN     45 280 60 00:   CALIPER
 GRD .GAPI   45 310 01 00:   GAMMA RAY FROM DENSITY LOG
 DPHI.DEC    45 890 12 00:   DENSITY POROSITY SANDSTONE
 RHOB.G/C3   45 350 01 00:   BULK DENSITY
 CORR.G/C3   45 356 01 00:   DENSITY CORRECTION
~PARAMETER INFORMATION
#MNEM.UNIT          VALUE    DESCRIPTION
#----------   ------------   ------------------------------
 PD  .                 GL:   PERMANENT DATUM
 EPD .F              5145:   ELEVATION PERMANENT DATUM
 LMF .                 KB:   LOG MEASURED FROM
 DAPD.F                 4:   FEET ABOVE PERMANENT DATUM
 DMF .                 KB:   DRILLING MEASURED FROM
 EKB .F              5149:   KELLING BUSHING
 EGL .F              5145:   GROUND LEVEL
 DATE.        20-NOV-1978:   RUN DATE
 RUN .                  1:   RUN NUMBER
 DD  .F               435:   DEPTH DRILLER
 DL  .F               426:   DEPTH LOGGER
 BLI .F               420:   BOTTOM LOG INTERVAL
 TLI .F                48:   TOP LOG INTERVAL
 CS  .IN            8.625:   CASING SIZE
 CBD .F                40:   CASING BOTTOM DRILLER
 CBL .F                42:   CASING BOTTOM LOGGER
 BS  .IN            7.875:   BIT SIZE
 BSD .F               435:   BIT SIZE AT DEPTH
 DFT .                KCL:   DRILLING FLUID TYPE
 DFD .                8.6:   DRILLING FLUID DENSITY
 DFV .                 38:   DRILLING FLUID VISCOSITY
 DFPH.                9.8:   DRILLING FLUID PH
 DFL .                 10:   DRILLING FLUID LOSS
 MSS .           FLOWLINE:   MUD SAMPLE SOURCE
 RMS .OHMM            .39:   RESISTIVITY MUD SAMPLE
 MST .F                54:   MUD SAMPLE TEMPERATURE
 RMF .OHMM            .26:   RESISTIVITY MUD FILTRATE SAMPLE
 MFST.F                72:   MUD FILTRATE SAMPLE TEMPERATURE
 RMC .OHMM            .34:   RESISTIVITY MUD CAKE
 MCST.F                74:   MUD CAKE SAMPLE TEMPERATURE
 MFSS.           MEASURED:   MUD FILTRATE SAMPLE SOURCE
 RMB .OHMM            .33:   RESISTIVITY MUD AT BHT
 BHT .F                63:   BOTTOM HOLE TEMPERATURE
 TCS .HRS               1:   TIME CURCULATED STOPPED
 MRT .F                63:   MAXIMUM RECORDED TEMPERATURE
 LUN .               2958:   LOGGING UNIT NUMBER
 LUL .               CASP:   LOGGING UNIT LOCATION
 ENGI.             MILLER:   RECORDING ENGINEER
 WITN.              AMEND:   WITNESSED BY
 CLNT.            A2DTECH:   CLIENT CODE
 ORIG.        2" 5" PRINT:   ORIGIN OF DATA
 UWI .       490251074900:   UNIQUE WELL ID
 DICO. A2D Technologies, Inc.:   DIGITIZING COMPANY
~OTHER INFORMATION
~A    DEPT     ILD         SN        SPR       CALD         GRD      DPHI       RHOB       CORR   
# ...
  251.0000    11.7916    14.7235   -19.0637     7.6749   101.3256     0.1046     2.5204     0.0614
  251.5000    11.8878    14.9442   -18.5971     7.6313   100.5925     0.1149     2.5115     0.0660
  252.0000    12.3186    15.2824   -18.1310     7.6025    95.8394     0.1360     2.4897     0.0676
  252.5000    13.3997    15.8154   -18.1119     7.5440    88.9534     0.1682     2.4515     0.0662
  253.0000    15.6215    16.4225   -17.6348     7.5004    82.9008     0.1977     2.4103     0.0663
  253.5000    18.0860    17.7165   -17.0284     7.4565    76.1994     0.2265     2.3578     0.0695
  254.0000    20.2261    19.6761   -14.9156     7.3982    63.1385     0.2184     2.3135     0.0862
  254.5000    22.6344    22.4666   -13.8517     7.3695    58.2980     0.2168     2.3008     0.1044
  255.0000    25.3677    25.1250   -13.0864     7.3407    54.9701     0.1976     2.3314     0.1090
  255.5000    28.4309    26.7675   -12.1718     7.2825    55.2976     0.1939     2.3535     0.1113
  256.0000    31.6442    27.5461   -11.5557     7.2835    60.0493     0.2090     2.3596     0.1198
  256.5000    33.0192    28.3474   -11.0888     7.2845    61.9926     0.2080     2.3326     0.1124
  257.0000    33.5119    28.9704   -10.4727     7.2707    62.2990     0.2098     2.3342     0.1110
  257.5000    32.6268    29.8131    -9.8566     7.2717    62.3078     0.2341     2.3222     0.1096
  258.0000    30.8891    30.4684    -9.0913     7.2427    60.9773     0.2416     2.2923     0.1082
  258.5000    30.9259    30.9232    -8.7737     7.3754    59.9444     0.2403     2.2848     0.1054
  259.0000    31.6057    31.1916    -8.3068     7.3912    60.2508     0.2310     2.2796     0.1040
  259.5000    34.1418    31.4218    -7.9892     7.4069    60.7060     0.2322     2.2892     0.1025
  260.0000    37.9181    31.6705    -7.6716     7.3927    60.8635     0.2372     2.2993     0.0858
  260.5000    39.2924    31.7006    -7.4931     7.3938    60.5747     0.2429     2.2896     0.0722
  261.0000    39.6036    31.7308    -7.3343     7.3947    59.9882     0.2492     2.2776     0.0638
  261.5000    39.6411    31.7610    -7.3111     7.3507    59.3988     0.2501     2.2702     0.0623
  262.0000    38.3275    32.0123    -7.2920     7.4262    59.6986     0.2302     2.2672     0.0719
  262.5000    38.9087    32.0427    -7.2729     7.4420    63.4622     0.2263     2.2988     0.0735
  263.0000    40.5993    32.2963    -7.4031     7.4726    68.9540     0.2452     2.3019     0.0646
  263.5000    41.7803    32.3270    -7.3840     7.4586    70.0045     0.2696     2.2659     0.0542
  264.0000    42.4038    32.3578    -7.2157     7.4431    69.7156     0.2798     2.2412     0.0468
  264.5000    42.7393    32.6138    -7.0473     7.4481    68.0875     0.2725     2.2180     0.0424
  265.0000    42.7800    32.6605    -6.8790     7.4764    65.7153     0.2643     2.2248     0.0395
  265.5000    42.5149    32.9043    -6.2629     7.4326    63.7896     0.2457     2.2391     0.0381
  266.0000    41.9796    32.9423    -6.2438     7.4632    62.1614     0.2288     2.2722     0.0335
  266.5000    41.4412    32.7381    -6.2247     7.4790    62.3190     0.2168     2.3075     0.0264
  267.0000    40.9097    32.5430    -6.3549     7.4799    64.7087     0.2119     2.3234     0.0235
  267.5000    39.8201    32.3490    -6.3358     7.4808    67.6937     0.2137     2.3294     0.0236
  268.0000    38.7529    31.7211    -6.4660     7.4519    69.7858     0.2275     2.3283     0.0207
  268.5000    38.2797    31.0979    -6.4264     7.4228    72.7916     0.2341     2.2995     0.0148
  269.0000    38.3253    30.6991    -6.2738     7.4834    74.0060     0.2377     2.2898     0.0180
  269.5000    38.3618    30.5161    -6.2547     7.4992    74.4274     0.2202     2.2914     0.0242
  270.0000    38.6654    30.3332    -6.2356     7.4980    74.1385     0.2115     2.3110     0.0273
  270.5000    39.2424    30.3630    -6.3706     7.5456    72.6592     0.1784     2.3388     0.0290
  271.0000    39.8280    30.3921    -6.4960     7.5464    72.5170     0.1723     2.3779     0.0275
  271.5000    39.8659    30.2107    -6.6309     7.5175    72.8255     0.1792     2.3960     0.0262
  272.0000    39.6283    29.8303    -6.9103     7.4720    72.6833     0.1948     2.3870     0.0339
  272.5000    39.6660    29.4477    -7.0405     7.5193    72.5454     0.2105     2.3623     0.0325
  273.0000    39.4283    29.0700    -7.1707     7.5353    73.1607     0.2143     2.3338     0.0341
  273.5000    38.9233    28.8898    -7.4453     7.5508    74.4968     0.2032     2.3285     0.0343
  274.0000    38.4213    28.5261    -7.4262     7.5219    73.0196     0.1953     2.3422     0.0405
  274.5000    37.3873    27.7726    -7.5567     7.4784    72.4310     0.1962     2.3543     0.0436
  275.0000    36.1299    27.0390    -7.5373     7.4344    72.5908     0.1950     2.3544     0.0377
  275.5000    34.7382    26.5078    -7.6675     7.4355    72.5995     0.1934     2.3560     0.0348
  276.0000    33.3551    25.9871    -7.7977     7.3769    73.6499     0.1916     2.3575     0.0334
  276.5000    31.5862    25.4760    -8.0771     7.3478    76.1885     0.1928     2.3628     0.0291
  277.0000    29.2956    24.9760    -8.2072     7.4530    78.1318     0.1909     2.3621     0.0232
  277.5000    28.9130    24.3056    -8.4819     7.5134    79.0334     0.1882     2.3614     0.0233
  278.0000    28.7407    23.6741    -8.4628     7.5292    78.7445     0.1855     2.3667     0.0235
  278.5000    28.7749    23.7022    -8.5977     7.5301    77.1164     0.1819     2.3758     0.0176
  279.0000    28.8023    23.7248    -8.7279     7.5310    75.0418     0.1791     2.3759     0.0177
  279.5000    28.8298    23.5778    -8.7041     7.5021    72.9673     0.1782     2.3834     0.0239
  280.0000    28.4600    23.4428    -8.6850     7.5030    72.5296     0.1780     2.3880     0.0240
  280.5000    27.5151    23.3030    -8.8199     7.5040    74.1101     0.1757     2.3866     0.0256
  281.0000    26.6050    23.0041    -8.9453     7.5048    75.5255     0.1751     2.3881     0.0243
  281.5000    26.2352    22.8616    -9.0761     7.5058    75.5343     0.1745     2.3912     0.0244
  282.0000    25.7540    22.7253    -9.2060     7.5067    76.7335     0.1766     2.3912     0.0245
  282.5000    25.5944    22.4391    -9.3358     7.5076    77.0377     0.1795     2.3875     0.0247
  283.0000    25.8031    22.1513    -9.3164     7.5084    76.3047     0.1831     2.3838     0.0248
  283.5000    25.8277    22.0193    -9.4469     7.5242    75.7160     0.1846     2.3779     0.0241
  284.0000    26.2131    21.8880    -9.7216     7.5251    77.2150     0.1828     2.3750     0.0218
  284.5000    26.7893    21.9141    -9.8565     7.5408    78.8607     0.1812     2.3765     0.0192
  285.0000    27.3782    21.7782    -9.9867     7.5117    81.5481     0.1794     2.3773     0.0193
  285.5000    27.9799    21.8041    -9.9628     7.5128    84.6818     0.1815     2.3797     0.0194
  286.0000    28.3975    21.8249   -10.0977     7.5137    86.3275     0.1845     2.3767     0.0211
  286.5000    28.8213    21.8457   -10.2279     7.5146    85.5713     0.1880     2.3730     0.0212
  287.0000    29.0494    21.8665   -10.3581     7.5155    82.3272     0.1895     2.3678     0.0214
  287.5000    29.0776    21.8873   -10.3342     7.4866    82.6587     0.1898     2.3656     0.0215
  288.0000    29.1058    21.9081   -10.3151     7.4875    82.9421     0.1839     2.3664     0.0231
  288.5000    28.7382    21.9289   -10.4501     7.5034    80.8676     0.1876     2.3710     0.0233
  289.0000    28.3697    21.7982   -10.4262     7.5043    79.9813     0.1915     2.3733     0.0204
  289.5000    28.0058    21.8190   -10.4071     7.5052    80.1411     0.1945     2.3621     0.0145
  290.0000    27.8323    21.6792   -10.5373     7.5061    79.7034     0.1963     2.3547     0.0146
  290.5000    27.1035    21.2420   -10.3587     7.5070    78.8193     0.1896     2.3562     0.0223
  291.0000    26.5711    20.9901   -10.1801     7.5078    78.8281     0.1926     2.3623     0.0240
