~VERSION INFORMATION
 VERS.                2.0:   CWLS LOG ASCII STANDARD - VERSION 2.0
 WRAP.                 NO:   ONE LINE PER DEPTH STEP
~WELL INFORMATION
#MNEM.UNIT      DATA TYPE    INFORMATION
#----------   ------------   ------------------------------
 STRT.F           10.0000:   START DEPTH
 STOP.F          570.0000:   STOP DEPTH
 STEP.F            0.5000:   STEP LENGTH
 NULL.          -999.2500:   NO VALUE
 COMP. BROWN JOHN E&C INC:   COMPANY
 WELL.   STX 10 #85-14-10:   WELL
 FLD .             TEAPOT:   FIELD
 LOC .      S10 T38N R78W:   LOCATION
 CNTY.            NATRONA:   COUNTY
 STAT.            WYOMING:   STATE
 CTRY. UNITED STATES OF AMERICA:   COUNTRY
 SRVC.           Gearhart:   SERVICE COMPANY
 DATE.        29-JUN-1986:   LOGDATE
 API .       490251108400:   API NUMBER
~CURVE INFORMATION
#MNEM.UNIT       API CODE    CURVE DESCRIPTION
#----------   ------------   ------------------------------
 DEPT.F                  :   
 LL  .OHMM   07 220 00 00:   LATEROLOG RES.
 RILD.OHMM   07 120 46 00:   INDUCTION LOG DEEP RESISTIVITY
 RILM.OHMM   07 120 44 00:   INDUCTION LOG MEDIUM RESISTIVITY
 SPR .MV     07 010 01 00:   SPONTANEOUS POTENTIAL
 GRR .GAPI   07 310 01 00:   GAMMA RAY FROM RES. LOG.
~PARAMETER INFORMATION
#MNEM.UNIT          VALUE    DESCRIPTION
#----------   ------------   ------------------------------
 PD  .                 GL:   PERMANENT DATUM
 EPD .F              5191:   ELEVATION PERMANENT DATUM
 LMF .                 KB:   LOG MEASURED FROM
 DAPD.F                 5:   FEET ABOVE PERMANENT DATUM
 DMF .                 KB:   DRILLING MEASURED FROM
 EKB .F              5196:   KELLING BUSHING
 EGL .F              5191:   GROUND LEVEL
 DATE.          6-29-1986:   RUN DATE
 RUN .                  1:   RUN NUMBER
 DD  .F               579:   DEPTH DRILLER
 DL  .F               572:   DEPTH LOGGER
 BLI .F               570:   BOTTOM LOG INTERVAL
 CS  .IN            8.625:   CASING SIZE
 CBD .F                47:   CASING BOTTOM DRILLER
 CBL .F                46:   CASING BOTTOM LOGGER
 BS  .IN            7.875:   BIT SIZE
 BSD .F               579:   BIT SIZE AT DEPTH
 DFT .                MUD:   DRILLING FLUID TYPE
 DFD .                8.9:   DRILLING FLUID DENSITY
 DFV .                 32:   DRILLING FLUID VISCOSITY
 DFPH.                  9:   DRILLING FLUID PH
 MSS .           FLOWLINE:   MUD SAMPLE SOURCE
 RMS .OHMM            1.3:   RESISTIVITY MUD SAMPLE
 MST .F                62:   MUD SAMPLE TEMPERATURE
 RMF .OHMM             .9:   RESISTIVITY MUD FILTRATE SAMPLE
 MFST.F                63:   MUD FILTRATE SAMPLE TEMPERATURE
 RMC .OHMM            1.5:   RESISTIVITY MUD CAKE
 MCST.F                63:   MUD CAKE SAMPLE TEMPERATURE
 MFSS.               MEAS:   MUD FILTRATE SAMPLE SOURCE
 MCSS.               MEAS:   MUD CAKE SAMPLE SOURCE
 RMB .OHMM            1.3:   RESISTIVITY MUD AT BHT
 BHT .F                64:   BOTTOM HOLE TEMPERATURE
 TCS .HRS            1300:   TIME CURCULATED STOPPED
 TLAB.HRS            1600:   TIME LOGGER AT BOTTOM
 MRT .F                64:   MAXIMUM RECORDED TEMPERATURE
 LUN .               7609:   LOGGING UNIT NUMBER
 LUL .           GILLETTE:   LOGGING UNIT LOCATION
 ENGI.             WAGNER:   RECORDING ENGINEER
 WITN.            JENNING:   WITNESSED BY
 CLNT.            A2DTECH:   CLIENT CODE
 ORIG.      2" & 5" PRINT:   ORIGIN OF DATA
 UWI .       490251108400:   UNIQUE WELL ID
 DICO. A2D Technologies, Inc.:   DIGITIZING COMPANY
~OTHER INFORMATION
~A   DEPT       LL       RILD       RILM        SPR         GRR  
# ...
  437.0000    11.5655    14.9918    13.0504   -68.4248    65.7663
  437.5000    11.6613    14.7459    13.0393   -67.2521    63.9597
  438.0000    11.7602    14.5040    13.0283   -65.3337    65.0545
  438.5000    11.8096    14.2660    13.0172   -64.8504    66.9925
  439.0000    11.4373    14.2114    13.0062   -65.6059    68.0845
  439.5000    11.1871    14.1877    12.9951   -66.3518    67.9431
  440.0000    10.8584    14.1641    12.9843   -66.9120    68.0235
  440.5000    10.8580    14.1406    12.9732   -67.5803    69.1479
  441.0000    11.1118    14.1168    12.9650   -68.0762    71.8912
  441.5000    11.3568    14.1007    13.0745   -68.4852    73.6751
  442.0000    11.6060    14.1259    13.1622   -67.9931    73.3482
  442.5000    11.8604    14.1463    13.2503   -67.5760    72.7310
  443.0000    12.1204    14.1670    13.3391   -70.2249    72.5141
  443.5000    12.2597    14.1876    13.4285   -71.9675    73.6501
  444.0000    12.2597    14.2084    13.5182   -72.5031    74.7890
  444.5000    12.2597    14.2342    13.5836   -72.9826    73.5255
  445.0000    12.1651    14.1395    13.4910   -73.7505    71.2760
  445.5000    12.0780    14.0047    13.3327   -77.0079    69.0163
  446.0000    11.8647    13.8711    13.2089   -77.8772    68.0064
  446.5000    11.5234    13.7389    13.0915   -77.1415    73.2510
  447.0000    11.1919    13.6079    12.9600   -76.4453    78.6757
  447.5000    10.9622    13.4781    12.8298   -75.8322    81.3076
  448.0000    11.0457    13.3496    12.7009   -75.7373    81.4468
  448.5000    11.1677    13.2223    12.5732   -75.9996    78.6547
  449.0000    11.2911    13.1174    12.4468   -79.4202    75.9248
  449.5000    11.3786    12.9868    12.3229   -80.1629    73.2076
  450.0000    10.9842    12.8438    12.1942   -81.4505    71.4667
  450.5000    10.6895    12.8662    12.0639   -82.6797    70.6686
  451.0000    10.5491    12.9088    11.9351   -82.9459    71.6192
  451.5000    10.4629    12.9649    11.8076   -81.8429    73.9752
  452.0000    10.5261    12.9149    11.6814   -81.5776    75.3632
  452.5000    10.5752    12.8430    11.5704   -81.0421    75.1848
  453.0000    10.6245    12.7715    11.4850   -82.1041    74.7410
  453.5000    10.6741    12.7004    11.4976   -83.2106    74.2807
  454.0000    10.7238    12.6297    11.5163   -85.2242    73.9475
  454.5000    10.7597    12.5831    11.5348   -85.3764    75.3428
  455.0000    10.6937    12.5477    11.5534   -86.9551    78.3517
  455.5000    10.6193    12.5124    11.5719   -88.9538    81.2905
  456.0000    10.5455    12.4771    11.5932   -89.7478    81.4802
  456.5000    10.4722    12.4420    11.5937   -88.5491    79.3580
  457.0000    10.4629    12.4070    11.5230   -87.4638    77.5391
  457.5000    10.4037    12.3738    11.4683   -89.2283    78.7350
  458.0000    10.3161    12.2635    11.4140   -90.8584    79.7067
  458.5000    10.2697    12.1598    11.3599   -91.3170    80.2530
  459.0000    10.2909    12.0574    11.3062   -91.7921    80.7907
  459.5000    10.3364    11.9553    11.2526   -92.2823    81.3431
  460.0000    10.3826    11.8630    11.1993   -92.2196    82.1059
  460.5000    10.4283    11.7739    11.1463   -91.4736    83.8996
  461.0000    10.4624    11.6859    11.0935   -92.8823    84.3043
  461.5000    10.3371    11.5985    10.9962   -95.0484    86.1692
  462.0000    10.2381    11.5118    10.8468   -93.5294    88.6040
  462.5000    10.1401    11.4258    10.6994   -91.8549    91.1349
  463.0000    10.0430    11.3076    10.5540   -93.6155    91.4287
  463.5000     9.9468    11.1512    10.4106   -95.3814    88.2987
  464.0000     9.8020    10.9964    10.2691   -97.1148    84.9991
  464.5000     9.6706    10.8441    10.1296   -92.9876    81.7796
  465.0000     9.5465    10.6940    10.0113   -95.2552    80.5879
  465.5000     9.4239    10.5439     9.8573   -87.7827    80.1467
  466.0000     9.2688    10.3783     9.7056   -82.4776    80.0637
  466.5000     9.0570    10.0095     9.5512   -81.2813    81.8849
  467.0000     8.8625     9.6582     9.2592   -79.9484    84.6984
  467.5000     8.6722     9.3188     8.9775   -77.4550    88.0220
  468.0000     8.3191     8.9912     8.7045   -72.7773    89.7536
  468.5000     7.6937     8.6832     8.2350   -56.3308    90.4205
  469.0000     7.1154     8.0327     7.6006   -56.0222    91.0931
  469.5000     6.5805     7.4456     7.0127   -55.8691    92.4287
  470.0000     6.0858     6.9014     6.4709   -55.1809    96.0380
  470.5000     5.6027     6.3838     5.9229   -54.3613   102.0228
  471.0000     5.6027     6.4108     5.9251   -53.9602   108.0407
  471.5000     6.0365     6.4436     5.9267   -54.2003   108.1955
  472.0000     7.2557     6.8619     6.1501   -54.7079   100.5379
  472.5000     8.6832     7.3009     6.6228   -55.2107    92.7141
  473.0000     9.0211     7.7681     7.1726   -55.7087    87.2246
  473.5000     9.3686     8.2371     7.7642   -55.7223    87.6620
  474.0000     9.7295     8.6913     8.1744   -55.2973    88.4581
  474.5000     9.9249     9.1707     8.6035   -57.7146    87.5237
  475.0000    10.0800     9.6767     9.0575   -57.9396    86.2083
  475.5000    10.2697    10.2093     9.5281   -55.5093    85.6436
  476.0000    10.2128    10.6983     9.8959   -59.1590    86.4307
  476.5000    10.1182    10.8961    10.1043   -60.1591    89.0284
  477.0000    10.0800    11.0976    10.3203   -59.3130    90.7173
  477.5000    10.1351    11.3029    10.5408   -58.4473    90.9130
  478.0000    10.2775    11.5119    10.7661   -58.8035    89.4483
  478.5000    10.4220    11.7248    10.9883   -59.2125    87.4450
  479.0000    10.5684    11.9417    11.2096   -58.4414    85.4575
  479.5000    10.7597    12.0673    11.4353   -60.1661    84.3942
  480.0000    10.9622    12.2559    11.6656   -63.9637    86.1175
  480.5000    11.2117    12.4474    11.9005   -64.7113    87.7180
  481.0000    11.4030    12.6074    12.1459   -63.4004    88.9977
  481.5000    11.6124    12.8354    12.3283   -63.4557    89.1479
  482.0000    11.9586    13.0732    12.5132   -66.3835    86.6018
  482.5000    12.3152    13.3155    12.7008   -66.2527    83.7470
  483.0000    12.6823    13.5623    12.8913   -65.1947    81.6917
  483.5000    12.8447    13.8136    13.0846   -64.1737    83.8019
  484.0000    12.5593    14.0696    13.3327   -63.7981    85.8287
  484.5000    12.2597    14.3303    13.4575   -64.0587    87.9249
  485.0000    12.3911    14.4995    13.4212   -62.7800    89.6865
  485.5000    12.5688    14.4707    13.3901   -60.5941    90.0942
  486.0000    12.7488    14.3908    13.3589   -57.0406    89.9808
  486.5000    12.9299    14.3114    13.3192   -50.9079    87.8778
  487.0000    13.0864    14.2323    13.2308   -47.9615    87.0918
  487.5000    13.0864    14.1537    13.2089   -49.0687    87.5342
  488.0000    12.7179    14.0756    13.2882   -50.3844    87.2591
  488.5000    12.4518    13.9978    13.3474   -51.6847    85.6668
  489.0000    12.1913    13.9205    13.4063   -52.3025    84.1059
  489.5000    11.9216    13.8436    13.4572   -51.9999    84.8194
  490.0000    11.9216    13.7672    13.3330   -49.8070    86.4838
  490.5000    11.9379    13.6912    13.2249   -51.5015    88.0972
  491.0000    11.9552    13.6156    13.1177   -52.2690    89.0226
  491.5000    11.9726    13.5404    13.0113   -50.6878    87.4466
  492.0000    11.9901    13.4656    12.9058   -49.5896    85.8979
  492.5000    12.0074    13.3913    12.8012   -49.1314    85.7536
  493.0000    12.0345    13.3173    12.6974   -51.0323    85.9012
  493.5000    12.0266    13.2437    12.5849   -52.8633    85.5404
  494.0000    11.9278    13.0912    12.4124   -54.2643    83.7464
  494.5000    11.8217    12.8698    12.2413   -52.6543    82.8000
  495.0000    11.7014    12.6521    12.0727   -51.2879    84.2138
  495.5000    11.4272    12.4382    11.9065   -53.1923    87.7406
  496.0000    11.0568    12.2278    11.7425   -54.5062    91.4612
  496.5000    10.6985    12.0226    11.5809   -54.7213    93.7879
  497.0000    10.3517    11.9232    11.4214   -54.0490    91.3435
  497.5000     9.9864    11.6722    11.2642   -53.3965    88.6822
