~VERSION INFORMATION
 VERS.                2.0:   CWLS LOG ASCII STANDARD - VERSION 2.0
 WRAP.                 NO:   ONE LINE PER DEPTH STEP
~WELL INFORMATION
#MNEM.UNIT      DATA TYPE    INFORMATION
#----------   ------------   ------------------------------
 STRT.F           66.0000:   START DEPTH
 STOP.F         1030.5000:   STOP DEPTH
 STEP.F            0.5000:   STEP LENGTH
 NULL.          -999.2500:   NO VALUE
 COMP. U S NAVY/INTEX OIL CO:   COMPANY
 WELL.      NRP-3 #68S-11:   WELL
 FLD .             TEAPOT:   FIELD
 LOC .      S11 T38N R78W:   LOCATION
 CNTY.            NATRONA:   COUNTY
 STAT.            WYOMING:   STATE
 CTRY. UNITED STATES OF AMERICA:   COUNTRY
 SRVC.       Schlumberger:   SERVICE COMPANY
 DATE.        07-JUL-1962:   LOGDATE
 API .       490250632700:   API NUMBER
~CURVE INFORMATION
#MNEM.UNIT       API CODE    CURVE DESCRIPTION
#----------   ------------   ------------------------------
 DEPT.F                  :   
 SPR .MV     05 010 01 00:   SPONTANEOUS POTENTIAL FROM RES.
 ASN .OHMM   05 041 16 00:   AMPLIFIED SHORT NORMAL 16"
 ILD .OHMM   05 120 46 00:   INDUCTION LOG DEEP
 CILD.MMHO   05 110 46 00:   CONDUCTIVITY INDUCTION LOG DEEP
 GRN .GAPI   35 310 30 00:   GAMMA RAY
 GR  .GAPI   81 310 01 00:   GAMMA RAY
~PARAMETER INFORMATION
#MNEM.UNIT          VALUE    DESCRIPTION
#----------   ------------   ------------------------------
 LMF .                 KB:   LOG MEASURED FROM
 DMF .                 KB:   DRILLING MEASURED FROM
 EKB .F              5226:   KELLING BUSHING
 EGL .F              5221:   GROUND LEVEL
 DATE.           7-7-1962:   RUN DATE
 RUN .                  1:   RUN NUMBER
 DD  .F              1030:   DEPTH DRILLER
 DL  .F              1031:   DEPTH LOGGER
 BLI .F              1030:   BOTTOM LOG INTERVAL
 TLI .F                90:   TOP LOG INTERVAL
 CBD .F                10:   CASING BOTTOM DRILLER
 BS  .IN             6.75:   BIT SIZE
 BSD .F              1030:   BIT SIZE AT DEPTH
 DFT .            GEL-OIL:   DRILLING FLUID TYPE
 DFD .               10.2:   DRILLING FLUID DENSITY
 DFV .                 50:   DRILLING FLUID VISCOSITY
 DFL .                3.6:   DRILLING FLUID LOSS
 RMS .OHMM           5.06:   RESISTIVITY MUD SAMPLE
 MST .F                71:   MUD SAMPLE TEMPERATURE
 RMF .OHMM           4.89:   RESISTIVITY MUD FILTRATE SAMPLE
 MFST.F                71:   MUD FILTRATE SAMPLE TEMPERATURE
 RMC .OHMM           4.85:   RESISTIVITY MUD CAKE
 MCST.F                71:   MUD CAKE SAMPLE TEMPERATURE
 MFSS.                  M:   MUD FILTRATE SAMPLE SOURCE
 MCSS.                  M:   MUD CAKE SAMPLE SOURCE
 RMB .OHMM           4.54:   RESISTIVITY MUD AT BHT
 BHT .F                82:   BOTTOM HOLE TEMPERATURE
 TCS .HRS               1:   TIME CURCULATED STOPPED
 MRT .F                82:   MAXIMUM RECORDED TEMPERATURE
 LUN .               2503:   LOGGING UNIT NUMBER
 LUL .              CSPR.:   LOGGING UNIT LOCATION
 ENGI.             KNOBEL:   RECORDING ENGINEER
 WITN.          JORGENSEN:   WITNESSED BY
 CLNT.            A2DTECH:   CLIENT CODE
 ORIG.      2" & 5" PRINT:   ORIGIN OF DATA
 UWI .       490250632700:   UNIQUE WELL ID
 DICO. A2D Technologies, Inc.:   DIGITIZING COMPANY
~OTHER INFORMATION
~A   DEPT      SPR        ASN        ILD       CILD        GRN          GR  
# ...
  118.0000   -54.6533     6.7390     6.1554   177.5307  -999.2500   112.5715
  118.5000   -54.6721     6.3351     5.9273   181.7650  -999.2500   104.1870
  119.0000   -54.6818     6.0890     5.6985   185.9994  -999.2500   100.5865
  119.5000   -54.6785     6.0981     5.4701   190.2338  -999.2500   103.4317
  120.0000   -54.5603     6.1040     5.4387   194.4682  -999.2500   107.8247
  120.5000   -54.4343     6.2762     5.4383   191.1468  -999.2500   111.8349
  121.0000   -54.3086     6.4565     5.4363   186.4761  -999.2500   110.4522
  121.5000   -54.1831     6.6483     5.5432   181.8055  -999.2500   106.6689
  122.0000   -54.0576     6.8396     5.6687   177.1348  -999.2500   102.9049
  122.5000   -53.9321     7.0310     5.7949   172.4642  -999.2500   100.8898
  123.0000   -53.8066     7.2256     5.9211   169.1617  -999.2500   104.8868
  123.5000   -53.6811     7.4454     6.0457   168.2720  -999.2500   112.7384
  124.0000   -53.5556     6.1153     6.1080   167.1429  -999.2500   112.6208
  124.5000   -53.4301     5.7782     5.9660   166.0137  -999.2500   108.1019
  125.0000   -53.3046     6.1040     5.8305   167.0659  -999.2500   102.3037
  125.5000   -53.1791     6.3958     5.6952   174.5748  -999.2500   103.8103
  126.0000   -53.0538     6.1596     5.5600   182.0838  -999.2500   107.2191
  126.5000   -52.9253     5.9351     5.4248   189.5928  -999.2500   108.4873
  127.0000   -52.9568     5.7354     5.2896   197.1018  -999.2500   108.1237
  127.5000   -53.0525     5.6382     5.1544   203.0938  -999.2500   105.0048
  128.0000   -53.1502     5.5399     5.0191   202.7146  -999.2500   102.0826
  128.5000   -53.2481     5.4571     4.8826   200.0599  -999.2500   100.5193
  129.0000   -53.3455     5.4507     4.8395   197.0958  -999.2500    99.8886
  129.5000   -53.4437     5.5279     4.9208   194.1317  -999.2500    98.3751
  130.0000   -53.2738     6.0077     6.3440   191.8695  -999.2500    95.8292
  130.5000   -53.3321     6.0434     6.2681   183.7008  -999.2500    93.2722
  131.0000   -53.4907     6.0830     6.1835   180.4508  -999.2500    94.7447
  131.5000   -53.5419     6.0602     6.1159   178.2495  -999.2500    96.5605
  132.0000   -53.6055     6.0224     6.0313   177.9314  -999.2500    98.3788
  132.5000   -53.6690     5.9838     5.9467   179.7981  -999.2500    98.8716
  133.0000   -53.7328     5.9482     5.8620   182.5498  -999.2500    98.3323
  133.5000   -53.7971     5.9412     5.7776   183.3399  -999.2500    98.0069
  134.0000   -53.8635     5.9351     5.6938   183.8352  -999.2500    99.2027
  134.5000   -53.7600     5.9293     5.6809   183.4818  -999.2500    99.7792
  135.0000   -53.6327     5.9171     5.7567   181.8307  -999.2500    97.6090
  135.5000   -53.5049     5.9636     5.8314   180.1798  -999.2500    95.1871
  136.0000   -53.3778     6.0899     5.9066   181.0629  -999.2500    98.1027
  136.5000   -53.2485     6.0658     5.9816   182.4138  -999.2500   102.8698
  137.0000   -53.1155     6.0184     6.0564   180.7636  -999.2500   105.0735
  137.5000   -52.8648     6.0794     6.1290   177.3747  -999.2500   102.7411
  138.0000   -52.8879     6.2507     6.2877   173.9858  -999.2500    98.7734
  138.5000   -52.9273     6.2766     6.4609   170.5969  -999.2500    90.3133
  139.0000   -52.9624     6.3103     6.6351   168.6839  -999.2500    89.2641
  139.5000   -52.9977     6.4366     6.8128   167.1050  -999.2500    97.1813
  140.0000   -53.0331     6.5633     6.7781   165.5295  -999.2500   105.9576
  140.5000   -53.0703     6.5679     6.6995   163.9368  -999.2500   114.1246
  141.0000   -53.0180     6.5444     6.6197   163.5282  -999.2500   114.5078
  141.5000   -52.9461     6.4739     6.5407   164.8732  -999.2500   110.2103
  142.0000   -52.8736     6.4012     6.4633   167.0820  -999.2500   105.7830
  142.5000   -52.8014     6.3256     6.2681   173.3499  -999.2500   106.2142
  143.0000   -52.7291     6.1863     6.0433   179.5870  -999.2500   108.9690
  143.5000   -52.6568     6.0416     5.8179   185.8241  -999.2500   111.7599
  144.0000   -52.5849     5.8411     5.5944   192.0612  -999.2500   113.0362
  144.5000   -52.5115     5.6187     5.4159   198.2983  -999.2500   111.1325
  145.0000   -52.5838     5.4725     5.3314   201.4341  -999.2500   109.2028
  145.5000   -52.7678     5.3392     5.2449   203.5568  -999.2500   109.9094
  146.0000   -52.9503     5.3108     5.1585   205.8075  -999.2500   110.7613
  146.5000   -53.0560     5.3716     5.0668   205.0648  -999.2500   109.8717
  147.0000   -52.9869     5.4885     5.1761   199.6002  -999.2500   109.0016
  147.5000   -52.9213     5.6083     5.3465   194.1244  -999.2500   109.6832
  148.0000   -52.8553     5.7308     5.5183   188.6039  -999.2500   110.3148
  148.5000   -52.7893     5.8573     5.6895   183.4631  -999.2500   106.3780
  149.0000   -52.7234     5.9411     5.8614   178.9228  -999.2500   102.4018
  149.5000   -52.6574     6.0209     6.0377   173.9491  -999.2500   100.5711
  150.0000   -52.5916     6.1185     6.2233   171.5463  -999.2500   104.0447
  150.5000   -52.5255     6.2187     6.4077   168.8899  -999.2500   107.2498
  151.0000   -52.4147     6.3191     6.5982   166.2335  -999.2500   104.7921
  151.5000   -52.1994     6.4193     6.6770   163.5771  -999.2500   100.6865
  152.0000   -51.9837     6.5177     6.7257   160.9207  -999.2500    97.6757
  152.5000   -51.9073     6.5897     6.7730   158.2643  -999.2500    98.7149
  153.0000   -51.9440     6.6051     6.8216   156.4934  -999.2500   103.3573
  153.5000   -51.9823     6.5864     6.7880   159.4262  -999.2500   107.9515
  154.0000   -52.0209     6.5541     6.6945   162.3590  -999.2500   112.0416
  154.5000   -52.0591     6.4550     6.5996   166.9801  -999.2500   111.8234
  155.0000   -52.0837     6.3398     6.4643   172.6691  -999.2500   108.8089
  155.5000   -52.0833     6.2242     6.2623   178.4150  -999.2500   106.1434
  156.0000   -52.0834     6.1087     6.0613   184.1609  -999.2500   104.9056
  156.5000   -52.0833     5.9924     5.8604   189.9119  -999.2500   105.5252
  157.0000   -52.0833     5.8538     5.6595   195.6604  -999.2500   105.7907
  157.5000   -52.0833     5.6823     5.5216   199.7837  -999.2500   104.1191
  158.0000   -52.0833     5.5524     5.4031   201.8667  -999.2500   102.5597
  158.5000   -52.0833     5.4956     5.2866   203.8164  -999.2500   101.6805
  159.0000   -52.0837     5.4744     5.3193   200.7224  -999.2500   102.7769
  159.5000   -52.0855     5.5582     5.4675   198.4020  -999.2500   103.8672
  160.0000   -52.0059     5.6455     5.6148   195.8518  -999.2500   103.2911
  160.5000   -51.9151     5.7785     5.7666   190.4159  -999.2500   100.9464
  161.0000   -51.8240     5.9212     5.9060   184.3827  -999.2500    98.4876
  161.5000   -51.7330     6.0644     6.0495   178.3496  -999.2500   100.3289
  162.0000   -51.6421     6.2077     6.1933   171.9580  -999.2500   103.5171
  162.5000   -51.5512     6.3543     6.3368   170.7243  -999.2500   106.3734
  163.0000   -51.4599     6.4271     6.4811   169.4128  -999.2500   106.6988
  163.5000   -51.3690     6.4829     6.6238   168.1012  -999.2500   103.7946
  164.0000   -51.2971     6.4970     6.7372   166.7896  -999.2500   100.9837
  164.5000   -51.3788     6.4819     6.6836   166.3620  -999.2500   100.1004
  165.0000   -51.4595     6.4519     6.6328   167.3396  -999.2500   102.5645
  165.5000   -51.5395     6.3752     6.5824   168.3172  -999.2500   103.2331
  166.0000   -51.6195     6.3218     6.5320   169.2948  -999.2500   101.1441
  166.5000   -51.7052     6.2805     6.4820   170.2724  -999.2500    99.3017
  167.0000   -51.8158     6.2979     6.4518   171.2500  -999.2500   100.9138
  167.5000   -51.9268     6.3456     6.4975   172.2276  -999.2500   102.6720
  168.0000   -52.0376     6.3940     6.5414   172.2430  -999.2500   101.6646
  168.5000   -52.0138     6.4423     6.5854   169.4827  -999.2500   100.0885
  169.0000   -51.8345     6.4910     6.6278   166.7224  -999.2500   102.8308
  169.5000   -51.6562     6.5477     6.7299   163.9621  -999.2500   102.7741
