~VERSION INFORMATION
 VERS.                2.0:   CWLS LOG ASCII STANDARD - VERSION 2.0
 WRAP.                 NO:   ONE LINE PER DEPTH STEP
~WELL INFORMATION
#MNEM.UNIT      DATA TYPE    INFORMATION
#----------   ------------   ------------------------------
 STRT.F           33.0000:   START DEPTH
 STOP.F          957.0000:   STOP DEPTH
 STEP.F            0.5000:   STEP LENGTH
 NULL.          -999.2500:   NO VALUE
 COMP. TESORO PETROLEUM CORP:   COMPANY
 WELL.  NPR #3 46-S-14 #3:   WELL
 FLD .             TEAPOT:   FIELD
 LOC .      S14 T38N R78W:   LOCATION
 CNTY.            NATRONA:   COUNTY
 STAT.            WYOMING:   STATE
 CTRY. UNITED STATES OF AMERICA:   COUNTRY
 SRVC.       Schlumberger:   SERVICE COMPANY
 DATE.        25-JUN-1970:   LOGDATE
 API .       490251023100:   API NUMBER
~CURVE INFORMATION
#MNEM.UNIT       API CODE    CURVE DESCRIPTION
#----------   ------------   ------------------------------
 DEPT.F                  :   
 SPR .MV     05 010 01 00:   SPONTANEOUS POTENTIAL FROM RES.
 ILD .OHMM   05 120 46 00:   INDUCTION LOG DEEP
 CILD.MMHO   05 110 46 00:   CONDUCTIVITY INDUCTION LOG DEEP
 ASN .OHMM   05 041 16 00:   AMPLIFIED SHORT NORMAL 16"
 GR  .GAPI   30 310 01 00:   GAMMA RAY
 CALD.IN     45 280 60 00:   CALIPER FROM DENSITY LOG
 CORR.G/C3   45 356 01 00:   DENSITY CORRECTION
 DPHI.DEC    45 890 12 00:   DENSITY POROSITY SANDSTONE
 RHOB.G/C3   45 350 01 00:   BULK DENSITY
~PARAMETER INFORMATION
#MNEM.UNIT          VALUE    DESCRIPTION
#----------   ------------   ------------------------------
 PD  .                 GL:   PERMANENT DATUM
 EPD .F              5271:   ELEVATION PERMANENT DATUM
 LMF .                 KB:   LOG MEASURED FROM
 DAPD.F                10:   FEET ABOVE PERMANENT DATUM
 DMF .                 KB:   DRILLING MEASURED FROM
 EKB .F              5281:   KELLING BUSHING
 EDF .F              5280:   DRILLING FLOOR
 EGL .F              5271:   GROUND LEVEL
 DATE.        25-JUN-1970:   RUN DATE
 RUN .                  1:   RUN NUMBER
 DD  .F               950:   DEPTH DRILLER
 DL  .F               958:   DEPTH LOGGER
 BLI .F               957:   BOTTOM LOG INTERVAL
 TLI .F                33:   TOP LOG INTERVAL
 CS  .IN            10.75:   CASING SIZE
 CBD .F                30:   CASING BOTTOM DRILLER
 CBL .F                33:   CASING BOTTOM LOGGER
 BS  .IN                9:   BIT SIZE
 BSD .F               950:   BIT SIZE AT DEPTH
 DFT .         MO-MAR MUD:   DRILLING FLUID TYPE
 DFD .                9.7:   DRILLING FLUID DENSITY
 DFV .                 62:   DRILLING FLUID VISCOSITY
 DFPH.                7.4:   DRILLING FLUID PH
 DFL .                5.6:   DRILLING FLUID LOSS
 MSS .           FLOWLINE:   MUD SAMPLE SOURCE
 RMS .OHMM           1.40:   RESISTIVITY MUD SAMPLE
 MST .F                85:   MUD SAMPLE TEMPERATURE
 RMF .OHMM           0.85:   RESISTIVITY MUD FILTRATE SAMPLE
 MFST.F                87:   MUD FILTRATE SAMPLE TEMPERATURE
 MFSS.               MEAS:   MUD FILTRATE SAMPLE SOURCE
 RMB .OHMM           1.06:   RESISTIVITY MUD AT BHT
 BHT .F               112:   BOTTOM HOLE TEMPERATURE
 TCS .HRS               1:   TIME CURCULATED STOPPED
 MRT .F               112:   MAXIMUM RECORDED TEMPERATURE
 LUN .               7037:   LOGGING UNIT NUMBER
 LUL .                GLT:   LOGGING UNIT LOCATION
 ENGI.           KNOSTMAN:   RECORDING ENGINEER
 WITN.                MAY:   WITNESSED BY
 CLNT.            A2DTECH:   CLIENT CODE
 ORIG.         2.5" PRINT:   ORIGIN OF DATA
 UWI .       490251023100:   UNIQUE WELL ID
 DICO. A2D Technologies, Inc.:   DIGITIZING COMPANY
~OTHER INFORMATION
~A   DEPT       SPR        ILD       CILD       ASN         GR       CALD       CORR       DPHI       RHOB   
# ...
  398.0000   -42.8335    12.4242    84.9950    12.7239  -999.2500     9.2924    -0.0005     0.1704     2.3809
  398.5000   -42.8392    12.6591    83.5866    12.8847  -999.2500     9.2844    -0.0032     0.1691     2.3752
  399.0000   -42.8450    12.8788    83.5866    13.0455  -999.2500     9.2625     0.0005     0.1697     2.3752
  399.5000   -42.8511    13.0303    82.7990    13.2854  -999.2500     9.2627     0.0047     0.1744     2.3688
  400.0000   -42.8956    13.3333    80.5471    13.4343  -999.2500     9.2327     0.0150     0.1764     2.3631
  400.5000   -43.1497    13.5076    80.0650    13.6793  -999.2500     9.2026     0.0383     0.1661     2.3707
  401.0000   -43.4037    13.8333    78.7940    13.8838  -999.2500     9.2027     0.0562     0.1612     2.3812
  401.5000   -43.6578    14.0909    77.5230    14.1841  -999.2500     9.2028     0.0638     0.1552     2.3933
  402.0000   -43.9118    14.3939    76.2521    14.1817  -999.2500     9.2030     0.0392     0.1609     2.3865
  402.5000   -44.0807    14.5455    74.9811    14.4823  -999.2500     9.2031     0.0345     0.1677     2.3797
  403.0000   -44.3861    14.6970    73.7101    14.6347  -999.2500     9.2032     0.0300     0.1686     2.3828
  403.5000   -44.6915    14.8485    72.4391    14.8106  -999.2500     9.2169     0.0392     0.1661     2.3964
  404.0000   -44.9970    15.1515    71.1682    15.1077  -999.2500     9.2639     0.0423     0.1561     2.4036
  404.5000   -45.3024    15.1515    69.8972    15.2685  -999.2500     9.2641     0.0444     0.1474     2.4085
  405.0000   -45.3040    15.3030    68.6262    15.5808  -999.2500     9.2642     0.0453     0.1486     2.3994
  405.5000   -45.3058    15.4545    68.0547    15.7416  -999.2500     9.2644     0.0435     0.1524     2.4024
  406.0000   -45.6111    15.4545    68.0243    16.0539  -999.2500     9.2645     0.0318     0.1543     2.4070
  406.5000   -45.9165    15.4545    66.4742    16.2803  -999.2500     9.2646     0.0468     0.1590     2.3947
  407.0000   -45.9270    15.4545    64.9187    16.5804  -999.2500     9.2648     0.0642     0.1535     2.4054
  407.5000   -46.2766    15.4545    64.8903    16.7295  -999.2500     9.2649     0.0699     0.1523     2.4327
  408.0000   -46.5289    15.4545    64.8619    16.8788  -999.2500     9.2650     0.0330     0.1529     2.4061
  408.5000   -46.5304    15.4545    63.3131    16.8761  -999.2500     9.1447     0.0253     0.1704     2.3722
  409.0000   -46.5322    15.5160    61.7629    16.8737  -999.2500     9.0236     0.0373     0.1713     2.3752
  409.5000   -46.2297    15.7046    61.7325    16.7146  -999.2500     9.0238     0.0206     0.1693     2.3749
  410.0000   -46.2311    15.8030    61.7021    16.5657  -999.2500     9.0239     0.0145     0.1759     2.3691
  410.5000   -45.9285    15.6536    61.6661    16.5631  -999.2500     9.1452     0.0349     0.1778     2.3631
  411.0000   -45.5684    15.6101    61.6377    16.4091  -999.2500     9.2357     0.0391     0.1633     2.3782
  411.5000   -45.3235    15.5068    63.1291    16.4066  -999.2500     9.2279     0.0389     0.1572     2.3905
  412.0000   -45.3252    15.5095    63.1003    16.4040  -999.2500     9.1453     0.0346     0.1567     2.3953
  412.5000   -45.3270    15.3602    63.3232    16.4773  -999.2500     9.2077     0.0267     0.1579     2.3964
  413.0000   -45.9363    15.3623    64.5636    16.5505  -999.2500     9.3269     0.0317     0.1730     2.3903
  413.5000   -46.5457    15.2129    64.5289    16.5476  -999.2500     9.2061     0.0338     0.1745     2.3691
  414.0000   -47.1550    15.2152    64.4926    16.2421  -999.2500     9.1156     0.0206     0.1712     2.3661
  414.5000   -47.4605    14.9141    64.4642    15.9366  -999.2500     9.0251     0.0126     0.1729     2.3691
  415.0000   -47.3556    14.7071    65.9574    15.4797  -999.2500     9.1251     0.0105     0.1790     2.3570
  415.5000   -47.1596    14.1558    67.4469    15.0227  -999.2500     9.2151     0.0128     0.1852     2.3495
  416.0000   -46.5534    13.4064    67.4164    14.5454  -999.2500     9.2493     0.0144     0.1877     2.3518
  416.5000   -45.9470    12.8025    69.3415    13.7685  -999.2500     9.2513     0.0144     0.1846     2.3612
  417.0000   -45.0365    12.0471    74.7313    13.1364  -999.2500     9.2675     0.0144     0.1804     2.3631
  417.5000   -44.7112    11.4167    81.2059    12.5042  -999.2500     9.2677     0.0198     0.1768     2.3646
  418.0000   -44.1275    10.6293    91.6068    11.8182  -999.2500     9.2678     0.0337     0.1738     2.3708
  418.5000   -44.0182     9.9846   102.2167    10.9369  -999.2500     9.2692     0.0420     0.1689     2.3740
  419.0000   -43.2128     9.3399   112.8266    10.5716  -999.2500     9.2983     0.0399     0.1648     2.3954
  419.5000   -42.3088     8.5739   125.7239    10.3064  -999.2500     9.2984     0.0335     0.1465     2.4281
  420.0000   -41.0944     8.1215   138.2981    10.0001  -999.2500     9.2985     0.0343     0.1320     2.4387
  420.5000   -40.4879     7.9720   147.4061     8.2125  -999.2500     9.2987     0.0358     0.1327     2.4421
  421.0000   -39.8541     7.6707   153.8807     7.6674  -999.2500     9.2988     0.0158     0.1310     2.4551
  421.5000   -39.2036     7.5218   161.3025     7.5129  -999.2500     9.3292     0.0112     0.1211     2.4592
  422.0000   -38.6684     7.3724   164.3136     7.4482  -999.2500     9.3293     0.0093     0.1186     2.4418
  422.5000   -38.0623     7.3750   167.3248     7.3712  -999.2500     9.3294     0.0081     0.1258     2.4291
  423.0000   -38.0641     7.2949   167.2948     7.1775  -999.2500     9.3296     0.0220     0.1363     2.4251
  423.5000   -38.0655     7.2280   167.2644     6.9118  -999.2500     9.3202     0.0353     0.1357     2.4357
  424.0000   -38.0669     7.0788   167.2340     6.7606  -999.2500     9.2996     0.0327     0.1285     2.4433
  424.5000   -38.0684     7.0332   164.8834     6.7610  -999.2500     9.2998     0.0219     0.1236     2.4510
  425.0000   -38.0699     6.9317   164.1290     6.7614  -999.2500     9.2999     0.0100     0.1265     2.4539
  425.5000   -38.0714     6.9341   164.1006     6.7617  -999.2500     9.3001     0.0142     0.1285     2.4433
  426.0000   -38.0729     6.9364   162.5524     6.7924  -999.2500     9.3002     0.0281     0.1297     2.4418
  426.5000   -38.0747     6.9386   161.0030     6.8838  -999.2500     9.3003     0.0165     0.1322     2.4357
  427.0000   -37.7720     6.9413   160.6281     6.9750  -999.2500     9.3005     0.0265     0.1278     2.4494
  427.5000   -37.7736     6.9434   157.9027     7.0663  -999.2500     9.3006     0.0373     0.1255     2.4576
  428.0000   -37.7751     6.9455   157.1023     7.0980  -999.2500     9.3007     0.0334     0.1213     2.4402
  428.5000   -37.7766     6.9477   154.7974     7.1276  -999.2500     9.3009     0.0142     0.1134     2.4660
  429.0000   -37.7781     6.9500   154.7690     7.0574  -999.2500     9.3010     0.0142     0.1077     2.4817
  429.5000   -37.7796     6.9523   156.2604     6.9783  -999.2500     9.3012     0.0219     0.1104     2.4763
  430.0000   -37.7814     6.9545   159.3717     6.8864  -999.2500     9.2711     0.0126     0.1213     2.4387
  430.5000   -37.7827     6.8053   162.5938     6.7959  -999.2500     9.2712     0.0080     0.1232     2.4448
  431.0000   -37.7842     6.8079   166.8134     6.7659  -999.2500     9.2714     0.0130     0.1260     2.4493
  431.5000   -37.4817     6.5070   168.2979     6.7036  -999.2500     9.2821     0.0218     0.1297     2.4206
  432.0000   -37.4833     6.5091   169.7872     6.6454  -999.2500     9.3018     0.0126     0.1384     2.4327
  432.5000   -37.4848     6.3597   169.7535     6.6045  -999.2500     9.3020     0.0018     0.1305     2.4312
  433.0000   -37.4863     6.3621   169.7251     6.5856  -999.2500     9.3021     0.0049     0.1248     2.4480
  433.5000   -37.4878     6.3644   169.6252     6.6163  -999.2500     9.3023     0.0080     0.1214     2.4369
  434.0000   -37.4895     6.3667   166.6261     6.6470  -999.2500     9.3024     0.0193     0.1378     2.4304
