~VERSION INFORMATION
 VERS.                2.0:   CWLS LOG ASCII STANDARD - VERSION 2.0
 WRAP.                 NO:   ONE LINE PER DEPTH STEP
~WELL INFORMATION
#MNEM.UNIT      DATA TYPE    INFORMATION
#----------   ------------   ------------------------------
 STRT.F            0.0000:   START DEPTH
 STOP.F         1027.0000:   STOP DEPTH
 STEP.F            0.1000:   STEP LENGTH
 NULL.          -999.2500:   NO VALUE
 COMP.       F D SERV INC:   COMPANY
 WELL.   77-1 X 27 #77-27:   WELL
 FLD .             TEAPOT:   FIELD
 LOC .      S27 T39N R78W:   LOCATION
 CNTY.            NATRONA:   COUNTY
 STAT.            WYOMING:   STATE
 CTRY. UNITED STATES OF AMERICA:   COUNTRY
 SRVC.      Western Atlas:   SERVICE COMPANY
 DATE.        04-NOV-1991:   LOGDATE
 API .       490252248600:   API NUMBER
~CURVE INFORMATION
#MNEM.UNIT       API CODE    CURVE DESCRIPTION
#----------   ------------   ------------------------------
 DEPT.F                  :   
 GRR .GAPI   07 310 01 00:   GAMMA RAY
 RILD.OHMM   07 120 46 00:   INDUCTION LOG DEEP RESISTIVITY
 RFOC.OHMM   07 220 04 00:   RESISTIVITY FOCUSED LOG
 RILM.OHMM   07 120 44 00:   INDUCTION LOG MEDIUM RESISTIVITY
 SPR .MV     07 010 01 00:   SPONTANEOUS POTENTIAL
~PARAMETER INFORMATION
#MNEM.UNIT          VALUE    DESCRIPTION
#----------   ------------   ------------------------------
 PD  .                 GL:   PERMANENT DATUM
 EPD .F              5077:   ELEVATION PERMANENT DATUM
 LMF .                 KB:   LOG MEASURED FROM
 DAPD.F                10:   FEET ABOVE PERMANENT DATUM
 DMF .                 KB:   DRILLING MEASURED FROM
 EKB .F              5087:   KELLING BUSHING
 EDF .F              5086:   DRILLING FLOOR
 EGL .F              5077:   GROUND LEVEL
 DATE.        04-NOV-1991:   RUN DATE
 RUN .                  1:   RUN NUMBER
 DD  .F              1030:   DEPTH DRILLER
 DL  .F              1030:   DEPTH LOGGER
 BLI .F              1027:   BOTTOM LOG INTERVAL
 CS  .IN            9.625:   CASING SIZE
 CBD .F                50:   CASING BOTTOM DRILLER
 CBL .F                52:   CASING BOTTOM LOGGER
 BS  .IN             8.75:   BIT SIZE
 BSD .F              1030:   BIT SIZE AT DEPTH
 DFT .          KCL WATER:   DRILLING FLUID TYPE
 MSS .           FLOWLINE:   MUD SAMPLE SOURCE
 RMS .OHMM            .24:   RESISTIVITY MUD SAMPLE
 MST .F                72:   MUD SAMPLE TEMPERATURE
 RMB .OHMM            .19:   RESISTIVITY MUD AT BHT
 BHT .F                90:   BOTTOM HOLE TEMPERATURE
 TCS .HRS               2:   TIME CURCULATED STOPPED
 MRT .F                90:   MAXIMUM RECORDED TEMPERATURE
 LUN .            HL-6274:   LOGGING UNIT NUMBER
 LUL .             CASPER:   LOGGING UNIT LOCATION
 ENGI.             RAUTIO:   RECORDING ENGINEER
 WITN.             STRONG:   WITNESSED BY
 CLNT.            A2DTECH:   CLIENT CODE
 ORIG.           5" PRINT:   ORIGIN OF DATA
 UWI .       490252248600:   UNIQUE WELL ID
 DICO. A2D Technologies, Inc.:   DIGITIZING COMPANY
~OTHER INFORMATION
~A    DEPT      GRR      RILD       RFOC       RILM        SPR   
# ...
  109.8000    96.5865     5.9338     6.2205     5.7782    -9.3138
  109.9000    97.1992     5.9354     6.2546     5.7780    -9.3126
  110.0000    97.9129     5.9749     6.2548     5.7993    -9.2914
  110.1000    98.3349     5.9748     6.2851     5.8180    -9.1604
  110.2000    98.4970     5.9747     6.3213     5.8253    -9.1593
  110.3000    98.8053     5.9889     6.3578     5.8582    -9.1581
  110.4000    99.0961     6.0162     6.3944     5.8580    -9.1569
  110.5000    99.2830     6.0161     6.4316     5.8848    -9.1557
  110.6000    99.4700     6.0503     6.4318     5.9184    -9.1423
  110.7000    99.6569     6.0578     6.4320     5.9522    -9.0035
  110.8000    99.6955     6.0775     6.4743     5.9862    -9.0024
  110.9000    99.8056     6.1123     6.5222     6.0221    -9.0012
  111.0000    99.9234     6.1473     6.5278     6.0219    -9.0000
  111.1000    99.9248     6.1848     6.5679     6.0474    -8.9988
  111.2000    99.9262     6.2179     6.5681     6.0820    -8.9976
  111.3000    99.7521     6.2535     6.5683     6.1167    -8.9962
  111.4000    99.7036     6.2893     6.5877     6.1517    -8.9952
  111.5000    99.6089     6.3362     6.6144     6.1906    -8.9187
  111.6000    99.4246     6.4058     6.6145     6.2222    -8.8431
  111.7000    99.2068     6.4470     6.6147     6.2578    -8.8419
  111.8000    98.5830     6.4794     6.6482     6.2936    -8.8407
  111.9000    98.0959     6.4917     6.6611     6.3296    -8.8395
  112.0000    97.4174     6.5085     6.6786     6.3640    -8.8383
  112.1000    96.6764     6.5458     6.7079     6.3638    -8.8371
  112.2000    95.9354     6.5832     6.7080     6.3942    -8.7946
  112.3000    95.1987     6.6278     6.7083     6.4308    -8.6850
  112.4000    94.5372     6.6589     6.7399     6.4522    -8.6837
  112.5000    94.0878     6.6738     6.7553     6.4520    -8.6826
  112.6000    93.7534     6.6888     6.7555     6.4518    -8.6814
  112.7000    93.6401     6.7201     6.7557     6.4884    -8.6802
  112.8000    93.6414     6.7200     6.7559     6.4964    -8.6455
  112.9000    93.6429     6.7574     6.7560     6.4962    -8.5281
  113.0000    93.6441     6.7666     6.7857     6.5093    -8.5268
  113.1000    93.7830     6.7665     6.8034     6.5412    -8.5257
  113.2000    93.8721     6.7664     6.8036     6.5409    -8.4463
  113.3000    93.9317     6.7663     6.8038     6.5408    -8.3737
  113.4000    94.1186     6.7662     6.8040     6.5137    -8.3725
  113.5000    94.3267     6.7661     6.8042     6.4763    -8.3713
  113.6000    94.6571     6.7660     6.8044     6.4501    -8.3701
  113.7000    95.1545     6.7470     6.8046     6.4436    -8.3689
  113.8000    95.7979     6.7084     6.8048     6.3608    -8.3677
  113.9000    96.5416     6.6725     6.8050     6.3606    -8.3665
  114.0000    97.2612     6.6724     6.8052     6.3364    -8.3653
  114.1000    96.5872     6.6398     6.8053     6.3000    -8.3640
  114.2000    96.2844     6.6261     6.8055     6.2553    -8.4780
  114.3000    95.9146     6.6097     6.8057     6.1848    -8.5114
  114.4000    95.6174     6.5637     6.7974     6.1428    -8.5102
  114.5000    95.4002     6.4891     6.7590     6.1140    -8.5090
  114.6000    95.0172     6.4520     6.7592     6.0580    -8.5078
  114.7000    94.8395     6.4151     6.7287     5.9889    -8.5064
  114.8000    94.6553     6.3572     6.7129     5.9144    -8.5054
  114.9000    94.4710     6.2981     6.6988     5.8102    -8.5042
  115.0000    94.3468     6.2620     6.6607     5.7460    -8.5030
  115.1000    94.3890     6.2244     6.6210     5.6804    -8.5018
  115.2000    94.8001     6.1571     6.5853     5.5982    -8.5006
  115.3000    94.8014     6.0869     6.5479     5.5130    -8.4992
  115.4000    94.9294     6.0356     6.5303     5.4462    -8.4982
  115.5000    95.2035     5.9904     6.5071     5.3450    -8.4970
  115.6000    95.5760     5.9255     6.4369     5.2620    -8.5429
  115.7000    95.9485     5.8879     6.3964     5.1929    -8.6445
  115.8000    96.3849     5.8282     6.3317     5.1194    -8.6431
  115.9000    96.6935     5.7618     6.2598     5.0320    -8.6419
  116.0000    96.3814     5.6961     6.1887     4.9478    -8.6407
  116.1000    95.7893     5.6476     6.1095     4.8830    -8.6395
  116.2000    95.3847     5.6447     6.0071     4.8591    -8.6383
  116.3000    94.8149     5.5697     5.9276     4.8312    -8.6371
  116.4000    94.6354     5.5696     5.8437     4.8153    -8.6358
  116.5000    94.3101     5.5302     5.7444     4.8152    -8.6347
  116.6000    94.0417     5.4927     5.6337     4.8150    -8.6335
  116.7000    93.8575     5.4864     5.5001     4.8149    -8.6323
  116.8000    93.6733     5.4546     5.3426     4.8148    -8.6311
  116.9000    93.4717     5.4546     5.1944     4.8146    -8.6299
  117.0000    93.4730     5.4303     5.0482     4.8145    -8.6285
  117.1000    93.4743     5.4167     4.9060     4.8144    -8.7300
  117.2000    93.6535     5.3949     4.7770     4.8142    -8.7760
  117.3000    93.9767     5.3419     4.6688     4.8404    -8.7748
  117.4000    94.1829     5.3419     4.5556     4.8680    -8.7737
  117.5000    94.8313     5.3418     4.5558     4.8959    -8.7724
  117.6000    95.2991     5.3417     4.5746     4.9238    -8.8922
  117.7000    96.4367     5.3416     4.6145     4.9491    -8.9198
  117.8000    97.7702     5.3416     4.6757     4.9489    -8.9186
  117.9000    98.7752     5.3415     4.7566     4.9996    -8.9174
  118.0000    99.3424     5.3414     4.8499     5.0178    -8.9162
  118.1000    99.1611     5.3413     4.9233     5.0312    -8.9149
  118.2000    98.6910     5.3413     5.0279     5.0599    -9.0269
  118.3000    98.3422     5.3412     5.1444     5.0901    -9.0623
  118.4000    98.0943     5.3411     5.2491     5.1585    -9.0611
  118.5000    97.7485     5.3410     5.3104     5.1584    -9.0943
  118.6000    97.5488     5.3410     5.4200     5.1766    -9.2085
  118.7000    97.2101     5.3409     5.4965     5.2062    -9.2070
  118.8000    96.5796     5.3408     5.5919     5.2360    -9.2060
  118.9000    95.9293     5.3408     5.6889     5.2663    -9.2048
  119.0000    95.3739     5.3407     5.7815     5.2960    -9.2565
  119.1000    94.8185     5.3406     5.8504     5.3027    -9.3521
  119.2000    94.1786     5.3405     5.9157     5.3026    -9.3509
  119.3000    93.8650     5.3636     5.9582     5.3131    -9.4736
  119.4000    93.3775     5.3943     5.9925     5.3435    -9.5958
  119.5000    92.6659     5.4149     6.0157     5.3762    -9.7181
  119.6000    91.7778     5.4185     6.0158     5.3761    -9.7952
  119.7000    91.0320     5.4524     6.0160     5.3760    -9.8129
  119.8000    90.4802     5.4524     6.0162     5.3914    -9.9424
  119.9000    90.0695     5.4741     6.0163     5.4222    -9.9413
  120.0000    90.0150     5.4901     6.0165     5.4532    -9.9401
  120.1000    90.3329     5.4987     6.0167     5.4884   -10.0025
  120.2000    90.8652     5.5302     6.0147     5.5157   -10.0874
  120.3000    91.2654     5.5666     5.9754     5.5473   -10.0973
  120.4000    91.7820     5.5937     5.9756     5.5790   -10.2346
  120.5000    92.3401     5.6257     5.9757     5.6109   -10.2335
  120.6000    92.8057     5.6579     5.9759     5.6429   -10.3144
  120.7000    93.2840     5.6903     5.9761     5.6813   -10.3251
  120.8000    94.0540     5.7229     5.9762     5.6812   -10.2299
  120.9000    95.3277     5.7557     5.9764     5.7006   -10.2287
  121.0000    95.6471     5.7887     6.0037     5.7332   -10.2273
  121.1000    96.2587     5.8413     6.0183     5.7601   -10.3268
  121.2000    97.0024     5.8959     6.0185     5.7599   -10.3749
  121.3000    97.6656     5.9297     6.0241     5.7917   -10.3737
  121.4000    98.0369     5.9655     6.0607     5.8248   -10.3942
  121.5000    98.0383     5.9978     6.0609     5.8581   -10.5209
  121.6000    97.7465     6.0321     6.0672     5.8916   -10.5198
  121.7000    97.3767     6.0849     6.0758     5.9293   -10.5186
  121.8000    96.9396     6.1439     6.0843     6.0039   -10.5174
  121.9000    96.3842     6.1790     6.0929     6.0037   -10.5564
