~VERSION INFORMATION
 VERS.                2.0:   CWLS LOG ASCII STANDARD - VERSION 2.0
 WRAP.                 NO:   ONE LINE PER DEPTH STEP
~WELL INFORMATION
#MNEM.UNIT      DATA TYPE    INFORMATION
#----------   ------------   ------------------------------
 STRT.F          566.5000:   START DEPTH
 STOP.F         2065.5000:   STOP DEPTH
 STEP.F            0.5000:   STEP LENGTH
 NULL.          -999.2500:   NO VALUE
 COMP. LAWRENCE/ALLISON INC:   COMPANY
 WELL.      NPR 3 #25-X-3:   WELL
 FLD .             TEAPOT:   FIELD
 LOC .       S3 T38N R78W:   LOCATION
 CNTY.            NATRONA:   COUNTY
 STAT.            WYOMING:   STATE
 CTRY. UNITED STATES OF AMERICA:   COUNTRY
 SRVC.            Unknown:   SERVICE COMPANY
 DATE.        26-SEP-1987:   LOGDATE
 API .       490251119000:   API NUMBER
~CURVE INFORMATION
#MNEM.UNIT       API CODE    CURVE DESCRIPTION
#----------   ------------   ------------------------------
 DEPT.F                  :   
 ROP .MIN/FT 91 810 01 00:   RATE OF DRILLING PENETRATION
 TGAS.UNITS  91 830 01 00:   TOTAL GAS FROM HOTWIRE
~PARAMETER INFORMATION
#MNEM.UNIT          VALUE    DESCRIPTION
#----------   ------------   ------------------------------
 DATE.        26-SEP-1987:   RUN DATE
 RUN .                  1:   RUN NUMBER
 DD  .F              2066:   DEPTH DRILLER
 TLI .F               566:   TOP LOG INTERVAL
 WITN. R. HUSK/R. PETERSON:   WITNESSED BY
 CLNT.            A2DTECH:   CLIENT CODE
 ORIG.           5" PRINT:   ORIGIN OF DATA
 UWI .       490251119000:   UNIQUE WELL ID
 DICO. A2D Technologies, Inc.:   DIGITIZING COMPANY
~OTHER INFORMATION
~A   DEPT        ROP       TGAS 
# ...
 1174.0000     0.2856   198.3756
 1174.5000     0.2858   198.2410
 1175.0000     0.2859   198.1065
 1175.5000     0.2861   197.9720
 1176.0000     0.2862   197.8375
 1176.5000     0.2864   197.7029
 1177.0000     0.2865   197.5684
 1177.5000     0.2866   197.4339
 1178.0000     0.2868   197.2994
 1178.5000     0.2869   197.1648
 1179.0000     0.2871   197.0303
 1179.5000     0.2872   196.8958
 1180.0000     0.2873   196.7613
 1180.5000     0.2875   196.6268
 1181.0000     0.2876   196.4922
 1181.5000     0.2878   196.3577
 1182.0000     0.2879   196.2232
 1182.5000     0.2881   196.0887
 1183.0000     0.2882   195.9541
 1183.5000     0.2883   195.8196
 1184.0000     0.2885   195.6851
 1184.5000     0.2886   195.5506
 1185.0000     0.2888   195.4160
 1185.5000     0.2889   195.2815
 1186.0000     0.2890   195.1470
 1186.5000     0.2892   195.0125
 1187.0000     0.2893   194.8779
 1187.5000     0.2895   194.7434
 1188.0000     0.2896   194.6089
 1188.5000     0.2898   194.4743
 1189.0000     0.2899   194.3398
 1189.5000     0.2900   194.2053
 1190.0000     0.2902   194.0708
 1190.5000     0.2903   193.9363
 1191.0000     0.2905   193.8017
 1191.5000     0.2906   193.6672
 1192.0000     0.2907   193.5327
 1192.5000     0.2909   193.3982
 1193.0000     0.2910   193.2636
 1193.5000     0.2912   193.1291
 1194.0000     0.2913   192.9946
 1194.5000     0.2915   192.8601
 1195.0000     0.2916   192.7255
 1195.5000     0.2917   184.4306
 1196.0000     0.2919   192.9838
 1196.5000     0.2920   205.6646
 1197.0000     0.2922   234.9551
 1197.5000     0.2923   264.2258
 1198.0000     0.2924   264.4841
 1198.5000     0.2926   235.6704
 1199.0000     0.2927   227.6139
 1199.5000     0.2929   219.5176
 1200.0000     0.2930   215.6285
 1200.5000     0.2932   215.9662
 1201.0000     0.2933   216.2047
 1201.5000     0.2934   215.0547
 1202.0000     0.2936   212.2479
 1202.5000     0.2937   209.4411
 1203.0000     0.2939   206.6343
 1203.5000     0.2939   203.8274
 1204.0000     0.2938   201.0652
 1204.5000     0.2938   217.9530
 1205.0000     0.2937   234.7813
 1205.5000     0.2937   255.7769
 1206.0000     0.2936   268.4577
 1206.5000     0.2936   264.5686
 1207.0000     0.2935   244.0696
 1207.5000     0.2935   219.4431
 1208.0000     0.2934   203.0917
 1208.5000     0.2934   203.3301
 1209.0000     0.2933   203.2874
 1209.5000     0.2933   203.2407
 1210.0000     0.2933   203.1940
 1210.5000     0.2932   203.1473
 1211.0000     0.2932   203.1006
 1211.5000     0.2931   203.0540
 1212.0000     0.2931   203.0073
 1212.5000     0.2930   202.9606
 1213.0000     0.2930   202.9139
 1213.5000     0.2929   202.8672
 1214.0000     0.2929   202.8205
 1214.5000     0.2928   202.7738
 1215.0000     0.2928   202.7271
 1215.5000     0.2928   202.6805
 1216.0000     0.2927   202.6338
 1216.5000     0.2927   202.5871
 1217.0000     0.2926   202.5404
 1217.5000     0.2926   202.4937
 1218.0000     0.2925   202.4470
 1218.5000     0.2925   202.4003
 1219.0000     0.2924   202.3536
 1219.5000     0.2924   202.3069
 1220.0000     0.2923   202.2603
 1220.5000     0.2923   202.2136
 1221.0000     0.2923   202.1669
 1221.5000     0.2922   202.1202
 1222.0000     0.2922   202.0735
 1222.5000     0.2921   202.0268
 1223.0000     0.2921   201.9801
 1223.5000     0.2920   201.9334
 1224.0000     0.2920   201.8867
 1224.5000     0.2919   201.8400
 1225.0000     0.2919   201.7934
 1225.5000     0.2918   201.7467
 1226.0000     0.2918   201.7000
 1226.5000     0.2917   201.6533
 1227.0000     0.2917   201.6066
 1227.5000     0.2917   201.5599
 1228.0000     0.2916   201.5132
 1228.5000     0.2916   201.4665
 1229.0000     0.2915   201.4198
 1229.5000     0.2915   201.3732
 1230.0000     0.2914   201.3265
 1230.5000     0.2914   201.2798
 1231.0000     0.2913   201.2331
 1231.5000     0.2913   201.1864
 1232.0000     0.2912   201.1397
 1232.5000     0.2912   201.0930
 1233.0000     0.2912   201.0463
 1233.5000     0.2911   200.9996
 1234.0000     0.2911   200.9530
 1234.5000     0.2910   200.9063
 1235.0000     0.2910   200.8596
 1235.5000     0.2909   200.8129
 1236.0000     0.2909   200.7662
 1236.5000     0.2908   200.7195
 1237.0000     0.2908   200.6728
 1237.5000     0.2907   200.6261
 1238.0000     0.2907   200.5795
 1238.5000     0.2906   200.5328
 1239.0000     0.2906   200.4861
 1239.5000     0.2906   200.4394
 1240.0000     0.2905   200.3927
 1240.5000     0.2905   200.3460
 1241.0000     0.2904   200.2993
 1241.5000     0.2904   200.2526
 1242.0000     0.2903   200.2059
 1242.5000     0.2903   200.1592
 1243.0000     0.2902   200.1125
 1243.5000     0.2902   200.0659
 1244.0000     0.2901   200.0192
 1244.5000     0.2901   199.9725
 1245.0000     0.2901   199.9258
 1245.5000     0.2900   199.8791
 1246.0000     0.2900   199.8324
 1246.5000     0.2899   199.7857
 1247.0000     0.2899   199.7390
 1247.5000     0.2898   199.6924
 1248.0000     0.2898   199.6457
 1248.5000     0.2897   199.5990
 1249.0000     0.2897   199.5523
 1249.5000     0.2896   199.5056
 1250.0000     0.2896   199.4589
 1250.5000     0.2896   199.4122
 1251.0000     0.2895   199.3655
 1251.5000     0.2895   199.3188
 1252.0000     0.2894   199.2722
 1252.5000     0.2894   199.2255
 1253.0000     0.2893   199.1788
 1253.5000     0.2893   199.1321
 1254.0000     0.2892   199.0854
 1254.5000     0.2892   199.0387
 1255.0000     0.2891   198.9920
 1255.5000     0.2891   198.9453
 1256.0000     0.2890   198.8986
 1256.5000     0.2890   198.8520
 1257.0000     0.2890   198.8053
 1257.5000     0.2889   198.7586
 1258.0000     0.2889   198.7119
 1258.5000     0.2888   198.6652
 1259.0000     0.2888   198.6185
 1259.5000     0.2887   198.5718
 1260.0000     0.2887   198.5251
 1260.5000     0.2886   198.4784
 1261.0000     0.2886   198.4317
 1261.5000     0.2885   198.3851
 1262.0000     0.2885   198.3384
 1262.5000     0.2885   198.2917
 1263.0000     0.2884   198.2450
 1263.5000     0.2884   198.1983
 1264.0000     0.2883   198.1516
 1264.5000     0.2883   198.1049
 1265.0000     0.2882   198.0582
 1265.5000     0.2882   198.0116
 1266.0000     0.2881   197.9649
 1266.5000     0.2881   197.9182
 1267.0000     0.2880   197.8715
 1267.5000     0.2880   197.8248
 1268.0000     0.2879   197.7781
 1268.5000     0.2879   197.7314
 1269.0000     0.2879   197.6847
 1269.5000     0.2878   197.6380
 1270.0000     0.2878   197.5914
 1270.5000     0.2877   197.5447
 1271.0000     0.2877   197.4980
 1271.5000     0.2876   197.4513
 1272.0000     0.2876   197.4046
 1272.5000     0.2875   197.3579
 1273.0000     0.2875   197.3112
 1273.5000     0.2874   197.2645
 1274.0000     0.2874   197.2178
 1274.5000     0.2874   197.1712
 1275.0000     0.2873   197.1245
 1275.5000     0.2873   197.0778
 1276.0000     0.2872   197.0311
 1276.5000     0.2872   196.9844
 1277.0000     0.2871   196.9377
 1277.5000     0.2871   196.8910
 1278.0000     0.2870   196.8443
 1278.5000     0.2870   196.7976
 1279.0000     0.2869   196.7509
 1279.5000     0.2869   196.7043
 1280.0000     0.2869   196.6576
 1280.5000     0.2868   196.6109
 1281.0000     0.2868   196.5642
 1281.5000     0.2867   196.5175
 1282.0000     0.2867   196.4708
 1282.5000     0.2866   196.4241
 1283.0000     0.2866   196.3774
 1283.5000     0.2865   196.3344
 1284.0000     0.2865   186.8989
 1284.5000     0.2864   177.4452
 1285.0000     0.2864   167.9914
 1285.5000     0.2863   158.5377
 1286.0000     0.2863   149.0840
 1286.5000     0.2863   147.1246
 1287.0000     0.2862   147.2973
 1287.5000     0.2862   147.4699
 1288.0000     0.2861   147.6425
 1288.5000     0.2861   147.8152
 1289.0000     0.2860   147.9878
 1289.5000     0.2860   148.1604
 1290.0000     0.2859   148.3331
 1290.5000     0.2859   148.5057
 1291.0000     0.2858   148.6783
 1291.5000     0.2858   148.8510
 1292.0000     0.2858   149.0236
 1292.5000     0.2857   149.1962
 1293.0000     0.2857   149.3689
 1293.5000     0.2856   149.5415
 1294.0000     0.2856   149.7141
 1294.5000     0.2855   149.8867
 1295.0000     0.2855   150.0594
