~VERSION INFORMATION
 VERS.                2.0:   CWLS LOG ASCII STANDARD - VERSION 2.0
 WRAP.                 NO:   ONE LINE PER DEPTH STEP
~WELL INFORMATION
#MNEM.UNIT      DATA TYPE    INFORMATION
#----------   ------------   ------------------------------
 STRT.F            8.5000:   START DEPTH
 STOP.F          509.0000:   STOP DEPTH
 STEP.F            0.5000:   STEP LENGTH
 NULL.          -999.2500:   NO VALUE
 COMP. LAWRENCE-ALLISON &AS:   COMPANY
 WELL. NPR 3 #68-26SX3LP2:   WELL
 FLD .             TEAPOT:   FIELD
 LOC .       S3 T38N R78W:   LOCATION
 CNTY.            NATRONA:   COUNTY
 STAT.            WYOMING:   STATE
 CTRY. UNITED STATES OF AMERICA:   COUNTRY
 SRVC.      Dresser Atlas:   SERVICE COMPANY
 DATE.        12-DEC-1984:   LOGDATE
 API .       490251099600:   API NUMBER
~CURVE INFORMATION
#MNEM.UNIT       API CODE    CURVE DESCRIPTION
#----------   ------------   ------------------------------
 DEPT.F                  :   
 CNC .DEC    42 890 03 00:   NEUTRON POROSITY SANDSTONE
 CALD.IN     45 280 60 00:   CALIPER FROM DENSITY LOG
 CORR.G/C3   45 356 01 00:   DENSITY CORRECTION
 GRD .GAPI   45 310 01 00:   GAMMA RAY FROM DENSITY LOG
 PORD.DEC    45 890 12 00:   POROSITY DENSITY SANDSTONE
 RHOB.G/C3   45 350 01 00:   BULK DENSITY
 DT  .US/F   60 520 00 00:   INTERVAL TRANSIT TIME
 SPR .MV     11 010 01 00:   SPONTANEOUS POTENTIAL FROM RES.
 RS  .OHMM   11 220 09 00:   RESISTIVITY SHALLOW
 RD  .OHMM   11 220 10 00:   RESISTIVITY DEEP
~PARAMETER INFORMATION
#MNEM.UNIT          VALUE    DESCRIPTION
#----------   ------------   ------------------------------
 PD  .                 GL:   PERMANENT DATUM
 EPD .F              5158:   ELEVATION PERMANENT DATUM
 LMF .                 GL:   LOG MEASURED FROM
 DMF .                 GL:   DRILLING MEASURED FROM
 EGL .F              5158:   GROUND LEVEL
 DATE.        12-DEC-1984:   RUN DATE
 RUN .                  1:   RUN NUMBER
 DD  .F               510:   DEPTH DRILLER
 DL  .F               510:   DEPTH LOGGER
 BLI .F               501:   BOTTOM LOG INTERVAL
 TLI .F                20:   TOP LOG INTERVAL
 CS  .IN            8.625:   CASING SIZE
 CBD .F                20:   CASING BOTTOM DRILLER
 CBL .F                20:   CASING BOTTOM LOGGER
 BS  .IN            7.875:   BIT SIZE
 BSD .F               510:   BIT SIZE AT DEPTH
 DFT .          KCL/WATER:   DRILLING FLUID TYPE
 MSS .            MUDTANK:   MUD SAMPLE SOURCE
 RMS .OHMM           0.21:   RESISTIVITY MUD SAMPLE
 MST .F                70:   MUD SAMPLE TEMPERATURE
 RMF .OHMM           0.16:   RESISTIVITY MUD FILTRATE SAMPLE
 MFST.F                70:   MUD FILTRATE SAMPLE TEMPERATURE
 RMC .OHMM           0.26:   RESISTIVITY MUD CAKE
 MCST.F                70:   MUD CAKE SAMPLE TEMPERATURE
 MFSS.               CALC:   MUD FILTRATE SAMPLE SOURCE
 MCSS.               CALC:   MUD CAKE SAMPLE SOURCE
 RMB .OHMM           0.17:   RESISTIVITY MUD AT BHT
 BHT .F                85:   BOTTOM HOLE TEMPERATURE
 TCS .HRS               6:   TIME CURCULATED STOPPED
 MRT .F               100:   MAXIMUM RECORDED TEMPERATURE
 LUN .               6270:   LOGGING UNIT NUMBER
 LUL .                 FM:   LOGGING UNIT LOCATION
 ENGI.           E.GOVETT:   RECORDING ENGINEER
 WITN.              LUERS:   WITNESSED BY
 CLNT.            A2DTECH:   CLIENT CODE
 ORIG.           5" PRINT:   ORIGIN OF DATA
 UWI .       490251099600:   UNIQUE WELL ID
 DICO. A2D Technologies, Inc.:   DIGITIZING COMPANY
~OTHER INFORMATION
~A    DEPT     CNC       CALD       CORR        GRD       PORD       RHOB          DT       SPR         RS         RD   
# ...
  343.5000     0.2623     7.7147     0.0184    70.4748     0.2311     2.2926   104.9385   -19.7871    32.1428    28.6369
  344.0000     0.2556     7.7312     0.0426    71.1217     0.2277     2.2904   105.1510   -19.9227    31.7176    27.8716
  344.5000     0.2665     7.7476     0.0367    72.4324     0.2211     2.3046   104.2357   -19.7608    31.2890    27.5051
  345.0000     0.2755     7.7493     0.0233    74.2320     0.2099     2.3266   103.3959   -19.5988    30.8843    27.3319
  345.5000     0.2743     7.7509     0.0129    76.6326     0.2017     2.3402   102.6111   -19.4368    30.9012    27.1533
  346.0000     0.2661     7.7376     0.0041    75.1947     0.1987     2.3448   101.7610   -19.2749    30.7045    26.9891
  346.5000     0.2658     7.7244     0.0094    70.7167     0.1974     2.3463   101.0988   -19.2615    30.9392    27.4166
  347.0000     0.2745     7.7561     0.0570    68.0730     0.1965     2.3479   100.8601   -19.0973    31.1714    28.1729
  347.5000     0.2811     7.7725     0.0722    68.6902     0.1959     2.3495   100.8468   -18.9388    31.8437    28.5833
  348.0000     0.2802     7.7889     0.0813    69.4510     0.1949     2.3511   100.7583   -19.2228    32.9845    29.4042
  348.5000     0.2747     7.7906     0.0740    70.3601     0.1925     2.3564   100.5196   -19.3582    34.1661    31.9717
  349.0000     0.2650     7.7922     0.0742    71.1209     0.1880     2.3632    98.8534   -19.1932    35.3901    35.2482
  349.5000     0.2520     7.7938     0.0728    71.7334     0.1758     2.3903    96.5862   -19.1800    34.9221    35.7562
  350.0000     0.2474     7.7954     0.0714    69.5268     0.1381     2.4249    92.5158   -19.1668    31.7103    32.4772
  350.5000     0.2456     7.7970     0.0716    67.0235     0.1315     2.4559    91.1501   -19.5994    30.8602    29.2908
  351.0000     0.2447     7.7834     0.0747    66.3006     0.1394     2.4547    91.7379   -20.0320    29.8255    27.5379
  351.5000     0.2476     7.7854     0.0779    66.7647     0.1507     2.4132    94.5044   -20.3165    29.4310    26.6170
  352.0000     0.2743     7.7870     0.0029    69.0092     0.1736     2.3787    98.0223   -20.7486    29.4471    25.9056
  352.5000     0.2860     7.7886    -0.0014    72.2948     0.1775     2.3833    99.7370   -20.8841    29.6681    25.9216
  353.0000     0.2799     7.7902     0.0183    71.3570     0.1783     2.3803   100.3396   -21.1680    29.4793    25.9377
  353.5000     0.2795     7.7918     0.0470    69.8079     0.1834     2.3701   101.5432   -21.4520    29.2791    26.1627
  354.0000     0.2822     7.7935     0.0713    71.1669     0.1991     2.3555   102.2483   -21.5874    28.8808    25.9732
  354.5000     0.2819     7.7951     0.0609    73.7081     0.2009     2.3386   102.2350   -21.4224    28.3251    25.2752
  355.0000     0.2792     7.7970     0.0520    75.6558     0.1987     2.3447   101.6958   -21.4092    27.7612    24.7707
  355.5000     0.2779     7.7987     0.0477    76.8617     0.1954     2.3515   101.1565   -21.5479    27.5808    24.6148
  356.0000     0.2806     7.8003     0.0448    76.1388     0.1902     2.3591   100.3919   -21.5314    27.4053    24.8048
  356.5000     0.2876     7.8167     0.0390    72.7453     0.1872     2.3629    99.9278   -21.5182    27.2309    24.8200
  357.0000     0.2833     7.8332     0.0347    73.0610     0.1899     2.3593    99.8394   -21.6569    26.8744    24.6601
  357.5000     0.2770     7.8348     0.0303    74.8604     0.1928     2.3571    99.9012   -21.6405    26.3358    24.3395
  358.0000     0.2869     7.8364     0.0275    75.9179     0.1907     2.3579   100.1884   -21.7759    25.2770    23.8537
  358.5000     0.2957     7.8347     0.0246    75.0467     0.1883     2.3618   100.4039   -22.0599    24.4295    23.3770
  359.0000     0.2938     7.8099     0.0445    75.6591     0.1864     2.3656   100.3872   -22.1953    24.1031    23.0699
  359.5000     0.2817     7.8059     0.0642    77.9036     0.1852     2.3672   100.1485   -22.3307    23.7876    22.7667
  360.0000     0.2651     7.7979     0.0548    78.3676     0.1839     2.3725    99.6844   -22.3175    23.6330    22.6235
  360.5000     0.2608     7.7999     0.0449    77.6448     0.1818     2.3794    99.2151   -22.1558    23.3231    22.4811
  361.0000     0.2617     7.7866     0.0420    78.4103     0.1785     2.3839    99.1315   -22.1426    22.8562    22.3397
  361.5000     0.2620     7.7734     0.0437    79.0227     0.1772     2.3810    99.2656   -21.9807    22.5538    22.1991
  362.0000     0.2617     7.7306     0.0438    78.4482     0.1831     2.3718    99.4663   -22.1318    22.4063    22.0345
  362.5000     0.2604     7.6877     0.0440    77.2802     0.1873     2.3637    99.6497   -22.4245    22.1015    21.7431
  363.0000     0.2583     7.6744     0.0411    75.9561     0.1913     2.3588    99.9412   -22.6843    21.8008    21.2611
  363.5000     0.2531     7.6612     0.0443    74.7823     0.1919     2.3581   100.0075   -22.9683    21.5358    21.1219
  364.0000     0.2455     7.6646     0.0550    75.8340     0.1933     2.3552    99.0160   -23.3976    21.3988    20.9886
  364.5000     0.2383     7.6716     0.0507    77.4791     0.1945     2.3522    98.1778   -23.6816    21.2597    20.7098
  365.0000     0.2410     7.6786     0.0373    75.0890     0.1963     2.3493    97.7903   -23.6684    20.9786    20.4346
  365.5000     0.2551     7.6856     0.0104    74.2166     0.1969     2.3486    97.6283   -23.8071    20.8127    20.1608
  366.0000     0.2648     7.6896     0.0030    73.6609     0.1923     2.3638    97.3911   -23.9425    20.5023    19.8950
  366.5000     0.2619     7.7060     0.0077    73.6773     0.1799     2.3774    97.2291   -24.0746    20.1920    19.6309
  367.0000     0.2593     7.7074     0.0244    73.3904     0.1757     2.3849    97.0629   -24.2100    19.8817    19.5047
  367.5000     0.2632     7.7087     0.0381    73.1068     0.1732     2.3895    96.9046   -24.4940    19.5713    19.2456
  368.0000     0.2719     7.7248     0.0581    74.7553     0.1723     2.3904    96.7400   -25.2238    19.2610    19.1219
  368.5000     0.2622     7.7261     0.0777    78.0325     0.1717     2.3912    96.6531   -25.6564    18.8850    18.9989
  369.0000     0.2501     7.7423     0.0775    78.9326     0.1713     2.3913    96.4910   -25.7920    18.6326    18.7465
  369.5000     0.2429     7.7436     0.0674    75.9816     0.1719     2.3891    96.2538   -25.9272    18.5115    18.4996
  370.0000     0.2392     7.7449     0.0495    74.9561     0.1749     2.3839    96.0167   -26.2209    18.2641    18.0028
  370.5000     0.2470     7.7611     0.0421    74.3758     0.1800     2.3818    95.9297   -26.5136    18.0025    17.6389
  371.0000     0.2540     7.7772     0.0573    74.3889     0.1764     2.3854    95.8428   -26.9550    17.5363    17.2845
  371.5000     0.2545     7.7785     0.0605    74.1039     0.1733     2.3955    95.6056   -27.3604    17.3020    17.1444
  372.0000     0.2497     7.7502     0.0517    73.7982     0.1702     2.3970    94.8425   -27.6444    17.1878    17.0647
  372.5000     0.2584     7.7515     0.0428    73.2413     0.1687     2.3979    94.2297   -27.7798    16.8427    16.8382
  373.0000     0.2620     7.7380     0.0324    74.8898     0.1686     2.4062    93.7661   -27.7633    16.7315    16.7285
  373.5000     0.2614     7.7542     0.0236    77.4252     0.1617     2.4183    93.5227   -28.0506    16.6227    16.6224
  374.0000     0.2602     7.7558     0.0192    80.4057     0.1560     2.4229    93.2792   -28.1860    16.5147    16.6307
  374.5000     0.2644     7.7419     0.0088    78.7867     0.1526     2.4207    93.1278   -28.6153    16.4090    16.5234
  375.0000     0.2677     7.7435     0.0165    76.7227     0.1559     2.4193    92.9657   -29.0479    16.4157    16.5332
  375.5000     0.2686     7.7449     0.0137    74.0652     0.1568     2.4194    92.8788   -29.1866    16.4224    16.6560
  376.0000     0.2652     7.7310     0.0063    75.2653     0.1548     2.4210    92.7919   -29.1702    16.4291    16.6639
  376.5000     0.2498     7.7326     0.0020    81.2131     0.1542     2.4218    92.7050   -29.0084    16.3223    16.6719
