~VERSION INFORMATION
 VERS.                2.0:   CWLS LOG ASCII STANDARD - VERSION 2.0
 WRAP.                 NO:   ONE LINE PER DEPTH STEP
~WELL INFORMATION
#MNEM.UNIT      DATA TYPE    INFORMATION
#----------   ------------   ------------------------------
 STRT.F           29.0000:   START DEPTH
 STOP.F          720.0000:   STOP DEPTH
 STEP.F            0.5000:   STEP LENGTH
 NULL.          -999.2500:   NO VALUE
 COMP.    FENIX & SCISSON:   COMPANY
 WELL. RES 3 TEAPOT DOM #21-S-14:   WELL
 FLD .        TEAPOT DOME:   FIELD
 LOC .      S14 T38N R78W:   LOCATION
 CNTY.            NATRONA:   COUNTY
 STAT.            WYOMING:   STATE
 CTRY. UNITED STATES OF AMERICA:   COUNTRY
 SRVC.            Unknown:   SERVICE COMPANY
 DATE.        25-MAY-1978:   LOGDATE
 API .       490251063300:   API NUMBER
~CURVE INFORMATION
#MNEM.UNIT       API CODE    CURVE DESCRIPTION
#----------   ------------   ------------------------------
 DEPT.F                  :   
 CALD.IN     45 280 60 00:   CALIPER FROM DENSITY LOG
 CORR.G/C3   45 356 01 00:   DENSITY CORRECTION
 DPHI.DEC    45 890 12 00:   DENSITY POROSITY SANDSTONE
 GRD .GAPI   45 310 01 00:   GAMMA RAY FROM DENSITY LOG
 RHOB.G/C3   45 350 01 00:   BULK DENSITY
 ILD .OHMM   05 120 46 00:   INDUCTION LOG DEEP
 SN  .OHMM   05 040 16 00:   SHORT NORMAL 16"
 SPR .MV     05 010 01 00:   SPONTANEOUS POTENTIAL FROM RES.
~PARAMETER INFORMATION
#MNEM.UNIT          VALUE    DESCRIPTION
#----------   ------------   ------------------------------
 PD  .                 GL:   PERMANENT DATUM
 EPD .F              5232:   ELEVATION PERMANENT DATUM
 LMF .                 KB:   LOG MEASURED FROM
 DAPD.F                 4:   FEET ABOVE PERMANENT DATUM
 DMF .                 KB:   DRILLING MEASURED FROM
 EKB .F              5236:   KELLING BUSHING
 EGL .F              5232:   GROUND LEVEL
 DATE.        25-MAY-1978:   RUN DATE
 RUN .                  1:   RUN NUMBER
 DD  .F               716:   DEPTH DRILLER
 DL  .F               727:   DEPTH LOGGER
 BLI .F               720:   BOTTOM LOG INTERVAL
 TLI .F                44:   TOP LOG INTERVAL
 CS  .IN            8.625:   CASING SIZE
 CBD .F                40:   CASING BOTTOM DRILLER
 CBL .F                44:   CASING BOTTOM LOGGER
 BS  .IN            7.875:   BIT SIZE
 BSD .F               716:   BIT SIZE AT DEPTH
 DFT .                KCL:   DRILLING FLUID TYPE
 DFD .                8.6:   DRILLING FLUID DENSITY
 DFV .                 31:   DRILLING FLUID VISCOSITY
 DFPH.                9.5:   DRILLING FLUID PH
 DFL .               10.8:   DRILLING FLUID LOSS
 MSS .            MUD PIT:   MUD SAMPLE SOURCE
 RMS .OHMM           0.32:   RESISTIVITY MUD SAMPLE
 MST .F                82:   MUD SAMPLE TEMPERATURE
 RMF .OHMM           0.34:   RESISTIVITY MUD FILTRATE SAMPLE
 MFST.F                72:   MUD FILTRATE SAMPLE TEMPERATURE
 RMC .OHMM            0.8:   RESISTIVITY MUD CAKE
 MCST.F                72:   MUD CAKE SAMPLE TEMPERATURE
 MFSS.               MEAS:   MUD FILTRATE SAMPLE SOURCE
 RMB .OHMM           0.35:   RESISTIVITY MUD AT BHT
 BHT .F                74:   BOTTOM HOLE TEMPERATURE
 TCS .HRS               1:   TIME CURCULATED STOPPED
 MRT .F                74:   MAXIMUM RECORDED TEMPERATURE
 LUN .               2958:   LOGGING UNIT NUMBER
 LUL .               CASP:   LOGGING UNIT LOCATION
 ENGI.             MILLER:   RECORDING ENGINEER
 WITN.           MCGINLEY:   WITNESSED BY
 CLNT.            A2DTECH:   CLIENT CODE
 ORIG.           5" PRINT:   ORIGIN OF DATA
 UWI .       490251063300:   UNIQUE WELL ID
 DICO. A2D Technologies, Inc.:   DIGITIZING COMPANY
~OTHER INFORMATION
~A   DEPT     CALD       CORR       DPHI         GRD      RHOB        ILD         SN        SPR   
# ...
  474.5000     7.3154     0.0133     0.1283    93.2274     2.4603     6.4688     6.6844   -26.6513
  475.0000     7.4218     0.0180     0.1280    92.7612     2.4589     6.4282     6.5980   -26.3393
  475.5000     6.9751     0.0212     0.1282    93.5269     2.4575     6.4346     6.4233   -26.0268
  476.0000     6.7522     0.0170     0.1495    92.9528     2.4516     6.3955     6.2966   -25.8604
  476.5000     7.1430     0.0142     0.1437    92.9716     2.4330     6.3566     6.3029   -25.9948
  477.0000     7.1896     0.0450     0.1386    92.9904     2.4241     6.2746     6.3080   -25.6827
  477.5000     7.2213     0.0581     0.1376    96.5913     2.4385     6.1948     6.2264   -25.0731
  478.0000     7.2844     0.0643     0.1373    99.2967     2.4386     6.1136     6.1036   -24.9098
  478.5000     7.1299     0.0706     0.1372    99.4811     2.4395     5.8716     5.8604   -24.4490
  479.0000     7.0770     0.0678     0.1411    93.8060     2.4396     5.7559     5.7847   -24.1369
  479.5000     7.0638     0.0650     0.1473    92.7859     2.4375     5.5652     5.5040   -24.1012
  480.0000     7.0660     0.0653     0.1507    95.3467     2.4271     5.0919     4.9437   -23.8069
  480.5000     7.0677     0.0655     0.1440    96.7088     2.4242     4.7853     4.6816   -23.7925
  481.0000     7.0545     0.0657     0.1287    94.6381     2.4251     4.5356     4.5883   -24.5221
  481.5000     7.0263     0.0675     0.1224    93.7614     2.4424     4.6672     4.6891   -25.8469
  482.0000     7.0883     0.0723     0.1313    93.6262     2.4604     4.8017     4.8244   -25.8325
  482.5000     7.1345     0.0755     0.1316    95.1423     2.4598     4.9400     4.9980   -25.8181
  483.0000     7.1366     0.0952     0.1285    95.7582     2.4584     5.1175     5.1422   -25.5060
  483.5000     7.1384     0.1194     0.1173    94.5957     2.4623     5.5254     5.4044   -25.1707
  484.0000     7.1401     0.1271     0.1089    90.2780     2.4848     6.1752     6.0649   -24.5807
  484.5000     7.1568     0.1273     0.1015    88.7996     2.4984     6.5376     6.7037   -23.5246
  485.0000     7.1885     0.1275     0.1000    91.8082     2.5023     6.7203     6.7556   -22.9150
  485.5000     7.2201     0.1248     0.0996    95.5583     2.5031     6.8192     6.8551   -22.9006
  486.0000     7.2816     0.1161     0.1008    96.9204     2.5032     6.9195     7.0043   -22.8861
  486.5000     7.2045     0.1073     0.1067    99.7750     2.5010     7.0213     7.1075   -22.8717
  487.0000     7.0459     0.0956     0.1103    99.6328     2.4952     7.1245     7.2622   -22.8512
  487.5000     7.0033     0.0898     0.1105    97.4005     2.4916     7.1796     7.3185   -22.6935
  488.0000     6.9602     0.0885     0.1057    97.1449     2.4902     7.2351     7.3246   -22.6760
  488.5000     6.9619     0.0888     0.1039    97.3130     2.4948     7.2410     7.3317   -22.6616
  489.0000     6.9637     0.0860     0.1036    96.1424     2.4979     7.2482     7.3376   -22.6472
  489.5000     6.9804     0.0846     0.1038    94.9672     2.5003     7.3548     7.3436   -22.6328
  490.0000     7.0568     0.0820     0.1032    93.4935     2.5011     7.3086     7.3495   -22.6183
  490.5000     7.1184     0.0823     0.1028    92.9153     2.5028     7.2651     7.3033   -22.6039
  491.0000     7.1202     0.0825     0.1031    90.7972     2.5044     7.2715     7.2601   -22.5893
  491.5000     7.1223     0.0828     0.1034    87.1367     2.5022     7.2773     7.2160   -22.4226
  492.0000     7.1240     0.0845     0.1003    85.8075     2.5016     7.1834     7.1684   -22.1106
  492.5000     7.1258     0.0862     0.0907    90.0101     2.5077     7.1893     7.0795   -22.0962
  493.0000     7.1574     0.0865     0.0841    92.7155     2.5175     7.1964     7.0866   -22.2306
  493.5000     7.1591     0.0787     0.0847    95.2716     2.5258     7.1526     7.0420   -22.3649
  494.0000     7.1011     0.0541     0.0945    90.3651     2.5213     7.1584     7.0491   -22.7969
  494.5000     7.0580     0.0423     0.1046    87.9958     2.5081     7.1134     7.0548   -23.5266
  495.0000     7.0747     0.0336     0.1070    87.1191     2.4978     7.1206     7.0605   -23.6610
  495.5000     7.1964     0.0218     0.1105    90.7247     2.4926     7.0771     7.0662   -23.9405
  496.0000     7.3776     0.0086     0.1299    93.7286     2.4860     7.0342     7.0232   -24.6702
  496.5000     7.4690     0.0013     0.1281    93.1504     2.4689     6.9915     7.0290   -25.1058
  497.0000     7.4707     0.0046     0.1274    90.7811     2.4571     6.8080     7.0359   -25.3890
  497.5000     7.4276    -0.0013     0.1283    90.3475     2.4564     6.4476     6.9449   -25.5198
  498.0000     7.3696    -0.0055     0.1411    91.2665     2.4526     6.2340     6.9027   -25.5053
  498.5000     7.3383    -0.0067     0.1417    95.9122     2.4462     6.1112     6.8134   -25.4909
  499.0000     7.2963    -0.0064     0.1404    96.5284     2.4433     6.0728     6.6330   -25.4762
  499.5000     6.8965    -0.0062     0.1391    96.5515     2.4434     6.0789     6.3249   -25.9085
  500.0000     6.8384    -0.0026     0.1308    96.4368     2.4470     6.1259     6.0730   -26.2460
  500.5000     7.3194    -0.0002     0.1331    94.1995     2.4504     6.0341     6.0177   -26.9189
  501.0000     7.3963     0.0020     0.1334    92.8751     2.4505     5.9700     5.9996   -27.2032
  501.5000     7.3985    -0.0008     0.1379    92.7408     2.4491     5.8103     6.0062   -27.3375
  502.0000     7.4007    -0.0051     0.1454    92.6142     2.4432     5.5445     6.0114   -27.3194
  502.5000     7.3879    -0.0048     0.1551    96.3691     2.4261     5.3971     6.0166   -27.4537
  503.0000     7.3901     0.0044     0.1482    98.0298     2.4180     5.4030     5.9363   -27.2904
  503.5000     7.4077     0.0136     0.1359    97.6008     2.4091     5.4077     5.7043   -27.2759
  504.0000     7.4548     0.0003     0.1245    92.3958     2.4362     5.4124     5.4774   -27.2614
  504.5000     7.4569     0.0021     0.1208    91.5191     2.4461     5.4171     5.4069   -27.2469
  505.0000     7.4287     0.0007     0.1196    91.8364     2.4655     5.4218     5.3744   -27.2321
  505.5000     7.4159     0.0010     0.1198    96.6314     2.4686     5.4266     5.4164   -27.2173
  506.0000     7.4336     0.0012     0.1201    96.3260     2.4665     5.5844     5.5730   -27.1998
  506.5000     7.4058    -0.0001     0.1221    88.6141     2.4658     5.8658     5.8140   -27.1853
  507.0000     7.3467    -0.0028     0.1266    87.1404     2.4659     6.0769     6.0262   -27.1708
  507.5000     7.2613     0.0004     0.1235    86.1144     2.4660     6.2524     6.2421   -27.4575
  508.0000     7.2330     0.0066     0.1205    86.7303     2.4669     6.3448     6.2909   -27.7370
  508.5000     7.2656     0.0069     0.1240    89.7342     2.4670     6.4385     6.3400   -28.0202
  509.0000     7.2977     0.0040     0.1318    90.2008     2.4664     6.3998     6.3455   -28.0057
  509.5000     7.2844     0.0012     0.1450    90.3689     2.4575     6.2685     6.3060   -27.9912
  510.0000     7.2720    -0.0015     0.1616    90.3881     2.4314     5.7027     6.2262   -28.1448
  510.5000     7.2892     0.0047     0.1621    90.7098     2.4083     5.1822     6.1038   -28.2598
  511.0000     7.2915     0.0259     0.1364    92.2212     2.4062     5.0108     5.8998   -28.2417
  511.5000     7.0699     0.0240     0.1420    93.1308     2.4138     4.9796     5.5251   -28.3796
  512.0000     6.9525    -0.0021     0.1336    86.2887     2.4373     4.9507     5.1146   -28.5139
  512.5000     6.9242     0.0146     0.1216    85.7058     2.4550     4.9210     4.9784   -28.4958
  513.0000     6.9569     0.0298     0.1180    89.0129     2.4754     4.9253     4.9838   -26.8444
  513.5000     7.0188     0.0211     0.1164    90.8228     2.4823     4.9306     5.0576   -26.3835
  514.0000     7.0808     0.0138     0.1104    95.0328     2.4861     5.1434     5.2399   -25.7738
  514.5000     7.1428     0.0140     0.1083    95.3381     2.4907     5.4400     5.4665   -25.7589
