~VERSION INFORMATION
 VERS.                2.0:   CWLS LOG ASCII STANDARD - VERSION 2.0
 WRAP.                 NO:   ONE LINE PER DEPTH STEP
~WELL INFORMATION
#MNEM.UNIT      DATA TYPE    INFORMATION
#----------   ------------   ------------------------------
 STRT.F           30.0000:   START DEPTH
 STOP.F          715.0000:   STOP DEPTH
 STEP.F            0.5000:   STEP LENGTH
 NULL.          -999.2500:   NO VALUE
 COMP. FENIX & SCISSON INC:   COMPANY
 WELL.   NPR-3 #84SX15-15:   WELL
 FLD .             TEAPOT:   FIELD
 LOC .      S15 T38N R78W:   LOCATION
 CNTY.            NATRONA:   COUNTY
 STAT.            WYOMING:   STATE
 CTRY. UNITED STATES OF AMERICA:   COUNTRY
 SRVC.            Unknown:   SERVICE COMPANY
 DATE.        15-MAY-1978:   LOGDATE
 API .       490251064000:   API NUMBER
~CURVE INFORMATION
#MNEM.UNIT       API CODE    CURVE DESCRIPTION
#----------   ------------   ------------------------------
 DEPT.F                  :   
 SPR .MV     05 010 01 00:   SPONTANEOUS POTENTIAL FROM RES.
 SN  .OHMM   05 040 16 00:   SHORT NORMAL 16"
 ILD .OHMM   05 120 46 00:   INDUCTION LOG DEEP
 CALD.IN     45 280 60 00:   CALIPER FROM DENSITY LOG
 GRD .GAPI   45 310 01 00:   GAMMA RAY FROM DENSITY LOG
 CORR.G/C3   45 356 01 00:   DENSITY CORRECTION
 DPHI.DEC    45 890 12 00:   DENSITY POROSITY SANDSTONE
 DEN .G/C3   45 350 01 00:   COMPENSATED BULK DENSITY
~PARAMETER INFORMATION
#MNEM.UNIT          VALUE    DESCRIPTION
#----------   ------------   ------------------------------
 PD  .                 GL:   PERMANENT DATUM
 EPD .F              5247:   ELEVATION PERMANENT DATUM
 LMF .                 KB:   LOG MEASURED FROM
 DMF .                 KB:   DRILLING MEASURED FROM
 EKB .F              5251:   KELLING BUSHING
 EGL .F              5247:   GROUND LEVEL
 DATE.        15-MAY-1978:   RUN DATE
 RUN .                  1:   RUN NUMBER
 DD  .F               725:   DEPTH DRILLER
 DL  .F               720:   DEPTH LOGGER
 BLI .F               713:   BOTTOM LOG INTERVAL
 TLI .F                40:   TOP LOG INTERVAL
 CS  .IN            8.625:   CASING SIZE
 CBD .F                40:   CASING BOTTOM DRILLER
 CBL .F                40:   CASING BOTTOM LOGGER
 BS  .IN            7.875:   BIT SIZE
 BSD .F               725:   BIT SIZE AT DEPTH
 DFT .                KCL:   DRILLING FLUID TYPE
 DFD .                8.6:   DRILLING FLUID DENSITY
 DFV .                 33:   DRILLING FLUID VISCOSITY
 DFPH.                9.5:   DRILLING FLUID PH
 DFL .                 12:   DRILLING FLUID LOSS
 MSS .           FLOWLINE:   MUD SAMPLE SOURCE
 RMS .OHMM             .2:   RESISTIVITY MUD SAMPLE
 MST .F                80:   MUD SAMPLE TEMPERATURE
 RMF .OHMM            .18:   RESISTIVITY MUD FILTRATE SAMPLE
 MFST.F                83:   MUD FILTRATE SAMPLE TEMPERATURE
 RMC .OHMM            .26:   RESISTIVITY MUD CAKE
 MCST.F                83:   MUD CAKE SAMPLE TEMPERATURE
 MFSS.               MEAS:   MUD FILTRATE SAMPLE SOURCE
 RMB .OHMM             .2:   RESISTIVITY MUD AT BHT
 BHT .F                80:   BOTTOM HOLE TEMPERATURE
 TCS .HRS            0200:   TIME CURCULATED STOPPED
 MRT .F                80:   MAXIMUM RECORDED TEMPERATURE
 LUN .               3006:   LOGGING UNIT NUMBER
 LUL .               CASP:   LOGGING UNIT LOCATION
 ENGI.             MILLER:   RECORDING ENGINEER
 WITN.           MCGINLEY:   WITNESSED BY
 CLNT.            A2DTECH:   CLIENT CODE
 ORIG.           5" PRINT:   ORIGIN OF DATA
 UWI .       490251064000:   UNIQUE WELL ID
 DICO. A2D Technologies, Inc.:   DIGITIZING COMPANY
~OTHER INFORMATION
~A   DEPT      SPR         SN        ILD       CALD         GRD      CORR       DPHI        DEN   
   30.0000  -999.2500  -999.2500  -999.2500  -999.2500    58.6747  -999.2500  -999.2500  -999.2500
   30.5000  -999.2500  -999.2500  -999.2500  -999.2500    54.4578  -999.2500  -999.2500  -999.2500
   31.0000  -999.2500  -999.2500  -999.2500  -999.2500    52.5000  -999.2500  -999.2500  -999.2500
   31.5000  -999.2500  -999.2500  -999.2500  -999.2500    53.1024  -999.2500  -999.2500  -999.2500
   32.0000  -999.2500  -999.2500  -999.2500  -999.2500    54.6084  -999.2500  -999.2500  -999.2500
   32.5000  -999.2500  -999.2500  -999.2500  -999.2500    55.6627  -999.2500  -999.2500  -999.2500
   33.0000  -999.2500  -999.2500  -999.2500  -999.2500    55.3614  -999.2500  -999.2500  -999.2500
   33.5000  -999.2500  -999.2500  -999.2500  -999.2500    54.6084  -999.2500  -999.2500  -999.2500
   34.0000  -999.2500  -999.2500  -999.2500  -999.2500    55.0602  -999.2500  -999.2500  -999.2500
   34.5000  -999.2500  -999.2500  -999.2500  -999.2500    56.1145  -999.2500  -999.2500  -999.2500
   35.0000  -999.2500  -999.2500  -999.2500  -999.2500    58.3735  -999.2500  -999.2500  -999.2500
   35.5000  -999.2500  -999.2500  -999.2500  -999.2500    58.0723  -999.2500  -999.2500  -999.2500
   36.0000  -999.2500  -999.2500  -999.2500  -999.2500    55.6627  -999.2500  -999.2500  -999.2500
   36.5000  -999.2500  -999.2500  -999.2500  -999.2500    53.2530  -999.2500  -999.2500  -999.2500
   37.0000  -999.2500  -999.2500  -999.2500  -999.2500    54.9096  -999.2500  -999.2500  -999.2500
   37.5000  -999.2500  -999.2500  -999.2500  -999.2500    57.4699  -999.2500  -999.2500  -999.2500
   38.0000  -999.2500  -999.2500  -999.2500  -999.2500    57.0181  -999.2500  -999.2500  -999.2500
   38.5000  -999.2500  -999.2500  -999.2500  -999.2500    56.1145  -999.2500  -999.2500  -999.2500
   39.0000  -999.2500  -999.2500  -999.2500  -999.2500    56.4157  -999.2500  -999.2500  -999.2500
   39.5000  -999.2500  -999.2500  -999.2500  -999.2500    57.3193  -999.2500  -999.2500  -999.2500
   40.0000  -999.2500  -999.2500  -999.2500  -999.2500    57.6205  -999.2500  -999.2500  -999.2500
   40.5000  -999.2500  -999.2500  -999.2500  -999.2500    57.9217  -999.2500  -999.2500  -999.2500
   41.0000  -999.2500  -999.2500  -999.2500  -999.2500    58.5241  -999.2500  -999.2500  -999.2500
   41.5000  -999.2500  -999.2500  -999.2500  -999.2500    57.4699  -999.2500  -999.2500  -999.2500
   42.0000  -999.2500  -999.2500  -999.2500  -999.2500    55.5120  -999.2500  -999.2500  -999.2500
   42.5000  -999.2500  -999.2500  -999.2500  -999.2500    55.0602  -999.2500  -999.2500  -999.2500
   43.0000  -999.2500  -999.2500  -999.2500  -999.2500    55.3614  -999.2500  -999.2500  -999.2500
   43.5000  -999.2500  -999.2500  -999.2500  -999.2500    56.8675  -999.2500  -999.2500  -999.2500
   44.0000  -999.2500  -999.2500  -999.2500     8.1207    57.6205    -0.0284     0.2172     2.0478
   44.5000  -999.2500  -999.2500  -999.2500     8.2710    54.4578     0.0136     0.1703     2.3332
   45.0000  -999.2500  -999.2500  -999.2500     8.3661    53.5542     0.0181     0.1655     2.3903
   45.5000  -999.2500  -999.2500  -999.2500     8.3905    55.6627     0.0195     0.1727     2.4023
   46.0000  -999.2500  -999.2500  -999.2500     8.2689    64.5866     0.0134     0.1761     2.3880
   46.5000  -999.2500  -999.2500  -999.2500     8.1473    68.1627     0.0118     0.1767     2.3789
   47.0000  -999.2500  -999.2500  -999.2500     8.0861    70.7229     0.0193     0.1752     2.3789
   47.5000  -999.2500  -999.2500  -999.2500     8.1608    72.3795     0.0207     0.1863     2.3803
   48.0000  -999.2500  -999.2500  -999.2500     8.1298    72.5301     0.0206     0.1960     2.3668
   48.5000  -999.2500  -999.2500  -999.2500     8.0082    71.3253     0.0190     0.1969     2.3532
   49.0000  -999.2500  -999.2500  -999.2500     7.8834    68.9157     0.0189     0.2086     2.3404
   49.5000  -999.2500  -999.2500  -999.2500     7.7592    75.5422     0.0189     0.2131     2.3284
   50.0000   -40.8643     4.9823     4.2793     7.7178    74.8765     0.0188     0.2250     2.3143
   50.5000   -40.8377     4.9135     3.3819     7.7095    74.4975     0.0188     0.2390     2.2935
   51.0000   -40.8111     4.7791     3.2214     7.7016    74.8152     0.0143     0.2447     2.2809
   51.5000   -40.7845     4.4904     3.1329     7.7155    80.9284     0.0142     0.2432     2.2771
   52.0000   -40.7579     4.2192     3.0680     7.6989    80.7631     0.0217     0.2303     2.2808
   52.5000   -40.7730     4.0475     3.0462     7.6524    80.2995     0.0187     0.2102     2.3063
   53.0000   -40.8019     4.0472     3.0456     7.6059    79.6853     0.0037     0.1956     2.3349
   53.5000   -40.8307     4.0469     3.0662     7.5443    78.0168     0.0142     0.1766     2.3503
   54.0000   -40.8596     4.0466     3.0869     8.1322    66.2590     0.0262     0.1727     2.3816
   54.5000   -40.8884     4.1027     3.1507     8.1918    68.2927     0.0367     0.1655     2.3972
   55.0000   -40.9173     4.1884     3.3063     8.0241    70.6029     0.0442     0.1619     2.4038
   55.5000   -40.9188     4.3655     3.5916     8.0078    71.0429     0.0442     0.1595     2.4090
   56.0000   -42.2737     4.4261     3.8214     8.0520    72.2330     0.0442     0.1571     2.4150
   56.5000   -43.7789     4.3348     3.9825     8.0659    74.1790     0.0502     0.1547     2.4195
   57.0000   -44.2316     4.0730     3.9817     8.0043    74.6190     0.0564     0.1526     2.4247
   57.5000   -44.6842     3.9616     3.9534     7.8819    77.9205     0.0791     0.1463     2.4299
   58.0000   -44.8361     3.9341     3.8715     7.6844    86.1918     0.0974     0.1382     2.4374
   58.5000   -44.8376     3.9338     3.7912     7.4113    84.5234     0.1058     0.1584     2.4336
   59.0000   -44.8391     3.9884     3.8167     7.2439    79.0899     0.0576     0.1731     2.3975
   59.5000   -44.9910     3.9880     3.7896     7.1068    76.5178     0.0426     0.1830     2.3907
   60.0000   -44.9925     3.9603     3.7368     7.0301    74.2470     0.0245     0.1927     2.3644
   60.5000   -45.1444     3.8787     3.6847     7.0289    73.9340     0.0200     0.1994     2.3523
   61.0000   -45.1458     3.7726     3.6334     7.0431    75.3524     0.0200     0.2065     2.3373
   61.5000   -45.1473     3.6191     3.5580     7.0870    75.7176     0.0215     0.2125     2.3305
   62.0000   -45.1488     3.4241     3.4843     7.2066    75.2510     0.0214     0.2246     2.3243
   62.5000   -45.1503     3.2847     3.3420     7.3714    75.8417     0.0199     0.2321     2.3082
   63.0000   -45.1519     3.1510     3.1828     7.4457    76.5829     0.0199     0.2330     2.2950
   63.5000   -45.1534     3.0437     3.0735     7.4295    76.8752     0.0304     0.2153     2.2973
   64.0000   -45.1549     3.0017     2.9893     7.4283    75.8062     0.0259     0.2126     2.3160
   64.5000   -45.1564     3.0015     2.9689     7.4271    73.3848     0.0199     0.2177     2.3160
   65.0000   -45.1579     3.0013     2.9683     7.4413    70.3610     0.0198     0.2274     2.3069
   65.5000   -45.1594     2.9598     2.9456     7.5005    68.9937     0.0243     0.2308     2.2918
   66.0000   -45.1609     2.8989     2.8465     7.6048    70.0361     0.0318     0.2478     2.2820
   66.5000   -45.1624     2.8987     2.8068     7.7698    74.7304     0.0333     0.2511     2.2737
   67.0000   -45.1639     2.8587     2.7677     7.9380    75.7354     0.0318     0.2538     2.2594
   67.5000   -45.1654     2.7423     2.7078     8.1682    75.7207     0.0318     0.2653     2.2511
   68.0000   -45.1669     2.6673     2.5943     8.3248    74.3535     0.0365     0.2722     2.2285
   68.5000   -45.1684     2.5236     2.4708     8.2632    72.0826     0.0473     0.2737     2.2278
   69.0000   -45.1699     2.3225     2.3369     8.0959    76.5889     0.0513     0.2671     2.2285
   69.5000   -45.1714     2.2434     2.1950     7.9739    79.2879     0.0648     0.2599     2.2547
   70.0000   -45.1731     2.1373     2.0674     7.9274    81.5352     0.0543     0.1875     2.3163
