~VERSION INFORMATION
 VERS.                2.0:   CWLS LOG ASCII STANDARD - VERSION 2.0
 WRAP.                 NO:   ONE LINE PER DEPTH STEP
~WELL INFORMATION
#MNEM.UNIT      DATA TYPE    INFORMATION
#----------   ------------   ------------------------------
 STRT.F           15.0000:   START DEPTH
 STOP.F          692.0000:   STOP DEPTH
 STEP.F            0.5000:   STEP LENGTH
 NULL.          -999.2500:   NO VALUE
 COMP.    FENIX & SCISSON:   COMPANY
 WELL. S 15 NPR #3 #73-15:   WELL
 FLD .             TEAPOT:   FIELD
 LOC .      S15 T38N R78W:   LOCATION
 CNTY.            NATRONA:   COUNTY
 STAT.            WYOMING:   STATE
 CTRY. UNITED STATES OF AMERICA:   COUNTRY
 SRVC.              Welex:   SERVICE COMPANY
 DATE.        23-FEB-1977:   LOGDATE
 API .       490251057900:   API NUMBER
~CURVE INFORMATION
#MNEM.UNIT       API CODE    CURVE DESCRIPTION
#----------   ------------   ------------------------------
 DEPT.F                  :   
 SPR .MV     07 010 01 00:   SPONTANEOUS POTENTIAL
 SGRD.OHMM   07 220 05 00:   SHALLOW GUARD RESISTIVITY
 ILD .OHMM   07 120 46 00:   INDUCTION LOG DEEP
 ILM .OHMM   07 120 44 00:   INDUCTION LOG MEDIUM
 CALD.IN     45 280 60 00:   CALIPER
 GRD .GAPI   45 310 01 00:   GAMMA RAY FROM DENSITY LOG
 CORR.G/C3   45 356 01 00:   DENSITY CORRECTION
 DPHI.DEC    45 890 10 00:   DENSITY POROSITY SANDSTONE
 RHOB.G/C3   45 350 01 00:   BULK DENSITY
~PARAMETER INFORMATION
#MNEM.UNIT          VALUE    DESCRIPTION
#----------   ------------   ------------------------------
 PD  .                 GL:   PERMANENT DATUM
 EPD .F              5251:   ELEVATION PERMANENT DATUM
 LMF .                 GL:   LOG MEASURED FROM
 DMF .                 GL:   DRILLING MEASURED FROM
 EGL .F              5251:   GROUND LEVEL
 DATE.            2-23-77:   RUN DATE
 RUN .                  1:   RUN NUMBER
 DD  .F               686:   DEPTH DRILLER
 DL  .F               695:   DEPTH LOGGER
 BLI .F               693:   BOTTOM LOG INTERVAL
 TLI .F                42:   TOP LOG INTERVAL
 CS  .IN            8.625:   CASING SIZE
 CBD .F                42:   CASING BOTTOM DRILLER
 CBL .F                42:   CASING BOTTOM LOGGER
 BS  .IN            7.875:   BIT SIZE
 BSD .F               686:   BIT SIZE AT DEPTH
 DFT .           CHEM GEL:   DRILLING FLUID TYPE
 DFD .                8.8:   DRILLING FLUID DENSITY
 DFV .                 33:   DRILLING FLUID VISCOSITY
 DFPH.                  7:   DRILLING FLUID PH
 DFL .               11.2:   DRILLING FLUID LOSS
 MSS .          FLOW LINE:   MUD SAMPLE SOURCE
 RMS .OHMM            .32:   RESISTIVITY MUD SAMPLE
 MST .F                68:   MUD SAMPLE TEMPERATURE
 RMF .OHMM            .28:   RESISTIVITY MUD FILTRATE SAMPLE
 MFST.F                68:   MUD FILTRATE SAMPLE TEMPERATURE
 RMC .OHMM            .61:   RESISTIVITY MUD CAKE
 MCST.F                68:   MUD CAKE SAMPLE TEMPERATURE
 MFSS.           MEASURED:   MUD FILTRATE SAMPLE SOURCE
 MCSS.           MEASURED:   MUD CAKE SAMPLE SOURCE
 RMB .OHMM           .410:   RESISTIVITY MUD AT BHT
 BHT .F                53:   BOTTOM HOLE TEMPERATURE
 TCS .HRS               2:   TIME CURCULATED STOPPED
 MRT .F                53:   MAXIMUM RECORDED TEMPERATURE
 LUN .               8611:   LOGGING UNIT NUMBER
 LUL .           GILLETTE:   LOGGING UNIT LOCATION
 ENGI.            C. DOAK:   RECORDING ENGINEER
 WITN.         STUEBINGER:   WITNESSED BY
 CLNT.            A2DTECH:   CLIENT CODE
 ORIG. 1", 2.5", 5" PRINT:   ORIGIN OF DATA
 UWI .       490251057900:   UNIQUE WELL ID
 DICO. A2D Technologies, Inc.:   DIGITIZING COMPANY
~OTHER INFORMATION
~A   DEPT      SPR       SGRD        ILD        ILM       CALD         GRD      CORR       DPHI       RHOB   
# ...
  599.0000   -49.6576    14.6514    10.1990    12.7763     7.9866    97.4488     0.0779     0.1231     2.4360
  599.5000   -49.5601    14.6737    10.1463    12.6569     8.0267   101.6188     0.0764     0.1218     2.4398
  600.0000   -49.4582    14.6966    10.1030    12.5386     8.0703   107.1886     0.0769     0.1203     2.4439
  600.5000   -49.3797    14.7188    10.1300    12.4213     8.0896   105.6532     0.0778     0.1187     2.4481
  601.0000   -49.3323    14.7408    10.1526    12.3052     8.0754   101.8283     0.0785     0.1171     2.4524
  601.5000   -49.2803    14.7627    10.1752    12.1506     8.0646   102.1472     0.0793     0.1155     2.4566
  602.0000   -49.2280    14.7846    10.1979    12.2910     8.0537   102.2914     0.0801     0.1133     2.4608
  602.5000   -49.1769    14.8073    10.2207    12.5090     8.0421    99.0239     0.0809     0.1098     2.4655
  603.0000   -49.1250    14.8311    10.2437    12.7309     8.0309    97.3501     0.0817     0.1093     2.4689
  603.5000   -49.0734    14.8554    10.2667    12.8424     8.0196    98.3933     0.0825     0.1109     2.4696
  604.0000   -49.0218    14.8858    10.2903    12.7689     8.0083    97.7798     0.0832     0.1103     2.4715
  604.5000   -48.9700    14.7618    10.2630    12.7025     7.9970    95.1997     0.0840     0.1035     2.4771
  605.0000   -48.9183    14.5329    10.2076    12.6358     7.9858    92.3294     0.0850     0.0980     2.4820
  605.5000   -48.8663    14.3076    10.1523    12.5695     7.9745    93.2393     0.0863     0.0951     2.4871
  606.0000   -48.8147    14.0840    10.0979    12.5036     7.9633    97.0946     0.0875     0.0922     2.4923
  606.5000   -48.7634    14.2638    10.0440    12.4386     7.9520   100.4820     0.0885     0.0892     2.4973
  607.0000   -48.7100    14.4473     9.9903    12.3760     7.9406   104.0124     0.0881     0.0865     2.5020
  607.5000   -48.6604    14.6332     9.9368    12.0256     7.9336   106.5502     0.0873     0.0909     2.4997
  608.0000   -48.6156    14.8858     9.8837    11.7102     7.9393   105.7072     0.0865     0.0949     2.4922
  608.5000   -48.6627    14.8012     9.8308    11.8086     7.9447   105.0452     0.0857     0.0976     2.4846
  609.0000   -48.7081    14.4891     9.7783    12.1506     7.9504   105.3438     0.0848     0.0976     2.4844
  609.5000   -48.7577    14.1836     9.7261    11.8581     7.9561   105.8323     0.0840     0.0968     2.4860
  610.0000   -48.8055    13.8845     9.6742    11.4961     7.9616   105.4076     0.0832     0.0980     2.4827
  610.5000   -48.8534    13.5736     9.6225    11.5855     7.9674   104.8305     0.0824     0.0992     2.4791
  611.0000   -48.9017    13.7119     9.5710    11.8603     7.9723   104.2130     0.0816     0.0992     2.4797
  611.5000   -48.9497    13.8610     9.5487    12.1506     7.9768   105.7013     0.0807     0.0969     2.4852
  612.0000   -48.9977    14.0118     9.5213    11.4368     7.9808   106.8503     0.0814     0.0941     2.4915
  612.5000   -49.0457    14.1642     9.4943    11.6563     7.9849   108.1466     0.0831     0.0913     2.4981
  613.0000   -49.0938    14.3463     9.4675    12.1506     7.9889   109.3899     0.0847     0.0885     2.5023
  613.5000   -49.1419    14.2093     9.4407    11.9523     7.9930   110.5532     0.0862     0.0884     2.4995
  614.0000   -49.1898    14.0437     9.4139    11.7145     7.9971   110.5533     0.0878     0.0908     2.4971
  614.5000   -49.2384    13.8801     9.3872    11.4961     8.0010   111.1964     0.0894     0.0927     2.4946
  615.0000   -49.2859    13.8002     9.3606    11.8450     8.0052   112.6723     0.0909     0.0920     2.4926
  615.5000   -49.3335    13.7049     9.3340    12.1509     8.0094   114.1102     0.0925     0.0928     2.4910
  616.0000   -49.3857    13.6109     9.3073    11.9192     8.0119   114.9911     0.0941     0.0936     2.4904
  616.5000   -49.3879    13.5175     9.2807    11.7114     8.0022   112.0375     0.0957     0.0892     2.4982
  617.0000   -49.3433    13.4246     9.2541    11.4962     7.9917   108.8997     0.0963     0.0848     2.5053
  617.5000   -49.3033    13.3325     9.2277    11.4543     7.9809   106.2727     0.0931     0.0801     2.5133
  618.0000   -49.2635    13.2409     9.2112    11.4099     7.9702   106.8103     0.0903     0.0801     2.5108
  618.5000   -49.2224    13.1501     9.1349    11.3652     7.9597   107.3217     0.0872     0.0842     2.5080
  619.0000   -49.1824    13.0600     9.0576    11.3204     7.9490   106.8016     0.0843     0.0898     2.5010
  619.5000   -49.1416    12.9699     8.9813    11.2858     7.9374   106.3016     0.0813     0.0955     2.4914
  620.0000   -49.1013    12.8808     8.9051    11.1569     7.9344   108.4418     0.0781     0.1000     2.4810
  620.5000   -49.0617    12.7923     8.8295    11.0030     7.9420   111.5944     0.0771     0.0973     2.4811
  621.0000   -49.0188    12.7044     8.7545    10.8512     7.9486   111.5216     0.0789     0.0906     2.4956
  621.5000   -49.0216    12.6075     8.6802    10.7015     7.9553   111.1094     0.0804     0.0839     2.5093
  622.0000   -49.0490    12.4686     8.6065    10.5539     7.9622   110.7438     0.0793     0.0809     2.5085
  622.5000   -49.0738    12.1934     8.5564    10.4083     7.9689   112.8968     0.0782     0.0843     2.5036
  623.0000   -49.0978    11.9264     8.2768    10.2647     7.9757   114.7870     0.0770     0.0882     2.4983
  623.5000   -49.1229    11.6622     7.9837    10.1231     7.9824   117.0582     0.0760     0.0921     2.4942
  624.0000   -49.1474    11.4040     7.7009     9.9835     7.9892   117.0847     0.0747     0.0960     2.4903
  624.5000   -49.1720    11.1533     7.4281     9.8458     7.9960   114.9020     0.0738     0.0992     2.4850
  625.0000   -49.1967    10.9096     7.1143     9.7365     8.0026   116.2724     0.0732     0.0967     2.4819
  625.5000   -49.2212    10.6744     6.8192     9.5549     8.0097   119.8750     0.0786     0.0936     2.4899
  626.0000   -49.2458    10.4607     6.4689     9.3336     8.0111   123.3869     0.0812     0.0960     2.4862
  626.5000   -49.2704    10.3083     6.1365     9.1173     8.0089   124.1361     0.0843     0.1000     2.4802
  627.0000   -49.2950    10.1238     5.8213     8.5536     8.0070   122.2630     0.0873     0.0991     2.4803
  627.5000   -49.3196     9.9669     5.5222     7.8547     8.0051   124.4788     0.0903     0.0970     2.4830
  628.0000   -49.3442     8.2456     5.2385     7.2129     8.0031   125.2857     0.0932     0.0950     2.4866
  628.5000   -49.3688     6.2972     5.1032     6.6235     8.0012   123.8278     0.0964     0.0963     2.4883
  629.0000   -49.3933     4.8092     5.0099     6.2520     7.9993   128.4892     0.0947     0.1019     2.4903
  629.5000   -49.4179     4.2431     5.0099     6.9335     7.9974   133.2080     0.0912     0.1076     2.4720
  630.0000   -49.4425     9.0980     5.0099     7.7501     7.9955   137.6999     0.0878     0.1143     2.4542
  630.5000   -49.4671    12.1506     5.4152     8.6629     7.9936   140.5187     0.0847     0.1143     2.4533
  631.0000   -49.4917    11.8581     5.8731     9.0750     7.9917   138.2196     0.0840     0.1031     2.4743
  631.5000   -49.5163    11.4932     6.3684     9.3837     7.9898   115.2921     0.0830     0.0918     2.4964
  632.0000   -49.5408    11.2858     6.9052     9.4387     7.9879   108.0368     0.0821     0.0808     2.5128
  632.5000   -49.5654    11.6994     7.2383     9.5070     7.9859   109.4037     0.0810     0.0765     2.5157
  633.0000   -49.5900    11.9284     7.4386     9.5759     7.9840   114.4854     0.0812     0.0786     2.5209
  633.5000   -49.6146    11.9284     7.6447     9.6452     7.9821   114.5583     0.0836     0.0723     2.5295
  634.0000   -49.6391    11.9284     7.8566     9.7150     7.9802   113.0603     0.0859     0.0677     2.5383
  634.5000   -49.6637    11.9284     8.0954     9.7988     7.9783   114.8139     0.0883     0.0630     2.5438
  635.0000   -49.6883    12.0694     8.3279    10.0099     7.9763   116.1290     0.0906     0.0602     2.5436
