~VERSION INFORMATION
 VERS.                2.0:   CWLS LOG ASCII STANDARD - VERSION 2.0
 WRAP.                 NO:   ONE LINE PER DEPTH STEP
~WELL INFORMATION
#MNEM.UNIT      DATA TYPE    INFORMATION
#----------   ------------   ------------------------------
 STRT.F           20.0000:   START DEPTH
 STOP.F          672.0000:   STOP DEPTH
 STEP.F            0.5000:   STEP LENGTH
 NULL.          -999.2500:   NO VALUE
 COMP.              FENIX:   COMPANY
 WELL.    NPR ##3 23-S-11:   WELL
 FLD .        TEAPOT DOME:   FIELD
 LOC .      S11 T38N R78W:   LOCATION
 CNTY.            NATRONA:   COUNTY
 STAT.            WYOMING:   STATE
 CTRY. UNITED STATES OF AMERICA:   COUNTRY
 SRVC.           BIRDWELL:   SERVICE COMPANY
 DATE.        05-FEB-1978:   LOGDATE
 API .       490251057300:   API NUMBER
~CURVE INFORMATION
#MNEM.UNIT       API CODE    CURVE DESCRIPTION
#----------   ------------   ------------------------------
 DEPT.F                  :   
 ILD .OHMM   05 120 46 00:   INDUCTION LOG DEEP
 SN  .OHMM   05 040 16 00:   SHORT NORMAL 16"
 SPR .MV     05 010 01 00:   SPONTANEOUS POTENTIAL FROM RES.
 CALD.IN     45 280 60 00:   CALIPER FROM DENSITY LOG
 CORR.G/C3   45 356 01 00:   DENSITY CORRECTION
 DPHI.DEC    45 890 10 00:   DENSITY POROSITY LIMESTONE
 GRD .GAPI   45 310 01 00:   GAMMA RAY FROM DENSITY LOG
 RHOB.G/C3   45 350 01 00:   BULK DENSITY
~PARAMETER INFORMATION
#MNEM.UNIT          VALUE    DESCRIPTION
#----------   ------------   ------------------------------
 PD  .                 GL:   PERMANENT DATUM
 EPD .F              5175:   ELEVATION PERMANENT DATUM
 LMF .                 KB:   LOG MEASURED FROM
 DMF .                 KB:   DRILLING MEASURED FROM
 EKB .F              5178:   KELLING BUSHING
 EGL .F              5175:   GROUND LEVEL
 DATE.        05-FEB-1978:   RUN DATE
 RUN .                  1:   RUN NUMBER
 DD  .F               670:   DEPTH DRILLER
 DL  .F               675:   DEPTH LOGGER
 BLI .F               670:   BOTTOM LOG INTERVAL
 TLI .F                40:   TOP LOG INTERVAL
 CS  .IN            8.625:   CASING SIZE
 CBD .F                39:   CASING BOTTOM DRILLER
 CBL .F                40:   CASING BOTTOM LOGGER
 BS  .IN            7.875:   BIT SIZE
 BSD .F               670:   BIT SIZE AT DEPTH
 DFT .                KCL:   DRILLING FLUID TYPE
 DFD .                8.4:   DRILLING FLUID DENSITY
 DFV .                 32:   DRILLING FLUID VISCOSITY
 DFPH.                  8:   DRILLING FLUID PH
 DFL .                8.8:   DRILLING FLUID LOSS
 MSS .           FLOWLINE:   MUD SAMPLE SOURCE
 RMS .OHMM           0.58:   RESISTIVITY MUD SAMPLE
 MST .F                62:   MUD SAMPLE TEMPERATURE
 RMF .OHMM           0.58:   RESISTIVITY MUD FILTRATE SAMPLE
 MFST.F                62:   MUD FILTRATE SAMPLE TEMPERATURE
 RMC .OHMM            0.9:   RESISTIVITY MUD CAKE
 MCST.F                66:   MUD CAKE SAMPLE TEMPERATURE
 MFSS.               MEAS:   MUD FILTRATE SAMPLE SOURCE
 RMB .OHMM           0.55:   RESISTIVITY MUD AT BHT
 BHT .F                72:   BOTTOM HOLE TEMPERATURE
 TCS .HRS               1:   TIME CURCULATED STOPPED
 MRT .F                72:   MAXIMUM RECORDED TEMPERATURE
 LUN .               2958:   LOGGING UNIT NUMBER
 LUL .               CASP:   LOGGING UNIT LOCATION
 ENGI.            POINTER:   RECORDING ENGINEER
 WITN.         HARRINGTON:   WITNESSED BY
 CLNT.            A2DTECH:   CLIENT CODE
 ORIG.           5" PRINT:   ORIGIN OF DATA
 UWI .       490251057300:   UNIQUE WELL ID
 DICO. A2D Technologies, Inc.:   DIGITIZING COMPANY
~OTHER INFORMATION
~A   DEPT      ILD         SN        SPR       CALD       CORR       DPHI         GRD      RHOB   
# ...
  384.5000     7.7548     8.6393   -53.6811     7.9046     0.0151     0.0985    84.5292     2.4941
  385.0000     7.7521     8.6356   -53.6899     7.9036     0.0158     0.1018    85.4270     2.4835
  385.5000     7.6962     8.6327   -53.8513     7.9178     0.0173     0.1021    85.4256     2.4805
  386.0000     7.6407     8.6291   -54.0126     7.9017     0.0195     0.1015    84.9744     2.4828
  386.5000     7.5856     8.5666   -54.0214     7.9008     0.0233     0.0997    83.1589     2.4858
  387.0000     7.5308     8.5044   -54.0305     7.9000     0.0248     0.0997    80.3236     2.4865
  387.5000     7.4244     8.3264   -54.0414     7.9010     0.0172     0.0928    82.2712     2.4985
  388.0000     7.3617     8.2660   -54.0503     7.9133     0.0112     0.0859    83.1693     2.5000
  388.5000     7.2549     8.1493   -54.0591     7.8972     0.0135     0.1015    83.9176     2.4819
  389.0000     7.1153     8.0903   -53.9133     7.8964     0.0172     0.1063    83.9158     2.4774
  389.5000     7.0151     8.0802   -53.9244     7.9104     0.0194     0.1051    84.0647     2.4797
  390.0000     6.9164     7.9727   -53.9333     7.9248     0.0202     0.1021    83.1634     2.4789
  390.5000     6.7719     7.8058   -54.0946     7.9237     0.0142     0.1009    82.8483     2.4781
  391.0000     6.5846     7.6142   -54.1037     7.9229     0.0104     0.1006    83.1602     2.4751
  391.5000     6.4021     7.3282   -54.1146     7.9218     0.0096     0.1010    84.8080     2.4676
  392.0000     6.2250     6.9783   -54.2759     7.9363     0.0126     0.1070    85.2564     2.4608
  392.5000     6.0110     6.4185   -54.5896     7.9352     0.0156     0.1148    84.4678     2.4548
  393.0000     5.6066     5.7716   -54.7509     7.9343     0.0208     0.1181    83.1542     2.4518
  393.5000     5.1216     5.0655   -55.2171     7.9333     0.0254     0.1196    82.7030     2.4525
  394.0000     4.5192     4.6915   -55.5309     7.9477     0.0283     0.1208    83.0015     2.4510
  394.5000     3.9876     4.4367   -55.8446     7.9467     0.0290     0.1235    82.8498     2.4442
  395.0000     3.5736     4.1765   -55.8537     7.9456     0.0328     0.1307    82.3986     2.4320
  395.5000     3.1045     3.7794   -55.8646     7.9448     0.0387     0.1548    81.7975     2.4156
  396.0000     2.8756     3.4522   -56.0259     7.9439     0.0410     0.1662    80.5967     2.3848
  396.5000     2.7768     3.1533   -56.0347     7.9431     0.0372     0.1785    77.7463     2.3630
  397.0000     2.7377     2.9408   -56.0436     7.9420     0.0319     0.2054    75.7959     2.3340
  397.5000     2.7559     2.8199   -56.0525     7.9412     0.0177     0.2206    73.9954     2.2713
  398.0000     2.8326     2.8237   -56.0613     7.9403    -0.0071     0.2483    71.5952     2.2322
  398.5000     2.9930     3.0625   -55.9177     7.9395    -0.0183     0.2663    70.6939     2.2089
  399.0000     3.2518     3.2816   -55.9266     7.9384    -0.0191     0.2678    73.5410     2.2021
  399.5000     3.5330     3.5162   -55.6306     7.9376    -0.0011     0.2609    76.6881     2.2224
  400.0000     3.9195     4.0815   -55.4750     7.9217     0.0049     0.2159    81.4843     2.2547
  400.5000     4.7465     5.1471   -55.3260     7.9208     0.0101     0.1930    83.7300     2.3418
  401.0000     5.5027     5.5923   -55.1770     7.9350     0.0161     0.1380    84.3398     2.4220
  401.5000     5.9427     5.9922   -55.0281     7.9340     0.0213     0.1287    84.9238     2.4337
  402.0000     6.3698     6.2018   -54.9262     7.9331     0.0213     0.1161    84.6203     2.4463
  402.5000     6.5399     6.2863   -54.9409     7.9321     0.0213     0.1104    84.3176     2.4598
  403.0000     6.5839     6.1116   -54.9527     7.9312     0.0183     0.1080    84.4647     2.4718
  403.5000     6.6281     6.0253   -54.8091     7.9304     0.0168     0.1098    85.2524     2.4658
  404.0000     6.6262     6.0236   -54.3665     7.9295     0.0228     0.1065    86.4073     2.4658
  404.5000     6.6711     6.1054   -54.0734     7.9285     0.0273     0.1062    87.4540     2.4666
  405.0000     6.6231     6.2752   -53.7703     7.9276     0.0348     0.1043    88.5006     2.4703
  405.5000     6.6215     6.4946   -53.4872     7.9268     0.0453     0.0998    89.6971     2.4733
  406.0000     6.6199     6.7698   -53.3495     7.9410     0.0520     0.0974    88.9439     2.4801
  406.5000     6.6180     7.1106   -53.3613     7.9399     0.0565     0.0950    87.1420     2.4793
  407.0000     6.6164     7.4536   -53.5255     7.9543     0.0542     0.0968    83.9907     2.4748
  407.5000     6.6149     7.7143   -53.6890     7.9533     0.0319     0.0987    81.5898     2.4756
  408.0000     6.6133     7.9288   -53.7015     7.9675     0.0197     0.1029    84.1469     2.4778
  408.5000     6.6118     8.0369   -53.8659     7.9815     0.0235     0.1053    85.9305     2.4718
  409.0000     6.6102     8.1466   -53.8804     7.9807     0.0280     0.1044    86.6773     2.4726
  409.5000     6.6546     8.2005   -53.8902     7.9798     0.0355     0.1023    87.1242     2.4763
  410.0000     6.6530     8.1977   -53.9024     7.9787     0.0362     0.0970    86.9714     2.4823
  410.5000     6.6051     8.1376   -53.9146     7.9779     0.0369     0.0947    86.0574     2.4869
  411.0000     6.5487     8.0786   -53.9276     7.9771     0.0362     0.0959    85.4658     2.4846
  411.5000     6.4661     7.9497   -53.9394     7.9762     0.0354     0.0950    86.0626     2.4838
  412.0000     6.3315     7.7732   -53.9512     7.9751     0.0392     0.0950    88.3086     2.4838
  412.5000     6.2346     7.6346   -53.9634     7.9743     0.0452     0.0963    89.9550     2.4838
  413.0000     6.1553     7.4231   -53.9776     7.9735     0.0451     0.0974    91.1704     2.4838
  413.5000     6.0254     7.1562   -53.9878     7.9726     0.0392     0.0980    91.7477     2.4831
  414.0000     5.8203     6.9201   -54.0012     7.9715     0.0324     0.1032    92.9442     2.4786
  414.5000     5.6988     6.7284   -54.0130     7.9860     0.0339     0.1095    93.5411     2.4703
  415.0000     5.6581     6.5420   -54.0244     7.9849     0.0406     0.1162    93.5382     2.4606
  415.5000     5.6568     6.4050   -54.0366     7.9839     0.0459     0.1230    88.4372     2.4474
  416.0000     5.7081     6.1417   -54.0488     7.9830     0.0369     0.1242    88.4343     2.4365
  416.5000     5.8132     5.8892   -54.0631     7.9822     0.0181     0.1317    88.4315     2.4267
  417.0000     5.9340     5.8465   -54.0732     7.9663     0.0061     0.1395    88.4286     2.3772
  417.5000     6.1004     6.0504   -54.0854     7.9652     0.0039     0.1612    87.8161     2.3847
  418.0000     6.2768     6.3056   -54.0984     7.9644     0.0076     0.1503    89.3218     2.4039
  418.5000     6.4893     6.7098   -54.1102     7.9635     0.0144     0.1314    91.4179     2.4343
  419.0000     6.6699     7.1399   -54.1220     7.9476     0.0166     0.1179    93.8138     2.4606
  419.5000     6.7151     7.4410   -54.2862     7.9465     0.0136     0.1128    95.3102     2.4643
  420.0000     6.8073     7.5425   -54.1362     7.9610     0.0098     0.1150    93.1683     2.4643
  420.5000     6.8531     7.6454   -54.0049     7.9599     0.0061     0.1167    92.0055     2.4613
  421.0000     6.8656     7.6954   -53.9004     7.9590     0.0031     0.1167    92.3025     2.4576
  421.5000     6.8971     7.7471   -53.5741     7.9580     0.0023     0.1164    92.2996     2.4568
  422.0000     6.8954     7.7984   -53.4776     7.9572     0.0075     0.1161    92.2968     2.4553
  422.5000     6.9418     7.8494   -53.2927     7.9563     0.0098     0.1151    91.9940     2.4553
  423.0000     6.9881     7.8468   -52.9997     7.9552     0.0099     0.1134    90.3413     2.4561
  423.5000     6.9864     7.8442   -52.7095     7.9544     0.0075     0.1014    86.2905     2.4583
  424.0000     6.9848     7.8415   -52.4164     7.9536     0.0007     0.1002    84.7891     2.4793
  424.5000     6.9832     7.8382   -52.4282     7.9527     0.0083     0.1056    86.5847     2.4771
