~VERSION INFORMATION
 VERS.                2.0:   CWLS LOG ASCII STANDARD - VERSION 2.0
 WRAP.                 NO:   ONE LINE PER DEPTH STEP
~WELL INFORMATION
#MNEM.UNIT      DATA TYPE    INFORMATION
#----------   ------------   ------------------------------
 STRT.F           27.0000:   START DEPTH
 STOP.F          566.0000:   STOP DEPTH
 STEP.F            0.5000:   STEP LENGTH
 NULL.          -999.2500:   NO VALUE
 COMP.    FENIX & SCISSON:   COMPANY
 WELL. S-3 NPR #3 #86-S-3:   WELL
 FLD .             TEAPOT:   FIELD
 LOC .       S3 T38N R78W:   LOCATION
 CNTY.            NATRONA:   COUNTY
 STAT.            WYOMING:   STATE
 CTRY. UNITED STATES OF AMERICA:   COUNTRY
 SRVC.       Schlumberger:   SERVICE COMPANY
 DATE.        08-APR-1977:   LOGDATE
 API .       490251032900:   API NUMBER
~CURVE INFORMATION
#MNEM.UNIT       API CODE    CURVE DESCRIPTION
#----------   ------------   ------------------------------
 DEPT.F                  :   
 CALD.IN     45 280 60 00:   CALIPER FROM DENSITY LOG
 GRD .GAPI   45 310 01 00:   GAMMA RAY FROM DENSITY LOG
 CORR.G/C3   45 356 01 00:   DENSITY CORRECTION
 RHOB.G/C3   45 350 01 00:   BULK DENSITY
 DPHI.DEC    45 890 12 00:   DENSITY POROSITY SANDSTONE
 SPR .MV     07 010 01 00:   SPONTANEOUS POTENTIAL
 ILD .OHMM   07 120 46 00:   INDUCTION LOG DEEP
 ILM .OHMM   07 120 44 00:   INDUCTION LOG MEDIUM
 LL8 .OHMM   07 220 08 00:   LATEROLOG-8 RES.
~PARAMETER INFORMATION
#MNEM.UNIT          VALUE    DESCRIPTION
#----------   ------------   ------------------------------
 PD  .                 GL:   PERMANENT DATUM
 EPD .F              5147:   ELEVATION PERMANENT DATUM
 LMF .                 KB:   LOG MEASURED FROM
 DMF .                 KB:   DRILLING MEASURED FROM
 EGL .F              5147:   GROUND LEVEL
 DATE.        08-APR-1977:   RUN DATE
 RUN .                  1:   RUN NUMBER
 DD  .F               570:   DEPTH DRILLER
 DL  .F               567:   DEPTH LOGGER
 BLI .F               566:   BOTTOM LOG INTERVAL
 TLI .F                27:   TOP LOG INTERVAL
 CS  .IN            8.625:   CASING SIZE
 CBD .F                40:   CASING BOTTOM DRILLER
 CBL .F                33:   CASING BOTTOM LOGGER
 BS  .IN            7.875:   BIT SIZE
 BSD .F               570:   BIT SIZE AT DEPTH
 DFT .                KCL:   DRILLING FLUID TYPE
 DFD .                8.6:   DRILLING FLUID DENSITY
 DFV .                 31:   DRILLING FLUID VISCOSITY
 DFPH.                9.5:   DRILLING FLUID PH
 DFL .                8.6:   DRILLING FLUID LOSS
 MSS .           FLOWLINE:   MUD SAMPLE SOURCE
 RMS .OHMM          0.306:   RESISTIVITY MUD SAMPLE
 MST .F                78:   MUD SAMPLE TEMPERATURE
 RMF .OHMM          0.230:   RESISTIVITY MUD FILTRATE SAMPLE
 MFST.F                78:   MUD FILTRATE SAMPLE TEMPERATURE
 MFSS.               MEAS:   MUD FILTRATE SAMPLE SOURCE
 RMB .OHMM          0.341:   RESISTIVITY MUD AT BHT
 BHT .F                70:   BOTTOM HOLE TEMPERATURE
 TCS .HRS              20:   TIME CURCULATED STOPPED
 MRT .F                70:   MAXIMUM RECORDED TEMPERATURE
 LUN .               5642:   LOGGING UNIT NUMBER
 LUL .               CSPR:   LOGGING UNIT LOCATION
 ENGI.             MARTIN:   RECORDING ENGINEER
 WITN.               LYON:   WITNESSED BY
 CLNT.            A2DTECH:   CLIENT CODE
 ORIG.       2", 5" PRINT:   ORIGIN OF DATA
 UWI .       490251032900:   UNIQUE WELL ID
 DICO. A2D Technologies, Inc.:   DIGITIZING COMPANY
~OTHER INFORMATION
~A   DEPT     CALD         GRD      CORR       RHOB       DPHI        SPR        ILD        ILM        LL8   
# ...
  538.0000     8.0066   108.5184     0.0227     2.5035     0.0903   -66.2376    12.5816    12.7423    12.7908
  538.5000     8.0086   108.6880     0.0250     2.5021     0.0907   -66.2345    12.4081    12.5667    12.7025
  539.0000     8.0107   106.0261     0.0212     2.4939     0.0978   -66.2315    12.2415    12.3936    12.5277
  539.5000     8.0128   104.4073     0.0191     2.4820     0.1026   -66.2285    11.9917    12.2229    12.4411
  540.0000     8.0153   104.2738     0.0199     2.4618     0.1106   -66.2255    11.8231    11.9712    12.4411
  540.5000     8.0174   108.3234     0.0200     2.4498     0.1193   -66.2225    11.6611    11.8063    12.4411
  541.0000     8.0194   110.5794     0.0114     2.4544     0.1216   -66.3699    11.3506    11.5632    12.3552
  541.5000     8.0215   109.2588     0.0021     2.4778     0.1132   -66.5172    11.2739    11.4833    12.1851
  542.0000     8.0235   107.0439     0.0112     2.4929     0.1063   -66.5142    11.1112    11.2468    12.1010
  542.5000     8.0102   108.5548     0.0188     2.5005     0.0999   -66.6617    11.0453    11.1691    12.1010
  543.0000     8.0128   109.9167     0.0174     2.4894     0.0915   -66.6586    10.9706    11.0152    12.0174
  543.5000     8.0148   110.6850     0.0144     2.5045     0.0968   -66.8061    10.8094    10.9391    12.0174
  544.0000     8.0169   112.0645     0.0168     2.4940     0.0980   -66.9533    10.7482    10.8635    12.0174
  544.5000     8.0035   112.2140     0.0199     2.4979     0.0929   -66.9503    10.7498    10.7139    12.0174
  545.0000     8.0061   110.3226     0.0244     2.5017     0.0949   -67.0977    10.6770    10.7139    12.1010
  545.5000     8.0081   106.5972     0.0193     2.5041     0.0886   -67.0947    10.6789    10.6398    12.1010
  546.0000     8.0102   109.8965     0.0201     2.5004     0.0868   -67.2421    10.6803    10.6398    12.2699
  546.5000     8.0123   108.1287     0.0209     2.4960     0.0936   -67.2391    10.5350    10.6398    12.3552
  547.0000     7.9994   107.1061     0.0187     2.4806     0.1038   -67.2361    10.5364    10.6398    12.1851
  547.5000     8.0015   108.1699     0.0120     2.4841     0.1059   -67.3834    10.5379    10.6398    12.1010
  548.0000     7.9886   108.4834     0.0264     2.5057     0.0986   -67.5308    10.4663    10.5663    11.7701
  548.5000     7.9758   107.3169     0.0303     2.5091     0.0875   -67.5278    10.3956    10.4207    11.5280
  549.0000     7.9783   102.5668     0.0288     2.4957     0.0863   -67.6752    10.2545    10.3487    11.1353
  549.5000     7.9804    82.9153     0.0296     2.4770     0.0925   -67.9729    10.1848    10.1356    10.8309
  550.0000     7.9821    51.4903     0.0071     2.4724     0.1009   -68.1203    10.1160    10.0553    10.5348
  550.5000     7.9821  -999.2500     0.0026     2.4869     0.1023   -68.2906     9.9098     9.9326    10.4620
  551.0000     7.9821  -999.2500     0.0125     2.4989     0.0972   -68.4608     9.8428     9.7901    10.3166
  551.5000     7.9821  -999.2500     0.0147     2.4831     0.0987   -68.7218     9.7089     9.7901    10.2467
  552.0000     7.9821  -999.2500     0.0116     2.4476     0.1173   -69.0226     9.6429     9.7901    10.2467
  552.5000     7.9821  -999.2500     0.0064     2.4636     0.1160   -69.0226     9.4465     9.7225    10.2467
  553.0000     7.9821  -999.2500     0.0139     2.4696     0.1121   -69.0226     9.3823     9.5223    10.2467
  553.5000     7.9821  -999.2500     0.0259     2.5004     0.1067   -68.8722     9.2549     9.2617    10.3180
  554.0000     7.9821  -999.2500     0.0350     2.5064     0.0982   -68.7218     9.0660     8.9461    10.4620
  554.5000     7.9672  -999.2500     0.0485     2.5041     0.0967   -68.5714     8.6385     8.6412    10.4620
  555.0000     7.9672  -999.2500     0.0605     2.4956     0.1009   -68.5714     8.3459     8.4632     9.8774
  555.5000     7.9672  -999.2500     0.0432     2.4706     0.1075   -68.4211     8.0632     8.2890     8.7238
  556.0000     7.9672  -999.2500     0.0327     2.4366     0.1131   -68.2707     7.9532     8.2317     7.8135
  556.5000     7.9672  -999.2500     0.0132     2.4057     0.1276   -68.1203     7.8994     8.1183     8.0133
  557.0000     7.9523  -999.2500     0.0312     2.4455     0.1229   -67.9699     7.9008     8.2317    10.3485
  557.5000     7.9076  -999.2500     0.0462     2.4606     0.1196   -67.7944     7.9019     8.4632    10.8309
  558.0000     7.8629  -999.2500     0.0658     2.4951     0.1079   -67.5188     7.9030     8.9461    11.0707
  558.5000     7.8331  -999.2500     0.0568     2.5109     0.0979   -67.3684     7.9590     9.2617    11.3041
  559.0000     7.7884  -999.2500     0.0598     2.5237     0.0916   -67.2180     7.9601     9.7901    11.7482
  559.5000     7.7284  -999.2500     0.0733     2.5267     0.0873   -66.9173     8.0164    10.6398    12.3715
  560.0000     7.6085  -999.2500     0.0929     2.5244     0.0915   -66.7669     8.0732    11.5632    12.4411
  560.5000     7.5499  -999.2500     0.0808     2.5131     0.1038   -66.6165     8.0743    12.2229    12.4411
  561.0000     7.5052  -999.2500     0.0605     2.4666     0.1119   -66.4662     8.1315    12.4799    12.4411
  561.5000     7.4430  -999.2500     0.0455     2.4696     0.1127  -999.2500  -999.2500  -999.2500  -999.2500
  562.0000     7.3562  -999.2500     0.0801     2.5064     0.1007  -999.2500  -999.2500  -999.2500  -999.2500
  562.5000     7.2966  -999.2500     0.0891     2.5026     0.0952  -999.2500  -999.2500  -999.2500  -999.2500
  563.0000     7.1923  -999.2500     0.0974     2.4786     0.1075  -999.2500  -999.2500  -999.2500  -999.2500
  563.5000     7.0581  -999.2500     0.1026     2.4651     0.1105  -999.2500  -999.2500  -999.2500  -999.2500
  564.0000     6.8942  -999.2500     0.1019     2.4275     0.1231  -999.2500  -999.2500  -999.2500  -999.2500
  564.5000     6.7841  -999.2500     0.1018     2.4382     0.1249  -999.2500  -999.2500  -999.2500  -999.2500
  565.0000     6.6706  -999.2500     0.0925     2.3929     0.1278  -999.2500  -999.2500  -999.2500  -999.2500
  565.5000     6.5961  -999.2500     0.0801     2.3509     0.1467  -999.2500  -999.2500  -999.2500  -999.2500
  566.0000     6.5216  -999.2500     0.1056     2.3426     0.1647  -999.2500  -999.2500  -999.2500  -999.2500
