~VERSION INFORMATION
 VERS.                2.0:   CWLS LOG ASCII STANDARD - VERSION 2.0
 WRAP.                 NO:   ONE LINE PER DEPTH STEP
~WELL INFORMATION
#MNEM.UNIT      DATA TYPE    INFORMATION
#----------   ------------   ------------------------------
 STRT.F            0.0000:   START DEPTH
 STOP.F          614.0000:   STOP DEPTH
 STEP.F            0.5000:   STEP LENGTH
 NULL.          -999.2500:   NO VALUE
 COMP. BROWN JOHN E&C INC:   COMPANY
 WELL. NAVAL PET  RESERVE 3 SHX-2 #12-15-2:   WELL
 FLD .                NPR:   FIELD
 LOC .       S2 T38N R78W:   LOCATION
 CNTY.            NATRONA:   COUNTY
 STAT.            WYOMING:   STATE
 CTRY. UNITED STATES OF AMERICA:   COUNTRY
 SRVC.           Gearhart:   SERVICE COMPANY
 DATE.        17-AUG-1988:   LOGDATE
 API .       490251124000:   API NUMBER
~CURVE INFORMATION
#MNEM.UNIT       API CODE    CURVE DESCRIPTION
#----------   ------------   ------------------------------
 DEPT.F                  :   
 GRR .GAPI   07 310 01 00:   GAMMA RAY
 RILD.OHMM   07 120 46 00:   INDUCTION LOG DEEP RESISTIVITY
 RILM.OHMM   07 120 44 00:   INDUCTION LOG MEDIUM RESISTIVITY
~PARAMETER INFORMATION
#MNEM.UNIT          VALUE    DESCRIPTION
#----------   ------------   ------------------------------
 PD  .                 GL:   PERMANENT DATUM
 EPD .F              5093:   ELEVATION PERMANENT DATUM
 LMF .                 KB:   LOG MEASURED FROM
 DAPD.F                10:   FEET ABOVE PERMANENT DATUM
 DMF .                 KB:   DRILLING MEASURED FROM
 EKB .F              5103:   KELLING BUSHING
 EDF .F              5101:   DRILLING FLOOR
 EGL .F              5093:   GROUND LEVEL
 DATE.        17-AUG-1988:   RUN DATE
 RUN .                  1:   RUN NUMBER
 DD  .F               620:   DEPTH DRILLER
 DL  .F               623:   DEPTH LOGGER
 BLI .F               614:   BOTTOM LOG INTERVAL
 TLI .F                50:   TOP LOG INTERVAL
 CS  .IN            9.625:   CASING SIZE
 CBD .F                50:   CASING BOTTOM DRILLER
 CBL .F                50:   CASING BOTTOM LOGGER
 BS  .IN             8.75:   BIT SIZE
 BSD .F               620:   BIT SIZE AT DEPTH
 DFT .                AIR:   DRILLING FLUID TYPE
 TCS .HRS            0500:   TIME CURCULATED STOPPED
 TLAB.HRS            0625:   TIME LOGGER AT BOTTOM
 MRT .F                70:   MAXIMUM RECORDED TEMPERATURE
 LUN .               7597:   LOGGING UNIT NUMBER
 LUL .           GILLETTE:   LOGGING UNIT LOCATION
 ENGI.           JOHNSTON:   RECORDING ENGINEER
 WITN.             STRONG:   WITNESSED BY
 CLNT.            A2DTECH:   CLIENT CODE
 ORIG.           5" PRINT:   ORIGIN OF DATA
 UWI .       490251124000:   UNIQUE WELL ID
 DICO. A2D Technologies, Inc.:   DIGITIZING COMPANY
~OTHER INFORMATION
~A    DEPT      GRR      RILD       RILM   
# ...
  455.0000    78.5388    18.0713    17.7087
  455.5000    82.4962    18.1982    17.5862
  456.0000    84.3227    18.2221    17.2226
  456.5000    83.7139    18.7144    17.2238
  457.0000    82.1918    19.2453    17.4676
  457.5000    80.0609    19.9302    17.9644
  458.0000    78.5388    20.4956    18.9994
  458.5000    80.6697    20.9301    19.8149
  459.0000    80.9741    21.0770    20.3785
  459.5000    74.7903    21.0770    20.8120
  460.0000    72.1461    20.9301    21.2547
  460.5000    73.0594    20.7843    21.5556
  461.0000    77.9300    20.3527    20.9624
  461.5000    81.5830    19.7913    20.1024
  462.0000    83.1050    19.2453    19.2777
  462.5000    83.1050    18.7144    18.6165
  463.0000    83.4094    18.3259    18.2263
  463.5000    83.7139    18.0713    17.8441
  464.0000    84.3227    17.8203    17.6072
  464.5000    84.6271    17.6962    17.2429
  465.0000    84.6271    17.4504    17.1239
  465.5000    84.6271    17.0881    17.1254
  466.0000    84.9315    17.0881    17.1266
  466.5000    84.9315    17.0881    16.8899
  467.0000    84.0183    17.0881    16.7730
  467.5000    84.0183    17.0881    16.7745
  468.0000    85.5403    17.0881    16.7756
  468.5000    86.1492    17.0881    16.7768
  469.0000    85.2359    17.2080    16.8957
  469.5000    84.0112    17.3288    17.2551
  470.0000    84.3429    17.3288    17.4994
  470.5000    85.5403    17.3288    17.7471
  471.0000    84.8847    17.3288    17.8729
  471.5000    83.1050    17.3288    17.8741
  472.0000    81.5830    17.0881    17.8753
  472.5000    83.4094    16.8507    17.7520
  473.0000    85.8447    16.6167    17.6295
  473.5000    87.0624    16.1583    17.5079
  474.0000    88.2801    15.8228    17.2659
  474.5000    89.1933    15.4943    17.1467
  475.0000    89.4977    15.2791    17.0284
  475.5000    89.8021    14.8576    16.6760
  476.0000    89.4977    14.5491    16.3218
  476.5000    88.2801    14.5491    15.7447
  477.0000    86.7580    14.5491    15.1070
  477.5000    85.8447    14.5491    14.8109
  478.0000    87.9756    14.5491    14.4035
  478.5000    90.4110    14.5352    14.2042
  479.0000    90.7154    14.3471    14.1062
  479.5000    89.8021    14.1478    13.8145
  480.0000    88.2801    14.0492    13.7192
  480.5000    86.7580    13.9513    13.5294
  481.0000    85.8447    13.9513    13.3426
  481.5000    85.8639    13.8540    13.2503
  482.0000    86.4536    13.9513    13.0672
  482.5000    86.7580    14.0492    13.2524
  483.0000    86.7580    14.0492    13.4400
  483.5000    86.7580    14.0492    13.8222
  484.0000    86.4536    14.0492    13.8231
  484.5000    85.8447    14.0492    13.8241
  485.0000    85.5403    13.8540    13.8251
  485.5000    84.9315    13.8540    13.8260
  486.0000    85.8447    13.8540    13.8270
  486.5000    86.7580    13.8540    13.8279
  487.0000    87.0624    13.7575    13.8289
  487.5000    87.0624    13.7575    13.8298
  488.0000    87.6712    13.5664    13.5437
  488.5000    88.2801    13.3780    13.4502
  489.0000    88.5845    13.1922    13.3574
  489.5000    87.9756    13.0089    13.0810
  490.0000    86.4536    12.9968    12.9907
  490.5000    86.1492    12.9024    12.8114
  491.0000    86.1492    12.7388    12.7230
  491.5000    86.7580    12.6501    12.7239
  492.0000    87.3668    12.6501    12.6361
  492.5000    89.8125    12.5619    12.6369
  493.0000    92.5783    12.5619    12.5495
  493.5000    95.3131    12.5619    12.4629
  494.0000    95.5860    12.4744    12.3769
  494.5000    91.8173    12.3874    12.3780
  495.0000    90.7154    12.3011    12.3789
  495.5000    91.6286    12.3011    12.3797
  496.0000    91.9330    12.3011    12.3806
  496.5000    90.7154    12.3011    12.3814
  497.0000    89.1933    12.3874    12.4692
  497.5000    90.7154    12.5619    12.5576
  498.0000    91.9330    12.6501    12.7353
  498.5000    92.5419    12.8283    13.0062
  499.0000    90.4110    12.9183    13.0071
  499.5000    90.7154    12.9183    13.0080
  500.0000    91.9330    13.0089    13.0089
  500.5000    90.7032    12.9210    13.0100
  501.0000    89.8141    12.7347    12.8302
  501.5000    90.8433    12.5558    12.5647
  502.0000    93.1762    12.3119    12.3910
  502.5000    95.6175    12.2287    12.2197
  503.0000    98.0588    11.9773    12.0506
  503.5000    99.5869    11.8133    11.8015
  504.0000   100.8105    11.6511    11.6381
  504.5000   100.5121    11.6541    11.5580
  505.0000    98.3872    11.6565    11.5588
  505.5000    97.1740    11.4970    11.4791
  506.0000    95.9639    11.3396    11.3999
  506.5000    97.7964    11.3420    11.3951
  507.0000    98.1068    11.2653    11.2332
  507.5000    96.8951    11.2676    11.0877
  508.0000    94.7702    11.2699    11.0886
  508.5000    94.1674    11.3514    11.0894
  509.0000    94.7823    11.7578    11.2464
  509.5000    95.3971    12.4392    11.4856
  510.0000    91.7516    13.1739    11.9786
  510.5000    91.4517    14.5484    12.9374
  511.0000    90.5459    16.0141    14.1697
  511.5000    85.9857    18.4153    16.2980
  512.0000    79.9034    20.4562    19.6865
  512.5000    72.9079    23.3681    22.4856
  513.0000    65.3036    27.6443    25.5038
  513.5000    62.5683    32.0241    31.4594
  514.0000    63.4891    36.8393    35.9325
  514.5000    67.4524    38.6956    39.6313
  515.0000    68.9805    39.5242    44.6904
  515.5000    66.5512    39.8098    50.7260
  516.0000    63.5131    39.5385    52.4344
  516.5000    60.1705    38.9974    50.2841
  517.0000    59.2633    37.6671    45.9174
  517.5000    60.2131    35.1301    38.0192
  518.0000    64.0852    31.1988    34.4756
  518.5000    76.3299    28.4934    31.0444
  519.0000    79.6845    26.9436    29.1527
  519.5000    79.9934    25.9990    27.5683
  520.0000    78.4788    25.2919    26.2531
  520.5000    77.2672    24.9364    25.1760
  521.0000    75.7511    24.2862    24.8276
  521.5000    74.8424    24.1207    24.3142
  522.0000    73.9351    23.6260    24.3159
  522.5000    76.6823    23.4650    24.1481
  523.0000    77.9060    22.9838    24.1498
  523.5000    77.3032    22.8272    24.1515
  524.0000    77.6136    22.6728    23.9848
  524.5000    79.4461    22.2078    23.8012
  525.0000    80.3653    21.7512    23.2993
  525.5000    80.3531    21.6030    22.6848
  526.0000    78.4048    21.1589    22.2154
  526.5000    75.7076    20.8702    21.9084
  527.0000    77.6511    20.5847    21.4550
  527.5000    81.6144    20.5890    21.0106
  528.0000    83.4469    20.4498    20.5758
  528.5000    83.7558    20.4540    20.5776
  529.0000    80.7192    20.3157    20.5790
  529.5000    79.2031    20.0376    20.5804
  530.0000    80.7312    19.9032    21.1657
  530.5000    81.3460    19.6308    21.6160
  531.0000    79.5255    19.3621    21.7692
  531.5000    77.4006    19.0971    21.4683
  532.0000    74.3625    18.9670    20.5875
  532.5000    74.9773    18.5780    20.1591
  533.0000    79.2451    18.3238    19.3148
  533.5000    85.0586    18.0721    18.5077
  534.0000    89.6562    17.7014    17.6108
  534.5000    89.5708    17.2167    16.9324
  535.0000    87.4898    16.9802    16.8153
  535.5000    86.5825    16.8654    16.8168
  536.0000    85.6753    16.9881    16.8179
  536.5000    84.7681    16.9916    16.9371
  537.0000    84.1652    17.1144    16.9383
  537.5000    85.0845    16.9987    16.8211
  538.0000    87.2214    16.8837    16.7050
  538.5000    88.7494    16.7695    16.5898
  539.0000    88.7554    16.5400    16.3605
  539.5000    87.5438    16.3137    15.6895
  540.0000    86.3306    16.0912    15.5813
  540.5000    87.8602    15.9816    15.5823
  541.0000    89.6927    15.6538    15.4748
  541.5000    90.0031    15.5479    15.4759
  542.0000    87.5497    15.2283    15.3691
  542.5000    83.8965    15.1245    15.3541
  543.0000    82.3622    14.8143    15.1577
  543.5000    80.5917    14.6116    14.9485
  544.0000    79.9874    14.2115    14.6391
  544.5000    84.5611    13.9186    14.0385
  545.0000    85.1759    13.6324    13.4626
  545.5000    84.5731    13.2598    12.8203
