~VERSION INFORMATION
 VERS.                2.0:   CWLS LOG ASCII STANDARD - VERSION 2.0
 WRAP.                 NO:   ONE LINE PER DEPTH STEP
~WELL INFORMATION
#MNEM.UNIT      DATA TYPE    INFORMATION
#----------   ------------   ------------------------------
 STRT.F           34.0000:   START DEPTH
 STOP.F          510.0000:   STOP DEPTH
 STEP.F            0.5000:   STEP LENGTH
 NULL.          -999.2500:   NO VALUE
 COMP. LAWRENCE/ALLISON INC:   COMPANY
 WELL.      58-36 SX #3-3:   WELL
 FLD .             TEAPOT:   FIELD
 LOC .       S3 T38N R78W:   LOCATION
 CNTY.            NATRONA:   COUNTY
 STAT.            WYOMING:   STATE
 CTRY. UNITED STATES OF AMERICA:   COUNTRY
 SRVC.           Gearhart:   SERVICE COMPANY
 DATE.        17-SEP-1987:   LOGDATE
 API .       490251116300:   API NUMBER
~CURVE INFORMATION
#MNEM.UNIT       API CODE    CURVE DESCRIPTION
#----------   ------------   ------------------------------
 DEPT.F                  :   
 SPR .MV     07 010 01 00:   SPONTANEOUS POTENTIAL
 RLL .OHMM   07 220 00 00:   LATEROLOG RESISTIVITY
 RILD.OHMM   07 120 46 00:   INDUCTION LOG DEEP RESISTIVITY
 RILM.OHMM   07 120 44 00:   INDUCTION LOG MEDIUM RESISTIVITY
 GRR .GAPI   07 310 01 00:   GAMMA RAY FROM RES. LOG.
~PARAMETER INFORMATION
#MNEM.UNIT          VALUE    DESCRIPTION
#----------   ------------   ------------------------------
 PD  .                 GL:   PERMANENT DATUM
 EPD .F              5205:   ELEVATION PERMANENT DATUM
 LMF .                 KB:   LOG MEASURED FROM
 DAPD.F                 8:   FEET ABOVE PERMANENT DATUM
 DMF .                 KB:   DRILLING MEASURED FROM
 EKB .F              5213:   KELLING BUSHING
 EDF .F              5211:   DRILLING FLOOR
 EGL .F              5205:   GROUND LEVEL
 DATE.            9-17-87:   RUN DATE
 RUN .                  1:   RUN NUMBER
 DD  .F               521:   DEPTH DRILLER
 DL  .F               512:   DEPTH LOGGER
 BLI .F               510:   BOTTOM LOG INTERVAL
 TLI .F                30:   TOP LOG INTERVAL
 CS  .IN            8.625:   CASING SIZE
 CBD .F                52:   CASING BOTTOM DRILLER
 CBL .F                52:   CASING BOTTOM LOGGER
 BS  .IN            7.875:   BIT SIZE
 BSD .F               521:   BIT SIZE AT DEPTH
 DFT .          KCL WATER:   DRILLING FLUID TYPE
 DFD .                8.8:   DRILLING FLUID DENSITY
 MSS .            MUD PIT:   MUD SAMPLE SOURCE
 RMS .OHMM            .60:   RESISTIVITY MUD SAMPLE
 MST .F                41:   MUD SAMPLE TEMPERATURE
 TCS .HRS            0630:   TIME CURCULATED STOPPED
 TLAB.HRS            0918:   TIME LOGGER AT BOTTOM
 MRT .F                80:   MAXIMUM RECORDED TEMPERATURE
 LUN .               7650:   LOGGING UNIT NUMBER
 LUL .           GILLETTE:   LOGGING UNIT LOCATION
 ENGI.         WEATHERMON:   RECORDING ENGINEER
 WITN.             STRONG:   WITNESSED BY
 CLNT.            A2DTECH:   CLIENT CODE
 ORIG. 1", 2.5", 5" PRINT:   ORIGIN OF DATA
 UWI .       490251116300:   UNIQUE WELL ID
 DICO. A2D Technologies, Inc.:   DIGITIZING COMPANY
~OTHER INFORMATION
~A   DEPT      SPR        RLL       RILD       RILM        GRR   
# ...
  400.0000  -126.1984    17.0069    16.0932    12.8790    79.7491
  400.5000  -126.8532    17.1841    15.9331    13.1636    79.9813
  401.0000  -127.5075    17.3631    15.7467    13.3569    77.8488
  401.5000  -128.1573    17.6483    15.3876    13.4897    77.8533
  402.0000  -128.7402    17.4752    15.2166    12.9239    78.6376
  402.5000  -129.1705    17.1518    15.4128    12.4629    76.8358
  403.0000  -129.6049    16.8344    15.6259    12.0184    76.0121
  403.5000  -130.0386    16.5400    15.9382    11.7393    77.8909
  404.0000  -130.4712    16.4479    15.8306    12.1690    77.9309
  404.5000  -130.8451    16.3522    15.6400    12.5538    76.0944
  405.0000  -130.9877    16.2570    15.4518    12.8790    73.0099
  405.5000  -131.1338    16.1624    15.2659    11.8393    71.3065
  406.0000  -131.2821    16.0865    15.0822    11.0232    71.9392
  406.5000  -131.4002    16.0865    14.9372    10.1158    74.7730
  407.0000  -131.6612    15.9879    14.8673    10.1679    77.4880
  407.5000  -131.7096    15.8903    14.7994    10.2763    77.7895
  408.0000  -131.7757    15.7933    14.5086    10.4071    77.7860
  408.5000  -131.9098    15.6968    14.2291    10.2695    77.6044
  409.0000  -132.1948    15.6010    13.9549    10.1740    76.2865
  409.5000  -132.4774    15.5057    13.6860    10.1217    75.0156
  410.0000  -132.7604    15.4111    13.4886    10.5015    75.8146
  410.5000  -133.0426    15.3170    13.4896    10.8758    76.9354
  411.0000  -133.3248    15.2234    13.4896    11.2635    79.0100
  411.5000  -133.2708    15.1305    13.4895    11.6340    81.1273
  412.0000  -132.8754    15.0381    13.5042    11.4520    83.0326
  412.5000  -132.4760    14.9372    13.5333    11.2528    81.9101
  413.0000  -132.6709    15.0099    13.5629    11.0580    80.7995
  413.5000  -133.0392    15.0910    13.5923    10.9005    79.7637
  414.0000  -133.4126    15.1725    13.6219    11.1637    81.3165
  414.5000  -133.7856    15.2545    13.6515    11.3683    81.3989
  415.0000  -134.1589    15.3369    13.6812    11.5767    79.7857
  415.5000  -134.5307    15.5012    13.7109    11.6383    78.5814
  416.0000  -134.8590    15.3829    13.7421    11.6878    79.0409
  416.5000  -134.9377    15.2956    13.6547    11.7393    80.1730
  417.0000  -135.0300    15.2087    13.5639    11.6079    81.4185
  417.5000  -135.1230    15.1223    13.4737    11.4731    82.6679
  418.0000  -135.2162    15.0365    13.3841    11.3400    83.9033
  418.5000  -135.2140    14.9511    13.2951    11.2083    84.4156
  419.0000  -135.1213    14.8660    13.2067    11.1044    83.8205
  419.5000  -135.0506    14.7756    13.1189    11.2493    83.2130
  420.0000  -134.9906    14.6607    13.0316    11.3712    84.0850
  420.5000  -134.9201    14.5470    12.9718    11.4174    85.6641
  421.0000  -134.8493    14.4342    12.9287    11.1452    87.2613
  421.5000  -134.7779    14.3223    12.8857    10.9569    88.7219
  422.0000  -134.7072    14.2113    12.8428    10.7718    88.0654
  422.5000  -134.6787    14.1011    12.8002    10.6026    85.9530
  423.0000  -134.9528    13.9991    12.7599    10.5187    85.7058
  423.5000  -135.2337    14.0691    12.6988    10.4249    85.5717
  424.0000  -135.6102    14.1349    12.6416    10.3311    85.5761
  424.5000  -135.7548    14.2011    12.5846    10.2381    86.3838
  425.0000  -135.8711    14.2676    12.5278    10.1460    87.1820
  425.5000  -135.9890    14.3343    12.4713    10.0547    87.9872
  426.0000  -136.0687    14.3946    12.4151    10.0284    88.2035
  426.5000  -136.2695    14.3258    12.3591    10.5420    88.0916
  427.0000  -136.4758    14.2482    12.3034    11.1323    87.9662
  427.5000  -136.6808    14.1540    12.2479    11.5077    87.6185
  428.0000  -136.8862    14.0597    12.1927    11.6310    86.4525
  428.5000  -137.0903    13.9662    12.1378    11.0862    85.3203
  429.0000  -137.2795    13.8733    12.0830    10.5285    84.1993
  429.5000  -137.4379    13.7810    12.0030     9.9988    83.4714
  430.0000  -137.6176    13.6894    11.9157     9.4861    86.2032
  430.5000  -137.8015    13.5984    11.8290     9.5395    89.4264
  431.0000  -137.9810    13.5081    11.7430     9.4950    92.1204
  431.5000  -138.2776    13.4174    11.6576     9.4508    93.7385
  432.0000  -138.5718    13.3374    11.5729     9.4068    94.6750
  432.5000  -138.7318    13.1985    11.5237     9.3731    93.1088
  433.0000  -138.8101    13.0550    11.3110     9.3268    91.0659
  433.5000  -138.8869    12.9035    11.1061     9.3127    88.9831
  434.0000  -138.9635    12.7537    10.9050     9.1225    89.4345
  434.5000  -139.0403    12.6057    10.7090     8.9051    90.5831
  435.0000  -139.1171    12.4594    10.4822     8.6889    89.6433
  435.5000  -139.1938    12.3148    10.2295     8.4779    88.3932
  436.0000  -139.2705    12.1718     9.9806     8.4095    90.3143
  436.5000  -139.4612    11.9589     9.7382     8.5010    93.4893
  437.0000  -139.6969    11.5971     9.3249     8.5668    96.6584
  437.5000  -139.9794    11.2729     8.7908     8.5668    98.8402
  438.0000  -140.5093    10.9578     8.2819     7.6141    98.9332
  438.5000  -141.0429    10.6514     7.7543     7.0371    99.0808
  439.0000  -141.5763    10.3537     7.1329     6.5038    99.6644
  439.5000  -142.1082     9.8356     6.5647     6.0109   102.4423
  440.0000  -142.5761     8.7654     6.0416     5.5554   105.1712
  440.5000  -142.7787     7.8117     5.9136     5.1705   107.2952
  441.0000  -142.9125     7.1912     5.9136     5.0052   105.6234
  441.5000  -142.4109     7.0520     6.0504     5.0052   101.8143
  442.0000  -141.9082     7.9518     6.3028     5.2589    98.0375
  442.5000  -141.4087     9.0064     6.5643     5.6012    94.2498
  443.0000  -140.9097    10.2008     6.9555     6.0846    90.5133
  443.5000  -140.4108    11.1755     7.5682     6.6097    87.7205
  444.0000  -139.9120    11.6347     8.2361     7.1802    87.7264
  444.5000  -139.4140    11.6344     8.9623     7.6653    90.1552
  445.0000  -138.8462    11.5042     9.5744     7.6292    92.6271
  445.5000  -138.1497    11.4150     9.7663     7.5936    94.7044
  446.0000  -137.4542    11.3122     9.9582     7.5583    96.7175
  446.5000  -136.7588    11.4476    10.1217     7.5246    97.3299
  447.0000  -136.0616    11.6114    10.1217     7.7831    97.8812
  447.5000  -135.3585    11.7777    10.2386     8.0980    98.4402
  448.0000  -135.3286    11.9462    10.4993     8.4275    99.0002
  448.5000  -135.4249    12.0702    10.7664     8.7701    98.9386
  449.0000  -135.2972    12.4896    11.0408     9.1268    97.7586
  449.5000  -135.0676    12.8928    11.3236     9.4979    96.6767
  450.0000  -134.8344    13.3089    11.5951     9.8443    95.6519
  450.5000  -134.6012    13.7384    11.8380     9.8443    94.8425
  451.0000  -134.3683    13.8704    12.0860     9.8443    95.9874
  451.5000  -134.1351    13.9471    12.3392     9.8439    97.1278
  452.0000  -133.8930    14.2083    12.5977     9.9298    98.2410
  452.5000  -133.8228    14.4740    12.8616    10.1037    99.1501
  453.0000  -133.7702    14.8046    13.1310    10.2811    96.8656
  453.5000  -133.7200    14.8565    13.4061    10.4377    94.2327
  454.0000  -133.6693    14.9085    13.4897    10.7503    91.6297
  454.5000  -133.6185    14.9607    13.4258    11.0724    89.8540
  455.0000  -133.5678    15.0131    13.3767    11.1044    90.9402
  455.5000  -133.5170    15.0657    13.3279    11.1044    92.6614
  456.0000  -133.4653    15.1185    13.2792    11.1044    94.4222
  456.5000  -133.3554    15.1714    13.2307    11.1044    95.1854
  457.0000  -133.1400    15.2247    13.1824    11.2528    93.8049
  457.5000  -132.9262    15.2783    13.1342    11.4681    92.4154
  458.0000  -132.7119    15.3536    13.1198    11.6875    91.0140
  458.5000  -132.5252    15.2460    13.1199    11.9111    89.8844
  459.0000  -132.3553    15.0224    13.1199    12.0702    90.7075
  459.5000  -132.1851    14.8026    13.1199    11.9681    92.7484
  460.0000  -132.0237    14.5859    13.1199    11.8760    94.0057
  460.5000  -132.0406    14.4011    13.1199    11.7847    94.1290
