~VERSION INFORMATION
 VERS.                2.0:   CWLS LOG ASCII STANDARD - VERSION 2.0
 WRAP.                 NO:   ONE LINE PER DEPTH STEP
~WELL INFORMATION
#MNEM.UNIT      DATA TYPE    INFORMATION
#----------   ------------   ------------------------------
 STRT.F           31.0000:   START DEPTH
 STOP.F          662.0000:   STOP DEPTH
 STEP.F            0.5000:   STEP LENGTH
 NULL.          -999.2500:   NO VALUE
 COMP. FENIX & SCISSON INC:   COMPANY
 WELL.   NPR-3 #83SX15-15:   WELL
 FLD .             TEAPOT:   FIELD
 LOC .      S15 T38N R78W:   LOCATION
 CNTY.            NATRONA:   COUNTY
 STAT.            WYOMING:   STATE
 CTRY. UNITED STATES OF AMERICA:   COUNTRY
 SRVC.            Unknown:   SERVICE COMPANY
 DATE.        17-MAY-1978:   LOGDATE
 API .       490251062500:   API NUMBER
~CURVE INFORMATION
#MNEM.UNIT       API CODE    CURVE DESCRIPTION
#----------   ------------   ------------------------------
 DEPT.F                  :   
 SN  .OHMM   07 040 16 00:   SHORT NORMAL 16'
 ILD .OHMM   07 120 46 00:   INDUCTION LOG DEEP
 CALD.IN     45 280 60 00:   CALIPER
 GRD .GAPI   45 310 01 00:   GAMMA RAY FROM DENSITY LOG
 RHOB.G/C3   45 350 01 00:   BULK DENSITY
 DPHI.DEC    45 890 10 00:   DENSITY POROSITY SANDSTONE
 CORR.G/C3   45 356 01 00:   DENSITY CORRECTION
~PARAMETER INFORMATION
#MNEM.UNIT          VALUE    DESCRIPTION
#----------   ------------   ------------------------------
 PD  .                 GL:   PERMANENT DATUM
 EPD .F              5265:   ELEVATION PERMANENT DATUM
 LMF .                 KB:   LOG MEASURED FROM
 DMF .                 KB:   DRILLING MEASURED FROM
 EKB .F              5269:   KELLING BUSHING
 EGL .F              5265:   GROUND LEVEL
 DATE.          5-17-1978:   RUN DATE
 RUN .                  1:   RUN NUMBER
 DD  .F               670:   DEPTH DRILLER
 DL  .F               668:   DEPTH LOGGER
 BLI .F               662:   BOTTOM LOG INTERVAL
 TLI .F                40:   TOP LOG INTERVAL
 CS  .IN            8.625:   CASING SIZE
 CBD .F                40:   CASING BOTTOM DRILLER
 BS  .IN            7.875:   BIT SIZE
 BSD .F               670:   BIT SIZE AT DEPTH
 DFT .                KCL:   DRILLING FLUID TYPE
 DFD .                8.6:   DRILLING FLUID DENSITY
 DFV .                 31:   DRILLING FLUID VISCOSITY
 DFPH.                 10:   DRILLING FLUID PH
 BHT .F                75:   BOTTOM HOLE TEMPERATURE
 TCS .HRS               2:   TIME CURCULATED STOPPED
 MRT .F                75:   MAXIMUM RECORDED TEMPERATURE
 LUN .               3006:   LOGGING UNIT NUMBER
 LUL .                CPR:   LOGGING UNIT LOCATION
 ENGI.             MILLER:   RECORDING ENGINEER
 WITN.           MCGINLEY:   WITNESSED BY
 CLNT.            A2DTECH:   CLIENT CODE
 ORIG.      2" & 5" PRINT:   ORIGIN OF DATA
 UWI .       490251062500:   UNIQUE WELL ID
 DICO. A2D Technologies, Inc.:   DIGITIZING COMPANY
~OTHER INFORMATION
~A   DEPT       SN        ILD       CALD         GRD      RHOB       DPHI       CORR   
# ...
  486.0000     5.0488     4.4973     7.4029    86.2672     2.4730     0.1279     0.0416
  486.5000     5.0430     4.4906     7.4032    85.1825     2.4860     0.1198     0.0333
  487.0000     5.0937     4.4838     7.4094    81.3762     2.4883     0.1190     0.0359
  487.5000     5.3955     4.4774     7.4155    78.4457     2.4890     0.1178     0.0387
  488.0000     5.6607     4.9063     7.4216    79.2773     2.4959     0.1114     0.0378
  488.5000     5.8658     5.3270     7.4278    84.0517     2.5036     0.1068     0.0348
  489.0000     6.0468     5.7947     7.4340    87.5611     2.5053     0.1076     0.0289
  489.5000     6.2334     5.9740     7.4398    85.8302     2.5061     0.1078     0.0293
  490.0000     6.4257     6.1632     7.4319    80.9998     2.5071     0.1048     0.0296
  490.5000     6.6240     6.3585     7.4231    79.9324     2.5081     0.1016     0.0298
  491.0000     6.8396     6.5390     7.4144    80.2072     2.5089     0.1026     0.0301
  491.5000     6.8767     6.5915     7.4057    80.4939     2.5080     0.1053     0.0304
  492.0000     6.9161     6.6444     7.3969    80.6824     2.5071     0.1035     0.0306
  492.5000     6.9557     6.7147     7.3882    80.5497     2.5080     0.1010     0.0309
  493.0000     6.9955     6.7373     7.3795    79.9007     2.5089     0.1010     0.0312
  493.5000     7.0356     6.7586     7.3708    78.6294     2.5099     0.1028     0.0314
  494.0000     7.0759     6.7799     7.3620    78.5029     2.5084     0.1048     0.0317
  494.5000     7.1164     6.8012     7.3533    79.6050     2.5061     0.1066     0.0320
  495.0000     7.1572     6.8227     7.3446    80.9002     2.5076     0.1048     0.0322
  495.5000     7.1683     6.8442     7.3450    81.3475     2.5093     0.1029     0.0325
  496.0000     7.1754     6.8657     7.3577    83.2435     2.5110     0.1010     0.0328
  496.5000     7.1826     6.8874     7.3703    84.6229     2.5121     0.1010     0.0331
  497.0000     7.1898     6.9091     7.3830    85.7039     2.5124     0.1022     0.0333
  497.5000     7.1970     6.9309     7.3957    88.9520     2.5126     0.1034     0.0336
  498.0000     7.2042     6.9527     7.4084    89.8779     2.5129     0.1015     0.0338
  498.5000     7.2114     6.9704     7.4207    85.6885     2.5131     0.1002     0.0341
  499.0000     7.2186     6.9814     7.4220    81.0867     2.5134     0.1016     0.0344
  499.5000     7.2259     6.9922     7.3817    77.7324     2.5136     0.0989     0.0347
  500.0000     7.2282     7.0031     7.2829    77.3000     2.5138     0.0998     0.0349
  500.5000     7.2282     7.0140     7.1917    77.0898     2.5144     0.1030     0.0374
  501.0000     7.2283     7.0254     7.1013    76.6456     2.5158     0.0989     0.0408
  501.5000     7.2281     7.0312     7.0269    74.6792     2.5168     0.0950     0.0398
  502.0000     7.2291     6.8967     7.0873    72.7152     2.5049     0.1107     0.0361
  502.5000     7.2319     6.8028     7.1571    71.3736     2.4878     0.1244     0.0296
  503.0000     6.9668     6.6606     7.2271    73.0114     2.4634     0.1380     0.0260
  503.5000     6.8396     6.4608     7.2604    75.3321     2.4395     0.1557     0.0221
  504.0000     6.4766     6.0928     7.2608    75.1551     2.4039     0.1744     0.0294
  504.5000     6.1310     5.7457     7.2620    75.1508     2.3753     0.1850     0.0501
  505.0000     5.8038     5.4184     7.2246    76.9290     2.3840     0.1585     0.0995
  505.5000     5.4781     5.3337     7.1922    84.4885     2.4602     0.1278     0.1051
  506.0000     5.4858     5.3831     7.1584    91.0187     2.5233     0.0946     0.0607
  506.5000     5.6330     5.3831     7.1666    86.8391     2.5234     0.0958     0.0372
  507.0000     5.9702     5.5851     7.2176    78.6971     2.5212     0.0974     0.0362
  507.5000     6.6509     6.1512     7.1814    71.3163     2.5215     0.0976     0.0356
  508.0000     7.4092     6.8417     7.0701    71.2444     2.5218     0.0973     0.0351
  508.5000     8.1572     7.6190     7.0351    71.8660     2.5222     0.0971     0.0344
  509.0000     8.4401     7.9989     7.0558    71.4938     2.5226     0.0959     0.0335
  509.5000     8.7772     8.3759     7.0786    71.0661     2.5229     0.0945     0.0327
  510.0000     8.7682     8.6105     7.0521    70.6394     2.5225     0.0967     0.0319
  510.5000     8.9575     8.6902     7.0149    70.2184     2.5132     0.1032     0.0310
  511.0000     8.9894     8.6683     6.9992    69.9818     2.5034     0.1081     0.0331
  511.5000     9.0214     8.6406     6.9922    70.3983     2.4967     0.1094     0.0355
  512.0000     9.0536     8.6105     6.9855    72.1737     2.4946     0.1105     0.0379
  512.5000     9.0858     8.6902     6.9788    73.8760     2.4924     0.1117     0.0421
  513.0000     9.1840     8.9337     6.9725    73.6981     2.4902     0.1129     0.0480
  513.5000     9.5308     9.3988     6.9658    72.8628     2.4880     0.1141     0.0538
  514.0000     9.9674    10.0141     6.9342    67.6588     2.4859     0.1153     0.0595
  514.5000    10.4240    10.6696     6.7303    61.9325     2.4811     0.1186     0.0620
  515.0000    10.8615    11.3681     6.5200    56.9604     2.4750     0.1230     0.0593
  515.5000    11.5223    12.1086     6.6010    53.2018     2.4682     0.1446     0.0575
  516.0000    12.2233    13.0927     6.7499    49.3650     2.4481     0.1410     0.0676
  516.5000    12.5612    14.3919     6.9006    47.3347     2.4418     0.1378     0.0779
  517.0000    12.5660    15.3931     7.0507    47.1454     2.4403     0.1554     0.0732
  517.5000    12.5757    15.9846     7.1752    46.5199     2.4196     0.1675     0.0532
  518.0000    12.5854    16.7121     7.1292    45.8220     2.3823     0.1808     0.0572
  518.5000    12.5950    16.4897     7.2467    45.7922     2.3587     0.1941     0.0681
  519.0000    12.6047    16.2613     7.2801    48.8089     2.3510     0.2006     0.0879
  519.5000    12.6144    16.8593     7.2814    53.1563     2.3524     0.1859     0.1137
  520.0000    12.6241    17.3989     7.2806    52.8028     2.3791     0.1709     0.1294
  520.5000    12.6338    17.6634     7.2586    50.2347     2.3969     0.1650     0.1264
  521.0000    12.6435    17.6635     7.2347    49.1007     2.3948     0.1743     0.1076
  521.5000    12.6532    17.6616     7.2105    48.7020     2.3702     0.1833     0.0746
  522.0000    12.6629    17.6616     7.2166    48.3232     2.3624     0.1878     0.0593
  522.5000    12.6726    17.3712     7.2415    48.0620     2.3604     0.1902     0.0470
  523.0000    12.6824    17.0707     7.2599    47.9750     2.3495     0.1997     0.0414
  523.5000    12.6921    17.0228     7.2518    47.9328     2.3396     0.2064     0.0468
  524.0000    12.7018    17.4591     7.2442    48.6909     2.3449     0.2039     0.0509
  524.5000    12.7116    17.9691     7.2367    48.9377     2.3521     0.1997     0.0501
  525.0000    12.7214    18.4940     7.2290    48.5751     2.3595     0.1955     0.0493
  525.5000    12.7311    19.0342     7.2217    48.5185     2.3616     0.1913     0.0534
  526.0000    12.7409    19.5447     7.2519    50.7659     2.3845     0.1705     0.0593
  526.5000    12.7507    19.2200     7.2858    51.3152     2.4199     0.1518     0.0494
  527.0000    12.7605    18.8611     7.3193    49.1689     2.4270     0.1510     0.0350
  527.5000    12.7704    18.5089     7.3410    44.7966     2.4270     0.1529     0.0313
  528.0000    12.7801    18.1632     7.3314    41.1810     2.4186     0.1613     0.0333
  528.5000    12.7947    17.8240     7.3160    41.4843     2.4015     0.1687     0.0361
  529.0000    12.7449    17.0497     7.3003    42.5526     2.3983     0.1675     0.0441
  529.5000    12.6487    16.1076     7.2848    46.8951     2.3954     0.1654     0.0508
  530.0000    12.5533    16.1076     7.2695    51.2098     2.3921     0.1688     0.0482
  530.5000    12.4585    16.0874     7.2744    53.4624     2.3876     0.1734     0.0458
  531.0000    12.3645    16.0676     7.3034    53.1856     2.3822     0.1832     0.0433
