~VERSION INFORMATION
 VERS.                2.0:   CWLS LOG ASCII STANDARD - VERSION 2.0
 WRAP.                 NO:   ONE LINE PER DEPTH STEP
~WELL INFORMATION
#MNEM.UNIT      DATA TYPE    INFORMATION
#----------   ------------   ------------------------------
 STRT.F            2.0000:   START DEPTH
 STOP.F          518.0000:   STOP DEPTH
 STEP.F            0.5000:   STEP LENGTH
 NULL.          -999.2500:   NO VALUE
 COMP. LAWRENCE/ALLISON INC:   COMPANY
 WELL.    54-51 SX #10-10:   WELL
 FLD .             TEAPOT:   FIELD
 LOC .      S10 T38N R78W:   LOCATION
 CNTY.            NATRONA:   COUNTY
 STAT.            WYOMING:   STATE
 CTRY. UNITED STATES OF AMERICA:   COUNTRY
 SRVC.            Unknown:   SERVICE COMPANY
 DATE.        14-AUG-1984:   LOGDATE
 API .       490251098800:   API NUMBER
~CURVE INFORMATION
#MNEM.UNIT       API CODE    CURVE DESCRIPTION
#----------   ------------   ------------------------------
 DEPT.F                  :   
 CALD.IN     45 280 60 00:   CALIPER
 DEN .G/C3   45 350 01 00:   COMPENSATED BULK DENSTIY
 CORR.G/C3   45 356 01 00:   DENSITY CORRECTION
 CNC .DEC    42 890 03 00:   NEUTRON POROSITY SANDSTONE
 PORD.DEC    45 890 12 00:   POROSITY DENSITY SANDSTONE
 GRR .GAPI   07 310 01 00:   GAMMA RAY FROM RES. LOG.
 RFOC.OHMM   07 220 04 00:   RESISTIVITY FOCUSED LOG
 RILD.OHMM   07 120 46 00:   INDUCTION LOG DEEP RESISTIVITY
 RILM.OHMM   07 120 44 00:   INDUCTION LOG MEDIUM RESISTIVITY
 AC  .US/F   60 520 00 00:   ACOUSTIC SONIC
 SPR .MV     07 010 01 00:   SPONTANEOUS POTENTIAL
~PARAMETER INFORMATION
#MNEM.UNIT          VALUE    DESCRIPTION
#----------   ------------   ------------------------------
 PD  .                 GL:   PERMANENT DATUM
 EPD .F              5197:   ELEVATION PERMANENT DATUM
 LMF .                 GL:   LOG MEASURED FROM
 DMF .                 GL:   DRILLING MEASURED FROM
 EGL .F              5197:   GROUND LEVEL
 DATE.        14-AUG-1984:   RUN DATE
 RUN .                  1:   RUN NUMBER
 DD  .F               530:   DEPTH DRILLER
 DL  .F               520:   DEPTH LOGGER
 BLI .F               518:   BOTTOM LOG INTERVAL
 CS  .IN            9.625:   CASING SIZE
 CBD .F                40:   CASING BOTTOM DRILLER
 CBL .F                42:   CASING BOTTOM LOGGER
 BS  .IN            7.875:   BIT SIZE
 BSD .F               530:   BIT SIZE AT DEPTH
 DFT .          KCL WATER:   DRILLING FLUID TYPE
 MSS .           FLOWLINE:   MUD SAMPLE SOURCE
 RMS .OHMM            .19:   RESISTIVITY MUD SAMPLE
 MST .F                80:   MUD SAMPLE TEMPERATURE
 RMB .OHMM            .17:   RESISTIVITY MUD AT BHT
 BHT .F                90:   BOTTOM HOLE TEMPERATURE
 TCS .HRS               4:   TIME CURCULATED STOPPED
 MRT .F                90:   MAXIMUM RECORDED TEMPERATURE
 LUN .               6274:   LOGGING UNIT NUMBER
 LUL .               GLTE:   LOGGING UNIT LOCATION
 ENGI.             RAUTIO:   RECORDING ENGINEER
 WITN.              FIVAS:   WITNESSED BY
 CLNT.            A2DTECH:   CLIENT CODE
 ORIG.       2", 5" PRINT:   ORIGIN OF DATA
 UWI .       490251098800:   UNIQUE WELL ID
 DICO. A2D Technologies, Inc.:   DIGITIZING COMPANY
~OTHER INFORMATION
~A    DEPT    CALD        DEN       CORR        CNC       PORD         GRR      RFOC       RILD       RILM         AC        SPR   
# ...
  215.5000     8.3912     2.4644    -0.0005     0.3014     0.1291    99.3460    14.7686     5.8712     5.6842   108.4080    70.0256
  216.0000     8.3831     2.4669     0.0072     0.3018     0.1247    98.6370    15.9707     5.6080     5.4380   109.1381    69.4647
  216.5000     8.3745     2.4658     0.0147     0.3376     0.1279   100.4719    16.1922     5.4050     5.1770   110.5667    69.0296
  217.0000     8.3659     2.4552     0.0112     0.3521     0.1357   102.3118    12.8254     5.2326     4.9528   113.2157    68.9486
  217.5000     8.3572     2.4170     0.0070     0.3668     0.1542   102.7623    10.3762     5.4391     5.0870   116.3731    68.9623
  218.0000     8.3486     2.3781     0.0309     0.3788     0.1735   101.5372     9.1716     5.6042     5.2404   117.9360    69.3987
  218.5000     8.3400     2.3713     0.0363     0.3574     0.1817    99.8603    10.9465     5.7750     5.3984   115.9262    69.8268
  219.0000     8.3314     2.4135     0.0395     0.3349     0.1588    98.2680    13.3227     5.9660     5.5648   111.9321    70.2544
  219.5000     8.3227     2.4531     0.0445     0.3173     0.1394    94.6969    15.0565     6.2023     5.8597   108.9662    70.6834
  220.0000     8.3141     2.4851     0.0376     0.3062     0.1202    93.6927    15.0490     6.4480     6.1704   106.3836    71.1071
  220.5000     8.3055     2.4860     0.0212     0.3078     0.1169    94.0552    14.6302     6.8159     6.4640   105.7109    71.4179
  221.0000     8.2968     2.4819     0.0147     0.3095     0.1174    95.4142    13.9049     7.2563     6.9408   105.3488    71.2288
  221.5000     8.2882     2.4853     0.0066     0.3094     0.1176    96.0672    12.7965     7.6171     7.1958   104.9915    71.0517
  222.0000     8.2796     2.4924     0.0319     0.3028     0.1117    95.2073    11.7786     7.9111     7.4870   104.6350    70.8763
  222.5000     8.2718     2.4994     0.0530     0.2990     0.1062    94.9911    11.1121     7.4576     7.1543   104.1329    70.7006
  223.0000     8.2686     2.5024     0.0504     0.2974     0.1055    94.8733    11.1512     7.0803     6.7677   103.6845    70.5221
  223.5000     8.2651     2.5033     0.0438     0.3097     0.1051    94.7495    11.1813     6.7491     6.2956   103.5746    70.4096
  224.0000     8.2616     2.4973     0.0371     0.3220     0.1084    94.3973    11.2146     6.2903     5.8080   104.1413    70.1694
  224.5000     8.2580     2.4837     0.0304     0.3394     0.1153    93.1164    10.7113     5.8627     5.3571   105.1987    69.9325
  225.0000     8.2544     2.4701     0.0270     0.2959     0.1257    94.5497     9.3152     5.5808     5.1337   106.5174    69.6957
  225.5000     8.2463     2.4341     0.0270     0.3403     0.1319    98.5056     7.7227     5.5808     5.0877   111.1330    69.4497
  226.0000     8.2262     2.3998     0.0222     0.3525     0.1665   103.2903     6.1175     5.4792     5.1342   113.3831    69.1080
  226.5000     8.2063     2.3713     0.0169     0.3150     0.1841   104.8674     6.7833     5.4398     5.1736   112.2793    69.3219
  227.0000     8.1865     2.3790     0.0116     0.3170     0.1696   101.8213     7.8620     5.4042     5.5044   109.9825    69.5860
  227.5000     8.1667     2.4166     0.0069     0.3158     0.1550    99.0553     9.2477     5.3795     5.9513   107.4109    69.8486
  228.0000     8.1525     2.4548     0.0093     0.3119     0.1392    97.6377     9.3330     5.9036     6.3270   105.8657    70.2421
  228.5000     8.1507     2.4573     0.0140     0.3081     0.1326    96.5503     8.5927     6.3453     6.7264   105.2193    71.2294
  229.0000     8.1477     2.4577     0.0123     0.3043     0.1312    95.7315     8.7923     6.7698     7.0209   105.0249    72.2190
  229.5000     8.1447     2.4637     0.0087     0.3006     0.1278    94.6903     9.2054     7.0841     7.2964   104.0051    73.2122
  230.0000     8.1417     2.4703     0.0016     0.2928     0.1218    92.6590     9.6379     7.3819     7.5566   102.9337    74.0879
  230.5000     8.1387     2.4769     0.0004     0.2864     0.1175    93.5581    10.1371     7.6927     7.8237   102.1721    74.9667
  231.0000     8.1357     2.4842     0.0105     0.2854     0.1128    95.1583    10.0907     8.0210     8.1301   101.9075    75.8473
  231.5000     8.1318     2.4945     0.0205     0.2861     0.1081    95.8468     9.9981     8.2264     8.1494   101.8408    76.7280
  232.0000     8.1205     2.5054     0.0290     0.2969     0.1036    95.8538     9.9524     8.4170     8.1714   101.6129    77.6062
  232.5000     8.1091     2.5031     0.0273     0.3016     0.1062    96.7741     9.9532     8.6125     8.1931   101.3657    78.3736
  233.0000     8.0978     2.4969     0.0308     0.3047     0.1092    97.0231     9.9524     8.7129     8.2079   101.1184    78.9707
  233.5000     8.0864     2.4948     0.0374     0.3078     0.1099    95.9214     9.8730     8.7716     8.3159   100.9952    79.1942
  234.0000     8.0751     2.4969     0.0432     0.3109     0.1076    94.7731     9.7603     8.8309     8.4149   100.9245    79.2612
  234.5000     8.0638     2.4989     0.0322     0.3044     0.1065    94.5127     9.6489     8.8903     8.5156   100.8539    79.3215
  235.0000     8.0536     2.5002     0.0136     0.2989     0.1067    94.9193     9.5060     8.9502     8.6176   100.5956    79.3472
  235.5000     8.0471     2.4978    -0.0057     0.2870     0.1073    95.3312     9.6219     9.0106     8.7520   100.3130    79.3485
  236.0000     8.0399     2.4955     0.0005     0.2882     0.1079    95.7752     9.7923     9.0713     8.7223   100.0304    79.3492
  236.5000     8.0327     2.4956     0.0127     0.2906     0.1084    95.2911     9.9650     9.1632     8.6631    99.7450    79.5230
  237.0000     8.0255     2.4983     0.0138     0.2934     0.1067    93.0267    10.2306     9.1166     8.6044    99.6497    79.8301
  237.5000     8.0183     2.5004     0.0117     0.2976     0.1061    90.3475    10.1033     8.9964     8.5461    99.6513    80.1297
  238.0000     8.0112     2.5055     0.0179     0.2990     0.1015    88.3103     9.8535     9.0157     8.4882    99.8497    80.1682
  238.5000     8.0040     2.5118     0.0291     0.2938     0.0985    89.4847     9.6097     9.0434     8.4363   100.2919    79.5854
  239.0000     7.9968     2.5162     0.0403     0.2889     0.0972    91.0120     9.3721     9.0711     8.6379   100.7343    79.0318
  239.5000     7.9896     2.5163     0.0464     0.2880     0.0972    92.5407     9.1632     9.1718     8.8438   101.1768    78.5545
  240.0000     7.9824     2.5102     0.0446     0.2878     0.1002    93.7581     9.4842     9.3057     9.0303   101.1244    78.6153
  240.5000     7.9752     2.5047     0.0430     0.2807     0.1028    92.9453     9.8541     9.4411     9.1632   100.1492    78.7081
  241.0000     7.9680     2.5016     0.0438     0.2787     0.1048    90.9705    10.2385     9.5977     9.2054    98.1433    78.9248
  241.5000     7.9608     2.5026     0.0447     0.2762     0.1048    88.6557    10.6378     9.5981     9.2477    96.5645    78.6513
  242.0000     7.9544     2.5025     0.0429     0.2794     0.1060    86.3430    11.0105     9.1725     8.5767    95.4897    78.2346
  242.5000     7.9543     2.4973     0.0259     0.2957     0.1104    84.7936    11.1121     8.3672     7.7017    94.7761    77.8086
  243.0000     7.9544     2.4902     0.0094     0.3137     0.1148    85.2969    11.2146     7.3739     6.9159    95.1841    77.3898
  243.5000     7.9544     2.4811    -0.0075     0.3315     0.1176    86.4584    11.2146     6.5838     6.2094    97.3638    77.3493
  244.0000     7.9544     2.4741    -0.0074     0.3422     0.1295    89.1624     8.2892     6.3173     5.5733   102.8380    76.9680
  244.5000     7.9544     2.4179     0.0008     0.3338     0.1688    96.0012     6.0569     6.0616     5.0012   109.1185    76.9428
  245.0000     7.9544     2.3650     0.0092     0.3453     0.1939   100.3148     4.6020     6.2884     4.6483   114.0796    77.5264
  245.5000     7.9544     2.3137     0.0167     0.3538     0.2105   100.0104     5.0620     6.5494     5.5685   113.0078    78.0900
