~VERSION INFORMATION
 VERS.                2.0:   CWLS LOG ASCII STANDARD - VERSION 2.0
 WRAP.                 NO:   ONE LINE PER DEPTH STEP
~WELL INFORMATION
#MNEM.UNIT      DATA TYPE    INFORMATION
#----------   ------------   ------------------------------
 STRT.F           30.0000:   START DEPTH
 STOP.F          750.0000:   STOP DEPTH
 STEP.F            0.5000:   STEP LENGTH
 NULL.          -999.2500:   NO VALUE
 COMP. FENIX & SCISSON INC:   COMPANY
 WELL. TEAPOT DOME SX #38-11:   WELL
 FLD .             TEAPOT:   FIELD
 LOC .      S11 T38N R78W:   LOCATION
 CNTY.            NATRONA:   COUNTY
 STAT.            WYOMING:   STATE
 CTRY. UNITED STATES OF AMERICA:   COUNTRY
 SRVC.            Unknown:   SERVICE COMPANY
 DATE.        23-FEB-1978:   LOGDATE
 API .       490251058200:   API NUMBER
~CURVE INFORMATION
#MNEM.UNIT       API CODE    CURVE DESCRIPTION
#----------   ------------   ------------------------------
 DEPT.F                  :   
 CALD.IN     45 280 60 00:   CALIPER FROM DENSITY LOG
 GRD .GAPI   45 310 01 00:   GAMMA RAY FROM DENSITY LOG
 RHOB.G/C3   45 350 01 00:   BULK DENSITY
 DPHI.DEC    45 890 12 00:   DENSITY POROSITY SANDSTONE
 CORR.G/C3   45 356 01 00:   DENSITY CORRECTION
 SPR .MV     07 010 01 00:   SPONTANEOUS POTENTIAL FROM RES. LOG
 SN  .OHMM   07 040 16 00:   SHORT NORMAL 16'
 ILD .OHMM   07 120 46 00:   INDUCTION LOG DEEP
~PARAMETER INFORMATION
#MNEM.UNIT          VALUE    DESCRIPTION
#----------   ------------   ------------------------------
 PD  .                 GL:   PERMANENT DATUM
 EPD .F              5204:   ELEVATION PERMANENT DATUM
 LMF .                 KB:   LOG MEASURED FROM
 DAPD.F                 4:   FEET ABOVE PERMANENT DATUM
 DMF .                 KB:   DRILLING MEASURED FROM
 EKB .F              5208:   KELLING BUSHING
 EGL .F              5204:   GROUND LEVEL
 DATE.            2-23-78:   RUN DATE
 RUN .                  1:   RUN NUMBER
 DD  .F               755:   DEPTH DRILLER
 DL  .F               751:   DEPTH LOGGER
 BLI .F               745:   BOTTOM LOG INTERVAL
 TLI .F                45:   TOP LOG INTERVAL
 CS  .IN            8.625:   CASING SIZE
 CBD .F                40:   CASING BOTTOM DRILLER
 CBL .F                40:   CASING BOTTOM LOGGER
 BS  .IN            7.875:   BIT SIZE
 BSD .F               755:   BIT SIZE AT DEPTH
 DFT .         LIGNO SULF:   DRILLING FLUID TYPE
 DFD .                8.7:   DRILLING FLUID DENSITY
 DFV .                 33:   DRILLING FLUID VISCOSITY
 DFPH.                 10:   DRILLING FLUID PH
 DFL .                  4:   DRILLING FLUID LOSS
 MSS .          FLOW LINE:   MUD SAMPLE SOURCE
 RMS .OHMM              2:   RESISTIVITY MUD SAMPLE
 MST .F                60:   MUD SAMPLE TEMPERATURE
 RMF .OHMM            1.9:   RESISTIVITY MUD FILTRATE SAMPLE
 MFST.F                62:   MUD FILTRATE SAMPLE TEMPERATURE
 RMC .OHMM            3.5:   RESISTIVITY MUD CAKE
 MCST.F                60:   MUD CAKE SAMPLE TEMPERATURE
 MFSS.               MEAS:   MUD FILTRATE SAMPLE SOURCE
 MCSS.               MEAS:   MUD CAKE SAMPLE SOURCE
 RMB .OHMM           1.69:   RESISTIVITY MUD AT BHT
 BHT .F                71:   BOTTOM HOLE TEMPERATURE
 TCS .HRS               3:   TIME CURCULATED STOPPED
 MRT .F                71:   MAXIMUM RECORDED TEMPERATURE
 LUN .               2958:   LOGGING UNIT NUMBER
 LUL .               CASP:   LOGGING UNIT LOCATION
 ENGI.            POINTER:   RECORDING ENGINEER
 WITN.           MCGINLEY:   WITNESSED BY
 CLNT.            A2DTECH:   CLIENT CODE
 ORIG.       2", 5" PRINT:   ORIGIN OF DATA
 UWI .       490251058200:   UNIQUE WELL ID
 DICO. A2D Technologies, Inc.:   DIGITIZING COMPANY
~OTHER INFORMATION
~A   DEPT     CALD         GRD      RHOB       DPHI       CORR        SPR         SN        ILD   
# ...
  435.0000     8.3499    95.1657     2.4816     0.1063     0.0730   -36.8716     7.6590     6.8249
  435.5000     8.3499    95.1605     2.4700     0.1086     0.0804   -37.2053     7.6172     6.8184
  436.0000     8.3499    95.1803     2.4791     0.0958     0.0748   -37.6031     7.5757     6.7776
  436.5000     8.3499    98.1584     2.4976     0.1041     0.0506   -37.5408     7.5541     6.7517
  437.0000     8.3499   100.8052     2.4848     0.1119     0.0323   -37.4583     7.5917     6.7262
  437.5000     8.3499    98.2031     2.4600     0.1178     0.0288   -37.7257     7.6339     6.7009
  438.0000     8.3499    95.1913     2.4642     0.1217     0.0198   -38.3858     7.6769     6.6757
  438.5000     8.3499    94.4945     2.4548     0.1253     0.0127   -38.1180     7.7197     6.6508
  439.0000     8.3499    97.0014     2.4441     0.1254     0.0130   -37.8342     7.7662     6.6383
  439.5000     8.3499    99.5931     2.4473     0.1233     0.0128   -37.9781     7.5722     6.5896
  440.0000     8.3499   100.5336     2.4503     0.1325     0.0069   -38.2017     7.3678     6.5369
  440.5000     8.3499   100.5006     2.4404     0.1405     0.0010   -37.7056     7.1690     6.4846
  441.0000     8.3499    99.3500     2.4300     0.1386     0.0057   -37.1286     7.0234     6.4328
  441.5000     8.3499    98.1854     2.4199     0.1367     0.0114   -37.6244     6.9192     6.3815
  442.0000     8.3499    98.8680     2.4246     0.1352     0.0150   -38.0919     6.8165     6.3392
  442.5000     8.3499   103.7205     2.4258     0.1352     0.0148   -38.4293     6.7153     6.2873
  443.0000     8.3499   108.1578     2.4304     0.1379     0.0105   -38.4759     6.6157     6.2343
  443.5000     8.3499   109.8768     2.4316     0.1482     0.0059   -38.5277     6.5171     5.9482
  444.0000     8.3499   111.0223     2.4188     0.1584     0.0074   -38.5716     6.3172     5.6172
  444.5000     8.3499   110.7986     2.3909     0.1631     0.0141   -38.2365     6.0751     5.3196
  445.0000     8.3499   108.3624     2.3821     0.1628     0.0209   -37.3093     5.8423     5.1233
  445.5000     8.3499   108.2997     2.3820     0.1553     0.0466   -36.4064     5.6185     4.9868
  446.0000     8.3499   109.6415     2.3893     0.1269     0.0725   -37.1088     5.4032     4.9970
  446.5000     8.3499   110.8712     2.4264     0.1022     0.0774   -37.8283     5.2898     5.0137
  447.0000     8.3499   110.8876     2.4849     0.1104     0.0442   -37.2770     5.1743     5.0342
  447.5000     8.3499   111.1782     2.4773     0.1148     0.0266   -36.7811     5.1743     5.0306
  448.0000     8.3499   112.2235     2.4646     0.1181     0.0303   -37.0635     5.9603     5.4224
  448.5000     8.3521   111.7609     2.4609     0.1181     0.0329   -37.4671     6.6693     5.7071
  449.0000     8.3545   111.5139     2.4640     0.1163     0.0307   -37.8804     6.9170     6.0067
  449.5000     8.3570   111.8601     2.4640     0.1141     0.0266   -38.0335     7.1129     6.2968
  450.0000     8.3594   108.9760     2.4614     0.1126     0.0230   -38.0994     7.3144     6.5732
  450.5000     8.3618   103.7233     2.4593     0.1110     0.0239   -38.1624     7.5216     6.8882
  451.0000     8.3642    98.9143     2.4591     0.1088     0.0279   -38.2258     7.6593     6.9241
  451.5000     8.3666   102.3180     2.4690     0.1062     0.0318   -38.2897     7.7279     6.9637
  452.0000     8.3690   108.8479     2.4785     0.1035     0.0357   -38.3533     7.7972     7.0036
  452.5000     8.3714   115.5693     2.4857     0.1010     0.0367   -38.4035     7.8671     7.0436
  453.0000     8.3738   117.6976     2.4854     0.1006     0.0366   -38.3643     7.9376     7.0840
  453.5000     8.3763   113.2401     2.4853     0.1002     0.0365   -38.3263     8.0088     7.1245
  454.0000     8.3787   110.2839     2.4852     0.0998     0.0363   -38.2886     8.0806     7.1653
  454.5000     8.3811   110.6619     2.4850     0.1001     0.0362   -38.2505     8.1530     7.2063
  455.0000     8.3835   110.9961     2.4849     0.1007     0.0360   -38.2140     8.2261     7.2474
  455.5000     8.3859   110.3567     2.4848     0.1014     0.0359   -38.0930     8.2845     7.2804
  456.0000     8.3883   109.2931     2.4846     0.1020     0.0358   -37.9062     8.3767     7.2928
  456.5000     8.3891   108.5829     2.4839     0.1026     0.0356   -37.5875     8.4691     7.3052
  457.0000     8.3878   108.3337     2.4824     0.1030     0.0355   -37.0756     8.5625     7.3176
  457.5000     8.3866   108.1051     2.4807     0.0987     0.0353   -36.5628     8.5960     7.3300
  458.0000     8.3853   107.5747     2.4860     0.0954     0.0352   -36.0347     8.5960     7.3424
  458.5000     8.3841   106.0035     2.4923     0.0954     0.0350   -36.7162     8.5960     7.3549
  459.0000     8.3828   102.2777     2.4932     0.0952     0.0349   -37.5680     8.5960     7.3674
  459.5000     8.3816    99.2458     2.4968     0.0954     0.0319   -38.4105     8.5960     7.3799
  460.0000     8.3803    99.6636     2.4945     0.0990     0.0269   -38.7907     8.5960     7.3925
  460.5000     8.3791   101.0822     2.4864     0.1031     0.0221   -37.8331     8.5957     7.4050
  461.0000     8.3778   103.8460     2.4784     0.1072     0.0167   -37.1911     8.5970     7.4160
  461.5000     8.3766   106.6127     2.4712     0.1095     0.0191   -37.5798     8.5050     7.3009
  462.0000     8.3753   108.3361     2.4703     0.1105     0.0169   -37.9829     8.3808     7.1995
  462.5000     8.3741   110.7973     2.4694     0.1116     0.0149   -37.7129     8.2584     7.0995
  463.0000     8.3728   112.7080     2.4577     0.1144     0.0155   -35.9606     8.1330     7.0010
  463.5000     8.3715   110.9781     2.4476     0.1186     0.0165   -36.6127     7.9255     6.9039
  464.0000     8.3703   107.9056     2.4543     0.1204     0.0175   -37.2781     7.6614     6.7950
  464.5000     8.3659   104.8713     2.4579     0.1194     0.0184   -37.9319     7.5497     6.6280
  465.0000     8.3587   102.8318     2.4583     0.1185     0.0189   -37.7948     7.5263     6.4653
  465.5000     8.3521   105.9336     2.4588     0.1205     0.0189   -37.0339     7.5029     6.3064
  466.0000     8.2832   110.5308     2.4543     0.1255     0.0177   -38.7240     7.4847     6.1516
  466.5000     8.2458   110.2949     2.4477     0.1306     0.0143   -38.9892     7.1708     6.0006
  467.0000     8.3472   111.1971     2.4412     0.1378     0.0092   -38.8593     6.8809     5.9316
  467.5000     8.3318   112.3908     2.4344     0.1502     0.0041   -38.0679     6.6065     5.6925
  468.0000     8.3435   112.1513     2.4063     0.1627    -0.0010   -37.0010     6.2375     5.4795
  468.5000     8.3577   108.2367     2.3867     0.1751    -0.0061   -37.7373     5.7807     5.3196
  469.0000     8.3718   103.7054     2.3709     0.1896    -0.0112   -36.7946     5.3575     4.8706
  469.5000     8.3860    99.7345     2.3451     0.2070    -0.0150   -37.3471     4.9652     4.4486
  470.0000     8.4009    97.5155     2.3195     0.2311    -0.0143   -37.1577     4.5300     4.0632
  470.5000     8.4259    97.2812     2.2956     0.2466    -0.0129   -36.4815     4.1042     3.6590
  471.0000     8.4093    96.1456     2.2649     0.2607    -0.0114   -35.8138     3.7163     3.1915
  471.5000     8.3656    91.4803     2.2289     0.2799     0.0038   -35.1245     3.3419     2.7837
  472.0000     8.3381    87.4453     2.1943     0.2676     0.0530   -35.3204     2.9517     2.5361
  472.5000     8.6220    88.0450     2.2087     0.2397     0.1010   -35.7785     2.7849     2.4898
  473.0000     8.5046    95.6765     2.2600     0.2117     0.1416   -35.8210     2.8633     2.4467
  473.5000     8.6741   103.0937     2.3990     0.1838     0.1417   -35.3492     2.9469     2.4267
  474.0000     8.7778   108.3103     2.4295     0.1559     0.1001   -34.8646     2.8427     2.5383
  474.5000     8.3271   107.8803     2.4323     0.1364     0.0796   -34.8904     2.7882     2.6380
  475.0000     8.4139   108.4396     2.4064     0.1108     0.1093   -35.1337     3.3226     3.0018
