~VERSION INFORMATION
 VERS.                2.0:   CWLS LOG ASCII STANDARD - VERSION 2.0
 WRAP.                 NO:   ONE LINE PER DEPTH STEP
~WELL INFORMATION
#MNEM.UNIT      DATA TYPE    INFORMATION
#----------   ------------   ------------------------------
 STRT.F           80.0000:   START DEPTH
 STOP.F          820.0000:   STOP DEPTH
 STEP.F            0.5000:   STEP LENGTH
 NULL.          -999.2500:   NO VALUE
 COMP. U S NAVY/INTEX OIL CO:   COMPANY
 WELL.      GOVT #15-S-35:   WELL
 FLD .        EAST TEAPOT:   FIELD
 LOC .      S35 T39N R78W:   LOCATION
 CNTY.            NATRONA:   COUNTY
 STAT.            WYOMING:   STATE
 CTRY. UNITED STATES OF AMERICA:   COUNTRY
 SRVC.       Schlumberger:   SERVICE COMPANY
 DATE.        12-FEB-1961:   LOGDATE
 API .       490250654500:   API NUMBER
~CURVE INFORMATION
#MNEM.UNIT       API CODE    CURVE DESCRIPTION
#----------   ------------   ------------------------------
 DEPT.F                  :   
 SPR .MV     05 010 01 00:   SPONTANEOUS POTENTIAL FROM RES.
 ASN .OHMM   05 041 16 00:   AMPLIFIED SHORT NORMAL 16"
 ILD .OHMM   05 120 46 00:   INDUCTION LOG DEEP
 CILD.MMHO   05 110 46 00:   CONDUCTIVITY INDUCTION LOG DEEP
 GR  .GAPI   30 310 01 00:   GAMMA RAY
~PARAMETER INFORMATION
#MNEM.UNIT          VALUE    DESCRIPTION
#----------   ------------   ------------------------------
 PD  .                 GL:   PERMANENT DATUM
 EPD .F              5069:   ELEVATION PERMANENT DATUM
 LMF .                 KB:   LOG MEASURED FROM
 DAPD.F                 4:   FEET ABOVE PERMANENT DATUM
 DMF .                 KB:   DRILLING MEASURED FROM
 EKB .F              5073:   KELLING BUSHING
 EGL .F              5069:   GROUND LEVEL
 DATE.            2-12-61:   RUN DATE
 RUN .                  1:   RUN NUMBER
 DD  .F               820:   DEPTH DRILLER
 DL  .F               820:   DEPTH LOGGER
 BLI .F               819:   BOTTOM LOG INTERVAL
 TLI .F                90:   TOP LOG INTERVAL
 CBD .F                12:   CASING BOTTOM DRILLER
 BS  .IN            7.875:   BIT SIZE
 BSD .F               820:   BIT SIZE AT DEPTH
 DFT .   GEL OIL EMULSION:   DRILLING FLUID TYPE
 DFD .                9.5:   DRILLING FLUID DENSITY
 DFV .                 50:   DRILLING FLUID VISCOSITY
 DFPH.                  8:   DRILLING FLUID PH
 DFL .                  9:   DRILLING FLUID LOSS
 MSS .          FLOW LINE:   MUD SAMPLE SOURCE
 RMS .OHMM           1.04:   RESISTIVITY MUD SAMPLE
 MST .F                56:   MUD SAMPLE TEMPERATURE
 MFSS.                  C:   MUD FILTRATE SAMPLE SOURCE
 MCSS.                  C:   MUD CAKE SAMPLE SOURCE
 RMB .OHMM           2.78:   RESISTIVITY MUD AT BHT
 BHT .F                77:   BOTTOM HOLE TEMPERATURE
 TCS .HRS               1:   TIME CURCULATED STOPPED
 MRT .F                77:   MAXIMUM RECORDED TEMPERATURE
 LUN .               2523:   LOGGING UNIT NUMBER
 LUL .               CSPR:   LOGGING UNIT LOCATION
 ENGI.             KNOBEL:   RECORDING ENGINEER
 WITN.          JORGENSEN:   WITNESSED BY
 CLNT.            A2DTECH:   CLIENT CODE
 ORIG.       2", 5" PRINT:   ORIGIN OF DATA
 UWI .       490250654500:   UNIQUE WELL ID
 DICO. A2D Technologies, Inc.:   DIGITIZING COMPANY
~OTHER INFORMATION
~A   DEPT      SPR          ASN        ILD      CILD        GR   
# ...
  568.0000   -24.7927    10.2246     7.8625   125.9792  -999.2500
  568.5000   -24.7445    10.1588     7.8163   127.5456  -999.2500
  569.0000   -24.6961    10.0930     7.7702   129.1120  -999.2500
  569.5000   -24.6476    10.0465     7.7241   130.6783  -999.2500
  570.0000   -24.6067     9.8762     7.6778   132.2447  -999.2500
  570.5000   -24.6459     9.8358     7.6304   132.9681  -999.2500
  571.0000   -24.6845     9.9467     7.6017   131.9721  -999.2500
  571.5000   -24.7226    10.1790     7.5688   131.8860  -999.2500
  572.0000   -24.7606    10.2847     7.5361   131.2157  -999.2500
  572.5000   -24.7986    10.3098     7.5604   130.5454  -999.2500
  573.0000   -24.8366    10.3082     7.6363   129.8751  -999.2500
  573.5000   -24.8746    10.2766     7.7124   129.2048  -999.2500
  574.0000   -24.9125    10.2147     7.7891   128.5345  -999.2500
  574.5000   -24.9506    10.1532     7.8642   127.8642  -999.2500
  575.0000   -24.9902    10.1085     7.8928   127.1939  -999.2500
  575.5000   -24.9836    10.1103     7.7890   127.4872  -999.2500
  576.0000   -24.9611    10.1122     7.6894   128.1958  -999.2500
  576.5000   -24.9380    10.0913     7.5919   128.9044  -999.2500
  577.0000   -24.9150    10.0138     7.5474   129.6130  -999.2500
  577.5000   -24.8920     9.9323     7.6669   130.9761  -999.2500
  578.0000   -24.8690     9.8079     7.7887   133.0428  -999.2500
  578.5000   -24.8463     9.7222     7.6762   135.1096  -999.2500
  579.0000   -24.8244     9.6371     7.4697   137.1761  -999.2500
  579.5000   -24.7958     9.5354     7.2605   139.2400  -999.2500
  580.0000   -24.6367     9.4140     7.0513   141.2978  -999.2500
  580.5000   -24.4832     9.2928     6.8376   143.3513  -999.2500
  581.0000   -24.3309     9.1715     6.6231   146.6118  -999.2500
  581.5000   -24.1771     9.0449     6.4086   153.2973  -999.2500
  582.0000   -24.0190     8.8522     6.1940   159.9827  -999.2500
  582.5000   -24.0695     8.5755     5.9792   166.6681  -999.2500
  583.0000   -24.1366     8.2994     5.7656   173.3535  -999.2500
  583.5000   -24.2029     8.0267     5.5534   175.2999  -999.2500
  584.0000   -24.2688     7.8442     5.4707   174.5167  -999.2500
  584.5000   -24.3347     7.7404     5.5701   173.7335  -999.2500
  585.0000   -24.4005     7.9169     5.6695   172.9503  -999.2500
  585.5000   -24.4664     8.1556     5.8818   168.7450  -999.2500
  586.0000   -24.5323     8.3930     6.0915   163.7849  -999.2500
  586.5000   -24.5982     8.6309     6.3001   158.8247  -999.2500
  587.0000   -24.6641     8.7131     6.5091   153.8645  -999.2500
  587.5000   -24.7311     8.7606     6.7181   149.5131  -999.2500
  588.0000   -24.7989     8.8072     6.9263   147.5841  -999.2500
  588.5000   -24.7224     8.8554     7.1364   145.6552  -999.2500
  589.0000   -24.6320     8.9340     7.1775   143.7262  -999.2500
  589.5000   -24.5419     9.0108     7.1083   143.1520  -999.2500
  590.0000   -24.4520     8.9747     7.0379   143.5336  -999.2500
  590.5000   -24.3622     8.9331     6.9670   143.9243  -999.2500
  591.0000   -24.2723     8.8912     6.8969   146.2172  -999.2500
  591.5000   -24.1823     8.8390     6.8199   148.5668  -999.2500
  592.0000   -24.0923     8.7055     6.5703   150.9163  -999.2500
  592.5000   -24.0133     8.5178     6.3078   153.7649  -999.2500
  593.0000   -24.0325     8.3424     6.0458   159.2211  -999.2500
  593.5000   -24.0524     8.2010     5.7839   165.6109  -999.2500
  594.0000   -24.0718     8.0577     5.5223   177.1846  -999.2500
  594.5000   -24.0912     7.7759     5.2603   188.7583  -999.2500
  595.0000   -24.1105     7.4865     4.9934   200.3320  -999.2500
  595.5000   -24.1299     7.2476     4.8851   207.8613  -999.2500
  596.0000   -24.1492     6.8522     4.8351   211.9196  -999.2500
  596.5000   -24.1686     6.4011     4.8733   213.9688  -999.2500
  597.0000   -24.1879     6.3306     4.9119   211.9264  -999.2500
  597.5000   -24.2072     6.3961     4.9500   209.8840  -999.2500
  598.0000   -24.2266     6.6680     4.9873   207.6693  -999.2500
  598.5000   -24.2459     7.1240     5.0310   198.6029  -999.2500
  599.0000   -24.2653     7.6264     5.3153   188.6847  -999.2500
  599.5000   -24.2846     8.0364     5.6293   178.7615  -999.2500
  600.0000   -24.3040     8.2184     5.9435   168.8336    79.4589
  600.5000   -24.3233     8.4020     6.2576   158.9341    79.4589
  601.0000   -24.3426     8.5579     6.5723   151.4706    79.4589
  601.5000   -24.3620     8.6847     6.8843   150.0146    77.1653
  602.0000   -24.3813     8.8115     6.9665   148.5587    74.2611
  602.5000   -24.4008     8.9381     7.0160   147.1028    74.0380
  603.0000   -24.4384     9.0647     7.0649   145.1283    75.6180
  603.5000   -24.4851     9.1913     7.1144   143.0757    75.1113
  604.0000   -24.5319     9.3181     7.1969   141.0232    76.8827
  604.5000   -24.5787     9.4448     7.2849   138.9707    79.6678
  605.0000   -24.6254     9.5686     7.3729   136.9182    79.8253
  605.5000   -24.6723     9.6797     7.4610   134.8657    75.7144
  606.0000   -24.7194     9.7838     7.5490   132.8131    77.3073
  606.5000   -24.7654     9.8879     7.6370   130.7606    76.3536
  607.0000   -24.7874    10.0056     7.7249   129.5710    76.1581
  607.5000   -24.7049    10.1248     7.8132   128.9110    79.0532
  608.0000   -24.6245    10.1650     7.9028   128.2495    81.0872
  608.5000   -24.5445    10.2054     7.8956   128.3597    77.7752
  609.0000   -24.4642    10.2448     7.8682   128.9789    80.1740
  609.5000   -24.3840    10.2839     7.8399   129.5988    79.7084
  610.0000   -24.3039    10.2846     7.8118   130.2205    75.8160
  610.5000   -24.2237    10.2178     7.7838   130.8421    71.7376
  611.0000   -24.1435    10.1493     7.7557   130.7734    74.2841
  611.5000   -24.0634    10.0785     7.7277   129.6032    72.3308
  612.0000   -23.9857     9.8109     7.6998   128.5584    69.0160
  612.5000   -23.9130     9.6910     7.6719   127.5163    66.7311
  613.0000   -23.8403     9.5250     7.6438   126.4741    70.3052
  613.5000   -23.7673     9.3538     7.6000   127.5270    74.1385
  614.0000   -23.6933     9.1827     7.4590   130.4515    77.9205
  614.5000   -23.6210     9.0094     7.3173   133.9628    81.6339
  615.0000   -23.7408     8.8070     7.1765   137.4645    76.9881
  615.5000   -23.8771     8.5012     7.0233   142.0898    79.6446
  616.0000   -24.0130     8.2040     6.5579   149.8130    81.8382
  616.5000   -24.1489     7.8611     6.0498   166.6846    84.6505
  617.0000   -24.2852     7.4726     5.5409   185.2831    80.3960
  617.5000   -24.4024     7.0804     5.0322   203.8677    81.6145
  618.0000   -24.3147     6.5777     4.5235   237.1592    79.4649
  618.5000   -24.2272     6.0227     4.0162   277.1074    75.8942
  619.0000   -24.1408     5.4648     3.5097   317.0667    75.8445
  619.5000   -24.0547     4.9075     3.1466   357.0539    79.4130
  620.0000   -23.9685     4.3506     2.9489   397.0600    77.5704
  620.5000   -23.8824     3.9783     2.8590   434.8958    80.3354
  621.0000   -23.7962     3.6587     2.9027   455.6231    83.1739
  621.5000   -23.7100     3.6085     2.9457   466.7466    85.9977
  622.0000   -23.6238     3.5683     2.9894   477.5896    88.8432
  622.5000   -23.5378     3.5609     3.0332   471.6053    90.2951
  623.0000   -23.4504     3.7878     3.0772   434.1777    92.9370
  623.5000   -23.4485     4.1460     3.1176   390.3743    94.4354
  624.0000   -23.4947     4.5906     3.4056   346.2908    92.1815
  624.5000   -23.5415     5.1992     3.8371   302.3106    94.5326
  625.0000   -23.5885     5.8082     4.2700   258.3584    95.1982
  625.5000   -23.6539     6.4194     4.7038   228.7425    90.1253
  626.0000   -23.7494     7.0301     5.1381   202.7540    91.4536
  626.5000   -23.8444     7.3393     5.5685   176.7654    91.9661
  627.0000   -23.9402     7.4396     5.9727   162.3944    90.6613
  627.5000   -24.0362     7.5035     6.1604   158.2835    92.5408
  628.0000   -24.1213     7.5280     6.3570   155.5334    86.7545
  628.5000   -24.0512     7.5463     6.5291   155.3523    80.7663
