~VERSION INFORMATION
 VERS.                2.0:   CWLS LOG ASCII STANDARD - VERSION 2.0
 WRAP.                 NO:   ONE LINE PER DEPTH STEP
~WELL INFORMATION
#MNEM.UNIT      DATA TYPE    INFORMATION
#----------   ------------   ------------------------------
 STRT.F           19.5000:   START DEPTH
 STOP.F         1292.5000:   STOP DEPTH
 STEP.F            0.5000:   STEP LENGTH
 NULL.          -999.2500:   NO VALUE
 COMP. FENIX & SCISSON INC:   COMPANY
 WELL.  NPR-3 "SX" #74-14:   WELL
 FLD .             TEAPOT:   FIELD
 LOC .      S14 T38N R78W:   LOCATION
 CNTY.            NATRONA:   COUNTY
 STAT.            WYOMING:   STATE
 CTRY. UNITED STATES OF AMERICA:   COUNTRY
 SRVC.            Unknown:   SERVICE COMPANY
 DATE.        22-MAR-1978:   LOGDATE
 API .       490251060300:   API NUMBER
~CURVE INFORMATION
#MNEM.UNIT       API CODE    CURVE DESCRIPTION
#----------   ------------   ------------------------------
 DEPT.F                  :   
 SPR .MV     05 010 01 00:   SPONTANEOUS POTENTIAL
 SN  .OHMM   05 040 16 00:   SHORT NORMAL 16'
 ILD .OHMM   05 120 46 00:   INDUCTION LOG DEEP
 CALD.IN     45 280 60 00:   CALIPER
 GRD .GAPI   45 310 01 00:   GAMMA RAY FROM DENSITY LOG
 CORR.G/C3   45 356 01 00:   DENSITY CORRECTION
 RHOB.G/C3   45 350 01 00:   BULK DENSITY
 DPHI.DEC    45 890 12 00:   DENSITY POROSITY SANDSTONE
~PARAMETER INFORMATION
#MNEM.UNIT          VALUE    DESCRIPTION
#----------   ------------   ------------------------------
 PD  .                 GL:   PERMANENT DATUM
 EPD .F              5312:   ELEVATION PERMANENT DATUM
 LMF .                 KB:   LOG MEASURED FROM
 DMF .                 KB:   DRILLING MEASURED FROM
 EKB .F              5316:   KELLING BUSHING
 EGL .F              5312:   GROUND LEVEL
 DATE.          3-22-1978:   RUN DATE
 RUN .                  1:   RUN NUMBER
 DD  .F              1280:   DEPTH DRILLER
 DL  .F              1292:   DEPTH LOGGER
 BLI .F              1286:   BOTTOM LOG INTERVAL
 TLI .F                50:   TOP LOG INTERVAL
 CS  .IN            8.625:   CASING SIZE
 CBD .F                50:   CASING BOTTOM DRILLER
 CBL .F                50:   CASING BOTTOM LOGGER
 BS  .IN            7.875:   BIT SIZE
 BSD .F              1280:   BIT SIZE AT DEPTH
 DFT .                KCL:   DRILLING FLUID TYPE
 DFD .                8.6:   DRILLING FLUID DENSITY
 DFV .                 31:   DRILLING FLUID VISCOSITY
 DFPH.               10.5:   DRILLING FLUID PH
 DFL .               11.6:   DRILLING FLUID LOSS
 MSS .            MUD PIT:   MUD SAMPLE SOURCE
 RMS .OHMM            .38:   RESISTIVITY MUD SAMPLE
 MST .F                52:   MUD SAMPLE TEMPERATURE
 RMF .OHMM            .32:   RESISTIVITY MUD FILTRATE SAMPLE
 MFST.F                66:   MUD FILTRATE SAMPLE TEMPERATURE
 RMC .OHMM             .4:   RESISTIVITY MUD CAKE
 MCST.F                68:   MUD CAKE SAMPLE TEMPERATURE
 MFSS.           MEASURED:   MUD FILTRATE SAMPLE SOURCE
 RMB .OHMM            .24:   RESISTIVITY MUD AT BHT
 BHT .F                82:   BOTTOM HOLE TEMPERATURE
 TCS .HRS               4:   TIME CURCULATED STOPPED
 MRT .F                82:   MAXIMUM RECORDED TEMPERATURE
 LUN .               2958:   LOGGING UNIT NUMBER
 LUL .               CASP:   LOGGING UNIT LOCATION
 ENGI.            POINTER:   RECORDING ENGINEER
 WITN.           MCGINLEY:   WITNESSED BY
 CLNT.            A2DTECH:   CLIENT CODE
 ORIG.        2" 5" PRINT:   ORIGIN OF DATA
 UWI .       490251060300:   UNIQUE WELL ID
 DICO. A2D Technologies, Inc.:   DIGITIZING COMPANY
~OTHER INFORMATION
~A   DEPT      SPR         SN        ILD       CALD         GRD      CORR       RHOB       DPHI   
# ...
  910.5000   -47.5223     8.3043     8.0871     8.2279    99.5155     0.0142     2.4736     0.0939
  911.0000   -47.4306     8.4411     8.2082     8.2267   101.8296     0.0153     2.4720     0.0942
  911.5000   -47.3383     8.5801     8.3311     8.2254   105.0027     0.0184     2.4702     0.0942
  912.0000   -47.1498     8.7213     8.4559     8.2241   102.7900     0.0214     2.4699     0.0930
  912.5000   -47.7081     8.8650     8.5825     8.2229    98.7441     0.0220     2.4800     0.0887
  913.0000   -48.5409     8.9677     8.7110     8.2216    99.1975     0.0220     2.4821     0.0849
  913.5000   -49.2911     9.1321     8.8039     8.2204    99.9042     0.0223     2.4889     0.0840
  914.0000   -48.5948     9.2853     8.9653     8.2191   104.7100     0.0243     2.4873     0.0842
  914.5000   -47.7539     9.3937     9.1149     8.2179   106.1365     0.0260     2.4866     0.0840
  915.0000   -47.4218     9.4965     9.2213     8.2166   101.5122     0.0259     2.4895     0.0835
  915.5000   -47.2730     9.6005     9.3223     8.2154    91.2369     0.0259     2.4895     0.0830
  916.0000   -47.1446     9.7056     9.4242     8.2141    88.6954     0.0259     2.4896     0.0813
  916.5000   -46.7767     9.7828     9.5274     8.2128    93.4590     0.0257     2.4916     0.0790
  917.0000   -46.3847     9.8727     9.6172     8.2116    97.5415     0.0238     2.4956     0.0798
  917.5000   -45.9876     9.9634     9.7379     8.2103    94.7749     0.0218     2.4967     0.0820
  918.0000   -45.5882    10.0549     9.8600     8.2091    94.3658     0.0199     2.4906     0.0841
  918.5000   -45.5417    10.1474     9.9836     8.2078    96.7059     0.0165     2.4895     0.0863
  919.0000   -45.5681    10.2406    10.1093     8.2066    94.9571     0.0131     2.4869     0.0880
  919.5000   -45.5970    10.3346    10.1449     8.2053    93.6321     0.0116     2.4811     0.0902
  920.0000   -45.6255    10.3931    10.1808     8.2041    93.2478     0.0110     2.4752     0.0939
  920.5000   -45.6536    10.3680    10.2033     8.2028    92.5458     0.0104     2.4694     0.0978
  921.0000   -45.6820    10.3424    10.1749     8.2015    91.0123     0.0098     2.4637     0.0998
  921.5000   -45.7136    10.3168    10.1459     8.2003    90.2626     0.0092     2.4625     0.0980
  922.0000   -45.6173    10.2914    10.1170     8.1991    90.1764     0.0086     2.4643     0.0973
  922.5000   -45.4864    10.2660    10.0881     8.1988    90.0216     0.0080     2.4620     0.1014
  923.0000   -45.3489    10.2406    10.0590     8.2039    92.8115     0.0080     2.4598     0.1009
  923.5000   -45.4065    10.2153    10.0300     8.2088    95.0037     0.0080     2.4576     0.1002
  924.0000   -45.5233    10.1867     9.9259     8.2138    92.7479     0.0080     2.4580     0.0996
  924.5000   -45.6420    10.1351     9.7547     8.2187    89.9629     0.0080     2.4607     0.0990
  925.0000   -45.7608    10.0837     9.5863     8.2237    90.8273     0.0080     2.4634     0.1000
  925.5000   -45.8843    10.0332     9.4204     8.2287    96.0773     0.0080     2.4600     0.1020
  926.0000   -45.8753     9.8219     9.3017     8.2336    98.7631     0.0080     2.4562     0.1039
  926.5000   -45.8190     9.5647     9.2943     8.2386    94.2312     0.0080     2.4605     0.1024
  927.0000   -45.7592     9.5659     9.2871     8.2435    89.8570     0.0096     2.4577     0.0998
  927.5000   -45.6571     9.5537     9.2796     8.2485    89.8453     0.0114     2.4550     0.0978
  928.0000   -45.4049     9.5444     9.2721     8.2534    90.9061     0.0133     2.4643     0.0949
  928.5000   -45.1572     9.5352     9.2645     8.2576    95.4949     0.0146     2.4734     0.0915
  929.0000   -45.1170     9.5259     9.2570     8.2574    98.7904     0.0155     2.4753     0.0895
  929.5000   -45.1945     9.5166     9.2494     8.2574    99.1616     0.0164     2.4770     0.0897
  930.0000   -45.2840     9.5074     9.2419     8.2574    98.0735     0.0174     2.4788     0.0885
  930.5000   -45.3736     9.4983     9.2343     8.2574    88.9060     0.0191     2.4806     0.0856
  931.0000   -45.4620     9.4888     9.2271     8.2574    87.7413     0.0222     2.4848     0.0842
  931.5000   -45.4696     9.4803     9.2189     8.2574    90.0735     0.0253     2.4859     0.0826
  932.0000   -45.3438     9.4074     9.1810     8.2574    90.0128     0.0284     2.4892     0.0806
  932.5000   -45.4373     9.3185     9.1178     8.2574    90.9603     0.0274     2.4968     0.0837
  933.0000   -45.6320     9.2305     9.0551     8.2574    95.1210     0.0227     2.4910     0.0878
  933.5000   -45.8295     9.1435     8.9925     8.2583    99.3573     0.0180     2.4850     0.0933
  934.0000   -45.9154     9.0575     8.9305     8.2596    96.9750     0.0133     2.4791     0.0994
  934.5000   -45.9159     8.9677     8.8688     8.2610    89.8745     0.0086     2.4662     0.1042
  935.0000   -45.9150     8.9677     8.8039     8.2623    90.6659     0.0113     2.4548     0.1042
  935.5000   -45.9214     8.9677     8.7652     8.2637    95.8732     0.0152     2.4545     0.1019
  936.0000   -46.2224     8.9677     8.6936     8.2650    95.5100     0.0190     2.4548     0.0989
  936.5000   -46.5127     8.9087     8.6225     8.2663    95.7820     0.0220     2.4612     0.0959
  937.0000   -46.5176     8.8276     8.5520     8.2677    98.3135     0.0215     2.4676     0.0943
  937.5000   -46.5002     8.7472     8.4821     8.2690    97.8502     0.0211     2.4715     0.0954
  938.0000   -46.1908     8.6676     8.4126     8.2704    97.4710     0.0207     2.4704     0.0998
  938.5000   -45.9153     8.5887     8.3436     8.2717    97.6077     0.0204     2.4645     0.0972
  939.0000   -45.8001     8.5098     8.2758     8.2731    97.0892     0.0199     2.4620     0.0971
  939.5000   -45.7010     8.4715     8.2479     8.2744    95.4032     0.0184     2.4657     0.0996
  940.0000   -45.3674     8.4525     8.2393     8.2758    92.5776     0.0167     2.4636     0.1018
  940.5000   -45.3553     8.4334     8.2307     8.2771    86.7945     0.0151     2.4568     0.1012
  941.0000   -45.4090     8.4141     8.2222     8.2784    86.9160     0.0134     2.4567     0.1004
  941.5000   -45.4645     8.3949     8.2136     8.2798    92.1407     0.0123     2.4569     0.1005
  942.0000   -45.5177     8.3758     8.2051     8.2811    97.5182     0.0149     2.4571     0.1027
  942.5000   -45.5498     8.3566     8.1966     8.2825    94.2179     0.0177     2.4573     0.1005
  943.0000   -45.5806     8.3376     8.1881     8.2838    90.2134     0.0159     2.4575     0.1010
  943.5000   -45.6114     8.3156     8.1801     8.2851    93.8041     0.0130     2.4599     0.0978
  944.0000   -45.6423     8.2919     8.1551     8.2865    98.4144     0.0101     2.4643     0.0970
  944.5000   -45.6731     8.2682     8.1263     8.2878    99.6102     0.0071     2.4582     0.1041
  945.0000   -45.7042     8.2446     8.0977     8.2892    99.9575     0.0076     2.4520     0.1066
  945.5000   -45.7170     8.2211     8.0692     8.2905    99.9817     0.0113     2.4476     0.1062
  946.0000   -45.7159     8.1976     8.0409     8.2919    98.4168     0.0149     2.4541     0.1005
  946.5000   -45.7145     8.1779     7.9037     8.2932    97.2357     0.0179     2.4566     0.1022
  947.0000   -45.7270     8.0599     7.6856     8.2945    97.1043     0.0165     2.4566     0.1017
  947.5000   -46.0484     7.8742     7.4750     8.2959   100.8748     0.0152     2.4566     0.1010
  948.0000   -47.1916     7.6716     7.2524     8.2972   103.2338     0.0141     2.4565     0.1036
  948.5000   -47.7071     7.4576     7.2553     8.2986   101.1790     0.0171     2.4522     0.1062
  949.0000   -47.6607     7.4419     7.2542     8.2999    97.3111     0.0204     2.4509     0.1070
  949.5000   -47.6003     7.4249     7.2542     8.3013    90.1544     0.0238     2.4532     0.1037
  950.0000   -47.5362     7.4080     7.2542     8.3026    88.7744     0.0227     2.4567     0.1002
  950.5000   -47.4721     7.3910     7.2542     8.3040    94.9538     0.0213     2.4583     0.1009
