~VERSION INFORMATION
 VERS.                2.0:   CWLS LOG ASCII STANDARD - VERSION 2.0
 WRAP.                 NO:   ONE LINE PER DEPTH STEP
~WELL INFORMATION
#MNEM.UNIT      DATA TYPE    INFORMATION
#----------   ------------   ------------------------------
 STRT.F            0.0000:   START DEPTH
 STOP.F          962.0000:   STOP DEPTH
 STEP.F            0.5000:   STEP LENGTH
 NULL.          -999.2500:   NO VALUE
 COMP. FENIX & SCISSON INC:   COMPANY
 WELL.      NPR #3 #51-14:   WELL
 FLD .             TEAPOT:   FIELD
 LOC .      S14 T38N R78W:   LOCATION
 CNTY.            NATRONA:   COUNTY
 STAT.            WYOMING:   STATE
 CTRY. UNITED STATES OF AMERICA:   COUNTRY
 SRVC.              Welex:   SERVICE COMPANY
 DATE.        03-MAR-1977:   LOGDATE
 API .       490251029700:   API NUMBER
~CURVE INFORMATION
#MNEM.UNIT       API CODE    CURVE DESCRIPTION
#----------   ------------   ------------------------------
 DEPT.F                  :   
 SGRD.OHMM   07 220 05 00:   SHALLOW RESISTIVITY
 ILM .OHMM   07 120 44 00:   INDUCTION LOG MEDIUM
 ILD .OHMM   07 120 46 00:   INDUCTION LOG DEEP
 SPR .MV     07 010 01 00:   SPONTANEOUS POTENTIAL
 DPHI.DEC    45 890 12 00:   DENSITY POROSITY SANDSTONE
 RHOB.G/C3   45 350 01 00:   BULK DENSITY
 CORR.G/C3   45 356 01 00:   DENSITY CORRECTION
 CALD.IN     45 280 60 00:   CALIPER
 GRD .GAPI   45 310 01 00:   GAMMA RAY FROM DENSITY LOG
~PARAMETER INFORMATION
#MNEM.UNIT          VALUE    DESCRIPTION
#----------   ------------   ------------------------------
 PD  .                 GL:   PERMANENT DATUM
 EPD .F            5221.8:   ELEVATION PERMANENT DATUM
 LMF .                 GL:   LOG MEASURED FROM
 DMF .                 GL:   DRILLING MEASURED FROM
 EGL .F            5221.8:   GROUND LEVEL
 DATE.             3-3-77:   RUN DATE
 RUN .                  1:   RUN NUMBER
 DD  .F               967:   DEPTH DRILLER
 DL  .F               964:   DEPTH LOGGER
 BLI .F               962:   BOTTOM LOG INTERVAL
 TLI .F                42:   TOP LOG INTERVAL
 CS  .IN            8.625:   CASING SIZE
 CBD .F                42:   CASING BOTTOM DRILLER
 CBL .F                42:   CASING BOTTOM LOGGER
 BS  .IN            7.875:   BIT SIZE
 BSD .F               967:   BIT SIZE AT DEPTH
 DFT .           CHEM-GEL:   DRILLING FLUID TYPE
 DFD .                8.7:   DRILLING FLUID DENSITY
 DFV .                 33:   DRILLING FLUID VISCOSITY
 DFPH.                7.2:   DRILLING FLUID PH
 DFL .                 10:   DRILLING FLUID LOSS
 MSS .          FLOW LINE:   MUD SAMPLE SOURCE
 RMS .OHMM           .422:   RESISTIVITY MUD SAMPLE
 MST .F                56:   MUD SAMPLE TEMPERATURE
 RMF .OHMM           .372:   RESISTIVITY MUD FILTRATE SAMPLE
 MFST.F                56:   MUD FILTRATE SAMPLE TEMPERATURE
 RMC .OHMM           .484:   RESISTIVITY MUD CAKE
 MCST.F                56:   MUD CAKE SAMPLE TEMPERATURE
 MFSS.           MEASURED:   MUD FILTRATE SAMPLE SOURCE
 MCSS.           MEASURED:   MUD CAKE SAMPLE SOURCE
 RMB .OHMM           .284:   RESISTIVITY MUD AT BHT
 BHT .F                83:   BOTTOM HOLE TEMPERATURE
 TCS .HRS               2:   TIME CURCULATED STOPPED
 MRT .F                83:   MAXIMUM RECORDED TEMPERATURE
 LUN .               8611:   LOGGING UNIT NUMBER
 LUL .           GILLETTE:   LOGGING UNIT LOCATION
 ENGI.          D. LAWSON:   RECORDING ENGINEER
 WITN.         STUEBINGER:   WITNESSED BY
 CLNT.            A2DTECH:   CLIENT CODE
 ORIG.        2" 5" PRINT:   ORIGIN OF DATA
 UWI .       490251029700:   UNIQUE WELL ID
 DICO. A2D Technologies, Inc.:   DIGITIZING COMPANY
~OTHER INFORMATION
~A    DEPT    SGRD        ILM        ILD        SPR       DPHI       RHOB       CORR       CALD        GRD   
# ...
  620.5000    11.1086     9.1223     6.8344   -43.5526     0.1135     2.4571     0.0562     8.1713   114.7064
  621.0000    11.3149     9.1728     6.8500   -43.5348     0.1124     2.4609     0.0567     8.1727   113.2148
  621.5000    11.4364     9.2477     6.8665   -43.5800     0.1112     2.4650     0.0573     8.1741   112.8442
  622.0000    11.4653     9.1671     6.8833   -43.6233     0.1106     2.4654     0.0579     8.1755   115.2223
  622.5000    11.4942     9.0159     6.8930   -43.6666     0.1109     2.4646     0.0585     8.1770   117.2054
  623.0000    11.5278     8.8671     6.7896   -43.7098     0.1112     2.4636     0.0590     8.1784   118.0945
  623.5000    11.4619     8.7207     6.7148   -43.7531     0.1116     2.4636     0.0597     8.1798   119.0519
  624.0000    11.3147     8.5927     6.6410   -43.7963     0.1103     2.4703     0.0640     8.1812   120.4377
  624.5000    11.1003     8.7329     6.5675   -43.8396     0.1061     2.4770     0.0687     8.1827   121.9212
  625.0000    10.8102     8.8610     6.5239   -43.8828     0.1011     2.4836     0.0734     8.1841   122.3093
  625.5000    10.8432     8.9915     6.5802   -43.9260     0.0984     2.4864     0.0752     8.1855   121.1386
  626.0000    10.8970     9.1507     6.6214   -43.9693     0.0993     2.4839     0.0743     8.1869   120.2645
  626.5000    10.9510     8.9191     6.6629   -44.0125     0.1008     2.4816     0.0733     8.1884   120.2782
  627.0000    11.0054     8.5774     6.7059   -44.0558     0.1023     2.4793     0.0723     8.1898   120.2676
  627.5000    11.0600     8.1333     6.6245   -44.0990     0.1039     2.4770     0.0713     8.1912   119.7833
  628.0000    11.1121     8.2783     6.5416   -44.1423     0.1054     2.4746     0.0703     8.1926   118.4384
  628.5000    10.9734     8.5261     6.4598   -44.1855     0.1058     2.4744     0.0694     8.1941   117.9015
  629.0000    10.8430     8.7787     6.4052   -44.2287     0.1055     2.4751     0.0684     8.1955   119.7319
  629.5000    10.7136     9.0387     6.4177   -44.2720     0.1053     2.4758     0.0674     8.1966   120.6729
  630.0000    10.5867     9.2495     6.4278   -44.3152     0.1055     2.4752     0.0664     8.1924   120.2641
  630.5000    10.5164     8.9701     6.4378   -44.3585     0.1060     2.4741     0.0662     8.1881   119.3647
  631.0000    10.7713     8.7059     6.4478   -44.4017     0.1066     2.4729     0.0684     8.1839   118.4667
  631.5000    10.9099     8.4494     6.4580   -44.4450     0.1058     2.4722     0.0706     8.1797   117.5772
  632.0000    10.7543     8.2005     6.4640   -44.4882     0.1016     2.4780     0.0727     8.1755   117.0944
  632.5000    10.6184     8.0578     6.4069   -44.5315     0.0975     2.4839     0.0749     8.1713   118.1283
  633.0000    10.4845     8.1033     6.3656   -44.5747     0.0952     2.4897     0.0771     8.1671   119.1258
  633.5000    10.3526     8.1507     6.3246   -44.6178     0.0960     2.4928     0.0792     8.1628   120.1399
  634.0000    10.2223     8.3261     6.2838   -44.6613     0.0991     2.4899     0.0815     8.1586   120.0112
  634.5000    10.0937     8.5060     6.2433   -44.7036     0.1024     2.4827     0.0770     8.1544   117.4134
  635.0000    10.0447     8.7510     6.2031   -44.8226     0.1058     2.4756     0.0712     8.1502   115.3752
  635.5000    10.0444     8.6144     6.1449   -44.9854     0.1091     2.4684     0.0654     8.1460   113.9846
  636.0000    10.0444     8.4025     6.0389   -45.1494     0.1124     2.4613     0.0599     8.1418   114.8423
  636.5000    10.0443     8.1977     5.9260   -45.3134     0.1156     2.4541     0.0607     8.1376   115.7907
  637.0000    10.0436     7.9982     5.7696   -45.4772     0.1144     2.4536     0.0618     8.1334   116.6298
  637.5000    10.0466     7.8035     5.6174   -45.6411     0.1136     2.4547     0.0628     8.1291   115.3852
  638.0000     9.9276     7.6135     5.4692   -45.8050     0.1158     2.4515     0.0639     8.1249   114.0839
  638.5000     9.7928     7.4399     5.3250   -45.9689     0.1179     2.4480     0.0649     8.1207   114.7974
  639.0000     9.5785     7.2948     5.1845   -46.1330     0.1200     2.4444     0.0660     8.1165   118.6645
  639.5000     8.9869     7.1525     5.0477   -46.2964     0.1185     2.4481     0.0671     8.1123   122.4413
  640.0000     8.4315     7.0130     4.9939   -46.4637     0.1161     2.4534     0.0677     8.1081   124.6209
  640.5000     7.9084     6.8762     4.9835   -46.4189     0.1136     2.4588     0.0677     8.1039   122.2489
  641.0000     7.4213     6.7421     4.9731   -46.2831     0.1111     2.4642     0.0662     8.0997   121.9420
  641.5000     6.9567     6.5846     4.9628   -46.1441     0.1087     2.4696     0.0642     8.0954   122.7320
  642.0000     8.4421     6.7532     4.9528   -46.0056     0.1062     2.4704     0.0622     8.0912   121.7053
  642.5000    10.1345     6.9717     5.0790   -45.8672     0.1088     2.4636     0.0601     8.0870   119.3436
  643.0000     9.8425     7.1976     5.2050   -45.7288     0.1130     2.4563     0.0607     8.0828   116.9892
  643.5000     9.6062     7.4309     5.3341   -45.5902     0.1137     2.4581     0.0620     8.0784   117.0753
  644.0000     9.4207     7.6717     5.4664   -45.4510     0.1105     2.4639     0.0633     8.0779   119.4055
  644.5000     9.6658     7.9109     5.6021   -45.3226     0.1073     2.4698     0.0646     8.0784   121.9153
  645.0000     9.8621     7.8943     5.7412   -45.3575     0.1041     2.4757     0.0658     8.0790   122.2703
  645.5000     9.9313     7.8763     5.8830   -45.3969     0.1038     2.4741     0.0657     8.0795   117.1084
  646.0000     9.9962     7.8590     6.0076   -45.4354     0.1094     2.4684     0.0645     8.0801   115.5363
  646.5000    10.0616     7.8374     6.0169   -45.4739     0.1141     2.4597     0.0561     8.0807   118.0619
  647.0000    10.1371     7.9056     6.0262   -45.5123     0.1188     2.4509     0.0569     8.0813   120.1257
  647.5000    10.1111     8.0609     6.0355   -45.5508     0.1197     2.4504     0.0584     8.0818   122.1972
  648.0000    10.0812     8.2209     6.0449   -45.5892     0.1121     2.4628     0.0598     8.0824   124.3495
  648.5000    10.0451     8.3827     6.0541   -45.6277     0.1049     2.4758     0.0613     8.0829   124.0778
  649.0000    10.1580     8.5142     6.0616   -45.6661     0.1018     2.4827     0.0627     8.0835   122.6039
  649.5000    10.3250     8.3532     6.0215   -45.7049     0.0986     2.4881     0.0666     8.0841   121.1437
  650.0000    10.1855     8.2222     5.9884   -45.7170     0.0954     2.4935     0.0732     8.0847   121.9003
  650.5000    10.0263     8.0930     5.9556   -45.7174     0.0921     2.4988     0.0765     8.0852   123.0720
  651.0000     9.8696     7.9650     5.9229   -45.7170     0.0888     2.5043     0.0796     8.0858   123.5575
  651.5000     9.6822     7.8395     5.8904   -45.7183     0.0860     2.5085     0.0829     8.0864   122.6078
  652.0000     9.8263     8.0480     5.8581   -45.5871     0.0928     2.4982     0.0802     8.0869   121.6465
  652.5000    10.0445     8.2676     5.8260   -45.3696     0.0991     2.4881     0.0753     8.0875   120.6855
  653.0000     9.9789     8.4932     5.7897   -45.1504     0.1048     2.4781     0.0703     8.0881   119.7283
  653.5000     9.9009     8.7249     5.8244   -44.9306     0.1084     2.4697     0.0652     8.0886   118.7686
  654.0000     9.8617     9.0794     5.8648   -44.7111     0.1079     2.4731     0.0646     8.0892   118.7490
  654.5000    10.1684     8.9414     5.9057   -44.5201     0.1035     2.4790     0.0658     8.0898   119.6725
  655.0000    10.2306     8.6824     5.9470   -44.5563     0.0992     2.4851     0.0671     8.0903   120.5820
  655.5000    10.2407     8.4298     5.9884   -44.5878     0.0964     2.4870     0.0683     8.0909   120.4954
  656.0000    10.2676     8.1856     6.0302   -44.6189     0.0990     2.4853     0.0696     8.0915   119.4918
  656.5000    10.2947     7.9127     6.0723   -44.6498     0.0991     2.4845     0.0708     8.0920   118.4119
