~VERSION INFORMATION
 VERS.                2.0:   CWLS LOG ASCII STANDARD - VERSION 2.0
 WRAP.                 NO:   ONE LINE PER DEPTH STEP
~WELL INFORMATION
#MNEM.UNIT      DATA TYPE    INFORMATION
#----------   ------------   ------------------------------
 STRT.F           60.0000:   START DEPTH
 STOP.F          894.0000:   STOP DEPTH
 STEP.F            0.5000:   STEP LENGTH
 NULL.          -999.2500:   NO VALUE
 COMP.           U S NAVY:   COMPANY
 WELL. RES 3 TEAPOT DOM #27S-35:   WELL
 FLD .        TEAPOT DOME:   FIELD
 LOC .      S35 T39N R78W:   LOCATION
 CNTY.            NATRONA:   COUNTY
 STAT.            WYOMING:   STATE
 CTRY. UNITED STATES OF AMERICA:   COUNTRY
 SRVC. Schlumberger Well Surveying Corp:   SERVICE COMPANY
 DATE.        30-JUL-1959:   LOGDATE
 API .       490250650600:   API NUMBER
~CURVE INFORMATION
#MNEM.UNIT       API CODE    CURVE DESCRIPTION
#----------   ------------   ------------------------------
 DEPT.F                  :   
 SPS .MV     60 010 01 00:   SPONTANEOUS POTENTIAL FROM SONIC
 DT  .US/F   60 520 32 00:   INTERVAL TRANSIT TIME
~PARAMETER INFORMATION
#MNEM.UNIT          VALUE    DESCRIPTION
#----------   ------------   ------------------------------
 PD  .                 GL:   PERMANENT DATUM
 EPD .F              5101:   ELEVATION PERMANENT DATUM
 LMF .                 KB:   LOG MEASURED FROM
 DAPD.F                 4:   FEET ABOVE PERMANENT DATUM
 DMF .                 KB:   DRILLING MEASURED FROM
 EKB .F              5105:   KELLING BUSHING
 EGL .F              5101:   GROUND LEVEL
 DATE.        30-JUL-1959:   RUN DATE
 RUN .                  1:   RUN NUMBER
 DD  .F               897:   DEPTH DRILLER
 DL  .F               897:   DEPTH LOGGER
 BLI .F               894:   BOTTOM LOG INTERVAL
 TLI .F                73:   TOP LOG INTERVAL
 CBD .F                17:   CASING BOTTOM DRILLER
 BS  .IN             6.75:   BIT SIZE
 BSD .F               897:   BIT SIZE AT DEPTH
 DFT .       OIL EMULSION:   DRILLING FLUID TYPE
 DFD .                9.0:   DRILLING FLUID DENSITY
 DFV .                 55:   DRILLING FLUID VISCOSITY
 DFPH.                  9:   DRILLING FLUID PH
 DFL .                3.8:   DRILLING FLUID LOSS
 RMS .OHMM            4.0:   RESISTIVITY MUD SAMPLE
 MST .F                79:   MUD SAMPLE TEMPERATURE
 RMF .OHMM            3.6:   RESISTIVITY MUD FILTRATE SAMPLE
 MFST.F                79:   MUD FILTRATE SAMPLE TEMPERATURE
 RMB .OHMM            4.0:   RESISTIVITY MUD AT BHT
 BHT .F                79:   BOTTOM HOLE TEMPERATURE
 TCS .HRS            0100:   TIME CURCULATED STOPPED
 LUN .               2545:   LOGGING UNIT NUMBER
 LUL .                RIV:   LOGGING UNIT LOCATION
 ENGI.           STAFFORD:   RECORDING ENGINEER
 WITN.             MARTIN:   WITNESSED BY
 CLNT.            A2DTECH:   CLIENT CODE
 ORIG.       2", 5" PRINT:   ORIGIN OF DATA
 UWI .       490250650600:   UNIQUE WELL ID
 DICO. A2D Technologies, Inc.:   DIGITIZING COMPANY
~OTHER INFORMATION
~A   DEPT      SPS         DT   
# ...
  546.0000   -39.1189    88.4685
  546.5000   -39.5800    88.4681
  547.0000   -39.9818    89.0460
  547.5000   -40.1234    90.1400
  548.0000   -40.1241    89.8136
  548.5000   -40.1248    89.2595
  549.0000   -39.9844    88.9511
  549.5000   -39.9852    88.7494
  550.0000   -39.9154    89.1507
  550.5000   -39.8455    89.8827
  551.0000   -39.8464    90.6156
  551.5000   -39.6502    91.0311
  552.0000   -39.5656    91.2990
  552.5000   -39.5663    91.5066
  553.0000   -39.6488    91.6593
  553.5000   -40.1319    91.7941
  554.0000   -40.4147    91.6738
  554.5000   -40.2482    91.2973
  555.0000   -40.1340    90.8434
  555.5000   -39.9937    89.9859
  556.0000   -40.0056    88.3905
  556.5000   -40.1362    86.7459
  557.0000   -40.4189    84.2992
  557.5000   -40.5607    79.1761
  558.0000   -40.5614    81.1744
  558.5000   -40.7031    86.2626
  559.0000   -40.7039    87.5274
  559.5000   -40.7045    81.5246
  560.0000   -40.8463    80.1145
  560.5000   -40.8471    84.5026
  561.0000   -40.8477    87.4174
  561.5000   -40.8484    88.7409
  562.0000   -40.9422    89.2008
  562.5000   -40.9908    89.8033
  563.0000   -40.9916    90.1044
  563.5000   -41.0705    90.2458
  564.0000   -41.1340    90.2984
  564.5000   -41.2758    90.3689
  565.0000   -41.4034    90.4394
  565.5000   -41.5592    90.4390
  566.0000   -41.5601    90.5370
  566.5000   -41.5606    90.9429
  567.0000   -41.5614    91.8441
  567.5000   -41.3352    91.9969
  568.0000   -41.2806    91.2877
  568.5000   -41.5635    88.9288
  569.0000   -41.6352    87.8332
  569.5000   -41.7250    87.3178
  570.0000   -41.9888    87.0765
  570.5000   -42.2715    86.8900
  571.0000   -42.5543    86.7744
  571.5000   -42.3206    86.5879
  572.0000   -42.0912    86.5365
  572.5000   -41.7102    85.9786
  573.0000   -41.6323    84.5202
  573.5000   -41.2619    83.3462
  574.0000   -41.0071    82.5738
  574.5000   -40.8030    81.7552
  575.0000   -40.5853    80.5811
  575.5000   -40.5862    79.3892
  576.0000   -40.7767    78.0290
  576.5000   -41.0106    77.4872
  577.0000   -41.2384    77.5568
  577.5000   -41.6102    78.2406
  578.0000   -41.8590    78.2809
  578.5000   -42.1432    78.2399
  579.0000   -42.3220    78.1686
  579.5000   -42.7074    78.1901
  580.0000   -42.9619    78.6641
  580.5000   -43.4184    80.5461
  581.0000   -43.7428    80.6478
  581.5000   -44.0212    80.5765
  582.0000   -44.4034    80.4741
  582.5000   -44.7026    80.2120
  583.0000   -45.1100    75.7561
  583.5000   -44.5466    73.8026
  584.0000   -42.6385    72.8497
  584.5000   -40.6918    72.2115
  585.0000   -40.0354    73.0191
  585.5000   -40.0360    81.1406
  586.0000   -40.0367    80.8446
  586.5000   -39.8963    79.0223
  587.0000   -39.8970    78.1629
  587.5000   -39.8978    78.0445
  588.0000   -39.8984    77.6662
  588.5000   -39.7386    76.0944
  589.0000   -39.6178    75.9646
  589.5000   -39.4774    76.1059
  590.0000   -39.4781    80.2019
  590.5000   -39.3851    82.2134
  591.0000   -39.5214    82.5542
  591.5000   -39.9034    83.2248
  592.0000   -40.2821    84.1835
  592.5000   -40.6370    84.2257
  593.0000   -40.8929    84.2538
  593.5000   -40.9577    84.2533
  594.0000   -41.0353    83.9837
  594.5000   -40.8950    81.5813
  595.0000   -40.8956    76.0311
  595.5000   -40.7553    75.0528
  596.0000   -40.6695    79.0071
  596.5000   -40.6156    81.0167
  597.0000   -40.6164    77.8499
  597.5000   -40.5454    76.1003
  598.0000   -40.4767    79.5567
  598.5000   -40.3365    85.9508
  599.0000   -40.2802    85.8086
  599.5000   -40.1967    85.5163
  600.0000   -40.1972    85.0992
  600.5000   -40.1973    83.7446
  601.0000   -40.1974    82.4755
  601.5000   -40.4990    81.6974
  602.0000   -40.9443    80.9121
  602.5000   -41.2167    79.5712
  603.0000   -41.4669    81.9998
  603.5000   -41.6079    84.9642
  604.0000   -41.6079    85.1729
  604.5000   -41.6079    87.3422
  605.0000   -41.6079    88.2884
  605.5000   -41.6079    88.7661
  606.0000   -41.6079    89.2126
  606.5000   -41.6079    89.4373
  607.0000   -41.6079    89.4933
  607.5000   -41.6079    89.2098
  608.0000   -41.6079    88.2261
  608.5000   -41.6079    87.7215
  609.0000   -41.6079    87.6882
  609.5000   -41.6079    87.8331
  610.0000   -41.7489    89.4933
  610.5000   -41.8171    89.5843
  611.0000   -42.0572    89.4224
  611.5000   -42.9058    88.3462
  612.0000   -43.5825    87.7895
  612.5000   -43.5825    87.7215
  613.0000   -43.5294    87.9079
  613.5000   -43.4415    88.2884
  614.0000   -43.2252    88.5549
  614.5000   -43.0183    88.6428
  615.0000   -42.8773    87.7569
  615.5000   -42.6604    87.1545
  616.0000   -42.3131    87.4380
  616.5000   -42.1721    87.6013
  617.0000   -42.3131    87.7215
  617.5000   -42.4777    87.6169
  618.0000   -42.9230    87.5046
  618.5000   -43.4415    87.4380
  619.0000   -43.5825    87.3671
  619.5000   -43.4415    87.4380
  620.0000   -42.9512    87.5939
  620.5000   -42.7285    88.6428
  621.0000   -42.6845    89.2197
  621.5000   -42.9670    89.3515
  622.0000   -43.5825    89.2098
  622.5000   -43.9687    88.9298
  623.0000   -44.2877    88.2884
  623.5000   -44.2877    88.0408
  624.0000   -44.2877    87.9341
  624.5000   -44.2877    88.4057
  625.0000   -44.3616    89.3870
  625.5000   -44.8519    89.4933
  626.0000   -45.3704    89.2736
  626.5000   -46.1213    88.7115
  627.0000   -46.8696    87.9957
  627.5000   -47.6728    87.4717
  628.0000   -47.6728    87.2254
  628.5000   -47.6728    87.5602
  629.0000   -46.6855    88.2884
  629.5000   -43.5601    88.7523
  630.0000   -42.3131    88.8554
  630.5000   -42.3131    88.2884
  631.0000   -41.6878    87.9667
  631.5000   -39.6333    87.7923
  632.0000   -38.7749    87.8859
  632.5000   -38.3639    89.1672
  633.0000   -38.1497    91.1375
  633.5000   -37.9408    92.5372
  634.0000   -37.8454    93.8164
  634.5000   -37.7997    95.0156
  635.0000   -37.7997    95.8717
  635.5000   -37.8578    96.0135
  636.0000   -38.3639    95.7440
  636.5000   -39.0278    93.8873
  637.0000   -39.9362    93.1467
  637.5000   -39.6333    92.6825
  638.0000   -39.2222    92.4755
  638.5000   -38.5049    92.3281
  639.0000   -38.2987    92.2835
  639.5000   -37.9408    93.0487
  640.0000   -37.8535    96.3678
  640.5000   -37.7997    96.5096
  641.0000   -37.7997    94.1708
  641.5000   -37.7997    91.8330
  642.0000   -37.7997    90.5563
  642.5000   -37.7997    90.7690
  643.0000   -37.7997    91.4019
  643.5000   -37.7997    91.4851
  644.0000   -37.7997    91.4068
  644.5000   -37.7997    91.4823
  645.0000   -37.7997    91.8710
  645.5000   -37.9408    93.1283
  646.0000   -38.1611    94.5960
  646.5000   -38.3837    95.5057
  647.0000   -38.7870    96.2970
  647.5000   -38.9281    97.9323
  648.0000   -38.9281   100.4019
  648.5000   -39.0691   101.1871
  649.0000   -39.0691   101.1871
  649.5000   -39.0691   101.1162
  650.0000   -39.0691   100.2303
  650.5000   -39.0691    94.7624
  651.0000   -39.0691    91.9738
  651.5000   -39.2102    91.9738
  652.0000   -39.4922    92.0446
  652.5000   -39.5040    92.1758
  653.0000   -39.6333    92.5443
  653.5000   -39.6333    93.0216
  654.0000   -39.4922    92.8441
  654.5000   -39.2390    92.3281
  655.0000   -38.9281    91.6867
  655.5000   -38.9281    91.1233
  656.0000   -39.1067    90.5479
  656.5000   -39.6333    89.0874
  657.0000   -39.9563    83.3274
  657.5000   -40.4795    83.4444
  658.0000   -40.6837    86.3749
  658.5000   -40.7616    88.9900
  659.0000   -40.2794    89.9915
  659.5000   -39.4922    90.0602
  660.0000   -39.3512    90.0461
  660.5000   -39.4922    89.9185
  661.0000   -39.6333    89.7243
  661.5000   -39.6333    89.4224
  662.0000   -38.9831    89.2041
  662.5000   -38.5593    89.1135
  663.0000   -38.4181    89.2553
  663.5000   -38.4181    89.3972
  664.0000   -38.9831    89.6099
  664.5000   -39.4296    89.8227
  665.0000   -39.6893    90.1773
  665.5000   -39.5480    90.4610
  666.0000   -38.7006    90.6028
  666.5000   -37.9944    90.5268
  667.0000   -38.1356    89.9645
