~VERSION INFORMATION
 VERS.                2.0:   CWLS LOG ASCII STANDARD - VERSION 2.0
 WRAP.                 NO:   ONE LINE PER DEPTH STEP
~WELL INFORMATION
#MNEM.UNIT      DATA TYPE    INFORMATION
#----------   ------------   ------------------------------
 STRT.F           24.5000:   START DEPTH
 STOP.F          576.0000:   STOP DEPTH
 STEP.F            0.5000:   STEP LENGTH
 NULL.          -999.2500:   NO VALUE
 COMP. FENIX & SCISSON INC:   COMPANY
 WELL.    NPR-3 SX #61-15:   WELL
 FLD .             TEAPOT:   FIELD
 LOC .      S15 T38N R78W:   LOCATION
 CNTY.            NATRONA:   COUNTY
 STAT.            WYOMING:   STATE
 CTRY. UNITED STATES OF AMERICA:   COUNTRY
 SRVC.            Unknown:   SERVICE COMPANY
 DATE.        29-MAY-1978:   LOGDATE
 API .       490251062300:   API NUMBER
~CURVE INFORMATION
#MNEM.UNIT       API CODE    CURVE DESCRIPTION
#----------   ------------   ------------------------------
 DEPT.F                  :   
 GRD .GAPI   45 310 01 00:   GAMMA RAY FROM DENSITY LOG
 CALD.IN     45 280 60 00:   CALIPER FROM DENSITY LOG
 SN  .OHMM   05 040 16 00:   SHORT NORMAL 16'
 SPR .MV     05 010 01 00:   SPONTANEOUS POTENTIAL
 ILD .OHMM   05 120 46 00:   INDUCTION LOG DEEP
 RHOB.G/C3   45 350 01 00:   BULK DENSITY
 DPHI.DEC    45 890 12 00:   DENSITY POROSITY SANDSTONE
 CORR.G/C3   45 356 01 00:   DENSITY CORRECTION
~PARAMETER INFORMATION
#MNEM.UNIT          VALUE    DESCRIPTION
#----------   ------------   ------------------------------
 PD  .                 GL:   PERMANENT DATUM
 EPD .F              5221:   ELEVATION PERMANENT DATUM
 LMF .                 KB:   LOG MEASURED FROM
 DAPD.F                 4:   FEET ABOVE PERMANENT DATUM
 DMF .                 KB:   DRILLING MEASURED FROM
 EKB .F              5225:   KELLING BUSHING
 EGL .F              5221:   GROUND LEVEL
 DATE.          5-29-1978:   RUN DATE
 RUN .                  1:   RUN NUMBER
 DD  .F               565:   DEPTH DRILLER
 DL  .F               578:   DEPTH LOGGER
 BLI .F               570:   BOTTOM LOG INTERVAL
 TLI .F                40:   TOP LOG INTERVAL
 CS  .IN            8.625:   CASING SIZE
 CBD .F                40:   CASING BOTTOM DRILLER
 CBL .F                40:   CASING BOTTOM LOGGER
 BS  .IN            7.875:   BIT SIZE
 BSD .F               565:   BIT SIZE AT DEPTH
 DFT .                KCL:   DRILLING FLUID TYPE
 DFD .                8.7:   DRILLING FLUID DENSITY
 DFV .                 34:   DRILLING FLUID VISCOSITY
 DFPH.                9.5:   DRILLING FLUID PH
 DFL .               10.4:   DRILLING FLUID LOSS
 BHT .F                76:   BOTTOM HOLE TEMPERATURE
 TCS .HRS               3:   TIME CURCULATED STOPPED
 MRT .F                76:   MAXIMUM RECORDED TEMPERATURE
 LUN .               2958:   LOGGING UNIT NUMBER
 LUL .              CASP.:   LOGGING UNIT LOCATION
 ENGI.             MILLER:   RECORDING ENGINEER
 WITN.           MCGINLEY:   WITNESSED BY
 CLNT.            A2DTECH:   CLIENT CODE
 ORIG.      2" , 5" PRINT:   ORIGIN OF DATA
 UWI .       490251062300:   UNIQUE WELL ID
 DICO. A2D Technologies, Inc.:   DIGITIZING COMPANY
~OTHER INFORMATION
~A   DEPT       GRD      CALD         SN        SPR        ILD       RHOB       DPHI       CORR   
# ...
  186.5000    99.5255     8.0221     8.4218   -35.6383     8.3707     2.4878     0.1060     0.1631
  187.0000    99.3861     8.0929     8.5185   -36.1747     8.3774     2.4906     0.0944     0.1951
  187.5000    96.4705     8.1649     8.5541   -36.2059     8.3842     2.4939     0.0776     0.2272
  188.0000    95.9138     8.1746     8.5899   -36.2466     8.3909     2.5077     0.0744     0.2590
  188.5000    94.8692     8.1712     8.6259   -36.2860     8.3977     2.5288     0.0744     0.2787
  189.0000    92.9602     8.1675     8.6620   -36.3240     8.4044     2.5369     0.0720     0.2655
  189.5000    92.2137     8.1641     8.6983   -36.2811     8.4112     2.5371     0.0674     0.2523
  190.0000    90.3003     8.1606     8.7347   -35.8695     8.4178     2.5396     0.0640     0.2442
  190.5000    88.2546     8.1513     8.7712   -35.5503     8.4213     2.5461     0.0749     0.2067
  191.0000    86.1901     8.1008     8.8080   -35.5570     8.4048     2.5430     0.0836     0.1648
  191.5000    86.0911     8.0498     8.8448   -35.5576     8.3930     2.5268     0.0923     0.1227
  192.0000    88.1017     7.9990     8.8819   -35.5578     8.3811     2.5112     0.1010     0.0798
  192.5000    90.8983     7.9481     8.9190   -35.5578     8.3693     2.4957     0.1097     0.0641
  193.0000    91.1507     7.8974     8.9568   -35.5578     8.3576     2.4837     0.1152     0.0528
  193.5000    88.9899     7.8545     8.9813   -35.5578     8.3445     2.4781     0.1152     0.0403
  194.0000    86.2953     7.8399     8.9681   -35.5578     8.3453     2.4766     0.1123     0.0431
  194.5000    84.2335     7.8249     8.9576   -35.5578     8.4144     2.4780     0.1094     0.0502
  195.0000    84.2431     7.8100     8.9470   -35.5578     8.4766     2.4795     0.1068     0.0575
  195.5000    86.1686     7.7951     8.9365   -35.5578     8.5397     2.4809     0.1082     0.0655
  196.0000    89.3768     7.7745     8.9259   -35.5578     8.5788     2.4824     0.1104     0.0686
  196.5000    91.7347     7.7658     8.9154   -35.5578     8.5785     2.4838     0.0988     0.0686
  197.0000    92.3130     7.7732     8.9049   -35.5578     8.5782     2.4850     0.1048     0.0683
  197.5000    92.6016     7.7610     8.8944   -35.5578     8.5511     2.4839     0.1156     0.0538
  198.0000    90.7552     7.7146     8.8839   -35.5578     8.5246     2.4811     0.1160     0.0355
  198.5000    88.8490     7.6784     8.8734   -35.5578     8.4982     2.4782     0.1124     0.0264
  199.0000    87.8183     7.6790     8.8629   -35.5578     8.4718     2.4754     0.1103     0.0243
  199.5000    88.3956     7.6805     8.8525   -35.5578     8.4455     2.4757     0.1133     0.0250
  200.0000    91.1455     7.7064     8.8418   -35.5579     8.4193     2.4784     0.1148     0.0274
  200.5000    93.5725     7.7320     8.8309   -35.5582     8.3932     2.4811     0.1109     0.0317
  201.0000    93.6587     7.7589     8.8244   -35.5637     8.3672     2.4838     0.1041     0.0351
  201.5000    93.7910     7.8181     8.8102   -35.2821     8.3447     2.4889     0.0972     0.0386
  202.0000    93.7638     7.8544     8.8998   -34.9062     8.5101     2.4976     0.0909     0.0422
  202.5000    93.4218     7.8410     9.1223   -34.5257     8.6685     2.5073     0.0876     0.0457
  203.0000    93.0762     7.8285     9.2724   -34.3378     8.8330     2.5118     0.0894     0.0492
  203.5000    92.0380     7.8237     9.4250   -34.2876     9.0004     2.5120     0.0924     0.0527
  204.0000    89.4501     7.8503     9.5802   -34.2401     9.1709     2.5107     0.0954     0.0561
  204.5000    87.0793     7.8583     9.7379   -34.1863     9.3446     2.5078     0.0968     0.0586
  205.0000    86.6116     7.8663     9.8981   -33.8425     9.5215     2.5049     0.0934     0.0625
  205.5000    86.2645     7.8775    10.0611   -33.0471     9.7019     2.5031     0.0862     0.0708
  206.0000    85.4778     7.8388    10.2267   -32.7728     9.8856     2.5130     0.0814     0.0823
  206.5000    83.3237     7.7755    10.3950   -32.6835    10.0728     2.5238     0.0808     0.0837
  207.0000    83.4650     7.6463    10.5661   -32.2877    10.2636     2.5291     0.0835     0.0786
  207.5000    83.7468     7.5198    10.7400   -31.9024    10.4580     2.5256     0.0844     0.0734
  208.0000    83.2100     7.4162    10.9168   -31.5178    10.6561     2.5213     0.0851     0.0686
  208.5000    82.7904     7.4571    11.0964   -31.1715    10.9974     2.5173     0.0884     0.0685
  209.0000    84.3205     7.6220    11.2791   -31.2452    11.5678     2.5154     0.0910     0.0689
  209.5000    84.1848     7.7919    11.5152   -31.3119    12.2325     2.5131     0.0947     0.0740
  210.0000    74.8669     7.9616    11.4245   -31.3771    12.9783     2.5050     0.1008     0.0805
  210.5000    66.9795     8.1376    11.2565   -31.4423    13.2193     2.4969     0.1077     0.1070
  211.0000    66.9641     8.1778    11.0909   -31.5086    13.1704     2.4888     0.1184     0.1363
  211.5000    71.7583     8.1990    10.9282   -31.5708    13.0831     2.4807     0.1178     0.1658
  212.0000    75.9680     8.1971    10.7956   -31.4657    12.9964     2.4748     0.1027     0.1989
  212.5000    79.7601     8.2021    10.7969   -31.1973    12.9102     2.4743     0.0724     0.2480
  213.0000    81.5480     8.2194    10.7670   -30.4719    12.8247     2.5016     0.0724     0.2928
  213.5000    82.6607     8.2162    10.7300   -30.2213    12.7417     2.5300     0.0732     0.2924
  214.0000    82.9169     8.0684    10.6930   -30.1377    12.2609     2.5334     0.0862     0.2427
  214.5000    83.0459     7.9125    10.6562   -30.0890    11.7031     2.5269     0.1031     0.1908
  215.0000    79.7071     7.7575    10.6195   -30.0403    11.1708     2.5033     0.1200     0.1379
  215.5000    75.3893     7.6043    10.4986   -29.9912    10.6626     2.4779     0.1368     0.1030
  216.0000    74.6700     7.4720    10.5037   -29.9420    10.1776     2.4526     0.1451     0.0706
  216.5000    72.9863     7.3924    10.4419   -29.8930     9.8478     2.4270     0.1461     0.0606
  217.0000    72.2026     7.3293    10.3744   -29.8441     9.7515     2.4230     0.1330     0.0650
  217.5000    71.9345     7.3008    10.3067   -29.7984     9.7625     2.4317     0.1240     0.0695
  218.0000    75.2360     7.2716    10.2396   -29.5067     9.6716     2.4491     0.1228     0.0740
  218.5000    79.8576     7.2428    10.1729   -29.1306     9.6704     2.4531     0.1389     0.0700
  219.0000    79.0984     7.2266    10.1067   -28.7497     9.6631     2.4475     0.1337     0.0567
  219.5000    78.7467     7.2548    10.0408   -28.5840     9.7623     2.4417     0.1264     0.0543
  220.0000    78.8973     7.2867     9.9754   -28.7617     9.9402     2.4393     0.1269     0.0679
  220.5000    78.6921     7.4092     9.9105   -28.9904    10.2566     2.4522     0.1276     0.0725
  221.0000    76.4926     7.5662     9.8459   -29.2203    10.4884     2.4520     0.1280     0.0725
  221.5000    74.2080     7.7397     9.7818   -29.4495    10.7254     2.4519     0.1275     0.0721
  222.0000    72.8919     7.9134     9.6927   -29.6786    10.9678     2.4515     0.1264     0.0918
  222.5000    71.9271     8.0877     9.5891   -29.9077    11.2157     2.4511     0.1304     0.1229
  223.0000    75.1063     8.2565     9.4867   -30.1371    11.3052     2.4507     0.1344     0.1500
  223.5000    78.3356     8.2986     9.3853   -30.3669    11.2465     2.4502     0.1226     0.1767
  224.0000    79.7858     8.2974     9.2850   -30.5755    11.0243     2.4489     0.0989     0.2081
  224.5000    79.4177     8.2980     9.2335   -30.5788    10.8065     2.4655     0.0816     0.2675
  225.0000    78.7810     8.2434     9.2335   -30.5779    10.5930     2.4909     0.0987     0.2803
  225.5000    78.5251     8.1169     9.1889   -30.5777    10.3838     2.5088     0.1124     0.2369
  226.0000    78.2905     7.9745     9.1257   -30.5777    10.1786     2.4931     0.1148     0.1635
  226.5000    78.0548     7.8322     9.0629   -30.5777     9.9775     2.4721     0.1136     0.1368
