~VERSION INFORMATION
 VERS.                2.0:   CWLS LOG ASCII STANDARD - VERSION 2.0
 WRAP.                 NO:   ONE LINE PER DEPTH STEP
~WELL INFORMATION
#MNEM.UNIT      DATA TYPE    INFORMATION
#----------   ------------   ------------------------------
 STRT.F            0.0000:   START DEPTH
 STOP.F          814.0000:   STOP DEPTH
 STEP.F            0.5000:   STEP LENGTH
 NULL.          -999.2500:   NO VALUE
 COMP.   FLUOR DANIEL INC:   COMPANY
 WELL. NAVAL PETROLEUM RESERVE 3 SHX- #1-34:   WELL
 FLD .          N.P.R. #3:   FIELD
 LOC .      S34 T39N R78W:   LOCATION
 CNTY.            NATRONA:   COUNTY
 STAT.            WYOMING:   STATE
 CTRY. UNITED STATES OF AMERICA:   COUNTRY
 SRVC.      Western Atlas:   SERVICE COMPANY
 DATE.        24-JAN-1995:   LOGDATE
 API .       490252269400:   API NUMBER
~CURVE INFORMATION
#MNEM.UNIT       API CODE    CURVE DESCRIPTION
#----------   ------------   ------------------------------
 DEPT.F                  :   
 GRR .GAPI   07 310 01 00:   GAMMA RAY FROM RES. LOG.
 RILD.OHMM   07 120 46 00:   INDUCTION LOG DEEP RESISTIVITY
 RILM.OHMM   07 120 44 00:   INDUCTION LOG MEDIUM RESISTIVITY
~PARAMETER INFORMATION
#MNEM.UNIT          VALUE    DESCRIPTION
#----------   ------------   ------------------------------
 PD  .                 GL:   PERMANENT DATUM
 EPD .F              5089:   ELEVATION PERMANENT DATUM
 LMF .                 KB:   LOG MEASURED FROM
 DAPD.F                10:   FEET ABOVE PERMANENT DATUM
 DMF .                 KB:   DRILLING MEASURED FROM
 EKB .F              5099:   KELLING BUSHING
 EDF .F              5098:   DRILLING FLOOR
 EGL .F              5089:   GROUND LEVEL
 DATE.        24-JAN-1995:   RUN DATE
 RUN .                  1:   RUN NUMBER
 DD  .F               826:   DEPTH DRILLER
 DL  .F               824:   DEPTH LOGGER
 BLI .F               817:   BOTTOM LOG INTERVAL
 CS  .IN            9.625:   CASING SIZE
 CBD .F                95:   CASING BOTTOM DRILLER
 CBL .F                94:   CASING BOTTOM LOGGER
 BS  .IN             8.75:   BIT SIZE
 BSD .F               826:   BIT SIZE AT DEPTH
 DFT .                AIR:   DRILLING FLUID TYPE
 MRT .F                90:   MAXIMUM RECORDED TEMPERATURE
 LUN .            HL 6321:   LOGGING UNIT NUMBER
 LUL .         FT. MORGAN:   LOGGING UNIT LOCATION
 ENGI.  MARSHALL BENFIELD:   RECORDING ENGINEER
 WITN.        GARY STRONG:   WITNESSED BY
 CLNT.            A2DTECH:   CLIENT CODE
 ORIG.           5" PRINT:   ORIGIN OF DATA
 UWI .       490252269400:   UNIQUE WELL ID
 DICO. A2D Technologies, Inc.:   DIGITIZING COMPANY
~OTHER INFORMATION
~A    DEPT      GRR      RILD       RILM   
# ...
   91.0000    73.7871  -999.2500  -999.2500
   91.5000    71.1055  -999.2500  -999.2500
   92.0000    70.7037  -999.2500  -999.2500
   92.5000    76.0007  -999.2500  -999.2500
   93.0000    85.7010  -999.2500  -999.2500
   93.5000    96.9270  -999.2500  -999.2500
   94.0000   108.4399   252.5422    44.6763
   94.5000   111.5614     6.7899     3.7386
   95.0000   112.8898     2.2630     2.5964
   95.5000   113.2262     2.0420     2.5254
   96.0000   112.2510     2.7079     2.7456
   96.5000   111.6629     3.6536     3.3941
   97.0000   112.0251     4.9295     3.5218
   97.5000   113.7872     5.4367     3.5545
   98.0000   115.7737     3.8088     3.3851
   98.5000   119.2175     3.1815     3.2111
   99.0000   122.2092     3.1815     3.1927
   99.5000   120.9479     3.1815     3.1815
  100.0000   118.3003     3.1815     3.6108
  100.5000   115.5481     3.2111     3.9741
  101.0000   113.8604     3.4380     3.9991
  101.5000   112.1772     3.7305     4.0243
  102.0000   109.9875     4.0480     4.0547
  102.5000   105.3166     4.3960     4.1107
  103.0000   107.2767     4.3308     4.1674
  103.5000   111.2065     4.2502     4.2250
  104.0000   112.2148     4.2365     4.2833
  104.5000   115.2496     4.2789     4.3556
  105.0000   118.2387     4.3295     4.3556
  105.5000   121.1776     4.3556     4.3556
  106.0000   122.1115     4.1826     4.3556
  106.5000   119.7885     4.0739     4.2718
  107.0000   118.8970     4.0292     4.2120
  107.5000   118.5842     3.9848     4.1648
  108.0000   115.3109     3.8627     3.8799
  108.5000   112.6010     3.5556     3.4868
  109.0000   114.2580     3.2697     3.1298
  109.5000   116.0407     3.0068     2.8101
  110.0000   115.6139     2.7651     2.5230
  110.5000   114.0994     2.6448     2.4114
  111.0000   116.6089     2.5964     2.4114
  111.5000   119.9244     2.5964     2.4114
  112.0000   118.9117     2.6568     2.5226
  112.5000   114.9722     2.8510     2.6858
  113.0000   111.6884     3.0593     2.8596
  113.5000   109.1127     3.2829     3.0771
  114.0000   106.5521     3.5216     3.3216
  114.5000   103.9693     3.6927     3.5863
  115.0000   103.2105     3.8703     3.7907
  115.5000   103.8338     4.0453     3.8500
  116.0000   106.6690     4.0278     3.9347
  116.5000   106.8082     4.0075     3.8893
  117.0000   105.0405     3.9874     3.8573
  117.5000   103.2650     3.9674     3.8262
  118.0000   102.0751     3.9474     3.7948
  118.5000   103.2162     3.8985     3.7642
  119.0000   105.3128     3.7599     3.6772
  119.5000   110.0411     3.5872     3.5994
  120.0000   117.9394     3.4224     3.4599
  120.5000   116.8901     3.2709     3.2408
  121.0000   115.2441     3.0502     3.0355
  121.5000   112.1154     2.8380     2.8427
  122.0000   110.2183     2.6413     2.6640
  122.5000   111.6856     2.5692     2.5496
  123.0000   112.7449     2.5329     2.4548
  123.5000   113.2317     2.5022     2.3893
  124.0000   111.0308     2.6090     2.6052
  124.5000   108.6436     2.7248     2.8101
  125.0000   102.4779     2.8477     3.0311
  125.5000    99.3462     3.1050     3.2694
  126.0000    99.1013     3.3856     3.5265
  126.5000   103.9156     3.6918     3.8038
  127.0000   109.1180     4.0235     4.1029
  127.5000   113.4615     4.3612     4.3960
  128.0000   112.8996     4.5410     4.5831
  128.5000   110.4574     4.6127     4.6556
  129.0000   108.2937     4.6897     4.7332
  129.5000   109.1391     4.6241     4.6670
  130.0000   112.8820     4.5379     4.5800
  130.5000   115.6714     4.4534     4.4947
  131.0000   113.0256     4.3704     4.4126
  131.5000   108.9599     4.1451     4.1859
  132.0000   108.8719     3.8620     3.8241
  132.5000   116.8306     3.5523     3.3760
  133.0000   118.0842     3.2664     3.0106
  133.5000   118.1678     2.9833     2.8271
  134.0000   120.4376     2.8557     2.6830
  134.5000   124.3739     2.8215     2.6205
  135.0000   127.5100     2.8215     2.6857
  135.5000   127.0923     2.8748     2.7755
  136.0000   122.4655     3.0233     2.8684
  136.5000   116.5092     3.1795     2.9644
  137.0000   110.2585     3.3515     3.1295
  137.5000   108.3887     3.5377     3.3819
  138.0000   111.7282     3.7343     3.6548
  138.5000   116.2027     3.9418     3.9496
  139.0000   119.8471     4.0836     4.1207
  139.5000   118.2064     4.1104     4.1048
  140.0000   116.3379     4.1412     4.0873
  140.5000   116.4907     4.1720     4.0698
  141.0000   116.7576     4.1981     4.0525
  141.5000   115.4600     4.1438     4.0453
  142.0000   114.1277     4.0521     3.9228
  142.5000   113.4751     3.9628     3.8168
  143.0000   112.8520     3.8755     3.7151
  143.5000   112.4793     3.6890     3.6208
  144.0000   112.9609     3.4948     3.3972
  144.5000   114.1374     3.3109     3.1999
  145.0000   114.3779     3.1233     3.0140
  145.5000   112.0782     3.0423     2.8389
  146.0000   109.6389     2.9716     2.7444
  146.5000   110.5688     2.9277     2.8275
  147.0000   112.2375     2.9390     2.9558
  147.5000   112.9805     2.9489     2.9543
  148.0000   108.9643     2.9556     2.9650
  148.5000   106.0405     2.7950     2.8957
  149.0000   103.5517     2.7962     2.8240
  149.5000   101.0850     2.7175     2.7541
  150.0000   100.7968     2.6693     2.6941
  150.5000   102.3270     2.5617     2.5806
  151.0000   106.7977     2.4475     2.4606
  151.5000   112.1708     2.3382     2.3460
  152.0000   117.5454     2.2344     2.2366
  152.5000   120.9985     2.1593     2.1326
  153.0000   120.0392     2.1566     2.0232
  153.5000   118.9974     2.2331     2.1166
  154.0000   119.6630     2.3533     2.3128
  154.5000   121.3412     2.4800     2.5280
  155.0000   118.3197     2.6135     2.7634
  155.5000   115.0109     2.7670     2.9960
  156.0000   111.7022     2.9724     3.1705
  156.5000   110.1984     3.1925     3.3551
  157.0000   110.8937     3.4306     3.5218
  157.5000   114.0236     3.6544     3.5240
  158.0000   117.2197     3.6544     3.4439
  158.5000   117.2000     3.5875     3.3144
  159.0000   114.0835     3.3904     3.1902
  159.5000   112.2658     3.1852     3.0709
  160.0000   113.3254     2.9925     2.9115
  160.5000   115.7074     2.8114     2.7440
  161.0000   118.1011     2.6413     2.5861
  161.5000   120.4806     2.4814     2.4373
  162.0000   121.4958     2.3313     2.2969
  162.5000   120.9229     2.1902     2.1643
  163.0000   122.1025     2.0801     1.9860
  163.5000   126.3390     2.0610     1.9862
  164.0000   130.8633     2.1565     2.1069
  164.5000   133.1606     2.2632     2.3335
  165.0000   127.3625     2.3737     2.5844
  165.5000   121.9516     2.4792     2.8624
  166.0000   116.5573     2.7645     3.1702
  166.5000   113.1739     3.1038     3.5111
  167.0000   111.3614     3.4847     3.8888
  167.5000   109.7065     3.9124     4.0495
  168.0000   109.9953     4.2297     4.1501
  168.5000   110.3733     4.4893     4.2533
  169.0000   109.6257     4.5615     4.3590
  169.5000   108.4550     4.5902     4.4673
  170.0000   107.2690     4.6302     4.5793
  170.5000   106.0496     4.7332     4.6747
  171.0000   106.5102     4.8679     4.8220
  171.5000   111.1808     5.0379     4.9726
  172.0000   116.3120     5.2138     5.1279
  172.5000   121.4530     5.3958     5.2881
  173.0000   124.1136     5.6425     5.4532
  173.5000   122.7777     5.6926     5.5894
  174.0000   121.1138     5.7063     5.5894
  174.5000   119.4371     5.7227     5.6938
  175.0000   118.3199     5.7387     5.7465
  175.5000   117.4659     5.7465     5.6413
  176.0000   116.8792     5.7221     5.6413
  176.5000   117.5105     5.7037     5.6320
  177.0000   118.4432     5.6854     5.6200
  177.5000   117.0203     5.6671     5.6081
  178.0000   114.7676     5.6489     5.5961
  178.5000   114.2693     5.6307     5.5842
  179.0000   117.0724     5.6126     5.5723
  179.5000   120.5977     5.5946     5.5604
  180.0000   124.1548     5.5766     5.5485
  180.5000   127.3997     5.5586     5.5367
  181.0000   124.9208     5.5408     5.5249
  181.5000   121.0691     5.5229     5.5131
