~VERSION INFORMATION
 VERS.                2.0:   CWLS LOG ASCII STANDARD - VERSION 2.0
 WRAP.                 NO:   ONE LINE PER DEPTH STEP
~WELL INFORMATION
#MNEM.UNIT      DATA TYPE    INFORMATION
#----------   ------------   ------------------------------
 STRT.F            0.0000:   START DEPTH
 STOP.F          652.0000:   STOP DEPTH
 STEP.F            0.5000:   STEP LENGTH
 NULL.          -999.2500:   NO VALUE
 COMP. US DEPTMNT OF ENRGY:   COMPANY
 WELL. NPR ##3 14-14-SX-11:   WELL
 FLD .   TEAPOT NAVAL RES:   FIELD
 LOC .      S11 T38N R78W:   LOCATION
 CNTY.            NATRONA:   COUNTY
 STAT.            WYOMING:   STATE
 CTRY. UNITED STATES OF AMERICA:   COUNTRY
 SRVC.            Unknown:   SERVICE COMPANY
 DATE.        03-JAN-1985:   LOGDATE
 API .       490251102400:   API NUMBER
~CURVE INFORMATION
#MNEM.UNIT       API CODE    CURVE DESCRIPTION
#----------   ------------   ------------------------------
 DEPT.F                  :   
 CALD.IN     45 280 60 00:   CALIPER
 CORR.G/C3   45 356 01 00:   DENSITY CORRECTION
 PORD.DEC    45 890 12 00:   DENSITY POROSITY SANDSTONE
 CNC .DEC    42 890 03 00:   NEUTRON POROSITY SANDSTONE
 SPR .MV     11 010 01 00:   SPONTANEOUS POTENTIAL FROM RES.
 GRR .GAPI   11 310 01 00:   GAMMA RAY FROM RES.
 RS  .OHMM   11 220 09 00:   RESISTIVITY SHALLOW
 RD  .OHMM   11 220 10 00:   RESISTIVITY DEEP
 DEN .G/C3   45 350 01 00:   COMPENSATED BULK DENSTIY
~PARAMETER INFORMATION
#MNEM.UNIT          VALUE    DESCRIPTION
#----------   ------------   ------------------------------
 PD  .                 GL:   PERMANENT DATUM
 EPD .F            5197.3:   ELEVATION PERMANENT DATUM
 LMF .                 KB:   LOG MEASURED FROM
 DMF .                 KB:   DRILLING MEASURED FROM
 EKB .F            5197.3:   KELLING BUSHING
 EGL .F            5197.3:   GROUND LEVEL
 DATE.         3-JAN-1985:   RUN DATE
 RUN .                  1:   RUN NUMBER
 DD  .F               650:   DEPTH DRILLER
 DL  .F               653:   DEPTH LOGGER
 BLI .F               651:   BOTTOM LOG INTERVAL
 CS  .IN            8.625:   CASING SIZE
 CBD .F                20:   CASING BOTTOM DRILLER
 CBL .F                20:   CASING BOTTOM LOGGER
 BS  .IN             6.25:   BIT SIZE
 BSD .F               650:   BIT SIZE AT DEPTH
 DFT .                KCL:   DRILLING FLUID TYPE
 RMS .OHMM            .12:   RESISTIVITY MUD SAMPLE
 MST .F                70:   MUD SAMPLE TEMPERATURE
 RMF .OHMM            .09:   RESISTIVITY MUD FILTRATE SAMPLE
 MFST.F                70:   MUD FILTRATE SAMPLE TEMPERATURE
 RMC .OHMM            .15:   RESISTIVITY MUD CAKE
 MCST.F                70:   MUD CAKE SAMPLE TEMPERATURE
 MFSS.               CALC:   MUD FILTRATE SAMPLE SOURCE
 MCSS.               CALC:   MUD CAKE SAMPLE SOURCE
 RMB .OHMM             .1:   RESISTIVITY MUD AT BHT
 BHT .F                80:   BOTTOM HOLE TEMPERATURE
 TCS .HRS               3:   TIME CURCULATED STOPPED
 MRT .F                80:   MAXIMUM RECORDED TEMPERATURE
 LUN .               6274:   LOGGING UNIT NUMBER
 LUL .               GLTE:   LOGGING UNIT LOCATION
 ENGI.               MACK:   RECORDING ENGINEER
 WITN.               PAGE:   WITNESSED BY
 CLNT.            A2DTECH:   CLIENT CODE
 ORIG.       2", 5" PRINT:   ORIGIN OF DATA
 UWI .       490251102400:   UNIQUE WELL ID
 DICO. A2D Technologies, Inc.:   DIGITIZING COMPANY
~OTHER INFORMATION
~A    DEPT    CALD       CORR       PORD        CNC        SPR         GRR        RS         RD        DEN   
# ...
  438.0000     6.3347     0.0381     0.1788     0.2433   -30.8842    84.1622    17.6753    22.1347     2.3702
  438.5000     6.3347     0.0280     0.1836     0.2429   -30.8983    81.1119    17.7962    22.3801     2.3623
  439.0000     6.3347     0.0180     0.1891     0.2513   -30.9125    78.3952    17.9190    22.6288     2.3545
  439.5000     6.3347     0.0082     0.1936     0.2592   -30.9267    78.3730    18.0423    22.8797     2.3501
  440.0000     6.3347     0.0133     0.1932     0.2648   -30.9402    82.4132    18.1664    23.1778     2.3532
  440.5000     6.3347     0.0371     0.1892     0.2641   -30.9517    86.2851    18.2385    22.9978     2.3601
  441.0000     6.3343     0.0353     0.1874     0.2574   -30.9869    86.1970    18.0007    22.7809     2.3619
  441.5000     6.3211     0.0207     0.1881     0.2508   -31.4831    84.7975    17.8343    22.5643     2.3604
  442.0000     6.2969     0.0095     0.1894     0.2442   -31.9882    83.9451    17.6698    22.3503     2.3603
  442.5000     6.3380     0.0219     0.1872     0.2413   -32.4110    88.0702    17.5070    22.1383     2.3652
  443.0000     6.3732     0.0341     0.1835     0.2472   -32.5506    92.7095    17.3457    21.9284     2.3699
  443.5000     6.3470     0.0427     0.1807     0.2551   -32.6926    91.1644    17.1808    21.7303     2.3746
  444.0000     6.3370     0.0244     0.1804     0.2624   -32.7785    86.9570    17.0116    21.4921     2.3720
  444.5000     6.3408     0.0016     0.1824     0.2632   -32.8988    82.8188    16.8427    21.2672     2.3686
  445.0000     6.3449     0.0080     0.1831     0.2624   -33.0206    82.7223    16.6970    21.0447     2.3685
  445.5000     6.3490     0.0161     0.1845     0.2564   -33.1413    82.6942    16.5608    20.8245     2.3659
  446.0000     6.3531     0.0241     0.1861     0.2503   -33.2615    81.8720    16.4259    20.6607     2.3639
  446.5000     6.3547     0.0305     0.1868     0.2469   -33.3797    81.2340    16.2408    20.5241     2.3660
  447.0000     6.3547     0.0278     0.1839     0.2488   -33.5311    83.1074    15.9219    20.3890     2.3710
  447.5000     6.3547     0.0245     0.1798     0.2509   -33.6788    84.9842    15.6091    20.2545     2.3761
  448.0000     6.3547     0.0391     0.1748     0.2544   -33.8259    86.2071    15.3031    19.7840     2.3858
  448.5000     6.3547     0.0565     0.1699     0.2576   -33.9729    85.8450    15.0264    18.9768     2.3954
  449.0000     6.3547     0.0623     0.1653     0.2548   -34.1199    85.1268    14.8547    18.5780     2.4006
  449.5000     6.3547     0.0407     0.1644     0.2522   -34.2670    84.3698    14.6961    18.6033     2.3984
  450.0000     6.3547     0.0234     0.1658     0.2496   -34.4141    86.1706    14.6180    18.6202     2.3961
  450.5000     6.3547     0.0053     0.1689     0.2481   -34.5608    88.2312    14.6665    18.6373     2.3939
  451.0000     6.3547     0.0037     0.1682     0.2497   -34.7083    86.9921    14.6994    18.6543     2.3953
  451.5000     6.3547     0.0156     0.1666     0.2479   -34.8097    83.7670    14.7325    18.6713     2.3970
  452.0000     6.3547     0.0269     0.1686     0.2453   -34.8743    82.0573    14.7523    18.6884     2.3944
  452.5000     6.3547     0.0365     0.1726     0.2511   -34.9377    84.6239    14.7073    18.7056     2.3885
  453.0000     6.3547     0.0351     0.1741     0.2576   -35.0010    85.1142    14.6725    18.7234     2.3852
  453.5000     6.3547     0.0338     0.1716     0.2557   -35.0642    83.9070    14.6404    18.7397     2.3865
  454.0000     6.3547     0.0325     0.1690     0.2536   -35.1262    82.4327    14.5070    18.7526     2.3905
  454.5000     6.3547     0.0312     0.1665     0.2560   -35.1874    83.6674    14.2287    18.3173     2.3951
  455.0000     6.3547     0.0282     0.1640     0.2578   -35.4322    84.7210    13.9543    17.9626     2.3998
  455.5000     6.3547     0.0184     0.1615     0.2564   -35.6870    84.4625    13.6856    17.6144     2.4044
  456.0000     6.3547     0.0092     0.1605     0.2430   -35.9409    84.2252    13.4222    17.2731     2.4083
  456.5000     6.3547     0.0069     0.1617     0.2309   -36.1944    83.9903    13.2792    16.9385     2.4077
  457.0000     6.3547     0.0229     0.1663     0.2335   -36.4482    83.7715    13.2067    16.6322     2.4021
  457.5000     6.3547     0.0362     0.1666     0.2368   -36.7022    83.4335    13.2084    16.7986     2.3965
  458.0000     6.3547     0.0325     0.1623     0.2401   -36.9515    85.4796    13.2084    16.9561     2.3972
  458.5000     6.3546     0.0290     0.1563     0.2387   -37.0815    90.4220    13.1640    17.0902     2.4078
  459.0000     6.3540     0.0264     0.1527     0.2384   -37.1918    94.7350    13.0175    16.9501     2.4185
  459.5000     6.3533     0.0315     0.1502     0.2389   -37.3023    96.7498    12.8725    16.6306     2.4236
  460.0000     6.3526     0.0367     0.1456     0.2371   -37.4130    95.5101    12.7292    16.4277     2.4280
  460.5000     6.3520     0.0420     0.1413     0.2365   -37.5236    92.8515    12.5875    16.1785     2.4355
  461.0000     6.3513     0.0473     0.1374     0.2414   -37.6343    92.0676    12.4976    16.2260     2.4430
  461.5000     6.3507     0.0521     0.1366     0.2459   -37.7449    92.9854    12.6196    16.2892     2.4441
  462.0000     6.3500     0.0502     0.1441     0.2501   -37.8555    92.3962    12.7108    16.3934     2.4376
  462.5000     6.3493     0.0415     0.1530     0.2504   -37.9663    87.7322    12.8024    16.5642     2.4253
  463.0000     6.3487     0.0331     0.1577     0.2504   -38.0772    85.9090    12.8948    16.7370     2.4138
  463.5000     6.3480     0.0248     0.1575     0.2441   -38.1803    85.5120    13.0254    16.9096     2.4136
  464.0000     6.3474     0.0348     0.1456     0.2372   -38.2572    85.0580    13.2923    17.2057     2.4269
  464.5000     6.3467     0.0463     0.1298     0.2298   -38.3435    82.7085    13.5647    17.5300     2.4514
  465.0000     6.3460     0.0581     0.1131     0.2281   -38.4305    80.2835    13.8426    17.8591     2.4761
  465.5000     6.3454     0.0527     0.1115     0.2288   -38.5175    79.4154    14.2230    18.1274     2.4858
  466.0000     6.3447     0.0432     0.1279     0.2334   -38.6044    83.8709    14.2258    18.2385     2.4690
  466.5000     6.3441     0.0338     0.1402     0.2381   -38.6913    88.9311    13.8643    17.6561     2.4516
  467.0000     6.3434     0.0281     0.1434     0.2460   -38.7783    91.4306    13.3512    17.0207     2.4367
  467.5000     6.3427     0.0350     0.1410     0.2542   -38.8652    91.1730    12.8631    16.4081     2.4365
  468.0000     6.3421     0.0450     0.1386     0.2608   -38.9522    90.9387    12.3866    15.8176     2.4445
  468.5000     6.3414     0.0551     0.1362     0.2528   -39.0391    92.2983    12.2045    15.2483     2.4488
  469.0000     6.3408     0.0518     0.1338     0.2558   -39.1260    92.0984    12.1134    14.8445     2.4503
  469.5000     6.3401     0.0459     0.1314     0.2592   -39.2134    90.2551    12.0245    14.7152     2.4537
  470.0000     6.3394     0.0395     0.1290     0.2574   -39.3022    88.7254    11.9345    14.5871     2.4612
  470.5000     6.3388     0.0429     0.1267     0.2556   -39.3774    89.7869    12.1126    14.4840     2.4648
  471.0000     6.3381     0.0514     0.1295     0.2601   -39.1220    93.3333    12.2403    14.5849     2.4601
  471.5000     6.3375     0.0599     0.1322     0.2636   -38.8525    94.3632    12.3649    14.6702     2.4547
  472.0000     6.3368     0.0686     0.1340     0.2544   -38.5668    93.4959    12.4894    14.7536     2.4498
  472.5000     6.3362     0.0653     0.1331     0.2497   -37.8785    92.6131    12.6150    15.1101     2.4497
  473.0000     6.3355     0.0591     0.1322     0.2564   -37.1843    91.5747    13.0423    15.4671     2.4543
  473.5000     6.3348     0.0518     0.1368     0.2596   -36.4893    89.8696    13.4721    15.8274     2.4533
  474.0000     6.3342     0.0337     0.1531     0.2608   -35.8086    86.6325    14.1287    16.1785     2.4387
