~VERSION INFORMATION
 VERS.                2.0:   CWLS LOG ASCII STANDARD - VERSION 2.0
 WRAP.                 NO:   ONE LINE PER DEPTH STEP
~WELL INFORMATION
#MNEM.UNIT      DATA TYPE    INFORMATION
#----------   ------------   ------------------------------
 STRT.F           84.0000:   START DEPTH
 STOP.F         1141.0000:   STOP DEPTH
 STEP.F            0.5000:   STEP LENGTH
 NULL.          -999.2500:   NO VALUE
 COMP.           U S NAVY:   COMPANY
 WELL.     NPR#3 #78-S-11:   WELL
 FLD .             TEAPOT:   FIELD
 LOC .      S11 T38N R78W:   LOCATION
 CNTY.            NATRONA:   COUNTY
 STAT.            WYOMING:   STATE
 CTRY. UNITED STATES OF AMERICA:   COUNTRY
 SRVC.       Schlumberger:   SERVICE COMPANY
 DATE.        28-AUG-1966:   LOGDATE
 API .       490250970700:   API NUMBER
~CURVE INFORMATION
#MNEM.UNIT       API CODE    CURVE DESCRIPTION
#----------   ------------   ------------------------------
 DEPT.F                  :   
 SPR .MV     05 010 01 00:   SPONTANEOUS POTENTIAL FROM RES.
 ASN .OHMM   05 041 16 00:   AMPLIFIED SHORT NORMAL 16"
 ILD .OHMM   05 120 46 00:   INDUCTION LOG DEEP
 CILD.MMHO   05 110 46 00:   CONDUCTIVITY INDUCTION LOG DEEP
 GRD .GAPI   45 310 01 00:   GAMMA RAY FROM DENSITY LOG
 CALD.IN     45 280 60 00:   CALIPER FROM DENSITY LOG
 DPHI.DEC    45 890 12 00:   DENSITY POROSITY SANDSTONE
 RHOB.G/C3   45 350 01 00:   BULK DENSITY
~PARAMETER INFORMATION
#MNEM.UNIT          VALUE    DESCRIPTION
#----------   ------------   ------------------------------
 PD  .                 GL:   PERMANENT DATUM
 EPD .F              5245:   ELEVATION PERMANENT DATUM
 LMF .                 KB:   LOG MEASURED FROM
 DAPD.F                 5:   FEET ABOVE PERMANENT DATUM
 DMF .                 KB:   DRILLING MEASURED FROM
 EKB .F              5250:   KELLING BUSHING
 EGL .F              5245:   GROUND LEVEL
 DATE.            8-28-66:   RUN DATE
 RUN .                  1:   RUN NUMBER
 DD  .F              1142:   DEPTH DRILLER
 DL  .F              1142:   DEPTH LOGGER
 BLI .F              1141:   BOTTOM LOG INTERVAL
 TLI .F                85:   TOP LOG INTERVAL
 CS  .IN            8.625:   CASING SIZE
 CBD .F                10:   CASING BOTTOM DRILLER
 BS  .IN             6.75:   BIT SIZE
 BSD .F              1142:   BIT SIZE AT DEPTH
 DFT .           CHEM GEL:   DRILLING FLUID TYPE
 DFD .               10.7:   DRILLING FLUID DENSITY
 DFV .                 40:   DRILLING FLUID VISCOSITY
 MSS .          FLOW LINE:   MUD SAMPLE SOURCE
 RMS .OHMM           1.58:   RESISTIVITY MUD SAMPLE
 MST .F                70:   MUD SAMPLE TEMPERATURE
 RMF .OHMM            .93:   RESISTIVITY MUD FILTRATE SAMPLE
 MFST.F                70:   MUD FILTRATE SAMPLE TEMPERATURE
 MFSS.                  M:   MUD FILTRATE SAMPLE SOURCE
 RMB .OHMM           1.19:   RESISTIVITY MUD AT BHT
 BHT .F                94:   BOTTOM HOLE TEMPERATURE
 TCS .HRS               1:   TIME CURCULATED STOPPED
 MRT .F                94:   MAXIMUM RECORDED TEMPERATURE
 LUN .               4507:   LOGGING UNIT NUMBER
 LUL .               CSPR:   LOGGING UNIT LOCATION
 ENGI.             KNOBEL:   RECORDING ENGINEER
 WITN.         MAY/TUTTLE:   WITNESSED BY
 CLNT.            A2DTECH:   CLIENT CODE
 ORIG.           5" PRINT:   ORIGIN OF DATA
 UWI .       490250970700:   UNIQUE WELL ID
 DICO. A2D Technologies, Inc.:   DIGITIZING COMPANY
~OTHER INFORMATION
~A   DEPT      SPR          ASN        ILD      CILD       GRD       CALD       DPHI       RHOB   
# ...
  975.0000   -37.5566    16.5166    13.2505    83.0827    67.0536     7.3562     0.0936     2.4808
  975.5000   -39.8190    16.8950    14.3744    76.1983    65.8017     7.3115     0.1085     2.4630
  976.0000   -40.2715    17.6487    15.1980    64.8406    62.7641     7.2668     0.1217     2.4384
  976.5000   -40.1207    18.3274    15.8714    59.6617    60.1052     7.1923     0.1265     2.4235
  977.0000   -41.3273    19.5315    16.0950    60.3769    58.5179     7.1773     0.1366     2.3996
  977.5000   -44.0422    20.0613    15.5666    62.5952    60.4376     7.2072     0.1402     2.4086
  978.0000   -44.9472    20.2132    15.1140    64.9318    63.4427     7.2966     0.1217     2.4355
  978.5000   -44.6455    19.8204    14.5862    67.9223    65.2517     7.3115     0.1166     2.4572
  979.0000   -44.4947    19.2993    14.2086    71.4964    66.7036     7.3115     0.1124     2.4714
  979.5000   -44.0422    18.6840    13.8310    72.2203    68.0911     7.3115     0.1180     2.4535
  980.0000   -43.7406    17.5982    13.4534    73.6774    68.6065     7.3115     0.1231     2.4386
  980.5000   -43.2881    16.9255    12.9256    76.6475    67.5475     7.2966     0.1255     2.4296
  981.0000   -42.9864    16.2528    12.3979    80.3696    68.8131     7.2817     0.1261     2.4087
  981.5000   -42.6848    15.5801    11.8701    84.0916    66.6827     7.2817     0.1291     2.4200
  982.0000   -42.2304    15.0575    11.4174    87.0618    67.2308     7.2966     0.1368     2.4387
  982.5000   -41.3046    14.9096    11.3401    89.2895    68.4932     7.2966     0.1416     2.3901
  983.0000   -40.2585    14.9884    11.4944    89.2428    69.7557     7.3115     0.1488     2.4118
  983.5000   -39.6495    15.1415    11.7202    88.4535    71.0181     7.3264     0.1251     2.4365
  984.0000   -38.7150    15.5199    12.0091    86.1606    72.1020     7.3264     0.1132     2.4724
  984.5000   -37.4057    16.0484    12.3817    83.1157    71.0430     7.3413     0.1009     2.4911
  985.0000   -36.0483    16.4268    12.6798    80.0708    71.5911     7.3264     0.1075     2.4672
  985.5000   -35.8974    16.8802    12.9033    77.0260    72.4964     7.3115     0.1107     2.4896
  986.0000   -36.0483    17.5588    13.2008    74.7330    72.6843     7.3115     0.1017     2.5016
  986.5000   -36.1991    18.1624    13.5740    73.1919    71.6285     7.2966     0.0907     2.5016
  987.0000   -36.6516    18.4657    14.0222    70.8989    70.2123     7.2966     0.0856     2.5017
  987.5000   -36.8024    18.3936    14.3202    68.6059    68.9748     7.2966     0.0927     2.4875
  988.0000   -37.2549    17.7209    14.7685    66.3129    67.2015     7.2966     0.1147     2.4546
  988.5000   -37.7074    16.9731    13.9404    68.5312    67.2139     7.2966     0.1269     2.4330
  989.0000   -38.0090    16.3755    13.4126    71.5014    69.5478     7.2966     0.1363     2.4218
  989.5000   -38.6124    16.0031    13.1101    75.2234    73.8459     7.2966     0.1467     2.3999
  990.0000   -39.6682    15.7808    12.8076    78.1936    76.7155     7.3115     0.1539     2.3889
  990.5000   -39.3665    15.7087    12.4300    81.1638    79.9423     7.3115     0.1568     2.3914
  991.0000   -38.3107    15.5611    12.2025    83.3821    81.9190     7.3115     0.1514     2.4038
  991.5000   -38.7632    15.3361    11.8249    84.8485    83.1814     7.3115     0.1428     2.4180
  992.0000   -37.4057    15.1052    11.5975    84.8112    83.3724     7.3115     0.1376     2.4331
  992.5000   -36.6516    14.8022    11.4451    85.5263    82.6706     7.3264     0.1319     2.4212
  993.0000   -36.5008    14.5861    11.5931    86.2406    81.2544     7.3264     0.1295     2.4339
  993.5000   -36.1991    14.3002    11.6659    87.7067    79.6597     7.3413     0.1360     2.4362
  994.0000   -36.0483    14.1537    11.6636    88.4212    76.6365     7.3562     0.1414     2.4123
  994.5000   -36.1991    14.0066    11.5863    89.1649    77.5418     7.3562     0.1336     2.4317
  995.0000   -36.3499    14.0095    11.3588    90.6021    78.9828     7.3562     0.1297     2.4467
  995.5000   -36.8034    13.9374    11.1314    91.3167    80.4238     7.3562     0.1414     2.4101
  996.0000   -37.1041    13.7903    11.0511    91.2782    82.0434     7.3562     0.1378     2.4042
  996.5000   -36.9416    13.7174    10.8959    91.9939    82.2344     7.3562     0.1249     2.4393
  997.0000   -36.8024    13.6461    10.8243    93.4603    81.3540     7.3562     0.1165     2.4565
  997.5000   -36.8024    13.6490    10.8972    94.1655    79.5807     7.3562     0.1132     2.4663
  998.0000   -36.8024    13.6520    10.8949    94.1281    78.3429     7.3562     0.1192     2.4543
  998.5000   -36.9532    13.7301    10.9678    94.0908    77.8198     7.3562     0.1177     2.4454
  999.0000   -37.1041    13.7330    11.0401    94.0534    77.2965     7.3562     0.1153     2.4626
  999.5000   -37.1041    13.8111    11.0379    93.2642    77.3090     7.3562     0.1177     2.4581
 1000.0000   -37.2549    13.9234    11.2614    92.4824    78.5714     7.3557     0.1228     2.4477
 1000.5000   -37.1054    14.1350    10.8091    92.4590    79.8310     7.3499     0.1290     2.4260
 1001.0000   -37.2582    14.3479    11.2580    90.9288    80.1786     7.3442     0.1284     2.4463
 1001.5000   -37.4105    14.8085    11.8571    87.8989    78.7500     7.3399     0.1353     2.4074
 1002.0000   -37.4120    15.4904    12.2310    84.8690    80.7143     7.3543     0.1182     2.4448
 1002.5000   -37.2623    16.1823    12.8301    81.8390    81.4286     7.3539     0.1080     2.4763
 1003.0000   -36.5100    17.0044    13.7295    78.0572    80.8929     7.3534     0.1035     2.4875
 1003.5000   -35.4557    18.2260    14.3286    72.7716    79.2857     7.3530     0.0963     2.4973
 1004.0000   -35.0047    20.9644    15.1530    68.9898    78.3929     7.3675     0.0795     2.5287
 1004.5000   -34.1013    21.9426    15.5272    63.7042    79.6429     7.3670     0.0520     2.5564
 1005.0000   -33.6499    22.7707    15.7506    61.4318    80.5357     7.3666     0.0460     2.5691
 1005.5000   -33.1993    22.6973    15.5990    63.6594    80.8929     7.3661     0.0430     2.5722
 1006.0000   -33.0496    21.9493    15.2221    67.3963    81.4286     7.3508     0.0514     2.5610
 1006.5000   -33.0515    20.2999    14.3197    72.6371    82.3214     7.3503     0.0696     2.5423
 1007.0000   -33.2038    17.6745    13.2672    76.3740    83.5714     7.3499     0.0849     2.5177
 1007.5000   -33.9595    16.1753    12.5900    80.8629    82.8571     7.3495     0.0989     2.4945
 1008.0000   -34.8659    15.2766    11.6876    84.6055    81.4286     7.3490     0.1115     2.4666
 1008.5000   -36.2249    14.6782    11.3107    87.5850    81.4286     7.3486     0.1211     2.4414
 1009.0000   -36.2264    14.1549    10.7086    90.5700    81.4286     7.3481     0.1258     2.4363
 1009.5000   -36.0767    13.7067    10.4819    93.5551    81.2500     7.3477     0.1258     2.4333
 1010.0000   -36.0786    13.1834    10.4054    95.0365    82.8927     7.3472     0.1318     2.4256
 1010.5000   -36.0801    12.8103    10.4039    96.5188    83.3929     7.3467     0.1399     2.4105
 1011.0000   -35.9304    12.5868    10.4024    97.2482    83.3929     7.3463     0.1449     2.4044
 1011.5000   -35.9323    12.3643    10.3258    97.9774    83.0357     7.3458     0.1380     2.4343
 1012.0000   -36.3863    12.2909    10.3243    98.7068    80.8929     7.3454     0.1341     2.4389
 1012.5000   -36.6894    12.2187    10.1727    99.4361    80.5357     7.3449     0.1430     2.4098
 1013.0000   -36.5401    12.2209    10.0961    99.4132    82.1429     7.3445     0.1476     2.4008
 1013.5000   -36.3908    12.2982    10.0946   100.1428    83.2143     7.3441     0.1435     2.4113
 1014.0000   -36.5431    12.3755    10.0931   101.6240    80.8929     7.3436     0.1443     2.4002
 1014.5000   -36.6954    12.3778    10.0916   101.6015    80.3571     7.3432     0.1598     2.3905
 1015.0000   -36.8478    12.3049    10.0901   101.5789    81.2500     7.3427     0.1595     2.3845
