~VERSION INFORMATION
 VERS.                2.0:   CWLS LOG ASCII STANDARD - VERSION 2.0
 WRAP.                 NO:   ONE LINE PER DEPTH STEP
~WELL INFORMATION
#MNEM.UNIT      DATA TYPE    INFORMATION
#----------   ------------   ------------------------------
 STRT.F           60.0000:   START DEPTH
 STOP.F         1143.0000:   STOP DEPTH
 STEP.F            0.5000:   STEP LENGTH
 NULL.          -999.2500:   NO VALUE
 COMP. U S NAVY-INTEX OIL:   COMPANY
 WELL.    N.P.R . 3 #63-2:   WELL
 FLD .             TEAPOT:   FIELD
 LOC .       S2 T38N R78W:   LOCATION
 CNTY.            NATRONA:   COUNTY
 STAT.            WYOMING:   STATE
 CTRY. UNITED STATES OF AMERICA:   COUNTRY
 SRVC. Schlumberger Well Surveying Corp:   SERVICE COMPANY
 DATE.        24-MAY-1964:   LOGDATE
 API .       490250645500:   API NUMBER
~CURVE INFORMATION
#MNEM.UNIT       API CODE    CURVE DESCRIPTION
#----------   ------------   ------------------------------
 DEPT.F                  :   
 SPR .MV     05 010 01 00:   SPONTANEOUS POTENTIAL FROM RES.
 ASN .OHMM   05 041 16 00:   AMPLIFIED SHORT NORMAL 16"
 ILD .OHMM   05 120 46 00:   INDUCTION LOG DEEP
 CILD.MMHO   05 110 46 00:   CONDUCTIVITY INDUCTION LOG DEEP
 CALS.IN     60 280 50 00:   CALIPER FROM SONIC LOG
 DT  .US/F   60 520 33 00:   INTERVAL TRANSIT TIME
~PARAMETER INFORMATION
#MNEM.UNIT          VALUE    DESCRIPTION
#----------   ------------   ------------------------------
 PD  .                 GL:   PERMANENT DATUM
 EPD .F              5181:   ELEVATION PERMANENT DATUM
 LMF .                 KB:   LOG MEASURED FROM
 DAPD.F                 5:   FEET ABOVE PERMANENT DATUM
 DMF .                 KB:   DRILLING MEASURED FROM
 EKB .F              5186:   KELLING BUSHING
 EGL .F              5181:   GROUND LEVEL
 DATE.        24-MAY-1964:   RUN DATE
 RUN .                  1:   RUN NUMBER
 DD  .F              1140:   DEPTH DRILLER
 DL  .F              1144:   DEPTH LOGGER
 BLI .F              1143:   BOTTOM LOG INTERVAL
 TLI .F                82:   TOP LOG INTERVAL
 CS  .IN            8.625:   CASING SIZE
 CBD .F                10:   CASING BOTTOM DRILLER
 BS  .IN            7.875:   BIT SIZE
 BSD .F              1140:   BIT SIZE AT DEPTH
 DFT .            GEL/OIL:   DRILLING FLUID TYPE
 DFD .                9.0:   DRILLING FLUID DENSITY
 DFV .                 63:   DRILLING FLUID VISCOSITY
 DFPH.                8.0:   DRILLING FLUID PH
 DFL .                7.6:   DRILLING FLUID LOSS
 MSS .           FLOWLINE:   MUD SAMPLE SOURCE
 RMS .OHMM           0.87:   RESISTIVITY MUD SAMPLE
 MST .F                84:   MUD SAMPLE TEMPERATURE
 RMF .OHMM           0.43:   RESISTIVITY MUD FILTRATE SAMPLE
 MFST.F                84:   MUD FILTRATE SAMPLE TEMPERATURE
 RMC .OHMM           1.52:   RESISTIVITY MUD CAKE
 MCST.F                84:   MUD CAKE SAMPLE TEMPERATURE
 MFSS.                 FP:   MUD FILTRATE SAMPLE SOURCE
 MCSS.                 FP:   MUD CAKE SAMPLE SOURCE
 TCS .HRS               2:   TIME CURCULATED STOPPED
 LUN .               4507:   LOGGING UNIT NUMBER
 LUL .               CSPR:   LOGGING UNIT LOCATION
 ENGI.             DANNER:   RECORDING ENGINEER
 WITN.          JORGENSEN:   WITNESSED BY
 CLNT.            A2DTECH:   CLIENT CODE
 ORIG.       2", 5" PRINT:   ORIGIN OF DATA
 UWI .       490250645500:   UNIQUE WELL ID
 DICO. A2D Technologies, Inc.:   DIGITIZING COMPANY
~OTHER INFORMATION
~A   DEPT      SPR          ASN        ILD      CILD      CALS         DT   
# ...
  944.0000   -40.7771     6.6369     5.5686   192.6578     7.9015   105.6892
  944.5000   -40.8680     6.8093     5.6884   182.8789     7.9017   100.7086
  945.0000   -40.9789     6.9242     5.7884   179.2169     7.9018   101.4642
  945.5000   -40.9774     6.9842     5.7875   177.2618     7.8869   101.6914
  946.0000   -40.9759     7.0290     5.7868   176.2048     7.8870   101.3148
  946.5000   -40.9741     7.0288     5.7730   178.5487     7.8720   100.9382
  947.0000   -40.9729     7.1104     5.5599   185.2434     7.8571   100.5616
  947.5000   -40.9713     7.1785     5.3641   194.2771     7.8422   100.2605
  948.0000   -40.8876     7.2084     5.0330   200.7635     7.8423   100.1101
  948.5000   -40.7936     7.2083     4.6529   215.3615     7.8425   101.1676
  949.0000   -40.3642     7.1632     4.2537   238.1458     7.8426   101.5457
  949.5000   -40.1541     6.6510     3.9045   254.3278     7.8428   102.1503
  950.0000   -39.7590     6.1020     3.8038   263.5542     7.8412   104.8733
  950.5000   -39.4222     5.5886     3.6779   267.2415     7.8330   108.4914
  951.0000   -39.1536     5.4449     3.5611   270.4266     7.8432   109.0204
  951.5000   -39.3026     5.3335     3.5263   272.5904     7.8434   110.9080
  952.0000   -39.3695     5.2884     3.6756   270.1056     7.8587   111.8898
  952.5000   -39.6010     5.5046     3.8801   255.2343     7.8436   111.5132
  953.0000   -39.7497     5.7829     4.1246   240.0012     7.8287   109.1670
  953.5000   -39.7927     5.8675     4.5112   224.3976     7.7987   107.1373
  954.0000   -40.0481     5.9541     4.8409   216.2810     7.7686   107.1291
  954.5000   -40.1250     6.3718     5.1733   204.4475     7.7385   106.4951
  955.0000   -40.3465     6.7154     5.3829   190.8504     7.7085   104.8001
  955.5000   -40.3446     7.0066     5.6229   181.5408     7.6935   103.9707
  956.0000   -40.3434     7.3260     5.7888   171.6868     7.6785   103.1413
  956.5000   -40.4924     7.7068     5.9707   166.8107     7.6787   102.3118
  957.0000   -40.5793     8.0877     6.2206   161.6487     7.6789   100.2748
  957.5000   -40.6402     8.3195     6.4352   157.3795     7.6790    99.4454
  958.0000   -40.6384     8.4940     6.5976   154.6083     7.6640    98.9933
  958.5000   -40.6370     8.5634     6.7174   152.1084     7.6491    99.0695
  959.0000   -40.6295     8.6151     6.6682   152.1084     7.6342    99.2967
  959.5000   -40.4834     8.6450     6.5923   153.2796     7.6343    99.4483
  960.0000   -40.3313     8.6222     6.5165   157.3795     7.6798    99.6000
  960.5000   -40.3297     8.3599     6.4352   162.3947     7.7404    99.9027
  961.0000   -40.3283     8.1469     6.2896   167.3041     7.8009   100.2053
  961.5000   -40.1762     8.0149     6.2140   173.6295     7.8313   100.4325
  962.0000   -40.1744     7.9276     6.0630   179.6386     7.8616   100.6596
  962.5000   -40.1732     7.8329     5.8371   188.2530     7.8769   100.8239
  963.0000   -40.1716     7.6847     5.4185   200.5793     7.8771   101.2861
  963.5000   -40.1702     7.4814     4.9202   216.6252     7.8621   101.9451
  964.0000   -40.1686     7.2386     4.4219   239.4578     7.8622   102.7760
  964.5000   -40.1670     6.9647     4.0628   254.0322     7.8472   103.2296
  965.0000   -40.1656     6.7209     3.8664   263.5542     7.8474   105.5699
  965.5000   -40.1642     6.0957     3.8055   265.0602     7.8476   109.6461
  966.0000   -40.1626     5.4705     3.8048   262.2589     7.8478   111.3071
  966.5000   -40.1612     5.3001     3.8041   256.0241     7.8327   110.5533
  967.0000   -40.1595     5.7099     3.8503   249.0353     7.8329   109.9503
  967.5000   -40.1581     6.0792     4.1729   239.0589     7.8179   109.4227
  968.0000   -40.1566     6.5026     4.6276   211.5991     7.8181   106.9329
  968.5000   -40.1548     6.9788     5.0278   194.7941     7.8031   103.3865
  969.0000   -40.1536     7.3065     5.3889   177.7108     7.7882   101.4249
  969.5000   -40.1520     7.6365     5.7004   169.8611     7.7884   102.0295
  970.0000   -40.1506     7.9979     5.9409   164.7593     7.7885   102.6340
  970.5000   -40.1491     8.1586     6.2004   162.6506     7.7887   102.9366
  971.0000   -40.1474     8.3351     6.3108   162.6506     7.7888   103.0883
  971.5000   -40.1461     8.4923     6.4307   161.8976     7.7890   102.7637
  972.0000   -40.1446     8.5367     6.4985   161.1446     7.7891   101.8460
  972.5000   -40.1431     8.5970     6.5203   160.1279     7.7893   101.2792
  973.0000   -40.1416     8.6821     6.5720   157.3795     7.7894   100.9782
  973.5000   -40.1399     8.7372     6.6099   155.2634     7.7745   100.6016
  974.0000   -40.1386     8.7916     6.6457   152.8464     7.7746   100.3005
  974.5000   -40.1371     8.8490     6.6448   152.5867     7.7748   100.5276
  975.0000   -40.2359     8.8813     6.6441   154.7440     7.7750   100.6793
  975.5000   -40.2849     8.8714     6.6434   157.3795     7.7751   100.3782
  976.0000   -40.2830     8.8128     6.6426   159.2169     7.7904   100.1523
  976.5000   -40.2816     8.7610     6.6419   161.2162     7.7905   100.6816
  977.0000   -40.2801     8.6778     6.6410   162.6506     7.8058   100.8333
  977.5000   -40.2784     8.6028     6.6404   162.4059     7.7908   100.7583
  978.0000   -40.2771     8.5208     6.5646   161.1446     7.7910   100.9857
  978.5000   -40.1250     8.5207     6.5638   160.7268     7.7911   101.3638
  979.0000   -40.1235     8.5206     6.4740   160.3916     7.7611   101.6664
  979.5000   -40.0939     8.5022     6.3370   161.1446     7.7461   101.8943
  980.0000   -39.9697     8.4431     5.9910   179.2145     7.7463   101.5773
  980.5000   -39.9061     8.2803     5.3551   226.0456     7.7464   100.6596
  981.0000   -39.6657     8.0398     4.4529   241.5528     7.7919    99.5910
  981.5000   -39.6642     7.5675     4.0653   251.5060     7.8071    99.1796
  982.0000   -39.5121     6.6113     3.9309   251.5060     7.8224   103.1050
  982.5000   -39.3598     5.6712     3.8226   253.0121     7.8225   106.8039
  983.0000   -39.3584     5.6952     3.7793   256.5457     7.8075   107.2575
  983.5000   -39.3709     5.4806     3.8270   260.5422     7.7926   107.4846
  984.0000   -39.5061     5.4588     3.9581   256.3451     7.7928   107.7873
  984.5000   -39.6554     5.8966     4.1489   243.2024     7.7778   108.7691
  985.0000   -39.6535     6.3763     4.3398   227.4096     7.7628   105.9774
  985.5000   -39.7344     6.8560     4.5306   218.3735     7.7479   102.5819
  986.0000   -39.8254     7.1694     4.6757   220.2210     7.7329   101.6770
  986.5000   -39.9503     7.2145     4.6749   225.9036     7.7180   101.6021
  987.0000   -39.9488     6.5997     4.5821   227.6682     7.7030   102.4332
  987.5000   -39.9473     6.0947     4.5232   227.4096     7.6880   106.7359
  988.0000   -39.9458     5.9827     4.4475   225.6827     7.6882   109.0008
  988.5000   -39.9443     5.9697     4.3716   222.8916     7.6884   108.6196
  989.0000   -39.9426     6.0015     4.3709   225.9036     7.7187   108.1655
  989.5000   -39.9413     6.1943     4.3701   221.6002     7.7491   107.4504
  990.0000   -39.9397     6.8124     4.4444   210.8007     7.7795   104.7020
  990.5000   -39.9380     7.1810     4.8110   200.0013     7.7948   102.8160
  991.0000   -39.9367     7.4528     5.2988   189.2018     7.7949   102.5903
  991.5000   -39.7846     7.7246     5.8685   178.4024     7.7951   102.2137
  992.0000   -39.7048     7.8620     5.8899   168.6747     7.7952   101.7616
  992.5000   -39.6310     7.9477     5.8671   176.2048     7.7802   101.0831
  993.0000   -39.6293     7.9676     5.6772   192.4558     7.7351   100.4046
  993.5000   -39.5738     7.9475     5.3060   210.1201     7.6597    99.7261
  994.0000   -39.4759     7.7090     4.7386   221.2502     7.5843    99.2738
  994.5000   -39.3238     7.2864     4.5388   229.4469     7.5542   103.9540
  995.0000   -39.1717     6.8639     4.3618   231.1747     7.5997   105.9170
  995.5000   -39.1700     6.4414     4.2860   230.8245     7.6905   106.4461
