~VERSION INFORMATION
 VERS.                2.0:   CWLS LOG ASCII STANDARD - VERSION 2.0
 WRAP.                 NO:   ONE LINE PER DEPTH STEP
~WELL INFORMATION
#MNEM.UNIT      DATA TYPE    INFORMATION
#----------   ------------   ------------------------------
 STRT.F            0.0000:   START DEPTH
 STOP.F          539.0000:   STOP DEPTH
 STEP.F            0.5000:   STEP LENGTH
 NULL.          -999.2500:   NO VALUE
 COMP. FENIX & SCISSON INC:   COMPANY
 WELL.     NPR 3 SX #23-3:   WELL
 FLD .             TEAPOT:   FIELD
 LOC .       S3 T38N R78W:   LOCATION
 CNTY.            NATRONA:   COUNTY
 STAT.            WYOMING:   STATE
 CTRY. UNITED STATES OF AMERICA:   COUNTRY
 SRVC.           BIRDWELL:   SERVICE COMPANY
 DATE.        27-JUL-1978:   LOGDATE
 API .       490251067500:   API NUMBER
~CURVE INFORMATION
#MNEM.UNIT       API CODE    CURVE DESCRIPTION
#----------   ------------   ------------------------------
 DEPT.F                  :   
 ILD .OHMM   05 120 40 00:   INDUCTION LOG DEEP
 SPR .MV     05 010 01 00:   SPONTANEOUS POTENTIAL
 SN  .OHMM   05 040 16 00:   SHORT NORMAL 16"
 CALD.IN     45 280 60 00:   CALIPER FROM DENSITY LOG
 CORR.G/C3   45 356 01 00:   DENSITY CORRECTION
 DPHI.DEC    45 890 12 00:   DENSITY POROSITY SANDSTONE
 GRD .GAPI   45 310 01 00:   GAMMA RAY FROM DENSITY LOG
 RHOB.G/C3   45 350 01 00:   BULK DENSITY
~PARAMETER INFORMATION
#MNEM.UNIT          VALUE    DESCRIPTION
#----------   ------------   ------------------------------
 PD  .                 GL:   PERMANENT DATUM
 EPD .F              5787:   ELEVATION PERMANENT DATUM
 LMF .                 KB:   LOG MEASURED FROM
 DAPD.F                 4:   FEET ABOVE PERMANENT DATUM
 DMF .                 KB:   DRILLING MEASURED FROM
 EKB .F              5191:   KELLING BUSHING
 EGL .F              5187:   GROUND LEVEL
 DATE.         7-JUL-1978:   RUN DATE
 RUN .                  1:   RUN NUMBER
 DD  .F               540:   DEPTH DRILLER
 DL  .F               540:   DEPTH LOGGER
 BLI .F               539:   BOTTOM LOG INTERVAL
 CS  .IN            8.625:   CASING SIZE
 CBD .F                40:   CASING BOTTOM DRILLER
 BS  .IN            7.875:   BIT SIZE
 BSD .F               540:   BIT SIZE AT DEPTH
 DFT .                KCL:   DRILLING FLUID TYPE
 DFD .                8.6:   DRILLING FLUID DENSITY
 DFV .                 30:   DRILLING FLUID VISCOSITY
 DFPH.                  9:   DRILLING FLUID PH
 MSS .           FLOWLINE:   MUD SAMPLE SOURCE
 MRT .F                74:   MAXIMUM RECORDED TEMPERATURE
 LUN .               2958:   LOGGING UNIT NUMBER
 LUL .               CASP:   LOGGING UNIT LOCATION
 ENGI.            POINTER:   RECORDING ENGINEER
 WITN.              AMEND:   WITNESSED BY
 CLNT.            A2DTECH:   CLIENT CODE
 ORIG.           5" PRINT:   ORIGIN OF DATA
 UWI .       490251067500:   UNIQUE WELL ID
 DICO. A2D Technologies, Inc.:   DIGITIZING COMPANY
~OTHER INFORMATION
~A    DEPT     ILD        SPR         SN         CALD     CORR       DPHI         GRD      RHOB   
# ...
  486.0000     5.9376   -28.9062     6.2520     7.3383     0.0173     0.1446    75.9278     2.4304
  486.5000     5.9403   -29.4901     6.0859     7.3368     0.0246     0.1488    77.7388     2.4079
  487.0000     5.9430   -29.9226     6.0883     7.3656     0.0290     0.1510    81.8239     2.4004
  487.5000     5.9457   -29.4619     6.0907     7.3944     0.0333     0.1513    83.1818     2.3996
  488.0000     6.0313   -28.7066     6.2781     7.4077     0.0316     0.1461    83.7821     2.4122
  488.5000     6.1175   -28.2489     6.9915     7.4365     0.0285     0.1246    83.7749     2.4542
  489.0000     6.4657   -28.2376     8.9512     7.4502     0.0224     0.1007    83.1631     2.5040
  489.5000     7.2194   -28.2262     9.7223     7.5091     0.0223     0.0959    81.4907     2.5125
  490.0000     8.7693   -27.6170    10.0651     7.3563     0.0222     0.0959    73.3738     2.5087
  490.5000     9.7746   -27.1593    10.3685     7.2340     0.0280     0.0977    71.0232     2.5026
  491.0000    10.1901   -26.5527    10.5690     7.1419     0.0278     0.0984    71.0175     2.4988
  491.5000    10.5507   -27.5831    10.6448     7.3073     0.0307     0.0972    71.6178     2.5019
  492.0000    10.7751   -27.8695    10.5762     7.3808     0.0336     0.0954    74.0362     2.5107
  492.5000    11.0147   -27.8554    10.5814     7.4397     0.0320     0.0936    75.8487     2.5151
  493.0000    11.2396   -27.6953    10.6697     7.4380     0.0273     0.0961    76.4475     2.5106
  493.5000    11.5577   -27.5352    10.8844     7.4366     0.0256     0.0974    76.4418     2.5045
  494.0000    11.8035   -27.5238    11.1155     7.4199     0.0211     0.0991    75.8300     2.5014
  494.5000    11.8902   -27.5119    11.3508     7.4182     0.0209     0.0997    75.2182     2.5021
  495.0000    12.2281   -27.3497    11.5120     7.4168     0.0208     0.0986    74.9079     2.5073
  495.5000    12.4028   -27.1896    11.8377     7.4153     0.0207     0.0986    75.6598     2.5073
  496.0000    12.5799   -26.9623    12.1714     7.4290     0.0220     0.0993    76.2601     2.5042
  496.5000    12.8475   -26.8690    12.3329     7.4121     0.0264     0.1001    76.4073     2.5004
  497.0000    12.9467   -27.0041    12.5195     7.3956     0.0307     0.0999    75.0122     2.5011
  497.5000    13.3096   -27.4393    12.8725     7.3790     0.0321     0.0975    73.9686     2.5085
  498.0000    13.3157   -27.4280    13.0565     7.3625     0.0320     0.0942    74.4174     2.5130
  498.5000    13.5989   -27.7153    13.2419     7.3610     0.0318     0.0930    75.7768     2.5159
  499.0000    13.6987   -28.0006    13.2470     7.3592     0.0257     0.0940    73.9514     2.5159
  499.5000    13.7052   -27.9865    13.2522     7.3578     0.0196     0.0952    73.1879     2.5151
  500.0000    13.7129   -27.5288    13.2574     7.3715     0.0135     0.0970    73.3338     2.5120
  500.5000    13.7184   -27.3687    13.2639     7.3852     0.0133     0.1000    73.9327     2.5059
  501.0000    13.7254   -27.0278    13.2683     7.4139     0.0162     0.1024    74.6845     2.4931
  501.5000    13.5445   -26.7481    13.2738     7.4121     0.0191     0.1055    75.8909     2.4758
  502.0000    13.4580   -26.7368    13.2795     7.4409     0.0205     0.1085    74.2170     2.4689
  502.5000    13.3720   -26.7494    13.1925     7.4701     0.0248     0.1109    74.5143     2.4675
  503.0000    13.3796   -26.7406    12.9318     7.4773     0.0246     0.1109    74.5085     2.4704
  503.5000    13.2017   -26.7335    12.8485     7.4773     0.0290     0.1097    74.8058     2.4763
  504.0000    13.0292   -26.7247    12.5920     7.4773     0.0304     0.1074    74.6424     2.4830
  504.5000    13.0366   -26.7177    12.5969     7.4773     0.0280     0.1050    73.2777     2.4897
  505.0000    12.8648   -26.7107    12.6019     7.5076     0.0293     0.1026    70.8477     2.4949
  505.5000    12.6937   -26.7036    12.6080     7.4773     0.0307     0.1008    71.2965     2.4979
  506.0000    12.7010   -26.6964    12.7425     7.4773     0.0320     0.0991    71.4424     2.5000
  506.5000    12.7068   -26.6878    12.8385     7.4598     0.0302     0.0991    72.5131     2.5000
  507.0000    12.5260   -26.6815    12.8469     7.4169     0.0270     0.0997    73.3257     2.4969
  507.5000    12.3740   -26.6737    12.8552     7.4169     0.0268     0.1015    74.0725     2.4924
  508.0000    12.6270   -26.6667    12.6885     7.4169     0.0266     0.1040    74.3620     2.4855
  508.5000    12.3748   -26.9739    12.4404     7.4169     0.0264     0.1061    74.9573     2.4817
  509.0000    12.3811   -27.0990    12.2791     7.4169     0.0321     0.1064    75.5553     2.4817
  509.5000    12.0507   -27.2408    12.0351     7.4169     0.0319     0.1052    75.5417     2.4876
  510.0000    11.9744   -27.2320    11.7173     7.4169     0.0377     0.1031    74.3162     2.4921
  510.5000    11.7352   -27.2247    11.5608     7.3867     0.0375     0.1004    74.9114     2.4950
  511.0000    11.7400   -27.2162    11.3411     7.3867     0.0388     0.1023    75.9612     2.4957
  511.5000    11.4267   -27.2091    11.1157     7.4018     0.0416     0.1023    76.7083     2.4934
  512.0000    11.1996   -27.2024    11.1248     7.4018     0.0429     0.1017    77.3033     2.4956
  512.5000    11.1264   -27.1949    11.0560     7.4018     0.0427     0.0993    77.2898     2.4993
  513.0000    10.8306   -27.1863    10.8381     7.4018     0.0425     0.0981    77.2790     2.5052
  513.5000    10.8350   -27.1792    10.6262     7.4018     0.0392     0.0970    78.4804     2.5097
  514.0000    10.6881   -27.1726    10.5588     7.4018     0.0360     0.0964    79.9847     2.5111
  514.5000    10.5502   -27.1652    10.2800     7.4169     0.0313     0.0970    79.6682     2.5102
  515.0000    10.4834   -27.1563    10.0100     7.4169     0.0266     0.0982    79.0513     2.5049
  515.5000    10.2729   -27.1493     9.7458     7.4018     0.0204     0.0995    77.6769     2.4981
  516.0000    10.0687   -27.2928     9.4885     7.4018     0.0232     0.1007    75.3934     2.4913
  516.5000     9.9307   -27.4330     9.4298     7.3867     0.0290     0.1031    74.7765     2.4915
  517.0000     9.7370   -27.5746     9.5024     7.3716     0.0288     0.1019    75.6721     2.4957
  517.5000     9.6743   -27.4170     9.5086     7.3565     0.0301     0.1007    77.7826     2.4986
  518.0000     9.4820   -27.2612     9.6477     7.3565     0.0299     0.0996    80.1960     2.5016
  518.5000     9.4859   -27.2541     9.7872     7.3414     0.0312     0.0996    80.8333     2.5023
  519.0000     9.4899   -27.0982     9.7936     7.3112     0.0325     0.0996    81.7121     2.5045
  519.5000     9.4287   -26.9407     9.7999     7.2961     0.0338     0.0996    83.1940     2.5074
  520.0000     9.2413   -26.6360     9.6728     7.2961     0.0335     0.0993    82.5744     2.5073
  520.5000     9.2450   -27.0772     9.5489     7.2961     0.0333     0.0985    81.6545     2.5073
  521.0000     9.2488   -27.0684     9.5543     7.3263     0.0331     0.0985    80.7346     2.5072
  521.5000     9.0640   -27.5060     9.5472     7.3565     0.0329     0.0973    80.7859     2.5072
  522.0000     9.0057   -27.6495     9.4364     7.3565     0.0327     0.0973    81.9252     2.5041
  522.5000     8.8875   -27.7896     9.3150     7.4018     0.0325     0.0991    82.3689     2.5010
  523.0000     8.7690   -27.9315     9.3226     7.4169     0.0322     0.1022    82.2039     2.4957
  523.5000     8.6539   -27.6265     9.1388     7.4169     0.0335     0.1046    81.8902     2.4889
  524.0000     8.5394   -27.6179     9.0808     7.4169     0.0333     0.1058    81.8766     2.4859
  524.5000     8.3696   -27.4620     9.0882     7.4169     0.0331     0.1058    81.8658     2.4858
  525.0000     8.3149   -27.3062     8.9988     7.4169     0.0329     0.1052    81.5520     2.4880
  525.5000     8.2058   -27.1503     8.8555     7.4169     0.0342     0.1047    81.6927     2.4917
  526.0000     8.2656   -26.9927     8.8612     7.4169     0.0340     0.1035    82.4395     2.4946
