~VERSION INFORMATION
 VERS.                2.0:   CWLS LOG ASCII STANDARD - VERSION 2.0
 WRAP.                 NO:   ONE LINE PER DEPTH STEP
~WELL INFORMATION
#MNEM.UNIT      DATA TYPE    INFORMATION
#----------   ------------   ------------------------------
 STRT.F           52.5000:   START DEPTH
 STOP.F         2929.0000:   STOP DEPTH
 STEP.F            0.5000:   STEP LENGTH
 NULL.          -999.2500:   NO VALUE
 COMP.   FLUOR DANIEL INC:   COMPANY
 WELL. NAVAL PETROLEUM RESERVE 3 X-23 #52-23:   WELL
 FLD .            WILDCAT:   FIELD
 LOC .      S23 T38N R78W:   LOCATION
 CNTY.            NATRONA:   COUNTY
 STAT.            WYOMING:   STATE
 CTRY. UNITED STATES OF AMERICA:   COUNTRY
 SRVC.            Unknown:   SERVICE COMPANY
 DATE.        23-APR-1995:   LOGDATE
 API .       490252271500:   API NUMBER
~CURVE INFORMATION
#MNEM.UNIT       API CODE    CURVE DESCRIPTION
#----------   ------------   ------------------------------
 DEPT.F                  :   
 ROP .MIN/FT 91 810 01 00:   RAT OF DRILLING PENETRATION
 TGAS.UNITS  91 830 01 00:   TOTAL GAS FROM HOTWIRE
~PARAMETER INFORMATION
#MNEM.UNIT          VALUE    DESCRIPTION
#----------   ------------   ------------------------------
 EKB .F              5344:   KELLING BUSHING
 EGL .F              5334:   GROUND LEVEL
 DATE.            4-23-95:   RUN DATE
 DD  .F              2929:   DEPTH DRILLER
 CS  .IN            9.625:   CASING SIZE
 CBD .F                53:   CASING BOTTOM DRILLER
 BS  .IN             8.75:   BIT SIZE
 BSD .F              2929:   BIT SIZE AT DEPTH
 ENGI.              TOWER:   RECORDING ENGINEER
 WITN.               HUSK:   WITNESSED BY
 CLNT.            A2DTECH:   CLIENT CODE
 ORIG.           5" PRINT:   ORIGIN OF DATA
 UWI .       490252271500:   UNIQUE WELL ID
 DICO. A2D Technologies, Inc.:   DIGITIZING COMPANY
~OTHER INFORMATION
~A   DEPT        ROP     TGAS   
# ...
 1024.5000     0.6282     1.6565
 1025.0000     0.6272     1.6775
 1025.5000     0.6263     1.6984
 1026.0000     0.6253     1.7195
 1026.5000     0.6243     1.7417
 1027.0000     0.6233     1.7640
 1027.5000     0.6365     1.7862
 1028.0000     0.9025     1.8084
 1028.5000     0.9000     1.8307
 1029.0000     0.8975     1.8529
 1029.5000     0.8949     1.8752
 1030.0000     0.8924     1.8974
 1030.5000     0.8899     1.9197
 1031.0000     0.8873     1.9332
 1031.5000     0.8848     1.9332
 1032.0000     0.8823     2.1480
 1032.5000     0.8798     2.1480
 1033.0000     0.8772     2.1480
 1033.5000     0.8747     2.1480
 1034.0000     0.8722     2.1480
 1034.5000     0.8696     2.1480
 1035.0000     0.8671     2.1480
 1035.5000     0.8646     2.1480
 1036.0000     0.8620     2.1480
 1036.5000     0.8595     2.1480
 1037.0000     0.8570     2.3628
 1037.5000     0.8544     2.5776
 1038.0000     0.8519     2.5776
 1038.5000     0.8494     2.3628
 1039.0000     0.8468     2.3628
 1039.5000     0.8467     2.1480
 1040.0000     1.1587     2.1480
 1040.5000     1.1592     2.1480
 1041.0000     1.1597     2.1480
 1041.5000     1.1602     2.1480
 1042.0000     1.1608     1.9332
 1042.5000     1.1295     1.9332
 1043.0000     1.0642     1.7184
 1043.5000     1.0266     1.7184
 1044.0000     0.9854     1.7184
 1044.5000     0.9860     1.7184
 1045.0000     0.9865     1.7184
 1045.5000     0.9870     1.7184
 1046.0000     0.9875     1.5036
 1046.5000     0.9880     1.7184
 1047.0000     0.9886     1.9332
 1047.5000     0.9891     2.1698
 1048.0000     0.8643     2.2048
 1048.5000     0.8648     2.2398
 1049.0000     0.8653     2.2748
 1049.5000     0.8659     2.3098
 1050.0000     0.8664     2.3449
 1050.5000     0.8670     2.3799
 1051.0000     0.8675     2.4149
 1051.5000     0.8680     2.4499
 1052.0000     0.8685     2.4849
 1052.5000     0.8691     2.5200
 1053.0000     0.8696     2.5550
 1053.5000     0.8701     2.5883
 1054.0000     0.8706     2.6205
 1054.5000     0.8711     2.6527
 1055.0000     0.8716     2.6850
 1055.5000     0.8721     2.7172
 1056.0000     0.8727     2.7494
 1056.5000     0.8732     2.7816
 1057.0000     0.8738     2.8138
 1057.5000     0.8743     2.8461
 1058.0000     0.8748     2.8783
 1058.5000     0.8753     2.9105
 1059.0000     0.8758     2.9427
 1059.5000     0.8764     2.9749
 1060.0000     0.8769     3.0072
 1060.5000     0.8773     3.0394
 1061.0000     0.8779     3.0716
 1061.5000     0.8785     3.1038
 1062.0000     0.8790     3.1360
 1062.5000     0.8795     3.1683
 1063.0000     0.8486     3.2068
 1063.5000     0.8597     3.0311
 1064.0000     0.8602     2.8122
 1064.5000     0.8607     2.5933
 1065.0000     0.8612     2.3744
 1065.5000     0.8617     2.1480
 1066.0000     0.8622     2.3575
 1066.5000     0.8627     2.5745
 1067.0000     0.8633     2.7915
 1067.5000     0.8638     3.0085
 1068.0000     0.8644     3.4368
 1068.5000     0.8232     7.9475
 1069.0000     0.8237    12.8878
 1069.5000     0.8242    17.1838
 1070.0000     0.8247    21.0501
 1070.5000     0.8252    24.4869
 1071.0000     0.8257    24.7017
 1071.5000     0.8262    24.0573
 1072.0000     0.8267    22.3389
 1072.5000     0.8273    20.1909
 1073.0000     0.8278    19.3317
 1073.5000     0.8283    18.2578
 1074.0000     0.8288    17.1838
 1074.5000     0.8293    16.3246
 1075.0000     0.8299    15.2506
 1075.5000     0.8305    14.1766
 1076.0000     0.8310    13.3174
 1076.5000     0.8315    12.0286
 1077.0000     0.8320    11.3842
 1077.5000     0.8325    10.7399
 1078.0000     0.8330    10.3103
 1078.5000     0.8335    10.3103
 1079.0000     0.8340    10.0955
 1079.5000     0.9807     9.8807
 1080.0000     0.9603     9.6659
 1080.5000     0.9821     9.6659
 1081.0000     0.9724     9.6659
 1081.5000     0.9419     9.8807
 1082.0000     0.9216     9.6659
 1082.5000     0.9119     9.8807
 1083.0000     0.9129     9.8807
 1083.5000     0.9136     9.8807
 1084.0000     0.9040     9.8807
 1084.5000     0.8726     9.8807
 1085.0000     0.8637     9.6659
 1085.5000     0.8647     9.8807
 1086.0000     0.8655     9.6659
 1086.5000     0.8662     9.6659
 1087.0000     0.8670     9.6659
 1087.5000     0.8678     9.7694
 1088.0000     0.8685     9.4511
 1088.5000     0.8693     7.9475
 1089.0000     0.8701     7.3031
 1089.5000     0.8708     6.8735
 1090.0000     0.8716     6.8735
 1090.5000     0.8724     6.8735
 1091.0000     0.8732     7.3031
 1091.5000     0.8428     7.3031
 1092.0000     0.6348     7.3031
 1092.5000     0.6356     6.6587
 1093.0000     0.6363     6.0143
 1093.5000     0.6266     5.5847
 1094.0000     0.6274     5.1551
 1094.5000     0.6282     4.7255
 1095.0000     0.6289     4.7255
 1095.5000     0.6297     4.5107
 1096.0000     0.6305     4.2959
 1096.5000     0.6313     4.2959
 1097.0000     0.6320     4.2959
 1097.5000     0.6330     4.2959
 1098.0000     0.6337     4.2959
 1098.5000     0.6345     4.2959
 1099.0000     0.6353     4.2959
 1099.5000     0.6360     4.2959
 1100.0000     0.6368     4.2959
 1100.5000     0.6370     4.2959
 1101.0000     0.6370     4.5107
 1101.5000     0.6370     4.5107
 1102.0000     0.6370     4.2959
 1102.5000     0.6370     4.3096
 1103.0000     0.6370     4.3406
 1103.5000     0.6370     4.3715
 1104.0000     0.6369     4.4025
 1104.5000     0.6369     4.4335
 1105.0000     0.6369     4.4645
 1105.5000     0.6369     4.4955
 1106.0000     0.6369     4.5265
 1106.5000     0.6369     4.5575
 1107.0000     0.6369     4.5884
 1107.5000     0.6369     4.6181
 1108.0000     0.6369     4.6396
 1108.5000     0.6369     4.6611
 1109.0000     0.6369     4.6826
 1109.5000     0.6369     4.7041
 1110.0000     0.6369     4.7255
 1110.5000     0.6369     4.7470
 1111.0000     0.6369     4.7685
 1111.5000     0.6369     4.7900
 1112.0000     0.6368     4.8115
 1112.5000     0.6368     4.8329
 1113.0000     0.6368     4.8544
 1113.5000     0.6368     4.8759
 1114.0000     0.6368     4.8974
 1114.5000     0.6368     4.9189
 1115.0000     0.6368     4.9403
 1115.5000     0.6368     4.9618
 1116.0000     0.6368     4.9833
 1116.5000     0.6368     5.0048
 1117.0000     0.6368     5.0263
 1117.5000     0.6368     5.0477
 1118.0000     0.6368     5.0692
 1118.5000     0.6368     5.0907
 1119.0000     0.6368     5.1122
 1119.5000     0.6367     5.1337
 1120.0000     0.6379     5.1551
 1120.5000     0.6528     5.1766
 1121.0000     0.6677     5.1981
 1121.5000     0.6825     5.2196
 1122.0000     0.4510     5.2411
 1122.5000     0.4515     5.2625
 1123.0000     0.4520     5.2840
 1123.5000     0.4525     5.3055
 1124.0000     0.4530     5.3057
 1124.5000     0.4535     5.2429
 1125.0000     0.4541     5.1800
 1125.5000     0.4546     5.1172
 1126.0000     0.4551     5.0544
 1126.5000     0.4556     4.9916
 1127.0000     0.4562     4.9287
 1127.5000     0.4568     4.8659
 1128.0000     0.5721     4.8031
 1128.5000     0.5726     4.7403
 1129.0000     0.5731     4.7255
 1129.5000     0.5736     4.7255
 1130.0000     0.5741     4.7255
 1130.5000     0.5120     4.7255
 1131.0000     0.5125     4.7255
 1131.5000     0.5131     4.7255
 1132.0000     0.5137     4.7255
 1132.5000     0.5142     4.7255
 1133.0000     0.5147     4.7255
 1133.5000     0.5152     4.7255
 1134.0000     0.5157     4.7255
 1134.5000     0.5162     4.7255
 1135.0000     0.5167     4.7255
 1135.5000     0.5173     4.7255
 1136.0000     0.5178     7.6557
 1136.5000     0.5183    12.7328
 1137.0000     0.5188    17.8098
 1137.5000     0.5193    19.6699
 1138.0000     0.5199    18.6886
 1138.5000     0.5204    17.7074
 1139.0000     0.5209    16.7261
 1139.5000     0.5215    15.7449
 1140.0000     0.5215    14.6062
 1140.5000     0.5206    14.5634
 1141.0000     0.5198    14.5123
 1141.5000     0.5190    14.4613
 1142.0000     0.5181    14.4102
 1142.5000     0.5173    14.3592
 1143.0000     0.5165    14.3081
 1143.5000     0.5156    14.2571
 1144.0000     0.5148    14.2061
 1144.5000     0.5139    14.1766
 1145.0000     0.5131    13.9618
 1145.5000     0.5123    13.5322
