~VERSION INFORMATION
 VERS.                2.0:   CWLS LOG ASCII STANDARD - VERSION 2.0
 WRAP.                 NO:   ONE LINE PER DEPTH STEP
~WELL INFORMATION
#MNEM.UNIT      DATA TYPE    INFORMATION
#----------   ------------   ------------------------------
 STRT.F          690.5000:   START DEPTH
 STOP.F         2366.0000:   STOP DEPTH
 STEP.F            0.5000:   STEP LENGTH
 NULL.          -999.2500:   NO VALUE
 COMP. LAWRENCE/ALLISON INC:   COMPANY
 WELL.  NPR 3 #26SHX10-10:   WELL
 FLD .             TEAPOT:   FIELD
 LOC .      S10 T38N R78W:   LOCATION
 CNTY.            NATRONA:   COUNTY
 STAT.            WYOMING:   STATE
 CTRY. UNITED STATES OF AMERICA:   COUNTRY
 SRVC.            Unknown:   SERVICE COMPANY
 DATE.        30-DEC-1992:   LOGDATE
 API .       490251113600:   API NUMBER
~CURVE INFORMATION
#MNEM.UNIT       API CODE    CURVE DESCRIPTION
#----------   ------------   ------------------------------
 DEPT.F                  :   
 ROP .MIN/FT 91 810 01 00:   RATE OF DRILLING PENETRATION
 TGAS.UNITS  91 830 01 00:   TOTAL GAS FROM HOTWIRE
~PARAMETER INFORMATION
#MNEM.UNIT          VALUE    DESCRIPTION
#----------   ------------   ------------------------------
 EKB .F              5235:   KELLING BUSHING
 EGL .F              5225:   GROUND LEVEL
 DATE.           12-30-92:   RUN DATE
 DD  .F              2365:   DEPTH DRILLER
 BLI .F              2360:   BOTTOM LOG INTERVAL
 TLI .F              2160:   TOP LOG INTERVAL
 CS  .IN            8.625:   CASING SIZE
 CBD .F               675:   CASING BOTTOM DRILLER
 TCS .HRS            0200:   TIME CURCULATED STOPPED
 TLAB.HRS            1700:   TIME LOGGER AT BOTTOM
 ENGI.               HUSK:   RECORDING ENGINEER
 WITN.              TOWER:   WITNESSED BY
 CLNT.            A2DTECH:   CLIENT CODE
 ORIG.           5" PRINT:   ORIGIN OF DATA
 UWI .       490251113600:   UNIQUE WELL ID
 DICO. A2D Technologies, Inc.:   DIGITIZING COMPANY
~OTHER INFORMATION
~A   DEPT      ROP         TGAS 
# ...
 1784.0000     2.1591    24.5842
 1784.5000     2.2858    24.6101
 1785.0000     2.4230    24.6360
 1785.5000     2.5286    24.6620
 1786.0000     2.4549    24.6879
 1786.5000     2.3178    24.7138
 1787.0000     2.1597    24.7397
 1787.5000     2.0526    24.7657
 1788.0000     1.9911    24.7916
 1788.5000     2.2233    24.8175
 1789.0000     2.4133    24.8435
 1789.5000     2.5400    24.8694
 1790.0000     2.5190    24.8953
 1790.5000     2.3398    24.9213
 1791.0000     2.1922    24.9472
 1791.5000     2.0230    24.9731
 1792.0000     1.9709    24.9991
 1792.5000     2.0554    25.0250
 1793.0000     2.2032    25.0509
 1793.5000     2.4459    25.0769
 1794.0000     2.5198    25.1028
 1794.5000     2.3617    25.1287
 1795.0000     2.2036    25.1547
 1795.5000     2.0666    25.1806
 1796.0000     2.0238    25.2065
 1796.5000     2.1301    25.2324
 1797.0000     2.3728    25.2584
 1797.5000     2.5311    25.2843
 1798.0000     2.4890    25.3102
 1798.5000     2.3204    25.3362
 1799.0000     2.1306    25.3621
 1799.5000     2.0674    25.3880
 1800.0000     2.0605    25.4161
 1800.5000     2.2438    25.6047
 1801.0000     2.5016    25.8101
 1801.5000     2.5340    26.0154
 1802.0000     2.5240    26.2208
 1802.5000     2.5354    26.4261
 1803.0000     2.5361    26.6315
 1803.5000     2.5369    26.8369
 1804.0000     2.5165    27.0422
 1804.5000     2.4117    27.2476
 1805.0000     2.2514    27.4529
 1805.5000     2.1123    27.6583
 1806.0000     1.9921    27.8637
 1806.5000     1.8768    28.0690
 1807.0000     1.7931    28.2744
 1807.5000     1.7095    28.4797
 1808.0000     1.6469    28.6851
 1808.5000     1.5843    28.8905
 1809.0000     1.5217    29.0958
 1809.5000     1.5014    29.3012
 1810.0000     1.6660    29.5065
 1810.5000     1.8722    29.7119
 1811.0000     2.0100    29.9172
 1811.5000     2.0108    30.1226
 1812.0000     2.0115    30.3280
 1812.5000     2.0122    30.5333
 1813.0000     2.0129    30.7507
 1813.5000     2.0242    30.7810
 1814.0000     2.0354    30.7775
 1814.5000     2.0467    30.7740
 1815.0000     2.0160    30.7705
 1815.5000     1.9956    30.7670
 1816.0000     1.9119    30.7635
 1816.5000     1.7439    30.7600
 1817.0000     1.6180    30.7565
 1817.5000     1.5131    30.7529
 1818.0000     1.5561    30.7494
 1818.5000     1.7256    30.7459
 1819.0000     1.9279    30.7424
 1819.5000     2.0908    30.7389
 1820.0000     2.2343    30.7354
 1820.5000     2.3511    30.7319
 1821.0000     2.5733    30.7284
 1821.5000     2.5635    30.7249
 1822.0000     2.4376    30.7213
 1822.5000     2.2801    30.7178
 1823.0000     2.0804    30.7143
 1823.5000     1.9754    30.7108
 1824.0000     2.0393    30.7073
 1824.5000     2.4097    30.7038
 1825.0000     2.5054    30.7003
 1825.5000     2.4954    30.6968
 1826.0000     2.5068    30.6933
 1826.5000     2.5076    30.6897
 1827.0000     2.4975    30.6862
 1827.5000     2.4879    30.6827
 1828.0000     2.4253    30.6792
 1828.5000     2.2644    30.6757
 1829.0000     2.0366    30.6722
 1829.5000     1.9844    30.6687
 1830.0000     2.1119    30.6652
 1830.5000     2.2498    30.6617
 1831.0000     2.4087    30.6582
 1831.5000     2.5782    30.6546
 1832.0000     2.4524    30.6511
 1832.5000     2.2105    30.6476
 1833.0000     2.0728    30.6441
 1833.5000     2.0009    30.6406
 1834.0000     2.0018    30.6371
 1834.5000     2.0025    30.6336
 1835.0000     2.0033    30.6301
 1835.5000     2.0778    30.6266
 1836.0000     2.2157    30.6230
 1836.5000     2.3641    30.6197
 1837.0000     2.5125    31.7302
 1837.5000     2.5765    31.7716
 1838.0000     2.2939    31.8130
 1838.5000     1.8819    31.8544
 1839.0000     1.5662    31.8958
 1839.5000     1.5034    32.9960
 1840.0000     1.5043    33.0374
 1840.5000     1.5050    32.0188
 1841.0000     1.4950    22.5319
 1841.5000     1.4959    21.8920
 1842.0000     1.5072    21.5576
 1842.5000     1.6697    20.5412
 1843.0000     1.8833    20.5835
 1843.5000     1.9526    20.6281
 1844.0000     1.9638    20.6764
 1844.5000     1.9645    20.7178
 1845.0000     1.9653    20.7529
 1845.5000     1.9554    20.7971
 1846.0000     1.9562    20.8454
 1846.5000     1.9358    20.8833
 1847.0000     1.9476    20.9224
 1847.5000     2.0575    19.9073
 1848.0000     2.2651    19.9486
 1848.5000     2.4452    19.9906
 1849.0000     2.5408    18.9657
 1849.5000     2.5626    19.0243
 1850.0000     2.5608    19.0588
 1850.5000     2.5464    19.0800
 1851.0000     2.5321    19.1012
 1851.5000     2.5235    19.1224
 1852.0000     2.5245    19.1435
 1852.5000     2.5254    19.1647
 1853.0000     2.5262    19.1859
 1853.5000     2.5270    19.2071
 1854.0000     2.5278    19.2282
 1854.5000     2.5287    19.2494
 1855.0000     2.5297    19.2706
 1855.5000     2.5305    19.2918
 1856.0000     2.5313    19.3129
 1856.5000     2.5322    19.3341
 1857.0000     2.5330    19.3553
 1857.5000     2.5338    19.3765
 1858.0000     2.5346    19.3976
 1858.5000     2.5355    19.4188
 1859.0000     2.5363    19.4400
 1859.5000     2.5371    19.4612
 1860.0000     2.5380    19.4848
 1860.5000     2.5390    19.5054
 1861.0000     2.5398    19.5352
 1861.5000     2.5406    19.6135
 1862.0000     2.5415    19.6919
 1862.5000     2.5423    19.7702
 1863.0000     2.5431    19.8486
 1863.5000     2.5439    19.9270
 1864.0000     2.5448    20.0053
 1864.5000     2.5561    20.0837
 1865.0000     2.5784    20.1620
 1865.5000     2.6000    20.2404
 1866.0000     2.5483    20.3187
 1866.5000     2.4331    20.3971
 1867.0000     2.3073    20.4754
 1867.5000     2.0972    20.5538
 1868.0000     1.9819    20.6321
 1868.5000     1.7823    20.7105
 1869.0000     1.3823    20.7888
 1869.5000     1.0351    20.8672
 1870.0000     0.9937    20.9455
 1870.5000     1.0051    21.0239
 1871.0000     1.0376    21.1022
 1871.5000     1.0386    21.1806
 1872.0000     1.0077    21.2590
 1872.5000     0.9347    21.3373
 1873.0000     0.8406    21.4157
 1873.5000     0.7992    21.4940
 1874.0000     0.7893    21.5724
 1874.5000     0.7796    21.6507
 1875.0000     0.7912    21.7291
 1875.5000     0.8025    21.8074
 1876.0000     0.8245    21.8858
 1876.5000     0.8020    21.9641
 1877.0000     0.6786    22.0425
 1877.5000     0.5845    22.1208
 1878.0000     0.5535    22.1992
 1878.5000     0.5862    22.2775
 1879.0000     0.6609    22.3559
 1879.5000     0.7144    22.4342
 1880.0000     0.7574    22.5126
 1880.5000     0.7688    22.5909
 1881.0000     0.7485    22.6693
 1881.5000     0.7177    22.7477
 1882.0000     0.7608    22.8260
 1882.5000     0.8145    22.9044
 1883.0000     0.8470    22.9827
 1883.5000     0.8900    23.0611
 1884.0000     0.9330    23.1394
 1884.5000     0.9549    23.2178
 1885.0000     0.9769    23.2961
 1885.5000     1.0093    23.3745
 1886.0000     0.9996    23.4528
 1886.5000     0.9688    23.5312
 1887.0000     0.8852    23.6095
 1887.5000     0.8105    23.6879
 1888.0000     0.7709    23.7662
 1888.5000     0.7719    23.8446
 1889.0000     0.7727    23.8892
 1889.5000     0.7735    23.9098
 1890.0000     0.7744    23.9304
 1890.5000     0.7541    23.9511
 1891.0000     0.7442    23.9718
 1891.5000     0.7030    23.9929
 1892.0000     0.5772    25.0769
 1892.5000     0.5359    25.0975
 1893.0000     0.6008    25.1181
 1893.5000     0.6781    24.0747
 1894.0000     0.7390    24.1005
 1894.5000     0.7714    24.1211
 1895.0000     0.7723    25.2005
 1895.5000     0.7836    25.2212
 1896.0000     0.7845    25.2424
 1896.5000     0.7853    25.2675
 1897.0000     0.7754    25.2881
 1897.5000     0.7658    25.3087
 1898.0000     0.7456    25.3293
 1898.5000     0.7035    25.3499
 1899.0000     0.6734    25.3705
 1899.5000     0.6744    25.3906
 1900.0000     0.7066    25.8653
 1900.5000     0.7909    28.6306
 1901.0000     0.8118    29.7402
 1901.5000     0.8432    32.9580
 1902.0000     0.8536    37.2347
 1902.5000     0.8744    38.7646
 1903.0000     0.8742    39.4351
 1903.5000     0.8635    39.4765
 1904.0000     0.8422    39.5179
 1904.5000     0.8314    39.5593
 1905.0000     0.7890    38.5350
