~VERSION INFORMATION
 VERS.                2.0:   CWLS LOG ASCII STANDARD - VERSION 2.0
 WRAP.                 NO:   ONE LINE PER DEPTH STEP
~WELL INFORMATION
#MNEM.UNIT      DATA TYPE    INFORMATION
#----------   ------------   ------------------------------
 STRT.F           30.0000:   START DEPTH
 STOP.F          482.0000:   STOP DEPTH
 STEP.F            0.5000:   STEP LENGTH
 NULL.          -999.2500:   NO VALUE
 COMP. FENIX & SCISSON INC:   COMPANY
 WELL.        S 10 #72-10:   WELL
 FLD .             TEAPOT:   FIELD
 LOC .      S10 T38N R78W:   LOCATION
 CNTY.            NATRONA:   COUNTY
 STAT.            WYOMING:   STATE
 CTRY. UNITED STATES OF AMERICA:   COUNTRY
 SRVC.            Unknown:   SERVICE COMPANY
 DATE.        07-FEB-1978:   LOGDATE
 API .       490251056900:   API NUMBER
~CURVE INFORMATION
#MNEM.UNIT       API CODE    CURVE DESCRIPTION
#----------   ------------   ------------------------------
 DEPT.F                  :   
 CALD.IN     45 280 60 00:   CALIPER FROM DENSITY LOG
 CORR.G/C3   45 356 01 00:   DENSITY CORRECTION
 DPHI.DEC    45 890 12 00:   DENSITY POROSITY SANDSTONE
 GRD .GAPI   45 310 01 00:   GAMMA RAY FROM DENSITY LOG
 RHOB.G/C3   45 350 01 00:   BULK DENSITY
 SN  .OHMM   05 040 16 00:   SHORT NORMAL 16"
 SPR .MV     05 010 01 00:   SPONTANEOUS POTENTIAL FROM RES.
 ILD .OHMM   05 120 46 00:   INDUCTION LOG DEEP
~PARAMETER INFORMATION
#MNEM.UNIT          VALUE    DESCRIPTION
#----------   ------------   ------------------------------
 PD  .                 GL:   PERMANENT DATUM
 EPD .F              5174:   ELEVATION PERMANENT DATUM
 LMF .                 KB:   LOG MEASURED FROM
 DMF .                 KB:   DRILLING MEASURED FROM
 EKB .F              5177:   KELLING BUSHING
 EGL .F              5174:   GROUND LEVEL
 DATE.        07-FEB-1978:   RUN DATE
 RUN .                  1:   RUN NUMBER
 DD  .F               469:   DEPTH DRILLER
 DL  .F               482:   DEPTH LOGGER
 BLI .F               474:   BOTTOM LOG INTERVAL
 TLI .F                44:   TOP LOG INTERVAL
 CS  .IN            8.625:   CASING SIZE
 CBD .F                39:   CASING BOTTOM DRILLER
 CBL .F                42:   CASING BOTTOM LOGGER
 BS  .IN            7.875:   BIT SIZE
 BSD .F               469:   BIT SIZE AT DEPTH
 DFT .    LIGNO/SULF FULL:   DRILLING FLUID TYPE
 DFD .                8.7:   DRILLING FLUID DENSITY
 DFV .                 31:   DRILLING FLUID VISCOSITY
 DFPH.                  9:   DRILLING FLUID PH
 DFL .                4.8:   DRILLING FLUID LOSS
 MSS .           FLOWLINE:   MUD SAMPLE SOURCE
 RMS .OHMM             .9:   RESISTIVITY MUD SAMPLE
 MST .F                50:   MUD SAMPLE TEMPERATURE
 RMF .OHMM            .65:   RESISTIVITY MUD FILTRATE SAMPLE
 MFST.F                58:   MUD FILTRATE SAMPLE TEMPERATURE
 RMC .OHMM            1.2:   RESISTIVITY MUD CAKE
 MCST.F                58:   MUD CAKE SAMPLE TEMPERATURE
 MFSS.               MEAS:   MUD FILTRATE SAMPLE SOURCE
 RMB .OHMM            .55:   RESISTIVITY MUD AT BHT
 BHT .F                82:   BOTTOM HOLE TEMPERATURE
 TCS .HRS               3:   TIME CURCULATED STOPPED
 MRT .F                82:   MAXIMUM RECORDED TEMPERATURE
 LUN .               2958:   LOGGING UNIT NUMBER
 LUL .               CASP:   LOGGING UNIT LOCATION
 ENGI.            POINTER:   RECORDING ENGINEER
 WITN.         HARRINGTON:   WITNESSED BY
 CLNT.            A2DTECH:   CLIENT CODE
 ORIG.           5" PRINT:   ORIGIN OF DATA
 UWI .       490251056900:   UNIQUE WELL ID
 DICO. A2D Technologies, Inc.:   DIGITIZING COMPANY
~OTHER INFORMATION
~A   DEPT     CALD       CORR       DPHI         GRD      RHOB         SN        SPR        ILD   
# ...
  111.0000     7.7727     0.0437     0.1127    82.9858     2.4643    10.3156   -32.3224    11.3945
  111.5000     7.8336     0.0393     0.1094    84.0319     2.4749    10.2492   -31.8716    11.3976
  112.0000     7.8795     0.0123     0.1178    82.2495     2.4524    10.2554   -32.0179    11.4008
  112.5000     7.9404    -0.0042     0.1199    84.7848     2.4486    10.2603   -32.4627    11.3186
  113.0000     8.0013     0.0216     0.1175    85.8298     2.4540    10.2652   -32.7582    11.1624
  113.5000     8.0323     0.0398     0.1165    84.0496     2.4593    10.2702   -32.7552    11.0084
  114.0000     8.0783     0.0430     0.1179    83.4587     2.4623    10.2743   -32.7522    10.7980
  114.5000     8.0944     0.0446     0.1336    83.4631     2.4255    10.2801   -32.7493    10.6514
  115.0000     8.1105     0.0764     0.1581    83.0200     2.3871    10.2850   -32.7457    10.3636
  115.5000     8.1116     0.1669     0.1526    84.5136     2.3909    10.2176   -32.4442    10.1529
  116.0000     8.1278     0.2634     0.1291    85.7857     2.4256    10.1519   -32.1428    10.0158
  116.5000     8.1290     0.3072     0.1264    80.8022     2.4316    10.0180   -31.8413     9.8799
  117.0000     8.1130     0.3513     0.1270    81.1042     2.4369     9.8848   -31.8383     9.7471
  117.5000     8.0570     0.4066     0.1219    82.4480     2.4475     9.6859   -31.6861     9.6148
  118.0000     7.9984     0.4620     0.1032    81.1091     2.4859     9.5571   -31.6832     9.4856
  118.5000     7.9548     0.4779     0.0694    81.5819     2.5266     9.4300   -31.8302     9.4220
  119.0000     7.8814     0.4636     0.0679    85.2193     2.5410     9.3682   -31.9758     9.3595
  119.5000     7.8079     0.3984     0.0803    87.7078     2.5399     9.3738   -32.2721     9.2973
  120.0000     7.7345     0.2976     0.0962    87.2330     2.5079     9.2491   -32.5669     9.4304
  120.5000     7.6760     0.2812     0.0971    89.0232     2.5102     9.2536   -32.8632     9.5648
  121.0000     7.6321     0.1910     0.1091    87.8371     2.4794     9.2580   -33.0095     9.5013
  121.5000     7.5888     0.1293     0.1227    83.2284     2.4576     9.1984   -33.3050     9.4381
  122.0000     7.5747     0.1069     0.1233    79.5115     2.4411     9.1392   -33.3013     9.3755
  122.5000     7.5613     0.1070     0.1205    80.5587     2.4441     9.1437   -33.2984     9.3133
  123.0000     7.5774     0.1026     0.1196    80.8596     2.4502     9.1481   -33.1461     9.2515
  123.5000     7.6026     0.0997     0.1163    79.3770     2.4555     9.1525   -32.9939     9.1901
  124.0000     7.6394     0.0939     0.1139    78.3387     2.4638     9.1570   -32.9910     9.1926
  124.5000     7.6854     0.0789     0.1133    77.0049     2.4676     9.1614   -32.8388     9.1952
  125.0000     7.7313     0.0414     0.1162    75.2236     2.4616     9.0921   -32.2388     9.1341
  125.5000     7.7702     0.0280     0.1253    74.1863     2.4541     9.0438   -32.0866     9.0734
  126.0000     7.8084     0.0342     0.1223    77.1669     2.4376     8.9856   -32.0836     9.0765
  126.5000     7.8394     0.0418     0.1195    79.9987     2.4505     8.9278   -32.2299     9.0790
  127.0000     7.8856     0.0452     0.1171    79.5567     2.4588     8.8101   -32.3762     8.9558
  127.5000     7.9465     0.0406     0.1162    80.0075     2.4596     8.7524   -32.5218     8.8963
  128.0000     7.9924     0.0347     0.1186    81.9465     2.4566     8.6370   -32.6688     8.8373
  128.5000     8.0235     0.0303     0.1222    85.5223     2.4474     8.5221   -32.6651     8.7179
  129.0000     8.0694     0.0289     0.1315    88.9732     2.4308     8.4663   -32.8122     8.5413
  129.5000     8.0855     0.0594     0.1276    91.0759     2.4296     8.2969   -32.8085     8.4254
  130.0000     8.0867     0.1051     0.1170    91.9344     2.4530     8.1866   -32.9555     8.2548
  130.5000     8.1028     0.1414     0.1056    90.8971     2.4726     8.1329   -32.9518     8.1433
  131.0000     8.1189     0.1582     0.0993    89.1169     2.4801     8.0257   -33.0989     8.0892
  131.5000     8.1350     0.1820     0.0971    90.7582     2.4900     8.0296   -33.0952     8.0354
  132.0000     8.1511     0.1473     0.1031    91.0592     2.4953     8.0334   -32.9430     7.9822
  132.5000     8.1672     0.1278     0.1314    87.9397     2.4359     8.0373   -32.9400     7.9844
  133.0000     8.1833     0.1852     0.1420    82.7358     2.4088     8.0412   -32.7878     7.9866
  133.5000     8.1546     0.2290     0.1389    80.8046     2.4081     8.1010   -32.7848     7.9887
  134.0000     8.1260     0.2894     0.1290    82.7446     2.4315     8.1613   -32.9319     8.0466
  134.5000     8.0971     0.3497     0.1151    83.7907     2.4721     8.1653   -33.3759     8.0488
  135.0000     8.0677     0.4116     0.1045    84.3903     2.4842     8.2833   -33.9700     8.1634
  135.5000     8.0250     0.4645     0.0784    85.7340     2.5264     8.3450   -34.1164     8.2798
  136.0000     7.9938     0.4721     0.0494    88.5658     2.5625     8.4071   -34.1133     8.4048
  136.5000     7.9531     0.4414     0.0545    89.7607     2.5716     8.5286   -33.5134     8.5271
  137.0000     7.9092     0.3706     0.0627    89.7651     2.5536     8.5922   -32.9134     8.6392
  137.5000     7.8509     0.2948     0.0654    89.1743     2.5498     8.6562   -32.6119     8.7018
  138.0000     7.7924     0.2342     0.0810    88.1370     2.5404     8.6604   -32.7642     8.7647
  138.5000     7.7488     0.1749     0.0921    86.8022     2.5102     8.6646   -33.2030     8.7671
  139.0000     7.7201     0.1213     0.1111    86.6498     2.4750     8.7907   -32.8836     8.7083
  139.5000     7.6912     0.1131     0.1141    87.5640     2.4635     8.7342   -32.0030     8.6511
  140.0000     7.6628     0.1419     0.0834    88.6111     2.4846     8.7384   -31.7009     8.6535
  140.5000     7.6640     0.1465     0.0909    88.0750     2.5185     8.6811   -31.8479     8.6558
  141.0000     7.6652     0.0819     0.1029    86.2290     2.5050     8.6263   -31.9942     8.5978
  141.5000     7.6719     0.0309     0.1183    87.2762     2.4478     8.5697   -31.9905     8.5407
  142.0000     7.6974     0.0325     0.1198    85.7914     2.4494     8.5749   -32.2861     8.5436
  142.5000     7.7348     0.0221     0.1249    87.2850     2.4366     8.4598   -32.7309     8.5460
  143.0000     7.7731     0.0343     0.1194    88.9263     2.4404     8.4054   -33.1764     8.4887
  143.5000     7.8126     0.0464     0.1125    87.8891     2.4698     8.3513   -33.4720     8.4323
  144.0000     7.8515     0.0450     0.1134    88.0423     2.4653     8.2976   -33.4683     8.3190
  144.5000     7.8836     0.0407     0.1125    88.3443     2.4684     8.2442   -33.6153     8.3213
  145.0000     7.9303     0.0363     0.1143    90.2832     2.4661     8.2492   -33.6116     8.2660
  145.5000     7.9771     0.0334     0.1194    93.4127     2.4609     8.3684   -33.4594     8.3259
  146.0000     8.0354     0.0306     0.1161    91.4826     2.4570     8.3724   -33.4565     8.4445
  146.5000     8.0665     0.0307     0.1145    85.5346     2.4580     8.3765   -33.4535     8.5648
  147.0000     8.0975     0.0293     0.1169    86.2831     2.4550     8.3805   -33.3013     8.5672
  147.5000     8.1285     0.0310     0.1205    84.7994     2.4377     8.3845   -32.8506     8.5695
  148.0000     8.1446     0.0492     0.1254    85.2502     2.4460     8.3886   -32.5491     8.5719
  148.5000     8.1757     0.0764     0.1217    86.2963     2.4415     8.3345   -32.2477     8.4561
  149.0000     8.1918     0.0946     0.1216    87.6400     2.4431     8.2809   -32.5432     8.4590
  149.5000     8.1930     0.1143     0.1250    88.8349     2.4462     8.2277   -32.5403     8.3442
  150.0000     8.1941     0.1250     0.1241    86.3095     2.4379     8.1748   -33.1331     8.2888
  150.5000     8.1953     0.1549     0.1217    87.0625     2.4418     8.4079   -33.1257     8.3208
  151.0000     8.2155     0.1885     0.1204    86.7500     2.4480     8.2949   -32.8197     8.3526
