~VERSION INFORMATION
 VERS.                2.0:   CWLS LOG ASCII STANDARD - VERSION 2.0
 WRAP.                 NO:   ONE LINE PER DEPTH STEP
~WELL INFORMATION
#MNEM.UNIT      DATA TYPE    INFORMATION
#----------   ------------   ------------------------------
 STRT.F           80.0000:   START DEPTH
 STOP.F          718.0000:   STOP DEPTH
 STEP.F            0.5000:   STEP LENGTH
 NULL.          -999.2500:   NO VALUE
 COMP. U S NAVY-INTEX OIL:   COMPANY
 WELL. RES 3 TEAPOT DOM #11SX-2:   WELL
 FLD .             TEAPOT:   FIELD
 LOC .       S2 T38N R78W:   LOCATION
 CNTY.            NATRONA:   COUNTY
 STAT.            WYOMING:   STATE
 CTRY. UNITED STATES OF AMERICA:   COUNTRY
 SRVC.       Schlumberger:   SERVICE COMPANY
 DATE.        05-AUG-1961:   LOGDATE
 API .       490250647900:   API NUMBER
~CURVE INFORMATION
#MNEM.UNIT       API CODE    CURVE DESCRIPTION
#----------   ------------   ------------------------------
 DEPT.F                  :   
 ILD .OHMM   05 120 46 00:   INDUCTION LOG DEEP
 ASN .OHMM   05 041 16 00:   AMPLIFIED SHORT NORMAL 16"
 SPR .MV     05 010 01 00:   SPONTANEOUS POTENTIAL FROM RES.
 CILD.MMHO   05 110 46 00:   CONDUCTIVITY INDUCTION LOG DEEP
 GR  .GAPI   30 310 01 00:   GAMMA RAY
~PARAMETER INFORMATION
#MNEM.UNIT          VALUE    DESCRIPTION
#----------   ------------   ------------------------------
 LMF .                 KB:   LOG MEASURED FROM
 DMF .                 KB:   DRILLING MEASURED FROM
 EKB .F              5105:   KELLING BUSHING
 EGL .F              5100:   GROUND LEVEL
 DATE.           8-5-1961:   RUN DATE
 RUN .                  1:   RUN NUMBER
 DD  .F               715:   DEPTH DRILLER
 DL  .F               719:   DEPTH LOGGER
 BLI .F               718:   BOTTOM LOG INTERVAL
 TLI .F               120:   TOP LOG INTERVAL
 BS  .IN             6.75:   BIT SIZE
 BSD .F               715:   BIT SIZE AT DEPTH
 DFT .       OIL EMULSION:   DRILLING FLUID TYPE
 DFV .                 40:   DRILLING FLUID VISCOSITY
 RMS .OHMM           1.11:   RESISTIVITY MUD SAMPLE
 MST .F                68:   MUD SAMPLE TEMPERATURE
 TCS .HRS               2:   TIME CURCULATED STOPPED
 LUN .               2544:   LOGGING UNIT NUMBER
 LUL .                 NC:   LOGGING UNIT LOCATION
 ENGI.            EARNEST:   RECORDING ENGINEER
 WITN.          JORGENSEN:   WITNESSED BY
 CLNT.            A2DTECH:   CLIENT CODE
 ORIG.      2" & 5" PRINT:   ORIGIN OF DATA
 UWI .       490250647900:   UNIQUE WELL ID
 DICO. A2D Technologies, Inc.:   DIGITIZING COMPANY
~OTHER INFORMATION
~A   DEPT        ILD        ASN      SPR        CILD        GR   
   80.0000     6.3121     0.8648   -52.8650   263.9165  -999.2500
   80.5000     5.9642     0.9046   -52.8650   265.8300  -999.2500
   81.0000     5.7704     0.9513   -52.8650   273.9215  -999.2500
   81.5000     5.4523     1.0594   -52.8650   282.0129  -999.2500
   82.0000     5.2807     1.1344   -52.8652   288.0815  -999.2500
   82.5000     5.0783     1.2349   -52.8693   296.1730  -999.2500
   83.0000     4.8723     1.3353   -52.7151   304.2644  -999.2500
   83.5000     4.6667     1.4356   -52.5169   312.3559  -999.2500
   84.0000     4.4609     1.5361   -52.3135   320.4473  -999.2500
   84.5000     4.2551     1.6362   -52.2682   328.5388  -999.2500
   85.0000     4.0491     1.7328   -52.2591   336.6302  -999.2500
   85.5000     3.8422     1.9376   -52.5462   347.1599  -999.2500
   86.0000     3.6332     2.1742   -52.9138   358.4153  -999.2500
   86.5000     3.5227     2.4905   -53.2843   369.6946  -999.2500
   87.0000     3.4255     2.8186   -53.6544   377.7484  -999.2500
   87.5000     3.3981     3.1446   -54.0246   383.5717  -999.2500
   88.0000     3.3710     3.3651   -54.3951   389.3638  -999.2500
   88.5000     3.3437     3.3254   -54.7616   380.2960  -999.2500
   89.0000     3.3163     3.2917   -55.0641   368.8756  -999.2500
   89.5000     3.2891     3.2582   -55.0569   357.4553  -999.2500
   90.0000     3.2618     3.2249   -55.0051   343.5720  -999.2500
   90.5000     3.2339     3.1931   -54.9395   363.8407  -999.2500
   91.0000     3.2296     3.1658   -54.8730   390.6324  -999.2500
   91.5000     3.1065     2.8728   -54.8059   417.4155  -999.2500
   92.0000     2.8610     2.5575   -54.7391   444.0954  -999.2500
   92.5000     2.6149     2.2428   -54.6825   470.7754  -999.2500
   93.0000     2.3695     1.9272   -54.4479   497.4553  -999.2500
   93.5000     2.3357     1.6076   -54.4532   525.3479  -999.2500
   94.0000     2.3355     1.3905   -54.6495   525.3479  -999.2500
   94.5000     2.3330     1.1661   -54.9006   520.8535  -999.2500
   95.0000     2.4693     1.0648   -55.1546   487.8941  -999.2500
   95.5000     2.6626     1.0041   -55.4083   454.9547  -999.2500
   96.0000     2.8571     0.9464   -55.6617   421.9821  -999.2500
   96.5000     3.0517     0.9595   -55.9151   389.0040  -999.2500
   97.0000     3.2462     0.9764   -56.1685   356.0333  -999.2500
   97.5000     3.4409     0.9925   -56.4221   323.0971  -999.2500
   98.0000     3.6341     0.9930   -56.6751   297.0179  -999.2500
   98.5000     3.8274     0.9520   -56.9291   296.2972  -999.2500
   99.0000     3.7987     0.9126   -57.1946   300.1242  -999.2500
   99.5000     3.5480     0.8732   -57.0079   320.2086  -999.2500
  100.0000     3.2978     0.8337   -56.6975   351.5481  -999.2500
  100.5000     3.0460     0.7942   -56.3824   363.6593  -999.2500
  101.0000     2.7877     0.7553   -56.0677   369.4036  -999.2500
  101.5000     2.6828     0.7249   -55.7540   375.1479  -999.2500
  102.0000     2.6342     0.7245   -55.4392   380.8922  -999.2500
  102.5000     2.6333     0.7458   -55.1161   400.1823  -999.2500
  103.0000     2.6341     0.7637   -55.1926   423.4924  -999.2500
  103.5000     2.6342     0.7887   -55.3649   446.8025  -999.2500
  104.0000     2.6342     0.8428   -55.5410   451.7892  -999.2500
  104.5000     2.6342     0.9910   -55.7165   426.6874  -999.2500
  105.0000     2.6340     1.1256   -55.8916   404.9205  -999.2500
  105.5000     2.6336     1.0449   -56.0667   377.7808  -999.2500
  106.0000     2.6355     0.8996   -56.2422   350.6411  -999.2500
  106.5000     2.6901     0.7498   -56.4183   323.5015  -999.2500
  107.0000     2.8968     0.7731   -56.4492   296.3618  -999.2500
  107.5000     3.0966     0.8299   -56.4559   269.2222  -999.2500
  108.0000     3.2961     0.8880   -56.2705   250.9940  -999.2500
  108.5000     3.4960     0.9459   -56.0565   266.3877  -999.2500
  109.0000     3.6958     1.0036   -55.8403   279.7621  -999.2500
  109.5000     3.8953     1.0613   -55.6244   272.7745  -999.2500
  110.0000     4.0951     1.1190   -55.4086   264.2441  -999.2500
  110.5000     4.3867     1.1766   -55.1954   255.7186  -999.2500
  111.0000     4.6939     1.2344   -55.0542   247.2068  -999.2500
  111.5000     5.0015     1.3503   -54.8527   233.7404  -999.2500
  112.0000     5.3091     1.4760   -55.0404   219.4689  -999.2500
  112.5000     5.6165     1.6026   -55.2511   205.1974  -999.2500
  113.0000     5.9233     1.8252   -55.4631   194.1816  -999.2500
  113.5000     6.1900     2.2160   -55.6753   188.5205  -999.2500
  114.0000     6.3141     2.6185   -55.8872   182.8595  -999.2500
  114.5000     6.3113     3.9362   -56.0994   179.1617  -999.2500
  115.0000     6.1975     5.3652   -56.3106   178.4280  -999.2500
  115.5000     6.0690     6.2281   -56.5199   180.0268  -999.2500
  116.0000     5.9403     6.2684   -56.6465   181.8013  -999.2500
  116.5000     5.8118     6.1725   -56.5596   183.5739  -999.2500
  117.0000     5.6833     5.8016   -56.3437   185.3568  -999.2500
  117.5000     5.5541     5.4011   -56.1284   188.0716  -999.2500
  118.0000     5.4212     5.8948   -55.9128   192.0676  -999.2500
  118.5000     5.3238     6.4697   -55.6970   200.1406  -999.2500
  119.0000     5.2243     6.5922   -55.4797   213.5558  -999.2500
  119.5000     5.1243     6.6921   -55.2621   226.9710  -999.2500
  120.0000     5.0154     6.7641   -55.2526   241.0537  -999.2500
  120.5000     4.9409     6.7982   -55.2538   235.9907  -999.2500
  121.0000     6.0033     6.8323   -55.2529   226.2425  -999.2500
  121.5000     7.1452     6.8661   -55.2593   204.0929  -999.2500
  122.0000     8.2868     6.8999   -55.5014   173.6233  -999.2500
  122.5000     9.4321     6.9341   -55.7596   143.2154  -999.2500
  123.0000    10.5586     6.9674   -56.0173   112.8064  -999.2500
  123.5000    10.8381     7.0068   -56.2746    98.1860  -999.2500
  124.0000    11.0819     7.0890   -56.5322   100.4919  -999.2500
  124.5000    11.3286     7.2345   -56.7913   102.8389  -999.2500
  125.0000    11.5901     7.3838   -57.0416    93.7310  -999.2500
  125.5000    12.1517     7.5329   -57.0418    80.0872  -999.2500
  126.0000    12.7122     7.6817   -56.8027    85.5912  -999.2500
  126.5000    13.4510     7.8306   -56.5564    96.3959  -999.2500
  127.0000    11.9495     7.9334   -56.3115   107.2021  -999.2500
  127.5000    10.2934     7.9936   -56.0669   117.7718  -999.2500
  128.0000     9.9198     8.0537   -55.8223   119.4901  -999.2500
  128.5000     9.5344     8.1130   -55.5777   121.1647  -999.2500
  129.0000     9.1602     8.1400   -55.3326   122.7634  -999.2500
  129.5000     8.7814     8.0354   -55.0867   127.4379  -999.2500
  130.0000     8.1166     7.8457   -54.8634   131.9334  -999.2500
  130.5000     7.4584     7.6616   -54.9528   136.4289  -999.2500
  131.0000     6.8031     7.4861   -55.0489   140.6561  -999.2500
  131.5000     6.1483     7.3163   -55.1434   164.4756  -999.2500
  132.0000     5.4934     6.9219   -55.2376   185.3877  -999.2500
  132.5000     4.8382     6.3637   -55.3318   244.1498  -999.2500
  133.0000     4.1831     5.8031   -55.4261   294.2505  -999.2500
  133.5000     3.5295     5.2399   -55.5195   367.0425  -999.2500
  134.0000     2.9223     4.6768   -55.6142   434.4370  -999.2500
  134.5000     2.5516     4.1129   -55.5715   472.9672  -999.2500
  135.0000     2.2359     3.6029   -55.4399   498.5520  -999.2500
  135.5000     2.5071     3.3517   -55.3072   493.8900  -999.2500
  136.0000     2.9564     3.1197   -55.1735   479.5428  -999.2500
  136.5000     3.4057     3.1107   -55.0400   424.3250  -999.2500
  137.0000     3.8517     3.2370   -54.9067   369.1072  -999.2500
  137.5000     4.5874     3.4048   -54.7730   313.8894  -999.2500
  138.0000     5.4722     3.8569   -54.6387   258.6716  -999.2500
  138.5000     7.1616     4.3877   -54.5082   203.4538  -999.2500
  139.0000     9.2763     5.4397   -54.2573   156.3618  -999.2500
  139.5000    11.3970     6.4891   -54.2884   113.9041  -999.2500
  140.0000    13.6100     7.5358   -54.5049    77.7336  -999.2500
  140.5000    14.2687     8.6245   -54.7209    77.5845  -999.2500
