~VERSION INFORMATION
 VERS.                2.0:   CWLS LOG ASCII STANDARD - VERSION 2.0
 WRAP.                 NO:   ONE LINE PER DEPTH STEP
~WELL INFORMATION
#MNEM.UNIT      DATA TYPE    INFORMATION
#----------   ------------   ------------------------------
 STRT.F           12.0000:   START DEPTH
 STOP.F          448.0000:   STOP DEPTH
 STEP.F            0.5000:   STEP LENGTH
 NULL.          -999.2500:   NO VALUE
 COMP. LAWRENCE/ALLISON INC:   COMPANY
 WELL. LI2 -52-61 SX10 #10-10:   WELL
 FLD .             TEAPOT:   FIELD
 LOC .      S10 T38N R78W:   LOCATION
 CNTY.            NATRONA:   COUNTY
 STAT.            WYOMING:   STATE
 CTRY. UNITED STATES OF AMERICA:   COUNTRY
 SRVC.      Dresser Atlas:   SERVICE COMPANY
 DATE.        13-JAN-1985:   LOGDATE
 API .       490251100400:   API NUMBER
~CURVE INFORMATION
#MNEM.UNIT       API CODE    CURVE DESCRIPTION
#----------   ------------   ------------------------------
 DEPT.F                  :   
 AC  .US/F   60 520 00 00:   ACCOUSTIC
 SPR .MV     11 010 01 00:   SPONTANEOUS POTENTIAL FROM RES.
 RD  .OHMM   11 220 10 00:   RESISTIVITY DEEP
 RS  .OHMM   11 220 09 00:   RESISTIVITY SHALLOW
 RMLL.OHMM   11 270 04 00:   MICRO LATEROLOG
 GRD .GAPI   45 310 01 00:   GAMMA RAY FROM DENSITY LOG
 CALD.IN     45 280 60 00:   CALIPER FROM DENSITY LOG
 CORR.G/C3   45 356 01 00:   DENSITY CORRECTION
 DEN .G/C3   45 350 01 00:   COMPENSATED BULK DENSTIY
 PORD.DEC    45 890 12 00:   POROSITY DENSITY SANDSTONE
 CNC .DEC    42 890 03 00:   NEUTRON POROSITY SANDSTONE
~PARAMETER INFORMATION
#MNEM.UNIT          VALUE    DESCRIPTION
#----------   ------------   ------------------------------
 PD  .                 GL:   PERMANENT DATUM
 EPD .F              5156:   ELEVATION PERMANENT DATUM
 LMF .                 GL:   LOG MEASURED FROM
 DMF .                 GL:   DRILLING MEASURED FROM
 EGL .F              5156:   GROUND LEVEL
 DATE.        13-JAN-1985:   RUN DATE
 RUN .                  1:   RUN NUMBER
 DD  .F               450:   DEPTH DRILLER
 DL  .F               450:   DEPTH LOGGER
 BLI .F               448:   BOTTOM LOG INTERVAL
 TLI .F                20:   TOP LOG INTERVAL
 CS  .IN            8.625:   CASING SIZE
 CBD .F                20:   CASING BOTTOM DRILLER
 CBL .F                20:   CASING BOTTOM LOGGER
 BS  .IN            7.875:   BIT SIZE
 BSD .F               450:   BIT SIZE AT DEPTH
 DFT .            KCL-H2O:   DRILLING FLUID TYPE
 MSS .               TANK:   MUD SAMPLE SOURCE
 RMS .OHMM           0.16:   RESISTIVITY MUD SAMPLE
 MST .F                20:   MUD SAMPLE TEMPERATURE
 RMF .OHMM           0.12:   RESISTIVITY MUD FILTRATE SAMPLE
 MFST.F                20:   MUD FILTRATE SAMPLE TEMPERATURE
 RMC .OHMM            0.2:   RESISTIVITY MUD CAKE
 MCST.F                20:   MUD CAKE SAMPLE TEMPERATURE
 MFSS.               CALC:   MUD FILTRATE SAMPLE SOURCE
 MCSS.               CALC:   MUD CAKE SAMPLE SOURCE
 BHT .F               100:   BOTTOM HOLE TEMPERATURE
 TCS .HRS               2:   TIME CURCULATED STOPPED
 MRT .F               100:   MAXIMUM RECORDED TEMPERATURE
 LUN .               6270:   LOGGING UNIT NUMBER
 LUL .                 FM:   LOGGING UNIT LOCATION
 ENGI.          E. GOVETT:   RECORDING ENGINEER
 WITN.             GROOMS:   WITNESSED BY
 CLNT.            A2DTECH:   CLIENT CODE
 ORIG.        2" 5" PRINT:   ORIGIN OF DATA
 UWI .       490251100400:   UNIQUE WELL ID
 DICO. A2D Technologies, Inc.:   DIGITIZING COMPANY
 R1  . POROSITY WITH SANDSTONE:   REMARKS 1
~OTHER INFORMATION
~A   DEPT       AC        SPR         RD         RS       RMLL         GRD      CALD       CORR        DEN       PORD        CNC   
# ...
  317.0000    94.7743   -35.0980    20.4159    19.5379    11.6205    89.2166     8.0394     0.0206     2.4474     0.1502     0.2573
  317.5000    96.4317   -34.8033    22.2361    21.0132    10.7602    85.2996     8.0383     0.0236     2.4258     0.1689     0.2515
  318.0000    98.2393   -34.3623    25.4833    22.9142     8.6694    78.8263     8.0371     0.0356     2.3778     0.1889     0.2467
  318.5000   100.0469   -33.9191    28.2748    25.2513     8.0276    75.3604     8.0361     0.0521     2.3460     0.1983     0.2513
  319.0000   100.5011   -33.3254    30.7241    28.0211     8.1936    73.5486     8.0351     0.0536     2.3467     0.1947     0.2507
  319.5000    99.9807   -32.7093    35.0516    31.0947    10.2018    73.5358     8.0341     0.0566     2.3731     0.1741     0.2398
  320.0000    98.1820   -31.8388    38.0880    34.2663    11.1177    71.8783     8.0330     0.0580     2.4033     0.1636     0.2417
  320.5000    96.1580   -31.0944    41.9631    38.5156    12.2500    71.5703     8.0170     0.0595     2.4025     0.1654     0.2462
  321.0000    92.8566   -30.3500    44.9682    43.3835    22.4286    74.5706     7.9857     0.0594     2.4032     0.1570     0.2432
  321.5000    88.8791   -29.7563    47.1933    46.4965    25.4102    76.9694     7.9846     0.0588     2.4364     0.1401     0.2417
  322.0000    88.0572   -29.0020    47.5085    47.4675    18.8333    76.0599     7.9686     0.0245     2.4500     0.1383     0.2481
  322.5000    89.5643   -28.4181    41.8962    42.1592    11.6767    74.3985     7.9829     0.0215     2.4424     0.1604     0.2518
  323.0000    95.8903   -27.9771    38.1792    37.1874    10.3447    76.9459     7.9816     0.0501     2.3842     0.1886     0.2557
  323.5000    98.7067   -27.8330    35.1768    35.1646    10.7812    81.2996     7.9806     0.0561     2.3328     0.2130     0.2600
  324.0000   100.8144   -27.5426    35.6553    36.6515    11.0053    82.6475     7.9793     0.0394     2.3214     0.2112     0.2732
  324.5000   101.3026   -27.4006    36.9026    37.4145    10.6238    81.5859     7.9783     0.0252     2.3327     0.2064     0.2764
  325.0000   100.9942   -27.2587    37.6696    37.6681    10.2565    74.8117     7.9926     0.0196     2.3365     0.2052     0.2746
  325.5000   100.7868   -27.1167    37.9136    37.6555     9.6965    71.9474     7.9913     0.0271     2.3289     0.2102     0.2761
  326.0000   100.7150   -26.9748    37.6320    37.1253    10.0356    72.4631     8.0056     0.0286     2.3160     0.2177     0.2783
  326.5000   100.5692   -26.8328    36.8401    36.3065    10.4592    75.6905     8.0044     0.0225     2.3092     0.2228     0.2748
  327.0000   100.4985   -26.8436    35.5665    34.8513    10.8251    79.5931     8.0033     0.0073     2.3069     0.2198     0.2656
  327.5000   100.4279   -26.5510    34.5767    34.1224    10.3784    81.5407     8.0021    -0.0048     2.3114     0.2192     0.2638
  328.0000   100.4334   -26.4091    33.3814    33.1771    10.0895    80.6312     8.0011     0.0238     2.3098     0.2205     0.2711
  328.5000   100.6633   -26.2671    32.6522    32.4833    10.0845    79.4210     8.0001     0.0358     2.3113     0.2190     0.2735
  329.0000   101.0434   -26.2779    31.5461    31.5834    10.0805    80.8301     7.9990     0.0373     2.3181     0.2120     0.2739
  329.5000   101.3484   -26.1338    31.0978    31.1384    10.1478    82.8634     7.9980     0.0327     2.3278     0.2081     0.2736
  330.0000   101.2766   -26.1446    30.8699    30.9125    10.5017    82.2547     7.9970     0.0341     2.3316     0.2057     0.2709
  330.5000   100.5309   -26.0026    30.6437    30.9043    11.9809    79.6911     7.9958     0.0467     2.3338     0.2015     0.2685
  331.0000    98.6571   -26.0134    31.0677    31.5476    15.6350    78.3305     7.9948     0.0597     2.3640     0.1777     0.2712
  331.5000    96.3325   -26.0221    31.7030    31.9810    17.0694    76.5187     7.9937     0.0627     2.3896     0.1650     0.2680
  332.0000    94.8343   -26.0307    32.1311    31.9725    16.8252    75.1579     7.9777     0.0414     2.4062     0.1614     0.2489
  332.5000    94.3129   -26.0393    32.1183    31.7053    14.7362    77.2543     7.9616     0.0278     2.3994     0.1696     0.2453
  333.0000    94.3173   -26.0482    31.6619    31.0764    12.9966    79.6531     7.9589     0.0383     2.3812     0.1789     0.2517
  333.5000    95.5990   -26.0588    30.7807    30.2155    11.8681    79.9485     7.9443     0.0461     2.3736     0.1823     0.2590
  334.0000    97.1061   -26.0674    29.6888    29.5836    10.9893    79.1876     7.9433     0.0518     2.3713     0.1844     0.2617
  334.5000    97.9370   -26.2267    28.8867    28.5646    11.0617    79.9322     7.9423     0.0517     2.3630     0.1893     0.2599
  335.0000    98.6928   -26.5365    28.2788    27.7733    11.2893    80.7068     7.9413     0.0426     2.3546     0.1935     0.2602
  335.5000    99.0729   -26.5477    27.6837    27.3504    11.3636    81.5719     7.9403     0.0259     2.3500     0.1957     0.2724
  336.0000    99.3779   -26.7065    27.2903    26.9950    11.5986    81.8654     7.9392     0.0138     2.3477     0.1984     0.2745
  336.5000    99.6837   -27.0164    27.0808    26.9877    11.7564    82.1590     7.9380     0.0047     2.3447     0.2012     0.2676
  337.0000    99.8412   -27.1756    26.7027    26.9805    11.4833    82.1499     7.9370     0.0091     2.3409     0.2030     0.2582
  337.5000    99.9987   -27.1843    26.5070    27.1616    10.7302    81.0901     7.9360     0.0257     2.3363     0.2033     0.2531
  338.0000    99.9880   -27.0422    26.8677    27.3439    10.5054    79.2541     7.9503     0.0453     2.3415     0.1993     0.2504
  338.5000    99.6141   -26.7324    27.6148    27.7515    11.1011    78.6678     7.9490     0.0573     2.3523     0.1928     0.2522
  339.0000    99.1805   -26.3066    28.1859    28.2947    11.4098    79.8636     7.9480     0.0557     2.3566     0.1910     0.2529
  339.5000    99.0336   -26.1646    28.5694    28.6854    11.2373    82.4128     7.9467     0.0494     2.3573     0.1940     0.2523
  340.0000    99.2645   -26.0227    28.7573    28.4770    10.3417    84.0597     7.9457     0.0435     2.3505     0.1974     0.2532
  340.5000    99.5695   -25.8825    27.9542    27.8814    10.2659    84.0524     7.9597     0.0434     2.3481     0.1974     0.2584
  341.0000    99.7994   -25.7409    26.8007    27.2983    10.3344    83.7444     7.9587     0.0479     2.3496     0.1890     0.2605
  341.5000    99.8038   -25.5989    26.0549    26.3274    10.7695    84.4873     7.9577     0.0524     2.3599     0.1826     0.2600
  342.0000    99.1321   -25.6097    25.5064    25.6262    11.4607    85.6831     7.9567     0.0553     2.3760     0.1802     0.2694
  342.5000    98.3102   -25.6184    25.3171    25.4418    11.7794    85.9784     7.9554     0.0535     2.3790     0.1797     0.2748
  343.0000    98.1632   -25.7776    25.3070    25.4350    11.5304    84.0145     7.9544     0.0416     2.3706     0.1884     0.2712
  343.5000    98.1688   -25.9369    24.9474    25.4282    11.3665    81.1502     7.9534     0.0370     2.3638     0.1927     0.2694
  344.0000    98.0982   -26.1165    24.5929    25.2452    11.5211    80.0903     7.9524     0.0445     2.3577     0.1927     0.2752
  344.5000    97.9524   -26.4081    24.2434    25.0632    12.3462    83.5399     7.9514     0.0475     2.3562     0.1912     0.2773
  345.0000    97.8066   -26.4167    23.7309    24.3675    12.7782    84.5853     7.9504     0.0474     2.3584     0.1897     0.2753
  345.5000    97.5105   -26.5760    23.5570    23.5282    13.0423    84.7303     7.9644     0.0474     2.3629     0.1855     0.2710
  346.0000    97.1393   -26.5846    23.2222    22.8765    13.1281    84.8734     7.9631     0.0473     2.3696     0.1828     0.2689
  346.5000    96.3173   -26.8946    23.2130    22.2427    13.1215    84.7140     7.9772     0.0457     2.3756     0.1807     0.2805
  347.0000    95.5705   -27.0559    23.2037    22.0826    13.2079    84.0962     7.9762     0.0396     2.3771     0.1829     0.2838
