~VERSION INFORMATION
 VERS.                2.0:   CWLS LOG ASCII STANDARD - VERSION 2.0
 WRAP.                 NO:   ONE LINE PER DEPTH STEP
~WELL INFORMATION
#MNEM.UNIT      DATA TYPE    INFORMATION
#----------   ------------   ------------------------------
 STRT.F          103.0000:   START DEPTH
 STOP.F          898.0000:   STOP DEPTH
 STEP.F            0.5000:   STEP LENGTH
 NULL.          -999.2500:   NO VALUE
 COMP. LAWRENCE/ALLISON INC:   COMPANY
 WELL. NPR 3 32-66 SX #2-2:   WELL
 FLD .             TEAPOT:   FIELD
 LOC .       S2 T38N R78W:   LOCATION
 CNTY.            NATRONA:   COUNTY
 STAT.            WYOMING:   STATE
 CTRY. UNITED STATES OF AMERICA:   COUNTRY
 SRVC.      Dresser Atlas:   SERVICE COMPANY
 DATE.        30-JAN-1986:   LOGDATE
 API .       490251106900:   API NUMBER
~CURVE INFORMATION
#MNEM.UNIT       API CODE    CURVE DESCRIPTION
#----------   ------------   ------------------------------
 DEPT.F                  :   
 RILD.OHMM   07 120 46 00:   INDUCTION LOG DEEP RESISTIVITY
 RILM.OHMM   07 120 44 00:   INDUCTION LOG MEDIUM RESISTIVITY
 CALD.IN     45 280 60 00:   CALIPER FROM DENSITY
 GRD .GAPI   45 310 01 00:   GAMMA RAY FROM DENSITY LOG
 CORR.G/C3   45 356 01 00:   DENSITY CORRECTION
 PORD.DEC    45 890 10 00:   POROSITY DENSITY LIMESTONE
 DEN .G/C3   45 350 01 00:   COMPENSATED BULK DENSITY
~PARAMETER INFORMATION
#MNEM.UNIT          VALUE    DESCRIPTION
#----------   ------------   ------------------------------
 PD  .                 GL:   PERMANENT DATUM
 EPD .F              5136:   ELEVATION PERMANENT DATUM
 LMF .                 GL:   LOG MEASURED FROM
 DMF .                 GL:   DRILLING MEASURED FROM
 EGL .F              5136:   GROUND LEVEL
 DATE.        30-JAN-1986:   RUN DATE
 RUN .                  1:   RUN NUMBER
 DD  .F               885:   DEPTH DRILLER
 DL  .F               902:   DEPTH LOGGER
 BLI .F               894:   BOTTOM LOG INTERVAL
 CS  .IN            8.625:   CASING SIZE
 CBD .F               130:   CASING BOTTOM DRILLER
 CBL .F               126:   CASING BOTTOM LOGGER
 BS  .IN             6.25:   BIT SIZE
 BSD .F               885:   BIT SIZE AT DEPTH
 DFT .                AIR:   DRILLING FLUID TYPE
 LUN .            HL-6264:   LOGGING UNIT NUMBER
 LUL .           GILLETTE:   LOGGING UNIT LOCATION
 ENGI.     P. M. FAHLSING:   RECORDING ENGINEER
 WITN.        LINDA FIVAS:   WITNESSED BY
 CLNT.            A2DTECH:   CLIENT CODE
 ORIG.           5" PRINT:   ORIGIN OF DATA
 UWI .       490251106900:   UNIQUE WELL ID
 DICO. A2D Technologies, Inc.:   DIGITIZING COMPANY
 R1  . POROSITY WITH LIMESTONE:   REMARKS 1
~OTHER INFORMATION
~A   DEPT     RILD       RILM       CALD        GRD       CORR       PORD        DEN   
  103.0000  -999.2500  -999.2500  -999.2500  -999.2500  -999.2500  -999.2500  -999.2500
  103.5000  -999.2500  -999.2500  -999.2500   210.3370  -999.2500  -999.2500  -999.2500
  104.0000  -999.2500  -999.2500  -999.2500   194.7393  -999.2500  -999.2500  -999.2500
  104.5000  -999.2500  -999.2500  -999.2500   176.1385  -999.2500  -999.2500  -999.2500
  105.0000  -999.2500  -999.2500  -999.2500   162.3426  -999.2500  -999.2500  -999.2500
  105.5000  -999.2500  -999.2500  -999.2500   160.8590  -999.2500  -999.2500  -999.2500
  106.0000  -999.2500  -999.2500  -999.2500   160.5766  -999.2500  -999.2500  -999.2500
  106.5000  -999.2500  -999.2500  -999.2500   160.5946  -999.2500  -999.2500  -999.2500
  107.0000  -999.2500  -999.2500  -999.2500   160.0118  -999.2500  -999.2500  -999.2500
  107.5000  -999.2500  -999.2500  -999.2500   159.3894  -999.2500  -999.2500  -999.2500
  108.0000  -999.2500  -999.2500  -999.2500   158.2458  -999.2500  -999.2500  -999.2500
  108.5000  -999.2500  -999.2500  -999.2500   157.3273  -999.2500  -999.2500  -999.2500
  109.0000  -999.2500  -999.2500  -999.2500   155.8792  -999.2500  -999.2500  -999.2500
  109.5000  -999.2500  -999.2500  -999.2500   154.5926  -999.2500  -999.2500  -999.2500
  110.0000  -999.2500  -999.2500  -999.2500   154.1132  -999.2500  -999.2500  -999.2500
  110.5000  -999.2500  -999.2500  -999.2500   157.4389  -999.2500  -999.2500  -999.2500
  111.0000  -999.2500  -999.2500  -999.2500   159.5589  -999.2500  -999.2500  -999.2500
  111.5000  -999.2500  -999.2500  -999.2500   158.9762  -999.2500  -999.2500  -999.2500
  112.0000  -999.2500  -999.2500  -999.2500   157.7929  -999.2500  -999.2500  -999.2500
  112.5000  -999.2500  -999.2500  -999.2500   157.2057  -999.2500  -999.2500  -999.2500
  113.0000  -999.2500  -999.2500  -999.2500   156.6275  -999.2500  -999.2500  -999.2500
  113.5000  -999.2500  -999.2500  -999.2500   156.9457  -999.2500  -999.2500  -999.2500
  114.0000  -999.2500  -999.2500  -999.2500   161.1678  -999.2500  -999.2500  -999.2500
  114.5000  -999.2500  -999.2500  -999.2500   173.4980  -999.2500  -999.2500  -999.2500
  115.0000  -999.2500  -999.2500  -999.2500   187.3297  -999.2500  -999.2500  -999.2500
  115.5000  -999.2500  -999.2500  -999.2500   208.9692  -999.2500  -999.2500  -999.2500
  116.0000  -999.2500  -999.2500  -999.2500   267.2454  -999.2500  -999.2500  -999.2500
  116.5000  -999.2500  -999.2500  -999.2500   315.3113  -999.2500  -999.2500  -999.2500
  117.0000  -999.2500  -999.2500  -999.2500   314.4283  -999.2500  -999.2500  -999.2500
  117.5000  -999.2500  -999.2500  -999.2500   295.2270  -999.2500  -999.2500  -999.2500
  118.0000  -999.2500  -999.2500  -999.2500   233.6834  -999.2500  -999.2500  -999.2500
  118.5000  -999.2500  -999.2500  -999.2500   216.8844  -999.2500  -999.2500  -999.2500
  119.0000  -999.2500  -999.2500  -999.2500   209.6951  -999.2500  -999.2500  -999.2500
  119.5000  -999.2500  -999.2500  -999.2500   206.7100  -999.2500  -999.2500  -999.2500
  120.0000  -999.2500  -999.2500  -999.2500   202.5237  -999.2500  -999.2500  -999.2500
  120.5000  -999.2500  -999.2500  -999.2500   196.1592  -999.2500  -999.2500  -999.2500
  121.0000  -999.2500  -999.2500  -999.2500   190.2472  -999.2500  -999.2500  -999.2500
  121.5000  -999.2500  -999.2500  -999.2500   174.0489  -999.2500  -999.2500  -999.2500
  122.0000  -999.2500  -999.2500  -999.2500   152.7455  -999.2500  -999.2500  -999.2500
  122.5000  -999.2500  -999.2500  -999.2500   135.6463  -999.2500  -999.2500  -999.2500
  123.0000  -999.2500  -999.2500  -999.2500   127.5560  -999.2500  -999.2500  -999.2500
  123.5000  -999.2500  -999.2500  -999.2500   119.4658  -999.2500  -999.2500  -999.2500
  124.0000  -999.2500  -999.2500  -999.2500   108.9730  -999.2500  -999.2500  -999.2500
  124.5000  -999.2500  -999.2500  -999.2500   114.3965  -999.2500  -999.2500  -999.2500
  125.0000  -999.2500  -999.2500  -999.2500   125.2252  -999.2500  -999.2500  -999.2500
  125.5000  -999.2500  -999.2500  -999.2500   133.6997  -999.2500  -999.2500  -999.2500
  126.0000  -999.2500  -999.2500  -999.2500   137.9059  -999.2500  -999.2500  -999.2500
  126.5000  9955.3379     3.7630     7.4601   140.6667     0.1718     0.2445     2.2969
  127.0000     4.6998     3.0203     7.2464   145.2773     0.1789     0.1826     2.3688
  127.5000     1.5746     1.5125     7.0964   150.5405     0.2051     0.1639     2.4050
  128.0000     1.5112     1.1476     6.9916   148.2162     0.1631     0.1687     2.3995
  128.5000     1.9139     1.4139     6.9771   140.0300     0.0948     0.1712     2.3897
  129.0000     2.2734     1.9596     6.9777   134.3819     0.0875     0.1705     2.3927
  129.5000     4.2599     2.5167     6.9783   135.6010     0.0815     0.1542     2.4200
  130.0000     5.3062     2.3667     6.9789   150.6339     0.0695     0.1313     2.4563
  130.5000     4.9477     2.1650     6.9645   165.6668     0.0469     0.1292     2.4646
  131.0000     4.7209     2.1072     6.9500   177.0961     0.0394     0.1310     2.4571
  131.5000     4.5959     2.1539     6.9506   182.2191     0.0546     0.1379     2.4442
  132.0000     4.1746     2.7094     6.9512   182.5373     0.0788     0.1470     2.4352
  132.5000     4.1645     3.9144     6.9518   180.7534     0.0939     0.1524     2.4216
  133.0000     4.8341     4.8899     6.9675   178.3689     0.0985     0.1590     2.4095
  133.5000     6.3370     5.7395     6.9681   177.7818     0.1000     0.1663     2.4034
  134.0000     7.4875     5.8640     6.9837   177.8041     0.0970     0.1669     2.4019
  134.5000     7.6494     5.7102     6.9843   177.2214     0.0986     0.1650     2.4042
  135.0000     7.2921     5.6747     6.9849   176.0381     0.1122     0.1632     2.4050
  135.5000     6.4863     5.6407     6.9855   173.6536     0.1485     0.1687     2.3990
  136.0000     5.9316     5.6459     6.9863   172.4659     0.1863     0.1766     2.3914
  136.5000     5.7723     5.7330     6.9867   171.8831     0.1939     0.1832     2.3793
  137.0000     6.1059     5.9387     6.9875   172.5061     0.1924     0.1869     2.3657
  137.5000     6.2380     6.0672     6.9729   173.7252     0.1789     0.1873     2.3655
  138.0000     6.3726     6.2432     6.9736   175.5404     0.1427     0.1828     2.3718
  138.5000     6.6471     6.4244     6.9742   167.7550     0.1186     0.1731     2.3824
  139.0000     6.8857     6.7031     6.9748   168.0732     0.1111     0.1644     2.3975
  139.5000     7.0835     6.9938     6.9905   173.7968     0.1217     0.1602     2.4104
  140.0000     7.2871     7.2468     6.9911   177.4183     0.1338     0.1559     2.4150
  140.5000     7.3933     7.4571     6.9917   175.9347     0.1404     0.1547     2.4181
  141.0000     7.3980     7.5680     6.9771   174.7514     0.1309     0.1523     2.4249
  141.5000     7.4026     7.6275     6.9778   174.1682     0.1219     0.1493     2.4302
  142.0000     7.3054     7.5295     6.9784   173.2857     0.1098     0.1547     2.4242
  142.5000     7.2083     7.4310     6.9790   172.1024     0.1189     0.1659     2.4062
  143.0000     7.0169     7.2362     6.9645   168.5167     0.1356     0.1704     2.3946
  143.5000     6.5971     6.6652     6.9651   163.1292     0.1522     0.1710     2.3916
  144.0000     6.2455     6.3117     6.9657   162.8468     0.1523     0.1637     2.4022
  144.5000     5.9950     6.0604     6.9663   169.8437     0.1462     0.1541     2.4189
  145.0000     5.8340     5.8594     6.9669   176.4765     0.1325     0.1432     2.4446
  145.5000     5.9612     5.9055     6.9675   178.5161     0.1126     0.1335     2.4605
  146.0000     6.2180     6.1617     6.9681   175.7597     0.0981     0.1251     2.4689
  146.5000     6.6220     6.4736     6.9687   172.7148     0.1142     0.1239     2.4719
  147.0000     6.7186     6.6615     6.9693   165.8420     0.1373     0.1251     2.4704
  147.5000     6.6211     6.7124     6.9699   150.0636     0.1677     0.1284     2.4659
  148.0000     6.4907     6.6261     6.9705   132.0635     0.1889     0.1263     2.4674
