~VERSION INFORMATION
 VERS.                2.0:   CWLS LOG ASCII STANDARD - VERSION 2.0
 WRAP.                 NO:   ONE LINE PER DEPTH STEP
~WELL INFORMATION
#MNEM.UNIT      DATA TYPE    INFORMATION
#----------   ------------   ------------------------------
 STRT.F            9.5000:   START DEPTH
 STOP.F          640.5000:   STOP DEPTH
 STEP.F            0.5000:   STEP LENGTH
 NULL.          -999.2500:   NO VALUE
 COMP. FENIX & SCISSON INC:   COMPANY
 WELL. 27-32 SX 11 WI #27-32 SX:   WELL
 FLD .            WILDCAT:   FIELD
 LOC .      S11 T38N R78W:   LOCATION
 CNTY.            NATRONA:   COUNTY
 STAT.            WYOMING:   STATE
 CTRY. UNITED STATES OF AMERICA:   COUNTRY
 SRVC.      Dresser Atlas:   SERVICE COMPANY
 DATE.        01-AUG-1980:   LOGDATE
 API .       490251083700:   API NUMBER
~CURVE INFORMATION
#MNEM.UNIT       API CODE    CURVE DESCRIPTION
#----------   ------------   ------------------------------
 DEPT.F                  :   
 SPR .MV     07 010 01 00:   SPONTANEOUS POTENTIAL
 SFL .OHMM   07 220 01 00:   SHALLOW FOCUSED LOG RESISTIVITY
 ILD .OHMM   07 120 46 00:   INDUCTION LOG DEEP
 ILM .OHMM   07 120 44 00:   INDUCTION LOG MEDIUM
 GRD .GAPI   45 310 01 00:   GAMMA RAY FROM DENSITY LOG
 CALD.IN     45 280 60 00:   CALIPER
 RHOB.G/C3   45 350 01 00:   BULK DENSITY
 CORR.G/C3   45 356 01 00:   DENSITY CORRECTION
 DPHI.DEC    45 890 12 00:   DENSITY POROSITY SANDSTONE
 NPHI.DEC    42 890 03 00:   NEUTRON POROSITY SANDSTONE
~PARAMETER INFORMATION
#MNEM.UNIT          VALUE    DESCRIPTION
#----------   ------------   ------------------------------
 PD  .                 GL:   PERMANENT DATUM
 EPD .F              5189:   ELEVATION PERMANENT DATUM
 LMF .                 KB:   LOG MEASURED FROM
 DAPD.F                 5:   FEET ABOVE PERMANENT DATUM
 DMF .                 KB:   DRILLING MEASURED FROM
 EKB .F              5194:   KELLING BUSHING
 EGL .F              5189:   GROUND LEVEL
 DATE.             8-1-80:   RUN DATE
 RUN .                  1:   RUN NUMBER
 DD  .F               625:   DEPTH DRILLER
 DL  .F               634:   DEPTH LOGGER
 BLI .F               632:   BOTTOM LOG INTERVAL
 TLI .F                12:   TOP LOG INTERVAL
 BS  .IN            7.875:   BIT SIZE
 BSD .F               625:   BIT SIZE AT DEPTH
 DFT .           CHEM GEL:   DRILLING FLUID TYPE
 DFD .                9.1:   DRILLING FLUID DENSITY
 DFV .                 44:   DRILLING FLUID VISCOSITY
 DFPH.                9.5:   DRILLING FLUID PH
 DFL .                7.6:   DRILLING FLUID LOSS
 MSS .           FLOWLINE:   MUD SAMPLE SOURCE
 RMS .OHMM            .27:   RESISTIVITY MUD SAMPLE
 MST .F                70:   MUD SAMPLE TEMPERATURE
 RMF .OHMM            .16:   RESISTIVITY MUD FILTRATE SAMPLE
 MFST.F                65:   MUD FILTRATE SAMPLE TEMPERATURE
 MFSS.               MEAS:   MUD FILTRATE SAMPLE SOURCE
 MCSS.               MEAS:   MUD CAKE SAMPLE SOURCE
 RMB .OHMM            .21:   RESISTIVITY MUD AT BHT
 BHT .F                94:   BOTTOM HOLE TEMPERATURE
 TCS .HRS            0040:   TIME CURCULATED STOPPED
 MRT .F                94:   MAXIMUM RECORDED TEMPERATURE
 LUN .               6145:   LOGGING UNIT NUMBER
 LUL .              GLTTE:   LOGGING UNIT LOCATION
 ENGI.              HENRY:   RECORDING ENGINEER
 WITN.              AMEND:   WITNESSED BY
 CLNT.            A2DTECH:   CLIENT CODE
 ORIG.     1", 2.5" PRINT:   ORIGIN OF DATA
 UWI .       490251083700:   UNIQUE WELL ID
 DICO. A2D Technologies, Inc.:   DIGITIZING COMPANY
~OTHER INFORMATION
~A    DEPT     SPR         SFL         ILD        ILM      GRD       CALD       RHOB       CORR       DPHI       NPHI   
# ...
  378.0000   -51.4233     9.0553     5.4859     5.8975    90.3857     8.0133     2.4588    -0.0012     0.1324     0.2828
  378.5000   -51.0667     8.7211     5.6449     6.0049    91.0921     8.0160     2.4558     0.0028     0.1329     0.3033
  379.0000   -50.7121     8.3810     5.8086     6.1206    89.4594     8.0188     2.4649     0.0077     0.1262     0.3054
  379.5000   -50.3263     8.0969     6.0084     6.2386    91.6755     8.0216     2.4808     0.0116     0.1196     0.3072
  380.0000   -50.3270     8.0969     6.0561     6.3541    93.3758     8.0244     2.4891     0.0098     0.1136     0.3055
  380.5000   -50.6146     8.2071     6.1213     6.3541    94.7003     8.0272     2.4813     0.0082     0.1160     0.2946
  381.0000   -50.8768     8.3147     5.9862     6.3279    94.9725     8.0300     2.4741     0.0130     0.1204     0.2974
  381.5000   -51.1269     8.4236     5.7050     6.2734    98.1842     8.0328     2.4707     0.0203     0.1241     0.3067
  382.0000   -51.3917     8.5340     5.4391     6.2192    99.4442     8.0356     2.4706     0.0275     0.1240     0.3135
  382.5000   -51.6708     7.8834     5.1759     6.1651    95.6559     8.0384     2.4733     0.0345     0.1240     0.3203
  383.0000   -51.8454     6.5955     5.1234     6.1206    96.4788     8.0412     2.4778     0.0419     0.1203     0.3271
  383.5000   -51.8273     6.6656     5.0693     6.2591    96.0956     8.0439     2.4823     0.0432     0.1159     0.3286
  384.0000   -51.8300     6.8447     5.0159     6.4394    94.4203     8.0467     2.4866     0.0389     0.1136     0.3236
  384.5000   -51.8330     7.0286     4.9865     6.6250    92.7872     8.0495     2.4908     0.0348     0.1125     0.3132
  385.0000   -51.8301     7.2399     4.9865     6.8396    91.0800     8.0523     2.4969     0.0305     0.1095     0.3029
  385.5000   -51.8297     7.3998     5.2157     6.9749    89.6513     8.0551     2.5050     0.0280     0.1049     0.2961
  386.0000   -51.8346     7.5827     5.4881     7.0182    88.3761     8.0579     2.5132     0.0294     0.1002     0.2906
  386.5000   -51.8272     7.7740     5.7747     7.0577    89.5820     8.0607     2.5161     0.0305     0.0968     0.2860
  387.0000   -51.8141     7.9698     6.0764     7.0975    90.1710     8.0635     2.5133     0.0317     0.0989     0.2840
  387.5000   -51.5458     8.1701     6.3937     7.1374    89.6604     8.0663     2.5175     0.0329     0.1000     0.2822
  388.0000   -51.2956     8.3755     6.7196     7.1776    89.6555     8.0690     2.5226     0.0342     0.0936     0.2804
  388.5000   -51.0307     8.5862     6.8522     7.2181    90.2633     8.0718     2.5182     0.0355     0.0936     0.2797
  389.0000   -50.7714     8.8023     6.9843     7.2741    90.7903     8.0746     2.5136     0.0354     0.0953     0.2801
  389.5000   -50.5140     9.0238     7.1189     7.3489    91.3512     8.0775     2.5067     0.0328     0.0998     0.2806
  390.0000   -50.2500     9.3993     7.2399     7.4245    91.9237     8.0804     2.4986     0.0305     0.1044     0.2810
  390.5000   -49.9929     9.3670     7.3347     7.5008    92.3794     8.0834     2.4913     0.0281     0.1090     0.2828
  391.0000   -49.7390     9.2717     7.4672     7.5779    93.7557     8.0863     2.4848     0.0255     0.1135     0.2853
  391.5000   -49.4546     9.1774     7.6564     7.6564    95.9459     8.0893     2.4783     0.0247     0.1184     0.2878
  392.0000   -49.5499     9.0840     7.6150     7.6564    97.0587     8.0922     2.4730     0.0273     0.1203     0.2900
  392.5000   -49.8603     8.9916     7.4218     7.6564    97.4658     8.0952     2.4752     0.0297     0.1200     0.2866
  393.0000   -50.1449     8.9001     7.2335     7.5268    97.9160     8.0981     2.4827     0.0320     0.1180     0.2836
  393.5000   -50.4219     8.8095     7.0500     7.3312    98.3718     8.1011     2.4907     0.0345     0.1133     0.2806
  394.0000   -50.7090     8.7208     6.8711     7.1406    97.2070     8.1040     2.4993     0.0369     0.1086     0.2809
  394.5000   -50.9915     8.6331     6.7196     6.9550    94.5415     8.1070     2.5024     0.0393     0.1038     0.2830
  395.0000   -51.2732     8.5466     6.4651     6.7743    94.4222     8.1099     2.4999     0.0417     0.1036     0.2850
  395.5000   -51.5598     8.4003     6.2484     6.5982    96.1932     8.1129     2.4979     0.0442     0.1052     0.2868
  396.0000   -51.8352     8.4097     6.0389     6.4267    97.8982     8.1160     2.4959     0.0465     0.1069     0.2856
  396.5000   -52.1389     8.1336     5.8365     6.2597    98.7659     8.1154     2.4950     0.0488     0.1088     0.2844
  397.0000   -52.4362     7.7046     5.6409     6.0970    97.3502     8.1082     2.4948     0.0519     0.1085     0.2908
  397.5000   -52.7308     7.2979     5.5064     5.9386    96.4217     8.1012     2.4946     0.0464     0.1082     0.3017
  398.0000   -53.0241     6.9109     5.4023     5.7842    98.5244     8.0940     2.4822     0.0353     0.1118     0.3070
  398.5000   -53.3431     6.5470     5.3001     5.6816   100.8818     8.0869     2.4675     0.0244     0.1198     0.3123
  399.0000   -53.3649     6.2023     5.1999     5.5767   103.4573     8.0798     2.4549     0.0207     0.1278     0.3148
  399.5000   -53.1338     6.6263     5.1759     5.5767   104.3924     8.0727     2.4574     0.0233     0.1337     0.3148
  400.0000   -52.9272     7.3566     5.1759     5.7776   104.5191     8.0655     2.4641     0.0252     0.1304     0.3133
  400.5000   -52.7237     8.1674     5.4957     5.9910   101.4423     8.0584     2.4715     0.0273     0.1248     0.3108
  401.0000   -52.5127     9.2257     5.7783     6.2121    98.6636     8.0513     2.4786     0.0295     0.1192     0.2979
  401.5000   -52.3060     9.2123     6.0755     6.4418    98.0493     8.0442     2.4835     0.0308     0.1136     0.2900
  402.0000   -52.0983     9.2388     6.3880     6.6797    98.5263     8.0371     2.4955     0.0401     0.1037     0.2900
  402.5000   -51.8902     9.2353     6.7166     6.9264    99.5376     8.0300     2.5136     0.0539     0.0921     0.2924
  403.0000   -51.6827     9.2320     7.0620     7.1463   100.4780     8.0229     2.5303     0.0677     0.0867     0.2948
  403.5000   -51.4754     9.2292     7.2550     7.2837   100.8128     8.0158     2.5371     0.0694     0.0830     0.2941
  404.0000   -51.2670     9.2907     7.2849     7.4243    99.3502     8.0086     2.5448     0.0623     0.0792     0.2934
  404.5000   -51.0604     9.4962     7.3150     7.5634    98.3257     8.0015     2.5525     0.0560     0.0752     0.2927
  405.0000   -50.8535     9.7060     7.3451     7.7080    98.2064     7.9944     2.5457     0.0498     0.0801     0.2920
  405.5000   -50.6407     9.9206     7.3755     7.9473    98.0826     7.9873     2.5370     0.0434     0.0854     0.2900
  406.0000   -50.4441    10.1398     7.4059     7.8005    97.9925     7.9802     2.5283     0.0371     0.0907     0.2878
  406.5000   -50.2195    10.2844     7.4365     7.8586    98.9762     7.9731     2.5200     0.0308     0.0936     0.2853
  407.0000   -50.2895    10.1233     7.4672     7.9176    99.7625     7.9660     2.5251     0.0264     0.0872     0.2828
  407.5000   -50.3819     9.9647     7.4980     7.9770    99.0314     7.9589     2.5303     0.0236     0.0891     0.2803
  408.0000   -50.4866     9.8087     7.5214     8.0369    98.2411     7.9517     2.5240     0.0206     0.0928     0.2799
  408.5000   -50.5835     9.6551     7.5356     8.0972    98.2674     7.9446     2.5174     0.0178     0.0965     0.2832
  409.0000   -50.6829     9.5038     7.5497     8.1580    99.0598     7.9375     2.5103     0.0149     0.1002     0.2865
  409.5000   -50.7823     9.3993     7.5641     8.2192    99.7771     7.9302     2.5030     0.0120     0.1039     0.2864
  410.0000   -50.8800     9.4210     7.5784     8.2493   100.5197     7.9235     2.4984     0.0091     0.1072     0.2846
  410.5000   -50.9830     9.4636     7.5927     8.2057   100.7309     7.9159     2.4983     0.0061     0.1088     0.2828
  411.0000   -51.0074     9.5064     7.6068     8.1669   100.5786     7.9177     2.4978     0.0034     0.1091     0.2900
