~VERSION INFORMATION
 VERS.                2.0:   CWLS LOG ASCII STANDARD - VERSION 2.0
 WRAP.                 NO:   ONE LINE PER DEPTH STEP
~WELL INFORMATION
#MNEM.UNIT      DATA TYPE    INFORMATION
#----------   ------------   ------------------------------
 STRT.F          217.0000:   START DEPTH
 STOP.F         3170.0000:   STOP DEPTH
 STEP.F            0.5000:   STEP LENGTH
 NULL.          -999.2500:   NO VALUE
 COMP. FENIX & SCISSON INC:   COMPANY
 WELL.    51 TX 33 #51-33:   WELL
 FLD .             TEAPOT:   FIELD
 LOC .      S33 T39N R78W:   LOCATION
 CNTY.            NATRONA:   COUNTY
 STAT.            WYOMING:   STATE
 CTRY. UNITED STATES OF AMERICA:   COUNTRY
 SRVC.            Unknown:   SERVICE COMPANY
 DATE.        02-APR-1978:   LOGDATE
 API .       490251068600:   API NUMBER
~CURVE INFORMATION
#MNEM.UNIT       API CODE    CURVE DESCRIPTION
#----------   ------------   ------------------------------
 DEPT.F                  :   
 TGAS.UNITS  91 830 01 00:   TOTAL GAS FROM HOTWIRE
 ROP .MIN/FT 91 810 01 00:   RATE OF DRILLING PENETRATION
~PARAMETER INFORMATION
#MNEM.UNIT          VALUE    DESCRIPTION
#----------   ------------   ------------------------------
 DATE.         2-APR-1978:   RUN DATE
 RUN .                  1:   RUN NUMBER
 BLI .F              3150:   BOTTOM LOG INTERVAL
 TLI .F               250:   TOP LOG INTERVAL
 DFT .       CHEMICAL GEL:   DRILLING FLUID TYPE
 ENGI.            R. CABS:   RECORDING ENGINEER
 CLNT.            A2DTECH:   CLIENT CODE
 ORIG.           5" PRINT:   ORIGIN OF DATA
 UWI .       490251068600:   UNIQUE WELL ID
 DICO. A2D Technologies, Inc.:   DIGITIZING COMPANY
~OTHER INFORMATION
~A   DEPT       TGAS      ROP   
# ...
 1918.0000     6.7389     2.4878
 1918.5000     6.4317     2.4878
 1919.0000     6.2714     2.4878
 1919.5000     6.2740     2.4878
 1920.0000     6.2764     2.0325
 1920.5000     6.2217     2.0325
 1921.0000     6.1192     2.0000
 1921.5000     6.1215     2.0000
 1922.0000     6.1741     2.5854
 1922.5000     6.2886     2.5203
 1923.0000     6.2379     2.5203
 1923.5000     6.1309     2.4878
 1924.0000     6.1336     3.0732
 1924.5000     6.1358     3.1057
 1925.0000     6.1382     3.0732
 1925.5000     6.1410     3.0732
 1926.0000     6.1434     3.0732
 1926.5000     6.2773     3.0732
 1927.0000     6.3922     3.0732
 1927.5000     6.5833     3.1057
 1928.0000     6.7550     2.4878
 1928.5000     6.9683     2.5203
 1929.0000     7.3073     2.5203
 1929.5000     7.7866     2.5528
 1930.0000     8.3794     2.5528
 1930.5000     9.2454     1.8374
 1931.0000     9.9887     1.8374
 1931.5000    10.6506     1.8374
 1932.0000    10.9950     1.8374
 1932.5000    10.4967     1.8049
 1933.0000    10.0703     1.7724
 1933.5000     9.4321     1.7398
 1934.0000     9.1093     1.7398
 1934.5000     8.3797     1.7398
 1935.0000     7.0816     1.7398
 1935.5000     6.5964     1.7724
 1936.0000     6.3548     3.2358
 1936.5000     6.1945     3.2358
 1937.0000     6.1902     3.2358
 1937.5000     6.1564     3.2358
 1938.0000     6.1205     3.2358
 1938.5000     6.0415     1.1220
 1939.0000     6.0439     1.1220
 1939.5000     6.0468     1.0894
 1940.0000     6.0488     1.6748
 1940.5000     6.0387     1.6423
 1941.0000     6.0207     1.6423
 1941.5000     6.0028     1.6098
 1942.0000     5.9848     1.6423
 1942.5000     5.9669     1.7073
 1943.0000     5.9489     1.8374
 1943.5000     5.9310     1.9350
 1944.0000     5.9130     2.1301
 1944.5000     5.8951     2.2276
 1945.0000     5.8771     2.4553
 1945.5000     5.8592     2.8455
 1946.0000     5.8412     3.1382
 1946.5000     5.8232     3.1057
 1947.0000     5.8053     3.1057
 1947.5000     5.7873     3.1057
 1948.0000     5.7694     3.0407
 1948.5000     5.7514     4.1281
 1949.0000     5.7335     4.1281
 1949.5000     5.7155     4.1281
 1950.0000     5.6976     4.1281
 1950.5000     5.6903     4.1679
 1951.0000     5.6881     2.3591
 1951.5000     5.6861     2.3597
 1952.0000     5.6846     2.3604
 1952.5000     5.6829     3.2392
 1953.0000     5.8439     3.2399
 1953.5000     5.8423     3.2405
 1954.0000     5.8407     3.2412
 1954.5000     5.8390     2.5585
 1955.0000     5.8374     2.5595
 1955.5000     5.8358     2.5273
 1956.0000     5.8341     2.9836
 1956.5000     5.8325     3.0816
 1957.0000     5.8309     3.0496
 1957.5000     5.8293     3.0505
 1958.0000     5.8274     3.0512
 1958.5000     5.8258     4.0757
 1959.0000     5.8198     4.0958
 1959.5000     5.8069     4.0764
 1960.0000     5.7940     3.2164
 1960.5000     5.7811     3.1843
 1961.0000     5.7681     3.1851
 1961.5000     5.7552     3.1533
 1962.0000     5.7423     3.1539
 1962.5000     5.7316     3.1546
 1963.0000     5.7300     3.1552
 1963.5000     5.7285     3.1232
 1964.0000     5.7268     4.0406
 1964.5000     5.7252     4.0607
 1965.0000     5.8050     4.0611
 1965.5000     5.8030     4.0812
 1966.0000     5.8016     4.0816
 1966.5000     5.7999     3.1270
 1967.0000     5.8797     3.1604
 1967.5000     5.9593     3.1283
 1968.0000     5.9577     3.1291
 1968.5000     5.9559     3.1298
 1969.0000     5.9543     3.1306
 1969.5000     5.9527     3.1638
 1970.0000     6.1141     3.1644
 1970.5000     6.2747     3.1651
 1971.0000     6.2731     3.1982
 1971.5000     6.2715     3.2314
 1972.0000     6.2699     2.8416
 1972.5000     6.2683     2.8750
 1973.0000     6.2667     2.8756
 1973.5000     6.3464     2.8762
 1974.0000     6.4261     2.8769
 1974.5000     6.2615     2.8775
 1975.0000     6.2599     2.8782
 1975.5000     6.1770     2.8788
 1976.0000     6.0941     2.9120
 1976.5000     5.9299     3.0427
 1977.0000     5.6844     3.1734
 1977.5000     5.5202     3.3367
 1978.0000     5.3560     3.5325
 1978.5000     5.1918     3.5656
 1979.0000     4.9426     3.5663
 1979.5000     4.8539     3.5669
 1980.0000     4.6725     2.0389
 1980.5000     4.4904     2.0398
 1981.0000     4.4136     2.0404
 1981.5000     4.2380     2.4313
 1982.0000     4.2362     2.6596
 1982.5000     4.1476     2.6927
 1983.0000     4.1459     2.6934
 1983.5000     4.1442     2.6940
 1984.0000     4.1425     2.7597
 1984.5000     4.1408     1.4594
 1985.0000     4.0521     1.4602
 1985.5000     4.0504     1.4285
 1986.0000     4.0487     2.0145
 1986.5000     4.0470     2.0477
 1987.0000     3.9583     2.0483
 1987.5000     3.8696     2.0490
 1988.0000     3.8675     1.0738
 1988.5000     3.7788     1.0746
 1989.0000     3.7771     1.0101
 1989.5000     3.6885     1.0109
 1990.0000     3.6868     1.9546
 1990.5000     3.5981     1.9224
 1991.0000     3.5094     1.9234
 1991.5000     3.5951     1.9240
 1992.0000     3.5930     2.1198
 1992.5000     3.6783     2.8034
 1993.0000     3.6765     2.8040
 1993.5000     3.8487     2.7720
 1994.0000     3.9340     2.7728
 1994.5000     4.1927     2.0253
 1995.0000     4.4519     2.0261
 1995.5000     4.8849     1.9941
 1996.0000     5.3786     1.9624
 1996.5000     6.4339     1.9305
 1997.0000     7.6519     1.9311
 1997.5000     8.8698     1.9318
 1998.0000     9.8438     2.6154
 1998.5000    10.8502     2.5833
 1999.0000    11.0151     2.5841
 1999.5000    10.8436     2.5521
 2000.0000    10.8403     4.0493
 2000.5000    10.5008     4.0488
 2001.0000    10.1613     4.0484
 2001.5000     9.9135     4.0480
 2002.0000     9.7493     4.0674
 2002.5000     9.6664     2.6471
 2003.0000     9.5835     2.6791
 2003.5000     9.4193     2.7432
 2004.0000     9.3364     1.8646
 2004.5000     9.2481     1.8639
 2005.0000     9.2379     1.8633
 2005.5000     9.2315     1.8627
 2006.0000     9.1541     1.8295
 2006.5000     9.0767     2.7395
 2007.0000     9.0816     2.7062
 2007.5000     9.0855     2.7055
 2008.0000     9.0081     2.7376
 2008.5000     9.0130     3.6800
 2009.0000     9.0169     3.6792
 2009.5000     8.9385     3.6786
 2010.0000     8.8611     1.4341
 2010.5000     8.7837     1.4009
 2011.0000     8.7886     1.3676
 2011.5000     8.7927     1.3345
 2012.0000     8.7974     1.8542
 2012.5000     8.8013     1.9838
 2013.0000     8.8052     1.9505
 2013.5000     8.8091     1.9173
 2014.0000     8.7317     1.8842
 2014.5000     8.6543     1.8834
 2015.0000     8.5779     1.8828
 2015.5000     8.5818     1.8821
 2016.0000     8.5857     1.8815
 2016.5000     8.5896     4.1742
 2017.0000     8.5122     4.1737
 2017.5000     8.3545     4.1734
 2018.0000     8.3584     2.6269
 2018.5000     8.2800     2.6262
 2019.0000     8.2849     2.6255
 2019.5000     8.2073     2.5924
 2020.0000     8.2114     2.7869
 2020.5000     8.2163     3.0466
 2021.0000     8.3015     3.1110
 2021.5000     8.3054     3.1427
 2022.0000     8.3906     3.1421
 2022.5000     8.3945     3.1413
 2023.0000     8.3984     3.1407
 2023.5000     8.4033     3.1400
 2024.0000     8.4072     3.1394
 2024.5000     8.4111     1.5127
 2025.0000     8.4963     1.5121
 2025.5000     8.6628     1.4790
 2026.0000     8.7480     1.4783
 2026.5000     8.7520     1.4775
 2027.0000     8.7567     1.4444
 2027.5000     8.7607     1.4438
 2028.0000     8.8459     1.4431
 2028.5000     8.8498     1.9955
 2029.0000     8.9350     1.9622
 2029.5000     9.0211     1.9616
 2030.0000     9.0250     1.9283
 2030.5000     9.0289     1.9276
 2031.0000     9.0328     1.9270
 2031.5000     9.1180     1.8939
 2032.0000     9.2033     3.1940
 2032.5000     9.2894     3.1934
 2033.0000     9.3746     3.1928
 2033.5000     9.3785     3.1597
 2034.0000     9.4637     3.1588
 2034.5000     9.4676     2.6379
 2035.0000     9.6341     2.6373
 2035.5000     9.8016     2.6366
 2036.0000     9.9681     2.6687
 2036.5000    10.2783     2.1801
 2037.0000    10.4545     2.1469
 2037.5000    10.7987     2.1463
 2038.0000    10.9748     2.1130
 2038.5000    11.3210     2.1124
 2039.0000    11.6652     2.0792
