~VERSION INFORMATION
 VERS.                2.0:   CWLS LOG ASCII STANDARD - VERSION 2.0
 WRAP.                 NO:   ONE LINE PER DEPTH STEP
~WELL INFORMATION
#MNEM.UNIT      DATA TYPE    INFORMATION
#----------   ------------   ------------------------------
 STRT.F          190.0000:   START DEPTH
 STOP.F         3246.0000:   STOP DEPTH
 STEP.F            0.5000:   STEP LENGTH
 NULL.          -999.2500:   NO VALUE
 COMP. BROWN JOHN E&C INC:   COMPANY
 WELL.      STX-15 #84-15:   WELL
 FLD .             TEAPOT:   FIELD
 LOC .      S15 T38N R78W:   LOCATION
 CNTY.            NATRONA:   COUNTY
 STAT.            WYOMING:   STATE
 CTRY. UNITED STATES OF AMERICA:   COUNTRY
 SRVC.           BIRDWELL:   SERVICE COMPANY
 DATE.        17-MAR-1978:   LOGDATE
 API .       490251111600:   API NUMBER
~CURVE INFORMATION
#MNEM.UNIT       API CODE    CURVE DESCRIPTION
#----------   ------------   ------------------------------
 DEPT.F                  :   
 ILD .OHMM   05 120 46 00:   INDUCTION LOG DEEP
 SN  .OHMM   05 040 16 00:   SHORT NORMAL 16"
 SPR .MV     05 010 01 00:   SPONTANEOUS POTENTIAL FROM RES.
 GRD .GAPI   45 310 01 00:   GAMMA RAY FROM DENSITY LOG
 CALD.IN     45 280 60 00:   CALIPER
 RHOB.G/C3   45 350 01 00:   BULK DENSITY
 CORR.G/C3   45 356 01 00:   DENSITY CORRECTION
 DPHI.DEC    45 890 12 00:   DENSITY POROSITY SANDSTONE
~PARAMETER INFORMATION
#MNEM.UNIT          VALUE    DESCRIPTION
#----------   ------------   ------------------------------
 PD  .                 GL:   PERMANENT DATUM
 EPD .F              5241:   ELEVATION PERMANENT DATUM
 LMF .                 KB:   LOG MEASURED FROM
 DAPD.F                10:   FEET ABOVE PERMANENT DATUM
 DMF .                 KB:   DRILLING MEASURED FROM
 EKB .F              5251:   KELLING BUSHING
 EGL .F              5241:   GROUND LEVEL
 DATE.            3-17-78:   RUN DATE
 RUN .                  1:   RUN NUMBER
 DD  .F              3250:   DEPTH DRILLER
 DL  .F              3250:   DEPTH LOGGER
 BLI .F              3244:   BOTTOM LOG INTERVAL
 TLI .F               224:   TOP LOG INTERVAL
 CS  .IN            8.625:   CASING SIZE
 CBL .F               224:   CASING BOTTOM LOGGER
 BS  .IN            7.875:   BIT SIZE
 BSD .F              3250:   BIT SIZE AT DEPTH
 DFD .                8.9:   DRILLING FLUID DENSITY
 DFV .                 31:   DRILLING FLUID VISCOSITY
 DFPH.               10.5:   DRILLING FLUID PH
 DFL .                  8:   DRILLING FLUID LOSS
 MSS .           FLOWLINE:   MUD SAMPLE SOURCE
 RMS .OHMM            1.3:   RESISTIVITY MUD SAMPLE
 MST .F                70:   MUD SAMPLE TEMPERATURE
 RMF .OHMM            1.1:   RESISTIVITY MUD FILTRATE SAMPLE
 MFST.F                70:   MUD FILTRATE SAMPLE TEMPERATURE
 RMC .OHMM            1.4:   RESISTIVITY MUD CAKE
 MCST.F                70:   MUD CAKE SAMPLE TEMPERATURE
 MFSS.               MEAS:   MUD FILTRATE SAMPLE SOURCE
 MCSS.               MEAS:   MUD CAKE SAMPLE SOURCE
 RMB .OHMM            .77:   RESISTIVITY MUD AT BHT
 BHT .F               118:   BOTTOM HOLE TEMPERATURE
 TCS .HRS               6:   TIME CURCULATED STOPPED
 MRT .F               118:   MAXIMUM RECORDED TEMPERATURE
 LUN .               2958:   LOGGING UNIT NUMBER
 LUL .               CASP:   LOGGING UNIT LOCATION
 ENGI.             MILLER:   RECORDING ENGINEER
 WITN.           MCGINLEY:   WITNESSED BY
 CLNT.            A2DTECH:   CLIENT CODE
 ORIG.     1", 2.5" PRINT:   ORIGIN OF DATA
 UWI .       490251111600:   UNIQUE WELL ID
 DICO. A2D Technologies, Inc.:   DIGITIZING COMPANY
~OTHER INFORMATION
~A   DEPT      ILD         SN        SPR         GRD      CALD       RHOB       CORR       DPHI   
# ...
 2984.5000     5.9347     7.2006   -28.4842   118.1789     9.0550     2.5371     0.0202     0.0775
 2985.0000     5.9347     7.1842   -28.6135   115.0929     9.0482     2.5336     0.0201     0.0784
 2985.5000     5.9347     7.1668   -29.0708   111.7351     9.0417     2.5303     0.0201     0.0792
 2986.0000     5.9347     7.1494   -29.5044   113.4846     9.0350     2.5273     0.0201     0.0797
 2986.5000     5.9347     7.0602   -29.6416   117.1077     9.0329     2.5347     0.0188     0.0773
 2987.0000     5.9347     6.8673   -29.5588   120.6896     9.0330     2.5329     0.0145     0.0788
 2987.5000     5.9347     6.6796   -29.4677   122.0552     9.0330     2.5290     0.0099     0.0805
 2988.0000     5.9347     6.4970   -29.3804   119.7466     9.0330     2.5253     0.0095     0.0821
 2988.5000     5.8126     6.3899   -29.2901   117.1811     9.0330     2.5214     0.0135     0.0808
 2989.0000     5.7128     6.3899   -29.2010   116.6889     9.0330     2.5289     0.0170     0.0765
 2989.5000     5.6147     6.3899   -29.1113   116.1252     9.0330     2.5372     0.0206     0.0722
 2990.0000     5.5183     6.3899   -29.0214   118.3161     9.0330     2.5441     0.0243     0.0714
 2990.5000     5.4235     6.2729   -28.9317   121.7910     9.0330     2.5374     0.0279     0.0741
 2991.0000     5.3304     6.1771   -28.8430   125.2755     9.0330     2.5359     0.0312     0.0681
 2991.5000     5.2389     6.0827   -28.7516   125.8205     9.0330     2.5487     0.0310     0.0642
 2992.0000     5.1489     5.9347   -28.6646   125.1646     9.0330     2.5575     0.0290     0.0657
 2992.5000     5.0605     5.9469   -28.5754   124.5598     9.0330     2.5495     0.0290     0.0672
 2993.0000     5.0255     5.9775   -28.4724   123.9439     9.0330     2.5433     0.0322     0.0685
 2993.5000     5.0255     6.0082   -28.5018   123.3765     9.0330     2.5479     0.0351     0.0628
 2994.0000     5.0255     6.0453   -28.7541   121.4394     9.0330     2.5550     0.0385     0.0578
 2994.5000     5.0404     6.0697   -28.9921   119.5095     9.0330     2.5620     0.0394     0.0526
 2995.0000     5.0778     6.1309   -29.2327   118.1091     9.0330     2.5691     0.0364     0.0537
 2995.5000     5.1155     6.1928   -29.4734   121.4112     9.0330     2.5681     0.0336     0.0548
 2996.0000     5.1534     6.2553   -29.7225   123.6026     9.0330     2.5649     0.0310     0.0558
 2996.5000     5.1916     6.3184   -29.9474   122.5277     9.0330     2.5636     0.0284     0.0536
 2997.0000     5.2302     6.3822   -30.2025   122.6183     9.0330     2.5785     0.0307     0.0507
 2997.5000     5.2689     6.4466   -30.4993   123.2659     9.0330     2.5765     0.0329     0.0479
 2998.0000     5.3080     6.5116   -30.8685   123.9934     9.0330     2.5797     0.0355     0.0450
 2998.5000     5.3474     6.6104   -30.5309   121.2916     9.0330     2.5844     0.0310     0.0421
 2999.0000     5.4110     6.5694   -30.2804   117.3015     9.0330     2.5894     0.0237     0.0398
 2999.5000     5.4033     6.4491   -30.1082   113.6805     9.0330     2.5855     0.0209     0.0488
 3000.0000     5.3841     6.3749   -29.7498   109.4004     9.0330     2.5718     0.0246     0.0545
 3000.5000     5.3649     6.3008   -30.3790   109.0997     9.0330     2.5576     0.0274     0.0592
 3001.0000     5.3458     6.2743   -30.8718   113.0006     9.0330     2.5402     0.0306     0.0638
 3001.5000     5.3268     6.2849   -31.5059   119.3414     9.0330     2.5596     0.0339     0.0684
 3002.0000     5.3121     6.2955   -30.0032   123.2085     9.0330     2.5523     0.0336     0.0730
 3002.5000     5.3193     6.3060   -28.5711   121.0392     9.0330     2.5422     0.0241     0.0751
 3003.0000     5.3281     6.3166   -29.2551   121.3899     9.0330     2.5299     0.0128     0.0738
 3003.5000     5.3371     6.3271   -29.6864   122.0111     9.0330     2.5278     0.0150     0.0724
 3004.0000     5.3461     6.3377   -29.7822   117.6509     9.0330     2.5373     0.0221     0.0710
 3004.5000     5.3552     6.3482   -29.8699   116.9413     9.0330     2.5458     0.0297     0.0697
 3005.0000     5.3643     6.3587   -29.9733   118.1750     9.0330     2.5470     0.0322     0.0683
 3005.5000     5.3733     6.3693   -30.0691   120.6623     9.0330     2.5393     0.0322     0.0669
 3006.0000     5.3824     6.3798   -30.1685   122.0048     9.0330     2.5438     0.0320     0.0653
 3006.5000     5.3915     6.3904   -30.2672   121.3430     9.0330     2.5472     0.0322     0.0767
 3007.0000     5.4006     6.4010   -30.3649   120.7153     9.0330     2.5521     0.0325     0.0798
 3007.5000     5.4097     6.4116   -30.4631   121.8686     9.0330     2.5313     0.0326     0.0737
 3008.0000     5.4189     6.4222   -30.5598   121.8829     9.0330     2.5223     0.0522     0.0677
 3008.5000     5.4280     6.4329   -30.6611   119.2218     9.0330     2.5285     0.0821     0.0622
 3009.0000     5.4372     6.4436   -30.7554   117.7503     9.0330     2.5344     0.0892     0.0690
 3009.5000     5.4464     6.4544   -30.8369   119.0543     9.0330     2.5377     0.0449     0.0755
 3010.0000     5.4556     6.4652   -30.7356   120.2152     9.0330     2.5148     0.0314     0.0819
 3010.5000     5.4648     6.4758   -30.6397   121.3022     9.0330     2.5184     0.0339     0.0861
 3011.0000     5.4742     6.4865   -30.5350   120.5134     9.0330     2.5192     0.0432     0.0808
 3011.5000     5.4836     6.4979   -30.4347   119.7629     9.0330     2.5215     0.0552     0.0693
 3012.0000     5.4926     6.5108   -30.3336   118.9833     9.0330     2.5229     0.0678     0.0861
 3012.5000     5.5012     6.4771   -30.2319   118.1253     9.0330     2.5169     0.0597     0.0861
 3013.0000     5.5110     6.4121   -30.1308   117.3942     9.0330     2.5122     0.0262     0.0846
 3013.5000     5.4706     6.3475   -30.0294   117.2424     9.0330     2.5169     0.0333     0.0833
 3014.0000     5.4255     6.2835   -29.9279   121.1403     9.0330     2.5253     0.0439     0.0844
 3014.5000     5.3808     6.2198   -29.8269   124.6530     9.0330     2.5275     0.0424     0.0866
 3015.0000     5.3365     6.1564   -29.7250   125.5727     9.0330     2.5071     0.0275     0.0888
 3015.5000     5.2925     6.0933   -29.6233   125.1800     9.0330     2.4957     0.0157     0.0910
 3016.0000     5.2489     6.0352   -29.5247   127.6035     9.0330     2.5026     0.0116     0.0908
 3016.5000     5.2056     5.9347   -29.4178   130.0072     9.0330     2.5096     0.0151     0.0900
 3017.0000     5.1626     6.0453   -29.3220   131.7652     9.0330     2.5026     0.0226     0.0937
 3017.5000     5.1201     6.0568   -29.2548   132.2176     9.0330     2.4951     0.0289     0.0965
 3018.0000     5.0779     6.0690   -29.5097   132.9414     9.0330     2.4975     0.0415     0.0972
 3018.5000     5.0321     6.0812   -29.7204   133.5032     9.0330     2.5055     0.0538     0.0902
 3019.0000     5.0454     6.0935   -29.9818   134.0205     9.0330     2.5068     0.0716     0.0787
 3019.5000     5.0721     6.1058   -30.1981   131.1420     9.0330     2.5032     0.0955     0.0667
 3020.0000     5.0989     6.1181   -30.3527   127.9286     9.0330     2.5013     0.1284     0.0710
 3020.5000     5.1258     6.1305   -29.9862   124.7545     9.0330     2.5357     0.0895     0.0796
 3021.0000     5.1529     6.1428   -29.9096   121.5865     9.0330     2.4873     0.0312     0.0883
 3021.5000     5.1800     6.1551   -29.7652   121.8963     9.0330     2.4983     0.0315     0.0858
 3022.0000     5.2075     6.2046   -29.6374   122.1737     9.0330     2.5231     0.0288     0.0831
 3022.5000     5.2350     6.2655   -29.5154   122.3902     9.0330     2.5162     0.0282     0.0829
 3023.0000     5.2627     6.3270   -29.3873   119.7829     9.0330     2.5066     0.0457     0.0799
 3023.5000     5.2905     6.3892   -29.2623   117.5870     9.0330     2.5292     0.0814     0.0676
 3024.0000     5.3184     6.4518   -29.2592   117.8250     9.0330     2.5370     0.0652     0.0713
 3024.5000     5.3465     6.5151   -29.2953   118.8800     9.0330     2.5213     0.0199     0.0801
