~VERSION INFORMATION
 VERS.                2.0:   CWLS LOG ASCII STANDARD - VERSION 2.0
 WRAP.                 NO:   ONE LINE PER DEPTH STEP
~WELL INFORMATION
#MNEM.UNIT      DATA TYPE    INFORMATION
#----------   ------------   ------------------------------
 STRT.F           14.0000:   START DEPTH
 STOP.F          608.0000:   STOP DEPTH
 STEP.F            0.1000:   STEP LENGTH
 NULL.          -999.2500:   NO VALUE
 COMP. FENIX & SCISSON INC:   COMPANY
 WELL. NAVAL PETROLEUM RESERVE 3 S-15 #72-15:   WELL
 FLD .             TEAPOT:   FIELD
 LOC .      S15 T38N R78W:   LOCATION
 CNTY.            NATRONA:   COUNTY
 STAT.            WYOMING:   STATE
 CTRY. UNITED STATES OF AMERICA:   COUNTRY
 SRVC.           BIRDWELL:   SERVICE COMPANY
 DATE.        21-JUL-1978:   LOGDATE
 API .       490251067300:   API NUMBER
~CURVE INFORMATION
#MNEM.UNIT       API CODE    CURVE DESCRIPTION
#----------   ------------   ------------------------------
 DEPT.F                  :   
 ILD .OHMM   05 120 46 00:   INDUCTION LOG DEEP
 SN  .OHMM   05 040 16 00:   SHORT NORMAL 16"
 SPR .MV     05 010 01 00:   SPONTANEOUS POTENTIAL FROM RES.
 CALD.IN     45 280 60 00:   CALIPER FROM DENSITY LOG
 DPHI.DEC    45 890 12 00:   DENSITY POROSITY SANDSTONE
 DRHO.G/C3   45 356 01 00:   DENSITY CORRECTION
 GRD .GAPI   45 310 01 00:   GAMMA RAY FROM DENSITY LOG
 RHOB.G/C3   45 350 01 00:   BULK DENSITY
~PARAMETER INFORMATION
#MNEM.UNIT          VALUE    DESCRIPTION
#----------   ------------   ------------------------------
 PD  .                 GL:   PERMANENT DATUM
 EPD .F              5238:   ELEVATION PERMANENT DATUM
 LMF .                 KB:   LOG MEASURED FROM
 DAPD.F                 4:   FEET ABOVE PERMANENT DATUM
 DMF .                 KB:   DRILLING MEASURED FROM
 EKB .F              5242:   KELLING BUSHING
 EGL .F              5238:   GROUND LEVEL
 DATE.        21-JUL-1978:   RUN DATE
 RUN .                  1:   RUN NUMBER
 DD  .F               597:   DEPTH DRILLER
 DL  .F               615:   DEPTH LOGGER
 BLI .F               608:   BOTTOM LOG INTERVAL
 TLI .F                35:   TOP LOG INTERVAL
 CS  .IN            8.625:   CASING SIZE
 CBD .F                40:   CASING BOTTOM DRILLER
 CBL .F                35:   CASING BOTTOM LOGGER
 BS  .IN            7.875:   BIT SIZE
 BSD .F               597:   BIT SIZE AT DEPTH
 DFT .                KCL:   DRILLING FLUID TYPE
 DFD .                8.6:   DRILLING FLUID DENSITY
 DFV .                 33:   DRILLING FLUID VISCOSITY
 DFPH.                9.0:   DRILLING FLUID PH
 MSS .            MUD PIT:   MUD SAMPLE SOURCE
 MFSS.               MEAS:   MUD FILTRATE SAMPLE SOURCE
 MCSS.               MEAS:   MUD CAKE SAMPLE SOURCE
 BHT .F                74:   BOTTOM HOLE TEMPERATURE
 TCS .HRS               2:   TIME CURCULATED STOPPED
 MRT .F                74:   MAXIMUM RECORDED TEMPERATURE
 LUN .               2958:   LOGGING UNIT NUMBER
 LUL .             CASPER:   LOGGING UNIT LOCATION
 ENGI.             MILLER:   RECORDING ENGINEER
 WITN.           MCGINLEY:   WITNESSED BY
 CLNT.            A2DTECH:   CLIENT CODE
 ORIG.           5" PRINT:   ORIGIN OF DATA
 UWI .       490251067300:   UNIQUE WELL ID
 DICO. A2D Technologies, Inc.:   DIGITIZING COMPANY
~OTHER INFORMATION
~A   DEPT      ILD         SN        SPR       CALD       DPHI       DRHO         GRD      RHOB   
# ...
  338.0000     2.7279     3.9634   -21.2654     7.9263     0.2429     0.0198    91.4831     2.2686
  338.1000     2.6984     3.9086   -21.2681     7.9262     0.2477     0.0213    91.9789     2.2638
  338.2000     2.6810     3.8557   -21.2708     7.9261     0.2533     0.0215    92.4779     2.2601
  338.3000     2.6549     3.8039   -21.2735     7.9260     0.2594     0.0228    93.2129     2.2563
  338.4000     2.6344     3.7431   -21.2762     7.9259     0.2647     0.0251    93.6168     2.2539
  338.5000     2.6195     3.6986   -21.2789     7.9258     0.2675     0.0267    94.1875     2.2505
  338.6000     2.6046     3.6591   -21.2816     7.9257     0.2700     0.0279    94.7107     2.2461
  338.7000     2.5893     3.6178   -21.2843     7.9256     0.2723     0.0298    95.1041     2.2408
  338.8000     2.5892     3.5769   -21.2870     7.9171     0.2734     0.0333    95.6174     2.2350
  338.9000     2.5890     3.5365   -21.2897     7.9104     0.2731     0.0347    96.0956     2.2315
  339.0000     2.5965     3.4966   -21.2925     7.9103     0.2726     0.0378    96.4977     2.2294
  339.1000     2.6111     3.4514   -21.2951     7.9102     0.2714     0.0400    96.8690     2.2265
  339.2000     2.6246     3.4181   -21.2686     7.9101     0.2692     0.0422    97.2810     2.2245
  339.3000     2.6244     3.3795   -21.2304     7.9100     0.2671     0.0456    97.7484     2.2237
  339.4000     2.6370     3.3572   -21.1921     7.9099     0.2654     0.0482    98.0197     2.2225
  339.5000     2.6517     3.3533   -21.1558     7.9047     0.2634     0.0505    98.5786     2.2300
  339.6000     2.6727     3.3340   -21.1586     7.8946     0.2591     0.0556    99.2845     2.2393
  339.7000     2.7001     3.3339   -21.1613     7.8945     0.2531     0.0605    99.4959     2.2495
  339.8000     2.7159     3.3339   -21.1640     7.9068     0.2430     0.0638    98.9571     2.2602
  339.9000     2.7453     3.3441   -21.1667     7.9095     0.2317     0.0661    97.9791     2.2718
  340.0000     2.7648     3.3569   -21.1694     7.9235     0.2223     0.0601    97.2546     2.2885
  340.1000     2.7884     3.3609   -21.1723     7.9483     0.2163     0.0468    96.5231     2.3015
  340.2000     2.8198     3.4035   -21.1748     7.9767     0.2078     0.0361    95.4948     2.3113
  340.3000     2.8516     3.4380   -21.1775     8.0299     0.2046     0.0302    94.3222     2.3190
  340.4000     2.8890     3.4771   -21.1802     8.0762     0.1991     0.0265    93.0517     2.3259
  340.5000     2.9165     3.5167   -21.1829     8.1798     0.1925     0.0226    91.6651     2.3314
  340.6000     2.9494     3.5521   -21.1856     8.2411     0.1863     0.0261    89.3292     2.3386
  340.7000     2.9827     3.5728   -21.1888     8.2263     0.1802     0.0306    87.7352     2.3432
  340.8000     3.0193     3.6341   -21.1910     8.1764     0.1756     0.0343    86.9949     2.3510
  340.9000     3.0734     3.6631   -21.1185     8.1200     0.1718     0.0367    86.7008     2.3664
  341.0000     3.1063     3.6960   -21.0465     8.0764     0.1684     0.0390    86.3600     2.3873
  341.1000     3.1543     3.7305   -21.0492     8.0265     0.1650     0.0390    86.2243     2.3873
  341.2000     3.2080     3.7547   -21.0520     7.9765     0.1610     0.0390    86.9129     2.3867
  341.3000     3.2625     3.8008   -21.0546     7.9325     0.1554     0.0390    87.4802     2.3866
  341.4000     3.3190     3.8407   -21.0127     7.9075     0.1503     0.0385    87.9138     2.3897
  341.5000     3.4076     3.8845   -20.9540     7.8778     0.1447     0.0375    88.2494     2.3953
  341.6000     3.4721     3.9287   -20.9127     7.8472     0.1401     0.0375    88.4871     2.3996
  341.7000     3.5512     3.9735   -20.9154     7.8248     0.1363     0.0363    88.6266     2.4038
  341.8000     3.6320     4.0187   -20.9181     7.8122     0.1308     0.0360    88.8394     2.4075
  341.9000     3.7146     4.0723   -20.9208     7.7997     0.1269     0.0360    89.0056     2.4118
  342.0000     3.8046     4.1303   -20.8856     7.7867     0.1243     0.0356    89.0739     2.4166
  342.1000     3.8858     4.1865   -20.8269     7.7746     0.1229     0.0344    89.0442     2.4225
  342.2000     3.9744     4.2437   -20.7785     7.7714     0.1222     0.0329    88.9195     2.4300
  342.3000     4.0649     4.3120   -20.7817     7.7713     0.1217     0.0326    88.9176     2.4391
  342.4000     4.1573     4.3634   -20.7844     7.7712     0.1212     0.0322    88.7171     2.4478
  342.5000     4.2518     4.4109   -20.7871     7.7711     0.1208     0.0318    88.6124     2.4578
  342.6000     4.3665     4.4799   -20.7898     7.7710     0.1206     0.0313    88.5176     2.4674
  342.7000     4.4479     4.5432   -20.7925     7.7710     0.1206     0.0307    88.2871     2.4740
  342.8000     4.5339     4.6029   -20.7952     7.7709     0.1206     0.0301    88.1544     2.4794
  342.9000     4.6110     4.6816   -20.7983     7.7708     0.1206     0.0299    88.0347     2.4811
  343.0000     4.6933     4.7730   -20.8006     7.7707     0.1206     0.0293    88.0000     2.4825
  343.1000     4.8083     4.8437   -20.8033     7.7706     0.1206     0.0282    88.1283     2.4835
  343.2000     4.8840     4.9268   -20.8060     7.7705     0.1208     0.0276    88.3752     2.4838
  343.3000     4.9475     5.0112   -20.8087     7.7704     0.1212     0.0268    88.6222     2.4831
  343.4000     5.0170     5.1031   -20.8115     7.7703     0.1219     0.0268    88.8975     2.4824
  343.5000     5.0876     5.2212   -20.8141     7.7702     0.1224     0.0268    89.1161     2.4824
  343.6000     5.1169     5.3699   -20.8168     7.7715     0.1229     0.0268    89.3631     2.4820
  343.7000     5.1860     5.5002   -20.8195     7.7776     0.1234     0.0268    89.6101     2.4812
  343.8000     5.2332     5.6086   -20.8222     7.7838     0.1236     0.0268    89.8878     2.4800
  343.9000     5.2924     5.6938   -20.8249     7.7850     0.1237     0.0256    90.2592     2.4794
  344.0000     5.3412     5.7549   -20.8280     7.7849     0.1239     0.0253    90.6965     2.4788
  344.1000     5.3670     5.7909   -20.8303     7.7848     0.1239     0.0247    91.0018     2.4777
  344.2000     5.3667     5.8204   -20.8330     7.7847     0.1241     0.0238    91.8279     2.4768
  344.3000     5.3664     5.8534   -20.8357     7.7846     0.1242     0.0238    92.7481     2.4760
  344.4000     5.3661     5.8866   -20.8384     7.7845     0.1242     0.0237    93.2766     2.4748
  344.5000     5.3658     5.9119   -20.8412     7.7844     0.1242     0.0237    93.4027     2.4741
  344.6000     5.3582     5.9118   -20.8438     7.7844     0.1242     0.0237    93.6426     2.4741
  344.7000     5.3278     5.9117   -20.8465     7.7843     0.1242     0.0237    93.7008     2.4745
  344.8000     5.2975     5.9387   -20.8492     7.7842     0.1242     0.0237    93.6989     2.4748
  344.9000     5.2440     5.9526   -20.8519     7.7841     0.1244     0.0237    93.6556     2.4749
  345.0000     5.1848     5.9649   -20.8546     7.7840     0.1246     0.0237    93.5445     2.4756
  345.1000     5.1263     5.9937   -20.8576     7.7839     0.1249     0.0237    93.5425     2.4756
  345.2000     5.0685     5.9936   -20.8600     7.7838     0.1254     0.0237    93.5409     2.4756
  345.3000     5.0056     5.9935   -20.8627     7.7837     0.1259     0.0237    93.5391     2.4755
  345.4000     4.9548     5.9934   -20.8654     7.7836     0.1264     0.0237    93.7176     2.4754
  345.5000     4.8804     5.9933   -20.8681     7.7835     0.1271     0.0236    94.1226     2.4747
  345.6000     4.8104     5.9840   -20.8708     7.7834     0.1281     0.0236    94.6184     2.4733
  345.7000     4.7500     5.9519   -20.8735     7.7834     0.1291     0.0236    95.1907     2.4733
  345.8000     4.6697     5.9518   -20.8762     7.7833     0.1302     0.0236    95.7150     2.4725
  345.9000     4.5655     5.9236   -20.8789     7.7832     0.1310     0.0236    96.0202     2.4712
  346.0000     4.4831     5.9107   -20.8816     7.7831     0.1320     0.0236    96.1951     2.4697
