~VERSION INFORMATION
 VERS.                2.0:   CWLS LOG ASCII STANDARD - VERSION 2.0
 WRAP.                 NO:   ONE LINE PER DEPTH STEP
~WELL INFORMATION
#MNEM.UNIT      DATA TYPE    INFORMATION
#----------   ------------   ------------------------------
 STRT.F           28.0000:   START DEPTH
 STOP.F          494.0000:   STOP DEPTH
 STEP.F            0.5000:   STEP LENGTH
 NULL.          -999.2500:   NO VALUE
 COMP.    FENIX & SCISSON:   COMPANY
 WELL.        67-S-3 #3-3:   WELL
 FLD .             TEAPOT:   FIELD
 LOC .       S3 T38N R78W:   LOCATION
 CNTY.            NATRONA:   COUNTY
 STAT.            WYOMING:   STATE
 CTRY. UNITED STATES OF AMERICA:   COUNTRY
 SRVC.           BIRDWELL:   SERVICE COMPANY
 DATE.        15-OCT-1978:   LOGDATE
 API .       490251072100:   API NUMBER
~CURVE INFORMATION
#MNEM.UNIT       API CODE    CURVE DESCRIPTION
#----------   ------------   ------------------------------
 DEPT.F                  :   
 ILD .OHMM   05 120 46 00:   INDUCTION LOG DEEP
 SN  .OHMM   05 040 16 00:   SHORT NORMAL 16"
 SPR .MV     05 010 01 00:   SPONTANEOUS POTENTIAL FROM RES.
 CALD.IN     45 280 60 00:   CALIPER FROM DENSITY LOG
 CORR.G/C3   45 356 01 00:   DENSITY CORRECTION
 DPHI.DEC    45 890 12 00:   DENSITY POROSITY SANDSTONE
 GRD .GAPI   45 310 01 00:   GAMMA RAY FROM DENSITY LOG
 RHOB.G/C3   45 350 01 00:   BULK DENSITY
~PARAMETER INFORMATION
#MNEM.UNIT          VALUE    DESCRIPTION
#----------   ------------   ------------------------------
 PD  .                 GL:   PERMANENT DATUM
 EPD .F              5173:   ELEVATION PERMANENT DATUM
 LMF .                 KB:   LOG MEASURED FROM
 DAPD.F                 4:   FEET ABOVE PERMANENT DATUM
 DMF .                 KB:   DRILLING MEASURED FROM
 EKB .F              5177:   KELLING BUSHING
 EGL .F              5173:   GROUND LEVEL
 DATE.        15-OCT-1978:   RUN DATE
 RUN .                  1:   RUN NUMBER
 DD  .F               492:   DEPTH DRILLER
 DL  .F               494:   DEPTH LOGGER
 BLI .F               488:   BOTTOM LOG INTERVAL
 TLI .F                46:   TOP LOG INTERVAL
 CS  .IN            8.625:   CASING SIZE
 CBD .F                40:   CASING BOTTOM DRILLER
 BS  .IN            7.875:   BIT SIZE
 BSD .F               492:   BIT SIZE AT DEPTH
 DFT .                KCL:   DRILLING FLUID TYPE
 DFD .                8.7:   DRILLING FLUID DENSITY
 DFV .                 35:   DRILLING FLUID VISCOSITY
 DFPH.                  9:   DRILLING FLUID PH
 LUN .               2958:   LOGGING UNIT NUMBER
 LUL .               CASP:   LOGGING UNIT LOCATION
 ENGI.             MILLER:   RECORDING ENGINEER
 WITN.           DINSMORE:   WITNESSED BY
 CLNT.            A2DTECH:   CLIENT CODE
 ORIG.           5" PRINT:   ORIGIN OF DATA
 UWI .       490251072100:   UNIQUE WELL ID
 DICO. A2D Technologies, Inc.:   DIGITIZING COMPANY
~OTHER INFORMATION
~A   DEPT      ILD         SN        SPR       CALD       CORR       DPHI         GRD      RHOB   
# ...
  311.5000    20.4850    12.8283   -16.0731     8.0000     0.0345     0.1814    81.1940     2.3795
  312.0000    20.4878    12.7408   -16.0784     7.9851     0.0465     0.1802    83.5821     2.3838
  312.5000    20.4912    12.7419   -16.2313     7.9851     0.0557     0.1793    87.3134     2.3846
  313.0000    20.2121    12.7428   -16.2358     7.9701     0.0601     0.1778    89.5522     2.3868
  313.5000    20.2148    12.7436   -16.2407     7.9701     0.0586     0.1682    88.2090     2.3988
  314.0000    20.3579    12.7445   -16.2448     7.9701     0.0571     0.1670    83.8806     2.4070
  314.5000    20.5021    12.7453   -16.2493     7.9701     0.0541     0.1669    84.1791     2.4100
  315.0000    20.5049    12.7464   -16.2537     7.9701     0.0556     0.1658    84.3284     2.4115
  315.5000    20.5077    12.7472   -16.2582     7.9552     0.0646     0.1662    84.1791     2.4093
  316.0000    20.5111    12.7481   -16.2627     7.9552     0.0766     0.1668    84.3284     2.4117
  316.5000    20.5138    12.7489   -16.2678     7.9403     0.0811     0.1671    85.2239     2.4138
  317.0000    20.2337    12.7498   -16.2722     7.9254     0.0751     0.1686    85.9701     2.4130
  317.5000    20.2371    12.7506   -16.4258     7.9254     0.0586     0.1728    87.1642     2.4093
  318.0000    19.9607    12.7515   -16.4298     7.9403     0.0345     0.1800    87.7612     2.3958
  318.5000    19.6894    12.7525   -16.5837     7.9403     0.0120     0.1809    87.1005     2.3816
  319.0000    19.4212    12.8418   -16.5881     7.9552     0.0195     0.1782    84.3284     2.3815
  319.5000    19.1566    12.8427   -16.7632     7.9552     0.0240     0.1767    84.1791     2.3868
  320.0000    18.8957    12.8435   -16.8963     7.9552     0.0225     0.1764    85.0746     2.3915
  320.5000    18.7684    12.9335   -17.1992     7.9701     0.0163     0.1743    86.2687     2.3981
  321.0000    18.6408    12.9343   -17.2035     7.9701     0.0015     0.1728    81.0448     2.4003
  321.5000    18.9039    12.9352   -17.2075     7.9851    -0.0030     0.1713    79.4030     2.3966
  322.0000    19.1701    12.9361   -17.2122     8.0000    -0.0015     0.1683    82.5373     2.3988
  322.5000    19.5752    13.0268   -17.2165     8.0149    -0.0015     0.1609    84.6368     2.4070
  323.0000    19.8515    13.0277   -17.2209     8.0149     0.0015     0.1441    85.2239     2.4190
  323.5000    19.9921    12.9389   -17.2254     8.0149     0.0045     0.1300    85.3731     2.4318
  324.0000    19.9948    12.9397   -17.2307     8.0149     0.0120     0.1027    84.7761     2.4932
  324.5000    19.4511    12.9406   -17.2343     8.0149     0.0227     0.0892    82.0896     2.5247
  325.0000    19.0537    12.8523   -17.2388     8.0149     0.0333     0.0868    80.4478     2.5382
  325.5000    18.9247    12.7647   -17.2433     8.0000     0.0405     0.1087    77.6119     2.5300
  326.0000    18.6669    12.3323   -17.2478     7.9552     0.0495     0.1369    74.0299     2.4940
  326.5000    18.4126    11.9143   -17.2524     7.9104     0.0495     0.1420    72.8358     2.4715
  327.0000    17.6662    11.5903   -17.2571     7.8955     0.0495     0.1444    73.5204     2.4528
  327.5000    17.0673    11.3533   -17.2612     7.8955     0.0405     0.1549    82.3881     2.4430
  328.0000    16.2618    11.1982   -17.2657     7.8955     0.0195     0.1597    85.9701     2.4293
  328.5000    15.7105    11.1218   -17.2708     7.8955     0.0090     0.1624    86.5672     2.4225
  329.0000    15.6042    10.9699   -17.2752     7.8955     0.0045     0.1672    86.5672     2.4168
  329.5000    16.0584    10.9708   -17.2791     7.8955     0.0045     0.1684    87.3134     2.4130
  330.0000    16.4980    10.8958   -17.2836     7.8955     0.0045     0.1684    94.4776     2.4093
  330.5000    16.5002    10.8968   -17.2882     7.8955     0.0045     0.1684    94.0299     2.4048
  331.0000    16.3885    10.9730   -17.4418     7.8973     0.0060     0.1671    88.2309     2.4018
  331.5000    16.0537    10.9738   -17.4463     7.9104     0.0075     0.1630    84.0299     2.4025
  332.0000    15.7257    10.9745   -17.4516     7.9254     0.0075     0.1529    81.6418     2.4168
  332.5000    15.4045    10.9753   -17.6052     7.9403     0.0060     0.1502    80.5970     2.4238
  333.0000    15.1682    10.9004   -17.6095     7.9403     0.0045     0.1472    80.4478     2.4370
  333.5000    14.5787    10.9013   -17.6139     7.9403     0.0030     0.1454    81.7910     2.4468
  334.0000    14.2808    10.8268   -17.6182     7.9403     0.0030     0.1481    83.8806     2.4445
  334.5000    13.9891    10.8277   -17.6226     7.9254     0.0030     0.1502    84.1871     2.4393
  335.0000    13.7980    10.6796   -17.6269     7.9254     0.0030     0.1517    83.5721     2.4348
  335.5000    13.6105    10.6070   -17.6313     7.9403     0.0060     0.1514    82.5373     2.4318
  336.0000    13.6123    10.5346   -17.7184     7.9403     0.0120     0.1472    81.9403     2.4348
  336.5000    13.6142    10.3909   -17.7903     7.9552     0.0165     0.1325    81.7910     2.4471
  337.0000    13.6164    10.3916   -17.7946     7.9552     0.0195     0.1304    81.9403     2.4640
  337.5000    13.6182    10.4644   -17.9478     7.9552     0.0165     0.1292    82.9851     2.4715
  338.0000    13.7147    10.5376   -17.9522     7.9701     0.0135     0.1286    84.7761     2.4730
  338.5000    13.8119    10.6114   -17.9569     7.9403     0.0150     0.1271    85.3731     2.4715
  339.0000    13.8137    10.6857   -17.9612     7.8806     0.0180     0.1266    85.2159     2.4760
  339.5000    14.0082    10.8351   -17.9657     7.8507     0.0195     0.1266    85.3950     2.4768
  340.0000    14.1076    10.8360   -17.9701     7.9403     0.0180     0.1290    86.5672     2.4768
  340.5000    14.2076    10.9119   -17.9746     8.0149     0.0105     0.1350    86.2687     2.4699
  341.0000    14.4077    10.9126   -17.9797     8.0149     0.0060     0.1485    84.1791     2.4521
  341.5000    14.4100    10.9133   -17.9840     8.0149     0.0045     0.1506    82.8358     2.4400
  342.0000    14.5121    10.9140   -17.9881     8.0149     0.0045     0.1539    82.6866     2.4340
  342.5000    14.5141    10.9148   -17.9927     8.0149     0.0030     0.1557    82.3881     2.4288
  343.0000    14.5160    10.9155   -17.9970     8.0149     0.0015     0.1569    81.6418     2.4235
  343.5000    14.5179    10.8411   -18.0015     8.0149     0.0030     0.1578    80.7304     2.4235
  344.0000    14.4196    10.8420   -18.0069     8.0149     0.0105     0.1569    81.3433     2.4258
  344.5000    14.4217    10.8427   -18.0112     8.0149     0.0180     0.1542    81.6418     2.4303
  345.0000    14.2256    10.8434   -18.1648     8.0000     0.0227     0.1473    82.3881     2.4412
  345.5000    14.1293    10.8441   -18.1691     7.9552     0.0240     0.1362    84.0299     2.4558
  346.0000    14.0332    10.8449   -18.1735     7.9552     0.0225     0.1305    84.1791     2.4655
  346.5000    13.7470    10.8456   -18.1778     7.9552     0.0210     0.1296    79.4030     2.4648
  347.0000    13.6535    10.8463   -18.0328     7.9701     0.0195     0.1290    79.1045     2.4678
  347.5000    13.4679    10.8472   -18.0373     7.9863     0.0210     0.1269    81.0945     2.4730
  348.0000    13.3682    10.8479   -18.0159     8.0149     0.0240     0.1243    87.0149     2.4768
  348.5000    13.2863    10.8487   -17.7474     8.0149     0.0270     0.1219    88.5075     2.4790
  349.0000    13.2885    10.9246   -17.7529     8.0448     0.0285     0.1204    88.3582     2.4813
  349.5000    13.2902    11.0011   -17.4576     8.0896     0.0255     0.1207    87.3134     2.4858
  350.0000    13.3566    11.0781   -17.1320     8.0936     0.0220     0.1231    86.1194     2.4873
  350.5000    13.2919    11.1567   -16.9377     8.1196     0.0150     0.1272    87.6344     2.4768
  351.0000    13.4773    11.3134   -17.6119     8.0451     0.0075     0.1324    88.2090     2.4715
  351.5000    14.0490    11.4724   -18.8060     8.0004     0.0045     0.1375    87.0149     2.4655
