~VERSION INFORMATION
 VERS.                2.0:   CWLS LOG ASCII STANDARD - VERSION 2.0
 WRAP.                 NO:   ONE LINE PER DEPTH STEP
~WELL INFORMATION
#MNEM.UNIT      DATA TYPE    INFORMATION
#----------   ------------   ------------------------------
 STRT.F           40.0000:   START DEPTH
 STOP.F          468.0000:   STOP DEPTH
 STEP.F            0.5000:   STEP LENGTH
 NULL.          -999.2500:   NO VALUE
 COMP. BROWN JOHN E&C INC:   COMPANY
 WELL. NAVAL PETROLEUM RESERVE 3 SX-1 #73-2-10:   WELL
 FLD .             TEAPOT:   FIELD
 LOC .      S10 T38N R78W:   LOCATION
 CNTY.            NATRONA:   COUNTY
 STAT.            WYOMING:   STATE
 CTRY. UNITED STATES OF AMERICA:   COUNTRY
 SRVC.     Atlas Wireline:   SERVICE COMPANY
 DATE.        05-MAY-1991:   LOGDATE
 API .       490251134000:   API NUMBER
~CURVE INFORMATION
#MNEM.UNIT       API CODE    CURVE DESCRIPTION
#----------   ------------   ------------------------------
 DEPT.F                  :   
 RILD.OHMM   07 120 46 00:   INDUCTION LOG DEEP RESISTIVITY
 RILM.OHMM   07 120 44 00:   INDUCTION LOG MEDIUM RESISTIVITY
 GRD .GAPI   45 310 01 00:   GAMMA RAY FROM DENSITY LOG
 CALD.IN     45 280 60 00:   CALIPER FROM DENSITY LOG
 CORR.G/C3   45 356 01 00:   DENSITY CORRECTION
 PORD.DEC    45 890 12 00:   POROSITY DENSITY SANDSTONE
 DEN .G/C3   45 350 01 00:   COMPENSATED BULK DENSTIY
~PARAMETER INFORMATION
#MNEM.UNIT          VALUE    DESCRIPTION
#----------   ------------   ------------------------------
 PD  .                 GL:   PERMANENT DATUM
 EPD .F              5178:   ELEVATION PERMANENT DATUM
 LMF .                 KB:   LOG MEASURED FROM
 DAPD.F                 5:   FEET ABOVE PERMANENT DATUM
 DMF .                 KB:   DRILLING MEASURED FROM
 EKB .F              5183:   KELLING BUSHING
 EGL .F              5178:   GROUND LEVEL
 DATE.        05-MAY-1991:   RUN DATE
 RUN .                  1:   RUN NUMBER
 DD  .F               470:   DEPTH DRILLER
 DL  .F               470:   DEPTH LOGGER
 BLI .F               468:   BOTTOM LOG INTERVAL
 TLI .F                 0:   TOP LOG INTERVAL
 CS  .IN            8.625:   CASING SIZE
 CBD .F                45:   CASING BOTTOM DRILLER
 CBL .F                45:   CASING BOTTOM LOGGER
 BS  .IN            7.875:   BIT SIZE
 BSD .F               470:   BIT SIZE AT DEPTH
 DFT .                AIR:   DRILLING FLUID TYPE
 LUN .            HL-6272:   LOGGING UNIT NUMBER
 LUL .             CASPER:   LOGGING UNIT LOCATION
 ENGI.            KINNETT:   RECORDING ENGINEER
 WITN.             STRONG:   WITNESSED BY
 CLNT.            A2DTECH:   CLIENT CODE
 ORIG.           5" PRINT:   ORIGIN OF DATA
 UWI .       490251134000:   UNIQUE WELL ID
 DICO. A2D Technologies, Inc.:   DIGITIZING COMPANY
~OTHER INFORMATION
~A   DEPT     RILD       RILM          GRD     CALD       CORR       PORD        DEN   
# ...
  404.0000    11.6143    12.3641    35.8913     8.3101     0.0139     0.1116     2.4623
  404.5000    11.4518    12.2609    35.6689     8.3102     0.0139     0.1137     2.4616
  405.0000    11.3702    12.1036    32.7233     8.2951     0.0139     0.1146     2.4623
  405.5000    11.2892    12.0173    29.7778     8.2801     0.0154     0.1143     2.4631
  406.0000    11.2087    11.7671    31.8247     8.2802     0.0169     0.1125     2.4669
  406.5000    11.1289    11.6832    34.5523     8.2803     0.0169     0.1101     2.4706
  407.0000    11.0496    11.5197    36.3723     8.2805     0.0184     0.1077     2.4744
  407.5000    10.9708    11.3584    37.2845     8.2806     0.0154     0.1061     2.4752
  408.0000    10.8173    11.1219    36.6082     8.2808     0.0124     0.1098     2.4714
  408.5000    10.6658    10.9662    33.6627     8.2809     0.0094     0.1101     2.4691
  409.0000    10.4437    10.8127    34.1211     8.2810     0.0064     0.1086     2.4721
  409.5000    10.3693    10.5875    35.4872     8.2659     0.0049     0.1092     2.4729
  410.0000    10.1487    10.4393    37.0802     8.2509     0.0064     0.1098     2.4714
  410.5000     9.8731    10.2219    35.4885     8.2510     0.0079     0.1104     2.4706
  411.0000     9.5337     9.9398    33.8969     8.2512     0.0109     0.1110     2.4684
  411.5000     9.2064     9.6655    32.5440     8.2513     0.0139     0.1100     2.4676
  412.0000     8.8288     9.2031    32.1058     8.2514     0.0154     0.1086     2.4706
  412.5000     8.3499     8.8171    34.6826     8.2515     0.0169     0.1080     2.4729
  413.0000     7.8423     8.2667    37.8560     8.2517     0.0184     0.1076     2.4721
  413.5000     7.3145     7.3144    40.3682     8.2670     0.0202     0.1062     2.4744
  414.0000     6.6354     6.5437    42.6233     8.2671     0.0214     0.1047     2.4760
  414.5000     5.8544     6.1887    44.3828     8.2672     0.0169     0.1035     2.4767
  415.0000     5.3478     6.0179    44.6142     8.2825     0.0109     0.1038     2.4766
  415.5000     5.2002     5.8926    45.1557     8.2826     0.0079     0.1056     2.4743
  416.0000     5.1991     5.8506    51.4321     8.2828     0.0094     0.1113     2.4671
  416.5000     5.3075     5.8494    61.6484     8.2829     0.0109     0.1206     2.4443
  417.0000     5.4595     5.8890    70.0493     8.2830     0.0169     0.1470     2.3833
  417.5000     5.7359     6.4891    75.5001     8.2832     0.0305     0.1675     2.3720
  418.0000     6.1369     7.1008    70.9660     8.2833     0.0425     0.1612     2.4194
  418.5000     6.6690     7.7165    54.1778     8.2834     0.0380     0.1287     2.4586
  419.0000     7.2977     8.3855    43.7436     8.2835     0.0229     0.1125     2.4857
  419.5000     8.0414     8.8628    39.2095     8.2837     0.0139     0.0974     2.4992
  420.0000     8.7995     9.2381    38.0783     8.2838     0.0154     0.0929     2.5015
  420.5000     9.3004     9.6293    39.8994     8.2839     0.0154     0.0944     2.4985
  421.0000     9.6942     9.9740    40.1308     8.2840     0.0139     0.0986     2.4872
  421.5000     9.9653    10.3250    39.2276     8.2690     0.0109     0.0968     2.4864
  422.0000    10.1730    10.5563    39.4591     8.2691     0.0064     0.0941     2.4932
  422.5000    10.3852    10.8267    42.1867     8.2692     0.0049     0.0929     2.4962
  423.0000    10.6016    11.0530    44.2336     8.2542     0.0169     0.0932     2.4940
  423.5000    10.8226    11.3615    45.8266     8.2543     0.0214     0.0938     2.4932
  424.0000    10.9738    11.5180    47.4197     8.2544     0.0199     0.0950     2.4925
  424.5000    11.2005    11.7581    48.7858     8.2546     0.0154     0.0947     2.4917
  425.0000    11.2893    12.0033    49.6980     8.2547     0.0124     0.0944     2.4925
  425.5000    11.5107    12.2535    48.3409     8.2548     0.0124     0.0935     2.4940
  426.0000    11.5892    12.3370    44.7146     8.2550     0.0139     0.0923     2.4977
  426.5000    11.7483    12.5064    42.4498     8.2551     0.0169     0.0890     2.5030
  427.0000    11.9102    12.6794    40.8658     8.2552     0.0199     0.0857     2.5075
  427.5000    11.9914    12.9430    39.2819     8.2553     0.0199     0.0848     2.5075
  428.0000    12.2408    13.0307    37.2440     8.2555     0.0154     0.0875     2.5030
  428.5000    12.2382    13.2102    37.4755     8.2708     0.0093     0.0917     2.4940
  429.0000    12.4075    13.3922    38.3877     8.2709     0.0063     0.0956     2.4895
  429.5000    12.4915    13.5767    39.0730     8.2710     0.0034     0.0962     2.4902
  430.0000    12.5754    13.6748    39.7583     8.2711     0.0064     0.0944     2.4962
  430.5000    12.6604    13.7727    40.6706     8.2713     0.0112     0.0923     2.4992
  431.0000    12.7460    13.9506    41.5828     8.2714     0.0154     0.0920     2.4992
  431.5000    12.8322    14.0450    42.0412     8.2715     0.0184     0.0932     2.4970
  432.0000    12.8426    14.0414    39.5495     8.2716     0.0229     0.0956     2.4924
  432.5000    12.9164    14.0263    37.2847     8.2566     0.0290     0.1011     2.4856
  433.0000    13.0037    14.0015    36.8342     8.2567     0.0335     0.1056     2.4795
  433.5000    13.0910    13.9767    38.4284     8.2568     0.0380     0.1059     2.4743
  434.0000    13.0883    13.9519    37.7521     8.2570     0.0335     0.1040     2.4736
  434.5000    13.0857    13.9299    36.8489     8.2571     0.0245     0.1013     2.4777
  435.0000    13.0830    13.7349    36.1727     8.2572     0.0139     0.0980     2.4857
  435.5000    12.9898    13.6370    36.4041     8.2573     0.0079     0.0953     2.4917
  436.0000    12.8972    13.4461    37.9971     8.2575     0.0064     0.0938     2.4940
  436.5000    12.8053    13.3503    38.9094     8.2576     0.0064     0.0948     2.4917
  437.0000    12.6261    13.2551    39.3677     8.2577     0.0064     0.0969     2.4857
  437.5000    12.5361    13.0696    38.4645     8.2579     0.0049     0.0999     2.4797
  438.0000    12.4468    12.9765    35.5190     8.2580     0.0064     0.1008     2.4789
  438.5000    12.2677    12.8840    32.3465     8.2581     0.0079     0.0983     2.4834
  439.0000    12.1007    12.6589    30.7625     8.2430     0.0109     0.0971     2.4864
  439.5000    11.9308    12.4894    32.1286     8.2432     0.0154     0.0974     2.4842
  440.0000    11.8458    12.3198    34.6293     8.2433     0.0184     0.0989     2.4827
  440.5000    11.6799    12.1503    35.9993     8.2434     0.0199     0.0989     2.4849
  441.0000    11.5164    11.9808    36.9154     8.2436     0.0199     0.0986     2.4857
  441.5000    11.4344    11.8113    38.5346     8.2437     0.0199     0.0977     2.4857
  442.0000    11.1963    11.6418    41.2587     8.2286     0.0214     0.0959     2.4872
  442.5000    11.1165    11.4722    43.7861     8.2136     0.0245     0.0935     2.4947
  443.0000    10.8850    11.3027    46.3211     8.2137     0.0305     0.0896     2.5023
  443.5000    10.5846    11.1332    48.5037     8.1987     0.0335     0.0872     2.5083
  444.0000    10.2925    10.9637    46.7988     8.1988     0.0320     0.0866     2.5060
  444.5000    10.2191    10.7251    43.6451     8.1989     0.0290     0.0878     2.5030
  445.0000    10.0063    10.5781    40.4616     8.1991     0.0260     0.0911     2.4992
  445.5000     9.9325    10.4300    41.0556     8.1992     0.0260     0.0941     2.4947
  446.0000     9.7281    10.2836    46.7119     8.1993     0.0276     0.0929     2.4977
  446.5000     9.6588    10.0694    49.2127     8.2146     0.0320     0.0911     2.5023
  447.0000     9.5232     9.9285    49.8980     8.2147     0.0365     0.0890     2.5075
  447.5000     9.3899     9.7895    49.9025     8.2149     0.0317     0.0869     2.5076
  448.0000     9.2584     9.5193    49.9070     8.2150     0.0169     0.0857     2.5045
  448.5000     9.1924     9.3860    49.9116     8.2151     0.0139     0.0857     2.5023
  449.0000     9.0010     9.2546    49.6891     8.2152     0.0139     0.0872     2.5030
