~VERSION INFORMATION
 VERS.                2.0:   CWLS LOG ASCII STANDARD - VERSION 2.0
 WRAP.                 NO:   ONE LINE PER DEPTH STEP
~WELL INFORMATION
#MNEM.UNIT      DATA TYPE    INFORMATION
#----------   ------------   ------------------------------
 STRT.F           30.0000:   START DEPTH
 STOP.F          482.0000:   STOP DEPTH
 STEP.F            0.5000:   STEP LENGTH
 NULL.          -999.2500:   NO VALUE
 COMP. FENIX & SCISSON INC:   COMPANY
 WELL.        S 10 #72-10:   WELL
 FLD .             TEAPOT:   FIELD
 LOC .      S10 T38N R78W:   LOCATION
 CNTY.            NATRONA:   COUNTY
 STAT.            WYOMING:   STATE
 CTRY. UNITED STATES OF AMERICA:   COUNTRY
 SRVC.            Unknown:   SERVICE COMPANY
 DATE.        07-FEB-1978:   LOGDATE
 API .       490251056900:   API NUMBER
~CURVE INFORMATION
#MNEM.UNIT       API CODE    CURVE DESCRIPTION
#----------   ------------   ------------------------------
 DEPT.F                  :   
 CALD.IN     45 280 60 00:   CALIPER FROM DENSITY LOG
 CORR.G/C3   45 356 01 00:   DENSITY CORRECTION
 DPHI.DEC    45 890 12 00:   DENSITY POROSITY SANDSTONE
 GRD .GAPI   45 310 01 00:   GAMMA RAY FROM DENSITY LOG
 RHOB.G/C3   45 350 01 00:   BULK DENSITY
 SN  .OHMM   05 040 16 00:   SHORT NORMAL 16"
 SPR .MV     05 010 01 00:   SPONTANEOUS POTENTIAL FROM RES.
 ILD .OHMM   05 120 46 00:   INDUCTION LOG DEEP
~PARAMETER INFORMATION
#MNEM.UNIT          VALUE    DESCRIPTION
#----------   ------------   ------------------------------
 PD  .                 GL:   PERMANENT DATUM
 EPD .F              5174:   ELEVATION PERMANENT DATUM
 LMF .                 KB:   LOG MEASURED FROM
 DMF .                 KB:   DRILLING MEASURED FROM
 EKB .F              5177:   KELLING BUSHING
 EGL .F              5174:   GROUND LEVEL
 DATE.        07-FEB-1978:   RUN DATE
 RUN .                  1:   RUN NUMBER
 DD  .F               469:   DEPTH DRILLER
 DL  .F               482:   DEPTH LOGGER
 BLI .F               474:   BOTTOM LOG INTERVAL
 TLI .F                44:   TOP LOG INTERVAL
 CS  .IN            8.625:   CASING SIZE
 CBD .F                39:   CASING BOTTOM DRILLER
 CBL .F                42:   CASING BOTTOM LOGGER
 BS  .IN            7.875:   BIT SIZE
 BSD .F               469:   BIT SIZE AT DEPTH
 DFT .    LIGNO/SULF FULL:   DRILLING FLUID TYPE
 DFD .                8.7:   DRILLING FLUID DENSITY
 DFV .                 31:   DRILLING FLUID VISCOSITY
 DFPH.                  9:   DRILLING FLUID PH
 DFL .                4.8:   DRILLING FLUID LOSS
 MSS .           FLOWLINE:   MUD SAMPLE SOURCE
 RMS .OHMM             .9:   RESISTIVITY MUD SAMPLE
 MST .F                50:   MUD SAMPLE TEMPERATURE
 RMF .OHMM            .65:   RESISTIVITY MUD FILTRATE SAMPLE
 MFST.F                58:   MUD FILTRATE SAMPLE TEMPERATURE
 RMC .OHMM            1.2:   RESISTIVITY MUD CAKE
 MCST.F                58:   MUD CAKE SAMPLE TEMPERATURE
 MFSS.               MEAS:   MUD FILTRATE SAMPLE SOURCE
 RMB .OHMM            .55:   RESISTIVITY MUD AT BHT
 BHT .F                82:   BOTTOM HOLE TEMPERATURE
 TCS .HRS               3:   TIME CURCULATED STOPPED
 MRT .F                82:   MAXIMUM RECORDED TEMPERATURE
 LUN .               2958:   LOGGING UNIT NUMBER
 LUL .               CASP:   LOGGING UNIT LOCATION
 ENGI.            POINTER:   RECORDING ENGINEER
 WITN.         HARRINGTON:   WITNESSED BY
 CLNT.            A2DTECH:   CLIENT CODE
 ORIG.           5" PRINT:   ORIGIN OF DATA
 UWI .       490251056900:   UNIQUE WELL ID
 DICO. A2D Technologies, Inc.:   DIGITIZING COMPANY
~OTHER INFORMATION
~A   DEPT     CALD       CORR       DPHI         GRD      RHOB         SN        SPR        ILD   
# ...
  435.0000     8.0174     0.1339     0.1455    89.6432     2.4193     6.0751   -34.5961     6.0204
  435.5000     7.9887     0.1340     0.1407    90.8366     2.4035     6.0356   -34.2887     6.1082
  436.0000     8.0060     0.2310     0.1250    92.9221     2.4728     6.0807   -33.9813     6.1537
  436.5000     8.0494     0.2667     0.0813    84.1461     2.5330     6.1682   -33.8232     6.1995
  437.0000     8.0799     0.1676     0.0695    75.2205     2.5361     6.6139   -34.1128     6.2025
  437.5000     8.0805     0.1239     0.0846    74.0329     2.5015     7.8150   -34.2554     6.2922
  438.0000     8.0511     0.1556     0.0860    74.3335     2.5046     9.1069   -34.0951     6.6544
  438.5000     8.0072     0.1542     0.0860    75.6757     2.5069     9.6975   -33.6384     8.0845
  439.0000     7.9928     0.1498     0.0872    75.3810     2.5039    10.1137   -33.3310     9.4217
  439.5000     7.9935     0.1469     0.0896    76.2769     2.5009    10.4025   -33.6207     9.9640
  440.0000     7.9941     0.1485     0.0911    76.7262     2.4987    10.4793   -33.7610    10.1081
  440.5000     7.9947     0.1576     0.0907    77.0268     2.4980    10.6300   -33.9015    10.2542
  441.0000     8.0102     0.1743     0.0879    77.4762     2.5075    10.7830   -33.8925    10.4025
  441.5000     8.0257     0.1865     0.0802    78.2426     2.5173    10.8625   -33.8836    10.4799
  442.0000     8.0560     0.1896     0.0790    79.9108     2.5200    10.9426   -33.8748    10.7054
  442.5000     8.0566     0.1852     0.0825    82.1330     2.5163    11.1001   -34.1644    10.8602
  443.0000     8.0721     0.1747     0.0831    83.0169     2.5193    11.2597   -34.1552    11.0426
  443.5000     8.0875     0.1628     0.0837    82.5863     2.5186    11.4217   -33.8478    11.3326
  444.0000     8.0732     0.1478     0.0852    78.8339     2.5126    11.5861   -33.8371    11.4964
  444.5000     8.0589     0.1374     0.0888    79.2833     2.5036    11.8345   -33.8282    11.7438
  445.0000     8.0298     0.1330     0.0903    78.6910     2.5014    12.0048   -33.9708    12.0449
  445.5000     8.0155     0.1316     0.0921    77.6523     2.4985    12.1775   -33.8105    12.3666
  446.0000     8.0161     0.1392     0.0932    76.0183     2.4955    12.3527   -33.8016    12.6882
  446.5000     8.0167     0.1574     0.0932    72.7475     2.4993    12.5304   -33.6435    12.7877
  447.0000     8.0173     0.1605     0.0848    73.9409     2.5167    12.6229   -33.1868    12.8829
  447.5000     8.0327     0.1543     0.0856    74.9855     2.5144    12.7160   -33.1780    12.8891
  448.0000     8.0333     0.1487     0.0892    74.5420     2.5055    12.8097   -33.3183    13.0754
  448.5000     8.0340     0.1563     0.0883    75.5866     2.5040    12.8151   -33.4609    13.1728
  449.0000     8.0346     0.1685     0.0892    75.7384     2.5063    12.8203   -33.6013    13.2709
  449.5000     8.0055     0.1611     0.0955    75.7413     2.5026    12.9149   -33.5902    13.2773
  450.0000     7.9613     0.1506     0.1048    75.1472     2.4778    13.0102   -33.5813    13.2837
  450.5000     8.0261     0.1588     0.1054    75.8822     2.4763    13.3811   -33.5818    13.2888
  451.0000     8.0417     0.1859     0.1048    76.3213     2.4787    13.3857   -33.5821    13.2898
  451.5000     8.0425     0.2157     0.1020    75.9573     2.4862    13.2967   -33.5821    13.0887
  452.0000     8.0434     0.2369     0.0846    77.3409     2.5149    13.2093   -33.4328    12.8427
  452.5000     8.0441     0.2129     0.0791    77.3311     2.5241    13.2150   -33.4328    12.7569
  453.0000     8.0297     0.1859     0.0845    76.7261     2.5112    13.0373   -33.5821    12.7605
  453.5000     8.0307     0.1921     0.0794    76.1136     2.5090    13.0419   -33.5821    12.6752
  454.0000     8.0314     0.2057     0.0788    74.6232     2.5173    12.9561   -33.5821    12.6781
  454.5000     8.0170     0.2119     0.0805    75.6551     2.5181    12.9607   -33.5821    12.5927
  455.0000     8.0180     0.2135     0.0793    75.5952     2.5182    12.9651   -33.5821    12.5963
  455.5000     8.0038     0.2151     0.0745    74.1449     2.5152    12.9696   -33.5821    12.5992
  456.0000     8.0045     0.2092     0.0733    74.4352     2.5273    12.9741   -34.0299    12.6020
  456.5000     7.9902     0.1988     0.0777    74.4229     2.5319    12.9786   -34.4776    12.5171
  457.0000     7.9762     0.1838     0.0810    75.0084     2.5244    12.8933   -34.6269    12.5207
  457.5000     7.9769     0.1779     0.0831    75.7426     2.5117    12.8979   -34.3284    12.5235
  458.0000     7.9777     0.2006     0.0840    75.2864     2.5087    12.7244   -33.5821    12.4398
  458.5000     7.9784     0.1898     0.0828    76.7647     2.5163    12.6408   -33.4328    12.4427
  459.0000     7.9642     0.1798     0.0813    77.2038     2.5178    12.3858   -33.7313    12.2734
  459.5000     7.9650     0.1844     0.0794    76.7475     2.5164    12.2194   -34.3284    12.1071
  460.0000     7.9657     0.1905     0.0785    79.5627     2.5179    12.0542   -34.3284    11.8612
  460.5000     7.9665     0.1997     0.0779    80.8922     2.5217    11.8933   -33.4328    11.6196
  461.0000     7.9674     0.2058     0.0776    81.4800     2.5316    11.7335   -32.9851    11.4622
  461.5000     7.9680     0.1758     0.0791    83.2535     2.5392    11.5758   -32.5373    11.3068
  462.0000     7.9688     0.1714     0.0787    81.6068     2.5279    11.4203   -33.1343    11.1536
  462.5000     7.9845     0.1971     0.0778    81.7584     2.5219    11.2668   -33.7313    11.0025
  463.0000     7.9852     0.1731     0.0838    80.8432     2.5280    11.1145   -33.7313    10.8535
  463.5000     7.9859     0.1672     0.0813    79.6355     2.5162    10.9652   -33.7313    10.7064
  464.0000     8.0016     0.1779     0.0790    77.8075     2.5010    10.8178   -33.5821    10.5613
  464.5000     7.9872     0.1976     0.0792    79.0281     2.5094    10.6734   -34.7761    10.4815
  465.0000     7.9732     0.2007     0.0798    77.8274     2.5267    10.6033   -34.9254    10.4206
  465.5000     7.9740     0.1993     0.0792    80.0477     2.5275    10.4599   -34.9254    10.3510
  466.0000     7.9747     0.1973     0.0792    79.7403     2.5253    10.3912   -34.9254    10.2818
  466.5000     7.9754     0.1664     0.0795    78.3912     2.5269    10.3229   -34.7761    10.1425
  467.0000     7.9762     0.1650     0.0788    77.7861     2.5352    10.2551   -34.7761    10.0747
  467.5000     7.9722     0.1591     0.0767    81.1990     2.5367    10.2595   -34.6269    10.0073
  468.0000     7.9627     0.1547     0.0737    82.9749     2.5376    10.1920   -34.6269    10.0102
  468.5000     7.9635     0.1473     0.0706    84.0068     2.5376    10.1956   -34.3284    10.0125
  469.0000     7.9642     0.1353     0.0760    81.9136     2.5331    10.2701   -34.3284    10.0148
  469.5000     7.9650     0.1174     0.0826    76.6955     2.5196    10.2736   -34.3284    10.0868
  470.0000     7.9659     0.1190     0.0884    75.9416     2.5061    10.2061   -34.3284     9.9501
  470.5000     7.9517     0.1402     0.0871    84.2652     2.5046    10.2097   -34.3284     9.4808
  471.0000     7.9524     0.1689     0.0823    83.2137     2.5093    10.1426   -34.4776     9.2877
  471.5000     7.9532     0.1811     0.0783    82.4599     2.5139     9.9995   -34.3284     9.2251
  472.0000     7.9539     0.1917     0.0737    82.5989     2.5262     9.8718   -34.1791     9.1001
  472.5000     7.9546     0.1979     0.0701    84.3748     2.5344     9.7281   -33.4328     9.0392
  473.0000     7.9554     0.1995     0.0690    84.9602     2.5388     9.4768   -33.2836     8.9788
  473.5000     7.9410     0.1835     0.0701    87.9414     2.5396     9.3495   -33.4356     8.8576
  474.0000     7.9419     0.1515     0.0776    90.1490     2.5291     9.3521   -33.7313     8.7984
  474.5000     7.9576     0.1426     0.0843    90.1042     2.5201  -999.2500  -999.2500  -999.2500
  475.0000     8.3309     0.1518     0.0812    88.3185     2.5112  -999.2500  -999.2500  -999.2500
