~VERSION INFORMATION
 VERS.                2.0:   CWLS LOG ASCII STANDARD - VERSION 2.0
 WRAP.                 NO:   ONE LINE PER DEPTH STEP
~WELL INFORMATION
#MNEM.UNIT      DATA TYPE    INFORMATION
#----------   ------------   ------------------------------
 STRT.F           80.0000:   START DEPTH
 STOP.F          964.0000:   STOP DEPTH
 STEP.F            0.5000:   STEP LENGTH
 NULL.          -999.2500:   NO VALUE
 COMP. U S NAVY-INTEX OIL:   COMPANY
 WELL. N.P.R. #3` #57-S-2:   WELL
 FLD .        TEAPOT DOME:   FIELD
 LOC .       S2 T38N R78W:   LOCATION
 CNTY.            NATRONA:   COUNTY
 STAT.            WYOMING:   STATE
 CTRY. UNITED STATES OF AMERICA:   COUNTRY
 SRVC.       Schlumberger:   SERVICE COMPANY
 DATE.        04-AUG-1961:   LOGDATE
 API .       490250640500:   API NUMBER
~CURVE INFORMATION
#MNEM.UNIT       API CODE    CURVE DESCRIPTION
#----------   ------------   ------------------------------
 DEPT.F                  :   
 GR  .GAPI   30 310 01 00:   GAMMA RAY
 ASN .OHMM   05 041 16 00:   AMPLIFIED SHORT NORMAL 16"
 CILD.MMHO   05 110 46 00:   CONDUCTIVITY INDUCTION LOG DEEP
 ILD .OHMM   05 120 46 00:   INDUCTION LOG DEEP
 SPR .MV     05 010 01 00:   SPONTANEOUS POTENTIAL FROM RES.
~PARAMETER INFORMATION
#MNEM.UNIT          VALUE    DESCRIPTION
#----------   ------------   ------------------------------
 LMF .                 KB:   LOG MEASURED FROM
 DMF .                 KB:   DRILLING MEASURED FROM
 EKB .F              5205:   KELLING BUSHING
 EGL .F              5200:   GROUND LEVEL
 DATE.        04-AUG-1961:   RUN DATE
 RUN .                  1:   RUN NUMBER
 DD  .F               965:   DEPTH DRILLER
 DL  .F               965:   DEPTH LOGGER
 BLI .F               954:   BOTTOM LOG INTERVAL
 TLI .F               150:   TOP LOG INTERVAL
 BS  .IN             6.75:   BIT SIZE
 BSD .F               965:   BIT SIZE AT DEPTH
 DFT .       OIL EMULSION:   DRILLING FLUID TYPE
 DFD .                9.4:   DRILLING FLUID DENSITY
 DFV .                 65:   DRILLING FLUID VISCOSITY
 MSS .           FLOWLINE:   MUD SAMPLE SOURCE
 RMS .OHMM            1.0:   RESISTIVITY MUD SAMPLE
 MST .F                80:   MUD SAMPLE TEMPERATURE
 TCS .HRS               1:   TIME CURCULATED STOPPED
 LUN .               2544:   LOGGING UNIT NUMBER
 LUL .                 NC:   LOGGING UNIT LOCATION
 ENGI.            EARNEST:   RECORDING ENGINEER
 WITN.          JORGENSEN:   WITNESSED BY
 CLNT.            A2DTECH:   CLIENT CODE
 ORIG.        2" 5" PRINT:   ORIGIN OF DATA
 UWI .       490250640500:   UNIQUE WELL ID
 DICO. A2D Technologies, Inc.:   DIGITIZING COMPANY
~OTHER INFORMATION
~A   DEPT       GR        ASN       CILD        ILD        SPR   
# ...
  385.0000  -999.2500     3.1173   487.1619     2.0972   -66.4953
  385.5000  -999.2500     3.0279   479.3846     2.3607   -66.8088
  386.0000  -999.2500     3.3091   447.5675     2.7515   -67.1227
  386.5000  -999.2500     3.9402   368.4734     3.7550   -67.4021
  387.0000  -999.2500     4.2387   302.9862     4.5668   -67.6011
  387.5000  -999.2500     4.7478   230.6696     5.8641   -67.8465
  388.0000  -999.2500     5.4884   191.9916     6.6175   -68.0795
  388.5000  -999.2500     6.9860   140.1952     7.1689   -68.2908
  389.0000  -999.2500     8.3508   110.1034     7.9737   -68.4380
  389.5000  -999.2500     8.7995    95.9062     8.4642   -68.5857
  390.0000  -999.2500     9.3827    85.8858     9.0311   -68.7333
  390.5000  -999.2500    11.1767    87.5110     9.1531   -68.7317
  391.0000  -999.2500    10.7713   100.3854     9.1800   -68.7302
  391.5000  -999.2500    10.1856   117.4991     9.1804   -68.5796
  392.0000  -999.2500     9.5867   134.4145     8.8072   -68.3557
  392.5000  -999.2500     8.8457   157.8460     7.8784   -68.1135
  393.0000  -999.2500     8.0397   184.9968     6.4707   -67.6808
  393.5000  -999.2500     6.5173   194.7773     5.7423   -67.4801
  394.0000  -999.2500     6.0332   201.4714     5.5678   -67.0819
  394.5000  -999.2500     6.0214   201.4489     5.7188   -66.8671
  395.0000  -999.2500     6.2609   199.2744     5.8973   -67.1336
  395.5000  -999.2500     6.9157   192.3925     6.2467   -67.5244
  396.0000  -999.2500     7.5372   181.7418     6.5351   -67.7953
  396.5000  -999.2500     8.6083   152.3009     7.5489   -68.2710
  397.0000  -999.2500     9.1054   122.8135     8.6684   -68.5102
  397.5000  -999.2500     9.5505   104.3918     9.6223   -68.9369
  398.0000  -999.2500     9.7921   100.6891    10.2395   -69.4544
  398.5000  -999.2500    10.0442    99.1667    10.5007   -69.4530
  399.0000  -999.2500    10.2963    99.1441    10.8582   -69.6160
  399.5000  -999.2500    10.5484    96.1147    11.2949   -69.8969
  400.0000  -999.2500    10.8005    92.3496    11.6718   -69.8822
  400.5000  -999.2500    10.9569    88.7316    11.6729   -69.8151
  401.0000  -999.2500    11.1405    85.1136    11.9733   -69.7436
  401.5000  -999.2500    11.4058    84.0841    12.3898   -69.5926
  402.0000  -999.2500    11.6232    85.5856    12.5045   -69.0939
  402.5000  -999.2500    11.8646    87.0871    12.4306   -68.2486
  403.0000  -999.2500    12.0791    87.0871    12.4315   -68.0984
  403.5000  -999.2500    12.1760    87.0871    12.3574   -68.0968
  404.0000  -999.2500    12.3038    87.0871    12.3986   -68.4113
  404.5000  -999.2500    12.3428    87.0871    12.4349   -68.8902
  405.0000  -999.2500    12.4537    86.5115    12.4362   -69.4335
  405.5000  -999.2500    12.6034    85.5856    12.4641   -69.6401
  406.0000  -999.2500    12.6305    85.5856    12.5889   -69.7288
  406.5000  -999.2500    12.6786    85.2878    12.7086   -69.6351
  407.0000  -999.2500    12.7974    84.0841    12.8308   -69.5425
  407.5000  -999.2500    12.9032    81.9694    12.9689   -69.4261
  408.0000  -999.2500    12.9035    81.0811    13.1054   -69.4247
  408.5000  -999.2500    12.9784    81.0811    13.2735   -69.7310
  409.0000  -999.2500    13.0564    81.0811    13.4704   -69.9697
  409.5000  -999.2500    13.1772    79.5796    13.6096   -70.5494
  410.0000  -999.2500    13.2980    78.0781    13.8781   -70.4619
  410.5000  -999.2500    13.5025    77.9631    13.9877   -70.2352
  411.0000  -999.2500    13.6143    75.0751    14.1890   -70.0119
  411.5000  -999.2500    13.7351    73.5736    14.4324   -70.0102
  412.0000  -999.2500    13.8769    73.5736    14.6757   -70.0089
  412.5000  -999.2500    14.0514    72.0721    14.9380   -70.0074
  413.0000  -999.2500    14.2510    70.4754    15.3494   -70.0060
  413.5000  -999.2500    14.4844    69.0691    15.7070   -69.9774
  414.0000  -999.2500    14.7258    67.1571    16.0710   -69.8538
  414.5000  -999.2500    14.9991    66.0661    16.2690   -70.1222
  415.0000  -999.2500    15.3580    63.8388    16.5249   -70.4521
  415.5000  -999.2500    15.6761    62.9304    16.8309   -70.9310
  416.0000  -999.2500    16.1118    61.5616    17.1596   -71.2608
  416.5000  -999.2500    16.3811    61.1137    17.5073   -71.4858
  417.0000  -999.2500    16.6444    60.0601    17.8622   -71.4153
  417.5000  -999.2500    16.6795    59.2968    18.1872   -71.1736
  418.0000  -999.2500    16.6448    58.5586    18.4242   -71.0340
  418.5000  -999.2500    16.6451    58.5586    18.7429   -70.8393
  419.0000  -999.2500    16.5705    58.0731    19.0190   -70.5841
  419.5000  -999.2500    16.5708    57.0571    19.2295   -70.3559
  420.0000  -999.2500    16.8849    57.0571    19.3976   -70.4521
  420.5000  -999.2500    17.5428    57.0571    19.4740   -70.5797
  421.0000  -999.2500    17.3936    57.0571    19.4588   -70.1739
  421.5000  -999.2500    17.0859    57.0571    19.3258   -69.6825
  422.0000  -999.2500    16.7961    57.0571    19.1436   -69.2966
  422.5000  -999.2500    16.5273    58.5586    18.8699   -69.4387
  423.0000  -999.2500    16.3481    60.0601    18.6288   -69.8269
  423.5000  -999.2500    16.6473    60.0601    18.3877   -70.3346
  424.0000  -999.2500    16.7970    60.0601    18.1266   -70.5772
  424.5000  -999.2500    16.7972    60.0601    17.7944   -70.9610
  425.0000  -999.2500    16.6978    60.0601    17.5013   -71.1997
  425.5000  -999.2500    16.4569    60.3429    17.0006   -71.4589
  426.0000  -999.2500    16.2000    61.5616    16.9260   -71.3870
  426.5000  -999.2500    15.9750    61.5616    17.0027   -71.2943
  427.0000  -999.2500    15.8178    63.0631    17.0038   -71.1562
  427.5000  -999.2500    15.6028    63.0631    17.0049   -71.1090
  428.0000  -999.2500    15.4276    64.8849    16.9309   -71.0044
  428.5000  -999.2500    15.3043    66.0661    16.6288   -70.7747
  429.0000  -999.2500    15.0693    68.2032    16.1800   -70.5330
  429.5000  -999.2500    14.8144    73.7011    15.4683   -70.2546
  430.0000  -999.2500    14.2586    81.8818    14.2244   -69.7367
  430.5000  -999.2500    13.5065    93.0231    12.9456   -68.7615
  431.0000  -999.2500    12.5968   103.6036    11.8183   -67.8122
  431.5000  -999.2500    11.5119   111.4743    10.0862   -67.2683
  432.0000  -999.2500    10.4269   121.9417     8.8675   -67.2666
  432.5000  -999.2500     9.6666   131.5814     8.1432   -67.2653
  433.0000  -999.2500     9.1860   141.2212     7.4542   -67.2638
  433.5000  -999.2500     8.4736   153.1532     7.0260   -67.2623
  434.0000  -999.2500     7.8257   162.0018     6.7711   -67.4486
  434.5000  -999.2500     7.5537   169.7873     6.5055   -67.5574
  435.0000  -999.2500     7.4372   171.1712     6.5926   -67.9260
  435.5000  -999.2500     7.2549   168.1682     6.7821   -68.0016
  436.0000  -999.2500     7.2849   165.1652     6.8233   -67.8507
  436.5000  -999.2500     7.3128   164.4169     6.8709   -67.5514
  437.0000  -999.2500     7.3598   161.8518     7.0115   -67.2518
  437.5000  -999.2500     7.3972   157.6577     7.0124   -67.0206
  438.0000  -999.2500     7.4395   157.6577     7.0136   -66.7789
  438.5000  -999.2500     7.4946   157.6577     6.9764   -66.3530
  439.0000  -999.2500     7.4851   157.6577     6.8564   -66.2956
  439.5000  -999.2500     7.4050   157.8505     6.7159   -66.2012
  440.0000  -999.2500     7.2835   160.6607     6.8173   -66.0507
  440.5000  -999.2500     7.1726   162.6702     6.5674   -66.1984
  441.0000  -999.2500     7.0465   165.1652     6.7267   -66.1966
  441.5000  -999.2500     7.0730   163.5186     6.8707   -66.2601
  442.0000  -999.2500     7.1812   161.7018     6.7791   -66.3428
  442.5000  -999.2500     7.2899   157.6577     6.9014   -66.4394
  443.0000  -999.2500     7.3685   156.1562     7.0249   -66.6781
  443.5000  -999.2500     7.4654   156.1562     7.0260   -66.9343
  444.0000  -999.2500     7.5045   157.0170     7.0271   -67.3045
  444.5000  -999.2500     7.4805   159.6946     7.0284   -67.5589
  445.0000  -999.2500     7.4238   165.1652     6.8474   -68.1219
  445.5000  -999.2500     7.3126   170.8358     6.7293   -68.5678
