~VERSION INFORMATION
 VERS.                2.0:   CWLS LOG ASCII STANDARD - VERSION 2.0
 WRAP.                 NO:   ONE LINE PER DEPTH STEP
~WELL INFORMATION
#MNEM.UNIT      DATA TYPE    INFORMATION
#----------   ------------   ------------------------------
 STRT.F            8.0000:   START DEPTH
 STOP.F          500.0000:   STOP DEPTH
 STEP.F            0.5000:   STEP LENGTH
 NULL.          -999.2500:   NO VALUE
 COMP. FENIX & SCISSON INC:   COMPANY
 WELL. 65 12 SX 3FI #65-3:   WELL
 FLD .             TEAPOT:   FIELD
 LOC .       S3 T38N R78W:   LOCATION
 CNTY.            NATRONA:   COUNTY
 STAT.            WYOMING:   STATE
 CTRY. UNITED STATES OF AMERICA:   COUNTRY
 SRVC.              Welex:   SERVICE COMPANY
 DATE.        01-JUN-1980:   LOGDATE
 API .       490251082400:   API NUMBER
~CURVE INFORMATION
#MNEM.UNIT       API CODE    CURVE DESCRIPTION
#----------   ------------   ------------------------------
 DEPT.F                  :   
 GRD .GAPI   45 310 01 00:   GAMMA RAY FROM DENSITY LOG
 CALD.IN     45 280 60 00:   CALIPER
 RHOB.G/C3   45 350 01 00:   BULK DENSITY
 CORR.G/C3   45 356 01 00:   DENSITY CORRECTION
 DPHI.DEC    45 890 12 00:   DENSITY POROSITY SANDSTONE
 NPHI.DEC    42 890 03 00:   NEUTRON POROSITY SANDSTONE
 SPR .MV     07 010 01 00:   SPONTANEOUS POTENTIAL
 SGRD.OHMM   07 220 05 00:   SHALLOW GUARD RESISTIVITY
 ILD .OHMM   07 120 46 00:   INDUCTION LOG DEEP
 ILM .OHMM   07 120 44 00:   INDUCTION LOG MEDIUM
~PARAMETER INFORMATION
#MNEM.UNIT          VALUE    DESCRIPTION
#----------   ------------   ------------------------------
 PD  .                 GL:   PERMANENT DATUM
 EPD .F              5155:   ELEVATION PERMANENT DATUM
 LMF .                 KB:   LOG MEASURED FROM
 DAPD.F                 4:   FEET ABOVE PERMANENT DATUM
 DMF .                 KB:   DRILLING MEASURED FROM
 EKB .F              5159:   KELLING BUSHING
 EGL .F              5155:   GROUND LEVEL
 DATE.             6-1-80:   RUN DATE
 RUN .                  1:   RUN NUMBER
 DD  .F               505:   DEPTH DRILLER
 DL  .F               502:   DEPTH LOGGER
 BLI .F               500:   BOTTOM LOG INTERVAL
 TLI .F                20:   TOP LOG INTERVAL
 BS  .IN            9.875:   BIT SIZE
 BSD .F               505:   BIT SIZE AT DEPTH
 DFT .      OIL BASED MUD:   DRILLING FLUID TYPE
 MSS .            MUD PIT:   MUD SAMPLE SOURCE
 RMS .OHMM             .9:   RESISTIVITY MUD SAMPLE
 MST .F                65:   MUD SAMPLE TEMPERATURE
 RMF .OHMM            .72:   RESISTIVITY MUD FILTRATE SAMPLE
 MFST.F                65:   MUD FILTRATE SAMPLE TEMPERATURE
 RMC .OHMM           1.08:   RESISTIVITY MUD CAKE
 MCST.F                65:   MUD CAKE SAMPLE TEMPERATURE
 MFSS.           MEASURED:   MUD FILTRATE SAMPLE SOURCE
 MCSS.           MEASURED:   MUD CAKE SAMPLE SOURCE
 RMB .OHMM            .71:   RESISTIVITY MUD AT BHT
 BHT .F                76:   BOTTOM HOLE TEMPERATURE
 TCS .HRS               2:   TIME CURCULATED STOPPED
 MRT .F                76:   MAXIMUM RECORDED TEMPERATURE
 LUN .               9685:   LOGGING UNIT NUMBER
 LUL .             CASPER:   LOGGING UNIT LOCATION
 ENGI.               REIN:   RECORDING ENGINEER
 WITN.            RHOADES:   WITNESSED BY
 CLNT.            A2DTECH:   CLIENT CODE
 ORIG.        2" 5" PRINT:   ORIGIN OF DATA
 UWI .       490251082400:   UNIQUE WELL ID
 DICO. A2D Technologies, Inc.:   DIGITIZING COMPANY
~OTHER INFORMATION
~A    DEPT     GRD       CALD       RHOB       CORR       DPHI       NPHI        SPR        SGRD         ILD        ILM 
# ...
  343.0000    71.9833     9.9159     2.5057     0.0170     0.0892     0.2030    -4.5280    25.3291    17.2841    20.4227
  343.5000    70.5561     9.9169     2.5305     0.0275     0.0889     0.1835    -4.6162    30.6400    17.6524    21.3774
  344.0000    69.1253     9.9177     2.5331     0.0295     0.0993     0.1757    -4.5636    38.8933    18.0286    22.3766
  344.5000    67.6912     9.9203     2.5136     0.0112     0.1088     0.1813    -4.5097    36.7536    18.4127    23.0560
  345.0000    66.2558     9.8776     2.4947    -0.0066     0.1182     0.1936    -4.4555    32.0512    18.6702    22.2865
  345.5000    64.9995     9.8801     2.4783    -0.0155     0.1277     0.2104    -4.4016    27.7272    18.1068    21.4156
  346.0000    67.0182     9.8802     2.4622    -0.0100     0.1409     0.2274    -4.3476    23.6192    17.5124    19.7138
  346.5000    70.2817     9.8802     2.4321    -0.0010     0.1556     0.2408    -4.2936    19.9211    16.8731    18.1472
  347.0000    73.5220     9.8802     2.4144    -0.0221     0.1584     0.2460    -4.2396    17.8332    16.2572    16.8316
  347.5000    76.7698     9.8802     2.4098    -0.0174     0.1586     0.2469    -4.1857    17.5996    15.6638    16.4625
  348.0000    80.0172     9.8802     2.4089    -0.0102     0.1581     0.2502    -4.1317    17.3501    15.0920    16.1014
  348.5000    83.2556     9.8802     2.4107    -0.0028     0.1635     0.2554    -4.0777    17.0337    14.5411    15.7482
  349.0000    85.8090     9.8802     2.3977    -0.0041     0.1709     0.2585    -4.0237    17.1031    14.0094    15.4026
  349.5000    86.3004     9.8802     2.3902    -0.0099     0.1659     0.2552    -3.9697    17.2013    13.5013    15.0640
  350.0000    85.1405     9.8801     2.3982     0.0009     0.1579     0.2503    -3.9155    17.3001    13.0549    14.7370
  350.5000    84.0179     9.8801     2.3944     0.0004     0.1675     0.2527    -3.8565    17.3491    13.1223    14.5159
  351.0000    82.9053     9.8803     2.4000     0.0003     0.1627     0.2546    -3.9960    16.8741    13.1826    14.4017
  351.5000    81.7941     9.8940     2.4110     0.0057     0.1567     0.2540    -4.2048    16.5198    13.2438    14.2883
  352.0000    80.6808     9.9394     2.4156     0.0111     0.1561     0.2520    -4.4152    16.1729    13.2963    14.1759
  352.5000    79.5232     9.9757     2.4180     0.0004     0.1525     0.2478    -4.6254    15.8332    13.1344    14.0643
  353.0000    79.5770     9.9447     2.4231     0.0025     0.1544     0.2435    -4.8354    15.5005    12.9945    13.9536
  353.5000    79.9821     9.9143     2.4178     0.0086     0.1547     0.2447    -5.0454    15.1736    12.8559    13.8438
  354.0000    80.3961     9.8843     2.4207     0.0054     0.1520     0.2546    -5.2554    14.9787    12.7189    13.7349
  354.5000    80.8053     9.8540     2.4267     0.0143     0.1472     0.2537    -5.4655    15.2031    12.5834    13.6268
  355.0000    81.2473     9.8537     2.4289     0.0268     0.1480     0.2521    -5.6755    15.3928    12.4493    13.5238
  355.5000    82.5089     9.8758     2.4246     0.0205     0.1504     0.2549    -5.8855    15.5406    12.3167    13.4368
  356.0000    83.8393     9.8983     2.4203     0.0066     0.1536     0.2594    -6.0955    15.5107    12.1854    13.3505
  356.5000    85.1686     9.9208     2.4160     0.0076     0.1567     0.2599    -6.3056    15.3870    12.0556    13.2647
  357.0000    86.4969     9.9382     2.4114     0.0130     0.1589     0.2619    -6.5154    15.2644    11.9272    13.1795
  357.5000    87.8237     9.9292     2.4137     0.0023     0.1538     0.2621    -6.7274    15.1427    11.8001    13.0948
  358.0000    89.1574     9.9207     2.4302     0.0059     0.1417     0.2621    -6.8040    15.0220    11.6743    13.0106
  358.5000    90.0262     9.9123     2.4503     0.0178     0.1340     0.2653    -6.8031    14.9024    11.5880    12.9344
  359.0000    90.6075     9.9039     2.4525     0.0201     0.1350     0.2646    -6.7546    14.8421    11.6477    12.9344
  359.5000    91.2939     9.8955     2.4535     0.0142     0.1330     0.2616    -6.7053    15.1480    11.6949    12.9354
  360.0000    90.0875     9.8871     2.4557     0.0157     0.1274     0.2578    -6.6563    15.3846    11.7414    13.1795
  360.5000    88.7609     9.8787     2.4602     0.0179     0.1297     0.2612    -6.6074    15.6245    11.7951    13.3998
  361.0000    87.9158     9.8702     2.4646     0.0200     0.1242     0.2617    -6.5585    15.8681    11.9242    13.5428
  361.5000    85.5810     9.8616     2.4691     0.0271     0.1199     0.2562    -6.5097    16.1155    12.0476    13.2608
  362.0000    83.0052     9.8667     2.4762     0.0353     0.1147     0.2507    -6.4608    16.3668    12.1668    13.0572
  362.5000    80.4071     9.8741     2.4891     0.0484     0.1107     0.2429    -6.4119    16.5713    12.2872    12.8175
  363.0000    80.6012     9.8815     2.4643     0.0346     0.1196     0.2367    -6.3630    16.2741    12.4088    13.0243
  363.5000    81.2449     9.8890     2.4629     0.0117     0.1267     0.2348    -6.3139    16.0300    12.5315    13.2856
  364.0000    81.8981     9.8964     2.4605     0.0232     0.1344     0.2361    -6.2641    15.7895    12.6805    13.5548
  364.5000    82.5384     9.9038     2.4440     0.0181     0.1438     0.2366    -6.2170    15.5527    12.4669    13.9165
  365.0000    82.8968     9.9112     2.4295     0.0097     0.1488     0.2364    -6.3445    15.3194    12.2855    13.4488
  365.5000    82.3745     9.9184     2.4325     0.0127     0.1438     0.2403    -6.4871    15.0896    12.1067    12.7400
  366.0000    81.8886     9.9249     2.4470     0.0268     0.1341     0.2550    -6.6295    14.8633    11.9305    12.1311
  366.5000    82.0565     9.9311     2.4557     0.0427     0.1289     0.2664    -6.7715    14.6404    11.6884    12.2726
  367.0000    82.9422     9.9373     2.4604     0.0490     0.1335     0.2701    -6.9138    14.4692    11.4605    12.4696
  367.5000    83.7821     9.9435     2.4548     0.0440     0.1416     0.2732    -7.0572    14.3208    11.2369    12.3119
  368.0000    84.2694     9.9496     2.4314     0.0249     0.1480     0.2756    -7.1914    14.1738    11.0179    12.0109
  368.5000    83.8434     9.9559     2.4377     0.0069     0.1398     0.2740    -7.0781    14.0489    10.8029    11.5872
  369.0000    83.4314     9.9450     2.4468     0.0189     0.1389     0.2699    -6.9527    14.0987    10.5915    11.6464
  369.5000    83.0593     9.9192     2.4424     0.0165     0.1387     0.2689    -6.8293    14.1424    10.3777    11.7551
  370.0000    83.9351     9.8924     2.4466     0.0185     0.1321     0.2659    -6.7034    14.2642    10.3796    11.8647
  370.5000    84.9113     9.8635     2.4522     0.0249     0.1389     0.2637    -6.4775    14.7564    10.2392    11.9754
  371.0000    84.0473     9.9028     2.4454     0.0211     0.1412     0.2698    -5.8230    15.2655    10.1919    12.2033
  371.5000    83.0502     9.9113     2.4370     0.0173     0.1466     0.2728    -5.1814    15.7922    10.8245    12.5162
  372.0000    82.0571     9.9195     2.4255     0.0136     0.1515     0.2728    -4.5407    16.3371    11.3036    12.8372
  372.5000    81.0585     9.9451     2.4231     0.0117     0.1536     0.2703    -3.9001    16.8782    11.8027    13.1664
  373.0000    80.1715     9.9921     2.4227     0.0222     0.1564     0.2675    -3.2594    19.1634    12.3219    13.8125
  373.5000    79.3075    10.0506     2.4182     0.0333     0.1659     0.2624    -2.6185    21.6533    12.8754    15.5121
  374.0000    76.6556    10.1084     2.3986     0.0344     0.1755     0.2526    -1.9771    24.4768    13.8752    17.4209
  374.5000    74.1898    10.1405     2.3763     0.0288     0.1851     0.2456    -1.3394    27.1111    15.2007    18.9570
  375.0000    72.7764    10.0471     2.3598     0.0251     0.1946     0.2383    -0.8800    28.6423    16.6528    19.9417
  375.5000    71.3532     9.9653     2.3448     0.0238     0.2042     0.2334    -0.7989    30.3602    18.2436    20.9042
  376.0000    70.2217    10.0789     2.3294     0.0138     0.2059     0.2340    -0.6869    29.9132    19.9863    21.7416
