~VERSION INFORMATION
 VERS.                2.0:   CWLS LOG ASCII STANDARD - VERSION 2.0
 WRAP.                 NO:   ONE LINE PER DEPTH STEP
~WELL INFORMATION
#MNEM.UNIT      DATA TYPE    INFORMATION
#----------   ------------   ------------------------------
 STRT.F          588.0000:   START DEPTH
 STOP.F         1583.5000:   STOP DEPTH
 STEP.F            0.5000:   STEP LENGTH
 NULL.          -999.2500:   NO VALUE
 COMP.   FENIX & SCISSONS:   COMPANY
 WELL.   NPR 3 #23STX1-11:   WELL
 FLD .             TEAPOT:   FIELD
 LOC .      S11 T38N R78W:   LOCATION
 CNTY.            NATRONA:   COUNTY
 STAT.            WYOMING:   STATE
 CTRY. UNITED STATES OF AMERICA:   COUNTRY
 SRVC.            Unknown:   SERVICE COMPANY
 DATE.        15-JUN-1979:   LOGDATE
 API .       490251078300:   API NUMBER
~CURVE INFORMATION
#MNEM.UNIT       API CODE    CURVE DESCRIPTION
#----------   ------------   ------------------------------
 DEPT.F                  :   
 RHOB.G/C3   45 350 01 00:   BULK DENSITY
 DPHI.DEC    45 890 10 00:   DENSITY POROSITY LIMESTONE
 CORR.G/C3   45 356 01 00:   DENSITY CORRECTION
 GRD .GAPI   45 310 01 00:   GAMMA RAY FROM DENSITY LOG
 CALD.IN     45 280 60 00:   CALIPER FROM DENSITY LOG
~PARAMETER INFORMATION
#MNEM.UNIT          VALUE    DESCRIPTION
#----------   ------------   ------------------------------
 PD  .                 GL:   PERMANENT DATUM
 EPD .F              5168:   ELEVATION PERMANENT DATUM
 LMF .                 KB:   LOG MEASURED FROM
 DAPD.F                10:   FEET ABOVE PERMANENT DATUM
 DMF .                 KB:   DRILLING MEASURED FROM
 EKB .F              5178:   KELLING BUSHING
 EGL .F              5168:   GROUND LEVEL
 DATE.            6-15-79:   RUN DATE
 RUN .                  1:   RUN NUMBER
 DD  .F              1580:   DEPTH DRILLER
 DL  .F              1580:   DEPTH LOGGER
 BLI .F              1578:   BOTTOM LOG INTERVAL
 TLI .F               680:   TOP LOG INTERVAL
 CS  .IN            9.625:   CASING SIZE
 CBD .F               660:   CASING BOTTOM DRILLER
 CBL .F               670:   CASING BOTTOM LOGGER
 BS  .IN             8.75:   BIT SIZE
 BSD .F              1580:   BIT SIZE AT DEPTH
 DFT .                OIL:   DRILLING FLUID TYPE
 TCS .HRS               4:   TIME CURCULATED STOPPED
 MRT .F                80:   MAXIMUM RECORDED TEMPERATURE
 LUN .               3029:   LOGGING UNIT NUMBER
 LUL .             CASPER:   LOGGING UNIT LOCATION
 ENGI.            MULLINS:   RECORDING ENGINEER
 CLNT.            A2DTECH:   CLIENT CODE
 ORIG.     1", 2.5" PRINT:   ORIGIN OF DATA
 UWI .       490251078300:   UNIQUE WELL ID
 DICO. A2D Technologies, Inc.:   DIGITIZING COMPANY
~OTHER INFORMATION
~A   DEPT     RHOB       DPHI       CORR         GRD      CALD   
# ...
  954.0000     2.5284     0.0186     0.0278    91.1870     9.2867
  954.5000     2.5205     0.0233     0.0152    94.4141     9.2884
  955.0000     2.5152     0.0233     0.0069    97.7325     9.2901
  955.5000     2.5193     0.0220     0.0058   101.3674     9.2917
  956.0000     2.5207     0.0207     0.0040   101.8660     9.2934
  956.5000     2.5205     0.0195     0.0022    98.4682     9.2951
  957.0000     2.5260     0.0182     0.0006    95.6537     9.2968
  957.5000     2.5256     0.0184    -0.0012    94.3711     9.2984
  958.0000     2.5220     0.0192    -0.0032    93.3289     9.3001
  958.5000     2.5218     0.0194    -0.0028    95.7583     9.3018
  959.0000     2.5242     0.0194     0.0016    95.4498     9.3034
  959.5000     2.5257     0.0166     0.0064    93.1946     9.3051
  960.0000     2.5321     0.0122     0.0130    92.3443     9.3068
  960.5000     2.5346     0.0130     0.0150    93.1306     9.3084
  961.0000     2.5314     0.0148     0.0106    95.0441     9.3101
  961.5000     2.5286     0.0167     0.0068    97.5772     9.3118
  962.0000     2.5259     0.0185     0.0042   100.6973     9.3130
  962.5000     2.5237     0.0188     0.0075   103.8628     9.3130
  963.0000     2.5294     0.0175     0.0113   100.7258     9.3130
  963.5000     2.5302     0.0162     0.0152    97.7284     9.3130
  964.0000     2.5274     0.0163     0.0165    95.5469     9.3130
  964.5000     2.5250     0.0187     0.0139    93.9338     9.3130
  965.0000     2.5199     0.0235     0.0089    90.5810     9.3130
  965.5000     2.5113     0.0273     0.0045    87.3818     9.3130
  966.0000     2.5034     0.0311     0.0004    87.1195     9.3130
  966.5000     2.5032     0.0315     0.0030    86.7451     9.3130
  967.0000     2.5026     0.0301     0.0057    86.3952     9.3130
  967.5000     2.5063     0.0279     0.0085    86.3018     9.3130
  968.0000     2.5187     0.0234     0.0114    86.9247     9.3130
  968.5000     2.5259     0.0190     0.0112    87.5151     9.3121
  969.0000     2.5250     0.0177     0.0098    88.1871     9.3107
  969.5000     2.5256     0.0189     0.0084    89.1253     9.3094
  970.0000     2.5217     0.0214     0.0069    86.7349     9.3081
  970.5000     2.5138     0.0248     0.0058    84.1830     9.3067
  971.0000     2.5068     0.0281     0.0044    85.0681     9.3054
  971.5000     2.5041     0.0300     0.0140    84.3931     9.3041
  972.0000     2.5242     0.0190     0.0257    83.2990     9.3027
  972.5000     2.5410     0.0097     0.0369    84.1512     9.3014
  973.0000     2.5427     0.0097     0.0398    85.3802     9.3001
  973.5000     2.5389     0.0111     0.0345    84.1217     9.2987
  974.0000     2.5348     0.0138     0.0313    85.8305     9.2974
  974.5000     2.5198     0.0257     0.0147    89.1413     9.2961
  975.0000     2.5032     0.0322    -0.0037    89.6473     9.2948
  975.5000     2.4963     0.0345    -0.0076    90.3205     9.2934
  976.0000     2.4988     0.0339    -0.0058    92.3353     9.2921
  976.5000     2.5035     0.0316    -0.0040    96.6019     9.2908
  977.0000     2.5078     0.0292    -0.0012    98.7143     9.2894
  977.5000     2.5127     0.0269     0.0023    98.6429     9.2881
  978.0000     2.5178     0.0246     0.0061    95.1858     9.2868
  978.5000     2.5230     0.0223     0.0083    93.6990     9.2855
  979.0000     2.5231     0.0199     0.0080    96.0083     9.2841
  979.5000     2.5239     0.0212     0.0084    97.6920     9.2828
  980.0000     2.5179     0.0260     0.0054    95.1817     9.2815
  980.5000     2.5063     0.0307    -0.0003    92.3480     9.2802
  981.0000     2.5070     0.0289    -0.0032    91.8689     9.2788
  981.5000     2.5157     0.0245     0.0003    91.0982     9.2775
  982.0000     2.5238     0.0202     0.0035    90.2089     9.2762
  982.5000     2.5275     0.0162     0.0071    84.9470     9.2748
  983.0000     2.5275     0.0179     0.0074    81.0220     9.2735
  983.5000     2.5259     0.0194     0.0061    81.9147     9.2725
  984.0000     2.5224     0.0211     0.0050    83.9192     9.2738
  984.5000     2.5243     0.0186     0.0041    88.8572     9.2749
  985.0000     2.5308     0.0170     0.0041    92.1762     9.2761
  985.5000     2.5240     0.0185     0.0035    90.9995     9.2773
  986.0000     2.5170     0.0251     0.0009    88.7463     9.2785
  986.5000     2.5097     0.0294    -0.0016    87.1220     9.2797
  987.0000     2.5032     0.0309    -0.0040    85.5088     9.2810
  987.5000     2.5042     0.0294    -0.0040    83.9951     9.2822
  988.0000     2.5076     0.0280    -0.0041    85.5185     9.2834
  988.5000     2.5113     0.0266    -0.0040    87.4225     9.2846
  989.0000     2.5152     0.0248    -0.0041    85.8438     9.2858
  989.5000     2.5174     0.0233    -0.0040    82.4141     9.2870
  990.0000     2.5171     0.0229    -0.0040    82.3307     9.2882
  990.5000     2.5184     0.0220    -0.0025    84.8695     9.2894
  991.0000     2.5218     0.0202    -0.0001    90.6210     9.2906
  991.5000     2.5230     0.0211    -0.0010    89.5698     9.2918
  992.0000     2.5218     0.0222    -0.0033    89.6778     9.2930
  992.5000     2.5208     0.0232    -0.0055    93.4929     9.2942
  993.0000     2.5196     0.0231    -0.0082    92.4999     9.2954
  993.5000     2.5204     0.0217    -0.0048    89.1286     9.2966
  994.0000     2.5234     0.0202     0.0026    86.9790     9.2978
  994.5000     2.5328     0.0148     0.0092    89.1496     9.2990
  995.0000     2.5351     0.0126     0.0154    89.4250     9.3002
  995.5000     2.5269     0.0159     0.0079    89.2449     9.3014
  996.0000     2.5233     0.0202     0.0003    89.3455     9.3027
  996.5000     2.5295     0.0174     0.0018    90.1877     9.3039
  997.0000     2.5348     0.0130     0.0047    91.1326     9.3051
  997.5000     2.5411     0.0081     0.0078    93.6058     9.3063
  998.0000     2.5409     0.0098     0.0033    91.6773     9.3075
  998.5000     2.5336     0.0117    -0.0018    90.0802     9.3087
  999.0000     2.5334     0.0137    -0.0040    88.7464     9.3099
  999.5000     2.5321     0.0156     0.0000    90.4375     9.3111
 1000.0000     2.5308     0.0175     0.0033    93.4796     9.3125
 1000.5000     2.5237     0.0199     0.0024    92.6524     9.3120
 1001.0000     2.5220     0.0202    -0.0036    90.5527     9.3092
 1001.5000     2.5336     0.0136     0.0016    90.7832     9.3065
 1002.0000     2.5457     0.0037     0.0086    91.0172     9.3038
 1002.5000     2.5498     0.0058     0.0121    90.4587     9.3011
 1003.0000     2.5421     0.0081     0.0033    89.2238     9.2984
 1003.5000     2.5474     0.0061     0.0013    89.3505     9.2957
 1004.0000     2.5495     0.0038     0.0051    91.0492     9.2930
 1004.5000     2.5523     0.0015     0.0079    90.3129     9.2901
 1005.0000     2.5529     0.0042     0.0061    89.9790     9.2874
 1005.5000     2.5495     0.0065     0.0046    92.0546     9.2847
 1006.0000     2.5453     0.0079     0.0043    92.6001     9.2819
 1006.5000     2.5386     0.0120     0.0098    90.2652     9.2795
 1007.0000     2.5325     0.0151     0.0161    87.3515     9.2765
 1007.5000     2.5280     0.0167     0.0272    88.6164     9.2729
 1008.0000     2.5258     0.0218     0.0285    91.6948     9.3066
 1008.5000     2.5084     0.0291     0.0143    94.9641     9.4270
 1009.0000     2.5135     0.0247     0.0089    94.9340     9.4249
 1009.5000     2.5184     0.0227     0.0136    90.0743     9.4171
 1010.0000     2.5157     0.0226     0.0171    87.2628     9.4041
 1010.5000     2.5165     0.0226     0.0206    90.1508     9.3939
 1011.0000     2.5165     0.0256     0.0246    93.9471     9.3833
 1011.5000     2.5088     0.0291     0.0201    98.8889     9.3721
 1012.0000     2.5008     0.0323     0.0128   100.0898     9.3611
 1012.5000     2.5155     0.0271     0.0081    99.9883     9.3537
 1013.0000     2.5254     0.0223     0.0117    96.5619     9.3545
 1013.5000     2.5301     0.0175     0.0152    95.5617     9.3549
 1014.0000     2.5311     0.0162     0.0192    92.9484     9.3555
 1014.5000     2.5253     0.0191     0.0171    90.3233     9.3562
