~VERSION INFORMATION
 VERS.                2.0:   CWLS LOG ASCII STANDARD - VERSION 2.0
 WRAP.                 NO:   ONE LINE PER DEPTH STEP
~WELL INFORMATION
#MNEM.UNIT      DATA TYPE    INFORMATION
#----------   ------------   ------------------------------
 STRT.F           22.5000:   START DEPTH
 STOP.F          644.0000:   STOP DEPTH
 STEP.F            0.5000:   STEP LENGTH
 NULL.          -999.2500:   NO VALUE
 COMP.    FELIX & SCISION:   COMPANY
 WELL.     NPR #3 #14-S-2:   WELL
 FLD .             TEAPOT:   FIELD
 LOC .       S2 T38N R78W:   LOCATION
 CNTY.            NATRONA:   COUNTY
 STAT.            WYOMING:   STATE
 CTRY. UNITED STATES OF AMERICA:   COUNTRY
 SRVC.           BIRDWELL:   SERVICE COMPANY
 DATE.        18-JAN-1978:   LOGDATE
 API .       490251055600:   API NUMBER
~CURVE INFORMATION
#MNEM.UNIT       API CODE    CURVE DESCRIPTION
#----------   ------------   ------------------------------
 DEPT.F                  :   
 CALD.IN     45 280 60 00:   CALIPER FROM DENSITY LOG
 CORR.G/C3   45 356 01 00:   DENSITY CORRECTION
 DPHI.DEC    45 890 12 00:   DENSITY POROSITY SANDSTONE
 GRD .GAPI   45 310 01 00:   GAMMA RAY FROM DENSITY LOG
 RHOB.G/C3   45 350 01 00:   BULK DENSITY
 ILD .OHMM   05 120 46 00:   INDUCTION LOG DEEP
 SPR .MV     05 010 01 00:   SPONTANEOUS POTENTIAL FROM RES.
 SN  .OHMM   05 040 16 00:   SHORT NORMAL 16"
~PARAMETER INFORMATION
#MNEM.UNIT          VALUE    DESCRIPTION
#----------   ------------   ------------------------------
 PD  .                 GL:   PERMANENT DATUM
 EPD .F              5121:   ELEVATION PERMANENT DATUM
 LMF .                 KB:   LOG MEASURED FROM
 DAPD.F                 4:   FEET ABOVE PERMANENT DATUM
 DMF .                 KB:   DRILLING MEASURED FROM
 EKB .F              5126:   KELLING BUSHING
 EGL .F              5121:   GROUND LEVEL
 DATE.          1-18-1978:   RUN DATE
 RUN .                  1:   RUN NUMBER
 DD  .F               645:   DEPTH DRILLER
 DL  .F               648:   DEPTH LOGGER
 BLI .F               642:   BOTTOM LOG INTERVAL
 TLI .F                39:   TOP LOG INTERVAL
 CS  .IN            8.625:   CASING SIZE
 CBD .F                39:   CASING BOTTOM DRILLER
 BS  .IN            7.875:   BIT SIZE
 BSD .F               645:   BIT SIZE AT DEPTH
 DFT .                KCL:   DRILLING FLUID TYPE
 DFD .                8.8:   DRILLING FLUID DENSITY
 DFV .                 34:   DRILLING FLUID VISCOSITY
 DFPH.                9.5:   DRILLING FLUID PH
 DFL .                6.4:   DRILLING FLUID LOSS
 MSS .                PIT:   MUD SAMPLE SOURCE
 RMS .OHMM            .38:   RESISTIVITY MUD SAMPLE
 MST .F                43:   MUD SAMPLE TEMPERATURE
 RMF .OHMM            .26:   RESISTIVITY MUD FILTRATE SAMPLE
 MFST.F                70:   MUD FILTRATE SAMPLE TEMPERATURE
 RMC .OHMM            .42:   RESISTIVITY MUD CAKE
 MCST.F                70:   MUD CAKE SAMPLE TEMPERATURE
 MFSS.           MEASURED:   MUD FILTRATE SAMPLE SOURCE
 MCSS.           MEASURED:   MUD CAKE SAMPLE SOURCE
 RMB .OHMM            .24:   RESISTIVITY MUD AT BHT
 BHT .F                69:   BOTTOM HOLE TEMPERATURE
 TCS .HRS               2:   TIME CURCULATED STOPPED
 MRT .F                69:   MAXIMUM RECORDED TEMPERATURE
 LUN .               2958:   LOGGING UNIT NUMBER
 LUL .             CASPER:   LOGGING UNIT LOCATION
 ENGI.           REYNOLDS:   RECORDING ENGINEER
 WITN.         HARRINGTON:   WITNESSED BY
 CLNT.            A2DTECH:   CLIENT CODE
 ORIG.      2" , 5" PRINT:   ORIGIN OF DATA
 UWI .       490251055600:   UNIQUE WELL ID
 DICO. A2D Technologies, Inc.:   DIGITIZING COMPANY
~OTHER INFORMATION
~A   DEPT     CALD       CORR       DPHI         GRD      RHOB        ILD        SPR         SN   
# ...
  549.0000     7.8703     0.0840     0.1411    66.9273     2.4356    11.5637   -17.4296    10.9574
  549.5000     7.8712     0.0833     0.1387    69.0135     2.4401    11.5684   -17.5707    10.9633
  550.0000     7.8721     0.0803     0.1375    68.2764     2.4477    11.6536   -17.8580    10.8934
  550.5000     7.8575     0.0796     0.1350    65.9019     2.4485    11.4989   -17.8492    10.8971
  551.0000     7.8431     0.0774     0.1347    66.2120     2.4485    11.5044   -18.1413    10.9009
  551.5000     7.8437     0.0744     0.1350    67.1114     2.4478    11.5099   -18.1321    10.9130
  552.0000     7.8441     0.0722     0.1359    69.9526     2.4456    11.5154   -18.1247    10.9840
  552.5000     7.8445     0.0693     0.1371    72.1793     2.4366    11.6010   -18.5638    10.9739
  553.0000     7.8450     0.0731     0.1397    72.3067     2.4314    11.6066   -18.7054    10.7670
  553.5000     7.8454     0.0792     0.1440    72.4582     2.4276    11.5320   -18.6979    10.6956
  554.0000     7.8459     0.0807     0.1449    73.9471     2.4427    11.5376   -18.9882    10.4809
  554.5000     7.8463     0.0815     0.1322    74.3958     2.4518    11.4635   -19.1296    10.3398
  555.0000     7.8468     0.0824     0.1295    74.8445     2.4549    11.3898   -19.2711    10.2015
  555.5000     7.8472     0.0824     0.1283    76.0361     2.4564    11.3167   -19.5613    10.1356
  556.0000     7.8476     0.0817     0.1274    77.8221     2.4579    11.2440   -19.7010    10.1391
  556.5000     7.8481     0.0810     0.1264    76.1906     2.4595    11.1717   -19.6936    10.0719
  557.0000     7.8485     0.0803     0.1258    73.6676     2.4618    11.1773   -19.5393     9.9380
  557.5000     7.8490     0.0796     0.1255    72.3332     2.4633    11.2615   -19.6807    10.0103
  558.0000     7.8494     0.0797     0.1252    70.5531     2.4634    11.2669   -19.8222    10.0137
  558.5000     7.8499     0.0790     0.1249    68.6244     2.4641    11.2723   -19.6642     9.9474
  559.0000     7.8503     0.0775     0.1246    68.3302     2.4642    11.1986   -19.6568    10.0206
  559.5000     7.8507     0.0768     0.1242    68.3331     2.4650    11.2053   -19.5007    10.0240
  560.0000     7.8512     0.0769     0.1245    68.7818     2.4650    11.1333   -19.4933    10.0274
  560.5000     7.8516     0.0762     0.1251    71.6079     2.4628    10.9855   -19.4860    10.0309
  561.0000     7.8500     0.0762     0.1263    73.3940     2.4591    10.8396   -19.7762     9.9644
  561.5000     7.8376     0.0763     0.1275    73.6941     2.4568    10.6943   -20.0665     9.9687
  562.0000     7.8382     0.0755     0.1290    73.3998     2.4546    10.5523   -20.0591     9.9721
  562.5000     7.8386     0.0756     0.1302    72.8084     2.4539    10.4845   -20.0518     9.9755
  563.0000     7.8391     0.0749     0.1305    72.0684     2.4524    10.4172   -20.1935    10.0480
  563.5000     7.8246     0.0742     0.1307    74.1516     2.4517    10.4234   -20.1859     9.9823
  564.0000     7.8251     0.0743     0.1307    78.1862     2.4518    10.3552   -20.3274     9.9858
  564.5000     7.8105     0.0751     0.1289    74.9005     2.4558    10.3614   -20.3199    10.0584
  565.0000     7.8111     0.0759     0.1271    75.4978     2.4625    10.3664   -20.3125    10.1316
  565.5000     7.8115     0.0782     0.1235    76.2486     2.4663    10.3714   -20.6195    10.1351
  566.0000     7.8268     0.0805     0.1195    76.3952     2.4694    10.3048   -21.1908    10.1386
  566.5000     7.8273     0.0813     0.1186    71.4799     2.4760    10.2386   -21.4810    10.0037
  567.0000     7.8426     0.0814     0.1177    70.7350     2.4798    10.2435   -21.6225     9.9382
  567.5000     7.8430     0.0806     0.1180    70.3119     2.4754    10.1074   -21.7639     9.8732
  568.0000     7.8435     0.0792     0.1213    72.6930     2.4634     9.9732   -21.9054     9.7412
  568.5000     7.8439     0.0785     0.1252    78.1937     2.4581     9.8408   -22.0469     9.6766
  569.0000     7.8294     0.0816     0.1276    79.6826     2.4582     9.7061   -22.3371     9.5472
  569.5000     7.8299     0.0816     0.1276    79.6855     2.4590     9.6477   -22.6255     9.4848
  570.0000     7.8304     0.0809     0.1272    79.2427     2.4605     9.5109   -22.7688     9.4227
  570.5000     7.8159     0.0795     0.1275    78.6506     2.4575     9.3823   -23.0573     9.2975
  571.0000     7.8164     0.0788     0.1284    77.9113     2.4553     9.2044   -23.2006     9.1723
  571.5000     7.8168     0.0811     0.1287    77.6163     2.4561     9.0833   -23.1914     8.9881
  572.0000     7.8173     0.0819     0.1275    77.9172     2.4607     8.9008   -23.4835     8.8671
  572.5000     7.8177     0.0819     0.1263    77.9201     2.4622     8.7220   -23.7737     8.7485
  573.0000     7.8033     0.0820     0.1259    77.7738     2.4630     8.5467   -23.9137     8.7523
  573.5000     7.8037     0.0820     0.1259    76.8852     2.4623     8.2598   -24.0551     8.6943
  574.0000     7.8190     0.0821     0.1262    78.3747     2.4600     8.0380   -24.1963     8.6374
  574.5000     7.8195     0.0806     0.1274    79.8636     2.4601     7.7682   -24.7841     8.3479
  575.0000     7.8199     0.0769     0.1277    80.3123     2.4594     7.5074   -25.2232     7.9020
  575.5000     7.8354     0.0747     0.1283    80.3152     2.4549     7.1556   -25.5135     7.3774
  576.0000     7.8358     0.0733     0.1325    80.1689     2.4451     6.6801   -25.8037     6.7931
  576.5000     7.8362     0.0726     0.1418    82.8471     2.4324     6.2795   -25.9452     6.2551
  577.0000     7.8367     0.0734     0.1487   100.8293     2.4189     5.9852   -26.0867     5.7996
  577.5000     7.8371     0.0773     0.1520   107.2215     2.4152     5.7843   -26.3765     5.3355
  578.0000     7.8376     0.0787     0.1517   106.6301     2.4152     5.7871   -26.3689     4.3664
  578.5000     7.8529     0.0732     0.1319   100.6895     2.4657     5.8301   -26.3616     4.1107
  579.0000     7.8533     0.0683     0.1197    87.3195     2.4747     5.9553   -26.0565     4.2019
  579.5000     7.8538     0.0676     0.1185    81.0817     2.4763     6.2110   -25.8874     4.3973
  580.0000     7.8542     0.0698     0.1185    77.6672     2.4740     6.7058   -25.4266     5.2765
  580.5000     7.8397     0.0760     0.1185    77.3729     2.4741     7.7449   -24.8169     6.8146
  581.0000     7.8252     0.0768     0.1184    78.4360     2.4749     8.5536   -24.2396     7.4058
  581.5000     7.8258     0.0784     0.1182    80.4101     2.4749     9.1713   -23.7859     7.6686
  582.0000     7.8262     0.0784     0.1178    82.4734     2.4750     9.3684   -23.3321     7.8860
  582.5000     7.8267     0.0785     0.1178    82.8826     2.4757     9.3071   -23.3247     8.2793
  583.0000     7.8121     0.0823     0.1181    81.9946     2.4758     9.3126   -23.0198     8.5141
  583.5000     7.8127     0.0861     0.1178    80.8089     2.4743     9.2517   -22.7148     8.7555
  584.0000     7.8131     0.0884     0.1163    80.9604     2.4831     9.2573   -22.1122     8.9418
  584.5000     7.8136     0.0900     0.1124    82.3007     2.4897     9.4561   -22.1048     9.1953
  585.0000     7.8140     0.0908     0.1078    83.9381     2.4940     9.5926   -22.0975     9.3264
  585.5000     7.8144     0.0901     0.1069    84.9812     2.4978     9.7987   -22.0901     9.5908
  586.0000     7.8000     0.0864     0.1081    85.5785     2.4993    10.0092   -22.0828     9.8627
  586.5000     7.8004     0.0797     0.1093    84.0955     2.4896    10.1544   -22.0754    10.0726
  587.0000     7.7853     0.0782     0.1102    83.0583     2.4866    10.3752   -21.7704    10.2869
  587.5000     7.7716     0.0767     0.1114    82.1698     2.4867    10.6009   -21.6143    10.5786
  588.0000     7.7720     0.0768     0.1126    80.9840     2.4859    10.8314   -21.6069    10.7293
  588.5000     7.7725     0.0753     0.1134    78.6088     2.4837    10.9906   -21.5996    10.9576
  589.0000     7.7730     0.0746     0.1158    79.6526     2.4777    11.2156   -21.5922    11.0373
