~VERSION INFORMATION
 VERS.                2.0:   CWLS LOG ASCII STANDARD - VERSION 2.0
 WRAP.                 NO:   ONE LINE PER DEPTH STEP
~WELL INFORMATION
#MNEM.UNIT      DATA TYPE    INFORMATION
#----------   ------------   ------------------------------
 STRT.F           11.0000:   START DEPTH
 STOP.F          915.0000:   STOP DEPTH
 STEP.F            0.5000:   STEP LENGTH
 NULL.          -999.2500:   NO VALUE
 COMP. U S NAVY/INTEX OIL CO:   COMPANY
 WELL.       N.P.R. #3-35:   WELL
 FLD .           TEAPOT E:   FIELD
 LOC .      S35 T39N R78W:   LOCATION
 CNTY.            NATRONA:   COUNTY
 STAT.            WYOMING:   STATE
 CTRY. UNITED STATES OF AMERICA:   COUNTRY
 SRVC.       Schlumberger:   SERVICE COMPANY
 DATE.        25-JUL-1953:   LOGDATE
 API .       490250653700:   API NUMBER
~CURVE INFORMATION
#MNEM.UNIT       API CODE    CURVE DESCRIPTION
#----------   ------------   ------------------------------
 DEPT.F                  :   
 SPR .MV     05 010 01 00:   SPONTANEOUS POTENTIAL FROM RES.
 CILD.MMHO   05 110 46 00:   CONDUCTIVITY INDUCTION LOG DEEP
 ILD .OHMM   05 120 46 00:   INDUCTION LOG DEEP
 ASN .OHMM   05 041 16 00:   AMPLIFIED SHORT NORMAL 16"
 GR  .GAPI   30 310 01 00:   GAMMA RAY
~PARAMETER INFORMATION
#MNEM.UNIT          VALUE    DESCRIPTION
#----------   ------------   ------------------------------
 EPD .F              5097:   ELEVATION PERMANENT DATUM
 LMF .                 KB:   LOG MEASURED FROM
 DMF .                 KB:   DRILLING MEASURED FROM
 EKB .F              5102:   KELLING BUSHING
 EGL .F              5097:   GROUND LEVEL
 DATE.           7-2-1963:   RUN DATE
 RUN .                  1:   RUN NUMBER
 DD  .F               916:   DEPTH DRILLER
 DL  .F               916:   DEPTH LOGGER
 BLI .F               915:   BOTTOM LOG INTERVAL
 TLI .F                90:   TOP LOG INTERVAL
 CS  .IN            8.625:   CASING SIZE
 CBD .F                10:   CASING BOTTOM DRILLER
 BS  .IN             6.75:   BIT SIZE
 BSD .F               916:   BIT SIZE AT DEPTH
 DFT .            GEL/OIL:   DRILLING FLUID TYPE
 DFD .                9.6:   DRILLING FLUID DENSITY
 DFV .                 67:   DRILLING FLUID VISCOSITY
 DFPH.                  9:   DRILLING FLUID PH
 DFL .                4.2:   DRILLING FLUID LOSS
 MSS .          FLOW LINE:   MUD SAMPLE SOURCE
 RMS .OHMM           2.92:   RESISTIVITY MUD SAMPLE
 MST .F                86:   MUD SAMPLE TEMPERATURE
 RMF .OHMM            2.6:   RESISTIVITY MUD FILTRATE SAMPLE
 MFST.F                86:   MUD FILTRATE SAMPLE TEMPERATURE
 RMC .OHMM           2.49:   RESISTIVITY MUD CAKE
 MCST.F                86:   MUD CAKE SAMPLE TEMPERATURE
 MFSS.                  M:   MUD FILTRATE SAMPLE SOURCE
 MCSS.                  M:   MUD CAKE SAMPLE SOURCE
 TCS .HRS              .5:   TIME CURCULATED STOPPED
 LUN .               4507:   LOGGING UNIT NUMBER
 ENGI.             KNOBEL:   RECORDING ENGINEER
 WITN.          JORGENSON:   WITNESSED BY
 CLNT.            A2DTECH:   CLIENT CODE
 ORIG.       2", 5" PRINT:   ORIGIN OF DATA
 UWI .       490250653700:   UNIQUE WELL ID
 DICO. A2D Technologies, Inc.:   DIGITIZING COMPANY
~OTHER INFORMATION
~A   DEPT      SPR       CILD        ILD        ASN          GR  
# ...
  316.0000   -34.7201   357.2928     2.7723     3.7805    37.0091
  316.5000   -34.5782   362.5393     2.8240     3.6323    37.1432
  317.0000   -34.4338   346.4533     2.8702     3.7382    38.4015
  317.5000   -34.4814   332.2796     2.9157     4.0092    39.6736
  318.0000   -34.5626   317.8227     2.9636     3.9049    38.2282
  318.5000   -34.6897   300.7936     3.1659     3.7149    36.1952
  319.0000   -34.9806   271.7722     3.6457     4.0347    39.8143
  319.5000   -35.2673   242.7625     4.1325     4.8148    42.7646
  320.0000   -35.5549   213.7746     4.5853     5.3761    43.5831
  320.5000   -35.8400   184.1553     5.0503     5.5648    48.5957
  321.0000   -35.7494   165.2676     5.5229     5.7339    50.5371
  321.5000   -35.6000   161.8188     5.5580     5.9049    48.1054
  322.0000   -35.4493   162.8421     5.4893     5.9687    47.5050
  322.5000   -35.2913   165.6506     5.4170     5.9587    47.2403
  323.0000   -35.3634   169.3305     5.2453     5.9498    47.1699
  323.5000   -35.5245   179.0879     4.9850     5.9263    47.0915
  324.0000   -35.6584   198.2237     4.7234     5.8712    48.2769
  324.5000   -35.4294   217.3595     4.4601     5.6788    52.0742
  325.0000   -35.2038   236.4953     4.1966     5.4627    43.5914
  325.5000   -34.9806   255.6311     3.9350     5.1068    39.6286
  326.0000   -34.7577   271.2906     3.6949     4.7436    40.3470
  326.5000   -34.5355   281.7419     3.5791     4.3822    41.8171
  327.0000   -34.3129   286.2749     3.4566     4.1840    43.2714
  327.5000   -34.2057   290.7810     3.4372     4.0636    42.4925
  328.0000   -34.2046   294.3337     3.4809     4.3023    38.8033
  328.5000   -34.2061   287.6836     3.5495     4.1916    35.1636
  329.0000   -34.2620   275.5070     3.7186     3.9934    32.4260
  329.5000   -34.4641   255.4345     3.8866     4.3032    35.8541
  330.0000   -34.6585   235.3620     4.0543     4.7283    39.2632
  330.5000   -34.8529   215.2895     4.2222     4.8439    41.5378
  331.0000   -35.0490   195.6978     4.3899     4.9542    41.3725
  331.5000   -35.2444   190.9129     4.5578     4.9912    42.0714
  332.0000   -35.2528   187.3033     4.7255     5.1998    49.6774
  332.5000   -35.2519   188.3526     4.8938     5.4220    53.5137
  333.0000   -35.2494   192.0072     5.0636     5.5070    53.5389
  333.5000   -35.1672   196.1378     5.0494     5.5880    49.3158
  334.0000   -35.0793   200.2683     5.0026     5.5470    50.9278
  334.5000   -34.9916   204.3989     4.9539     5.4241    52.4376
  335.0000   -34.9043   208.5295     4.9049     5.2358    46.7856
  335.5000   -34.8073   212.4869     4.7098     5.0483    46.4922
  336.0000   -34.6773   232.4404     4.3242     4.8636    47.0294
  336.5000   -34.5452   251.5912     3.9420     4.6056    47.0901
  337.0000   -34.4176   267.3033     3.7101     4.4140    41.8507
  337.5000   -34.4133   272.5603     3.6717     4.3541    37.8824
  338.0000   -34.4140   272.9306     3.6328     4.2414    38.7131
  338.5000   -34.4142   272.5813     3.5955     4.1017    41.3161
  339.0000   -34.4142   277.8384     3.5581     4.1461    43.8959
  339.5000   -34.4142   283.0955     3.5205     4.1201    45.3803
  340.0000   -34.4143   288.0378     3.4832     3.9343    44.9446
  340.5000   -34.4144   289.6297     3.4466     3.7467    44.5175
  341.0000   -34.4142   291.1318     3.4052     3.8944    44.1161
  341.5000   -34.4136   297.3708     3.2517     3.8833    46.2311
  342.0000   -34.3387   316.6384     3.1004     3.8364    48.0929
  342.5000   -34.1629   336.0525     2.9500     3.6842    48.4978
  343.0000   -33.9877   355.4732     2.7995     3.5156    54.3057
  343.5000   -33.8126   374.8920     2.6504     3.3474    56.8955
  344.0000   -33.7865   389.8216     2.4732     3.2424    56.3623
  344.5000   -33.7853   382.4764     2.4393     3.1470    54.6817
  345.0000   -33.7825   366.7366     2.6005     3.1764    48.9393
  345.5000   -33.8052   348.0001     2.7614     3.3435    45.0612
  346.0000   -34.2931   329.1964     2.9451     3.4184    46.8008
  346.5000   -34.7673   306.7654     3.1318     3.3932    49.2152
  347.0000   -34.6898   280.4762     3.3184     3.3727    49.7372
  347.5000   -34.0938   254.1973     3.5048     3.7791    45.0270
  348.0000   -33.8504   239.6118     3.6912     4.0920    44.8975
  348.5000   -33.9763   226.4691     3.8838     4.2480    40.7926
  349.0000   -34.1010   224.0294     3.9086     4.4010    43.6636
  349.5000   -34.2285   227.8145     3.8598     4.3932    46.6562
  350.0000   -34.3557   233.3400     3.8089     4.3653    48.5932
  350.5000   -34.4829   238.8619     3.7581     4.3363    48.6901
  351.0000   -34.6098   244.3620     3.7076     4.2408    49.5190
  351.5000   -34.7180   249.0469     3.6563     4.1498    52.6878
  352.0000   -34.8191   253.3928     3.5862     4.0938    53.7828
  352.5000   -34.5626   259.8636     3.4556     4.0373    55.6892
  353.0000   -34.2567   281.3221     3.3306     3.9258    59.4759
  353.5000   -33.9509   307.3977     3.1449     3.7868    60.1568
  354.0000   -33.7152   333.4732     2.7902     3.6476    60.0927
  354.5000   -33.5602   359.5488     2.6143     3.5159    56.2668
  355.0000   -33.4052   385.6243     2.4538     3.4615    52.8736
  355.5000   -33.2505   405.8042     2.3925     3.4048    51.2513
  356.0000   -33.0950   407.5154     2.4635     3.1438    49.5586
  356.5000   -32.9562   386.5279     2.5344     3.2555    44.9482
  357.0000   -33.0690   373.3004     2.6053     3.4679    47.5678
  357.5000   -33.1865   359.8232     2.6633     3.5998    48.5144
  358.0000   -33.3032   326.8769     2.9900     3.3697    46.0285
  358.5000   -33.5323   289.2732     3.3732     3.4178    44.0942
  359.0000   -33.9101   251.6695     3.7608     4.1501    44.0047
  359.5000   -34.2103   213.5362     4.1473     4.8213    43.6074
  360.0000   -34.1825   199.3966     4.5320     5.0133    41.7015
  360.5000   -34.1634   186.5268     4.7856     5.1851    41.9435
  361.0000   -34.1452   183.8195     4.8290     5.4278    42.2982
  361.5000   -34.1264   183.3849     4.8814     5.5992    42.6442
  362.0000   -34.1078   181.0574     5.0669     5.6835    42.9819
  362.5000   -34.0892   175.3376     5.2628     5.7926    45.3623
  363.0000   -34.0706   169.6178     5.4585     5.9903    49.3429
  363.5000   -34.0520   163.8981     5.6541     6.3341    53.4073
  364.0000   -34.0334   158.1783     5.8497     6.6478    54.2845
  364.5000   -34.0146   152.4585     6.0458     6.8443    51.8387
  365.0000   -33.9962   147.4216     6.2416     7.0540    49.8642
  365.5000   -33.9961   147.4249     6.4390     7.2443    49.4821
  366.0000   -33.9963   148.6169     6.6313     7.2012    49.3111
  366.5000   -34.0716   149.9221     6.5315     7.1997    47.0582
  367.0000   -34.2006   151.2280     6.4103     7.3191    44.9779
  367.5000   -34.3303   152.5319     6.2891     7.2569    43.9504
  368.0000   -34.4608   153.7251     6.1681     7.1727    47.5471
  368.5000   -34.5927   153.7245     6.0487     7.0854    51.5515
  369.0000   -34.6605   153.7251     6.0602     7.0900    47.2620
  369.5000   -34.7107   153.7251     6.0908     7.1297    48.6981
  370.0000   -34.7596   153.7251     6.1218     7.1708    51.8974
  370.5000   -34.8090   154.8004     6.1525     7.2067    50.3546
  371.0000   -34.7633   156.0516     6.1832     7.1620    48.9012
  371.5000   -34.6366   157.3095     6.2138     7.1577    50.6971
  372.0000   -34.5096   158.5749     6.2442     7.1834    52.6402
  372.5000   -34.3818   159.8388     6.2780     7.1606    56.1100
  373.0000   -34.2542   157.4779     6.3089     7.0978    54.2465
  373.5000   -34.1266   154.4102     6.3841     7.0367    55.2641
  374.0000   -33.9990   151.3425     6.6354     7.0329    51.5595
  374.5000   -33.8716   148.2170     6.7486     7.2040    51.5560
  375.0000   -33.7440   145.0478     6.8481     7.4383    52.4954
  375.5000   -33.6093   141.8474     7.0472     7.7096    49.9593
  376.0000   -33.7036   134.5522     7.2634     7.8938    50.5507
  376.5000   -33.8811   126.1742     7.4813     8.0111    47.1769
