~VERSION INFORMATION
 VERS.                2.0:   CWLS LOG ASCII STANDARD - VERSION 2.0
 WRAP.                 NO:   ONE LINE PER DEPTH STEP
~WELL INFORMATION
#MNEM.UNIT      DATA TYPE    INFORMATION
#----------   ------------   ------------------------------
 STRT.F           85.5000:   START DEPTH
 STOP.F         1080.5000:   STOP DEPTH
 STEP.F            0.5000:   STEP LENGTH
 NULL.          -999.2500:   NO VALUE
 COMP.         U.S.  NAVY:   COMPANY
 WELL.  N.P.R. #3 #67-S-2:   WELL
 FLD .             TEAPOT:   FIELD
 LOC .       S2 T38N R78W:   LOCATION
 CNTY.            NATRONA:   COUNTY
 STAT.            WYOMING:   STATE
 CTRY. UNITED STATES OF AMERICA:   COUNTRY
 SRVC.       Schlumberger:   SERVICE COMPANY
 DATE.        20-JUL-1964:   LOGDATE
 API .       490250639700:   API NUMBER
~CURVE INFORMATION
#MNEM.UNIT       API CODE    CURVE DESCRIPTION
#----------   ------------   ------------------------------
 DEPT.F                  :   
 GR  .GAPI   30 310 01 00:   GAMMA RAY
 DT  .US/F   60 520 33 00:   INTERVAL TRANSIT TIME
 SPR .MV     06 010 01 00:   SPONTANEOUS POTENTIAL
 CILD.MMHO   06 110 46 00:   CONDUCTIVITY INDUCTION LOG DEEP
 ASN .OHMM   06 041 16 00:   AMPLIFIED SHORT NORMAL 16"
 ILD .OHMM   06 120 46 00:   INDUCTION LOG DEEP
~PARAMETER INFORMATION
#MNEM.UNIT          VALUE    DESCRIPTION
#----------   ------------   ------------------------------
 PD  .                 GL:   PERMANENT DATUM
 EPD .F              5207:   ELEVATION PERMANENT DATUM
 LMF .                 KB:   LOG MEASURED FROM
 DAPD.F                 5:   FEET ABOVE PERMANENT DATUM
 DMF .                 KB:   DRILLING MEASURED FROM
 EKB .F              5212:   KELLING BUSHING
 EGL .F              5207:   GROUND LEVEL
 DATE.          7-20-1964:   RUN DATE
 RUN .                  1:   RUN NUMBER
 DD  .F              1080:   DEPTH DRILLER
 DL  .F              1081:   DEPTH LOGGER
 BLI .F              1080:   BOTTOM LOG INTERVAL
 TLI .F                86:   TOP LOG INTERVAL
 CS  .IN            8.625:   CASING SIZE
 CBD .F                10:   CASING BOTTOM DRILLER
 BS  .IN             6.75:   BIT SIZE
 BSD .F              1080:   BIT SIZE AT DEPTH
 DFT .            GEL-OIL:   DRILLING FLUID TYPE
 DFD .                9.5:   DRILLING FLUID DENSITY
 DFV .                 43:   DRILLING FLUID VISCOSITY
 MSS .           FLOWLINE:   MUD SAMPLE SOURCE
 RMS .OHMM           1.85:   RESISTIVITY MUD SAMPLE
 MST .F                83:   MUD SAMPLE TEMPERATURE
 RMF .OHMM           1.29:   RESISTIVITY MUD FILTRATE SAMPLE
 MFST.F                83:   MUD FILTRATE SAMPLE TEMPERATURE
 RMC .OHMM           2.49:   RESISTIVITY MUD CAKE
 MCST.F                83:   MUD CAKE SAMPLE TEMPERATURE
 MFSS.                 FP:   MUD FILTRATE SAMPLE SOURCE
 MCSS.                 FP:   MUD CAKE SAMPLE SOURCE
 TCS .HRS               2:   TIME CURCULATED STOPPED
 LUN .               4507:   LOGGING UNIT NUMBER
 LUL .               CSPR:   LOGGING UNIT LOCATION
 ENGI.             DANNER:   RECORDING ENGINEER
 WITN.          JORGENSEN:   WITNESSED BY
 CLNT.            A2DTECH:   CLIENT CODE
 ORIG.           2" PRINT:   ORIGIN OF DATA
 UWI .       490250639700:   UNIQUE WELL ID
 DICO. A2D Technologies, Inc.:   DIGITIZING COMPANY
~OTHER INFORMATION
~A   DEPT       GR         DT        SPR       CILD        ASN        ILD   
# ...
  293.5000  -999.2500  -999.2500   -24.7795   188.7450     6.2821     5.6589
  294.0000  -999.2500  -999.2500   -24.9174   186.9522     6.1260     5.6986
  294.5000  -999.2500  -999.2500   -25.0560   184.6594     6.2681     5.7383
  295.0000  -999.2500  -999.2500   -25.1941   182.3667     6.4512     5.7779
  295.5000  -999.2500  -999.2500   -25.3326   180.0739     6.5763     5.8177
  296.0000  -999.2500  -999.2500   -25.4707   177.7812     6.5503     5.8573
  296.5000  -999.2500  -999.2500   -25.6091   175.4866     6.5231     5.8972
  297.0000  -999.2500  -999.2500   -25.7474   173.9994     6.5176     5.9367
  297.5000  -999.2500  -999.2500   -25.8858   174.7252     6.5666     5.9766
  298.0000  -999.2500  -999.2500   -26.0241   175.4557     6.5937     6.0257
  298.5000  -999.2500  -999.2500   -26.1160   176.1822     6.5532     5.9677
  299.0000  -999.2500  -999.2500   -26.0803   176.9122     6.5142     5.8909
  299.5000  -999.2500  -999.2500   -26.0444   177.6391     6.4737     5.8146
  300.0000  -999.2500  -999.2500   -26.0088   178.3689     6.4445     5.7378
  300.5000  -999.2500  -999.2500   -25.9728   179.0959     6.5139     5.6614
  301.0000  -999.2500  -999.2500   -25.9372   179.8255     6.6084     5.5847
  301.5000  -999.2500  -999.2500   -25.8112   180.5525     6.6829     5.5083
  302.0000  -999.2500  -999.2500   -25.6488   182.1324     6.5636     5.4316
  302.5000  -999.2500  -999.2500   -25.4860   184.0878     6.4638     5.3552
  303.0000  -999.2500  -999.2500   -25.3236   186.0461     6.3644     5.3288
  303.5000  -999.2500  -999.2500   -25.1609   187.7474     6.2648     5.3450
  304.0000  -999.2500  -999.2500   -24.9985   186.5784     6.1652     5.3590
  304.5000  -999.2500  -999.2500   -25.0045   185.5422     6.1058     5.3729
  305.0000  -999.2500  -999.2500   -25.1217   184.5061     6.2674     5.3870
  305.5000  -999.2500  -999.2500   -25.2388   183.4699     6.4155     5.4009
  306.0000  -999.2500  -999.2500   -25.3559   182.4338     6.5630     5.4150
  306.5000  -999.2500  -999.2500   -25.4731   181.3976     6.7111     5.4288
  307.0000  -999.2500  -999.2500   -25.4763   180.3615     6.6620     5.4429
  307.5000  -999.2500  -999.2500   -25.3725   179.3253     6.4275     5.4567
  308.0000  -999.2500  -999.2500   -25.2681   179.5874     6.3423     5.4709
  308.5000  -999.2500  -999.2500   -25.1644   181.2649     6.4207     5.4845
  309.0000  -999.2500  -999.2500   -25.0599   182.9425     6.5041     5.4988
  309.5000  -999.2500  -999.2500   -24.9562   184.7610     6.4219     5.5124
  310.0000  -999.2500  -999.2500   -24.8517   182.6422     6.3249     5.5281
  310.5000  -999.2500  -999.2500   -24.7356   180.3291     6.3727     5.6783
  311.0000  -999.2500  -999.2500   -24.8114   178.0161     6.4263     5.8464
  311.5000  -999.2500  -999.2500   -24.8986   175.7031     6.4792     6.0136
  312.0000  -999.2500  -999.2500   -24.9848   173.3917     6.5330     6.1583
  312.5000  -999.2500  -999.2500   -25.0720   171.6895     6.5856     6.2245
  313.0000  -999.2500  -999.2500   -25.1583   171.2986     6.6238     6.2250
  313.5000  -999.2500  -999.2500   -25.2454   170.8184     6.6848     6.2245
  314.0000  -999.2500  -999.2500   -25.3319   169.3043     6.7641     6.2250
  314.5000  -999.2500  -999.2500   -25.4189   167.3476     6.8413     6.2245
  315.0000  -999.2500  -999.2500   -25.5053   165.3898     6.9207     6.2250
  315.5000  -999.2500  -999.2500   -25.5298   163.4333     6.9812     6.2245
  316.0000  -999.2500  -999.2500   -25.5007   164.5678     6.8567     6.1173
  316.5000  -999.2500  -999.2500   -25.4768   167.0148     6.9208     6.0279
  317.0000  -999.2500  -999.2500   -25.4529   169.4603     7.0080     5.9395
  317.5000  -999.2500  -999.2500   -25.4290   171.9072     7.0809     5.8501
  318.0000  -999.2500  -999.2500   -25.4050   175.7934     6.9991     5.7617
  318.5000  -999.2500  -999.2500   -25.3811   180.5232     6.9254     5.6723
  319.0000  -999.2500  -999.2500   -25.3573   185.2521     6.8537     5.5839
  319.5000  -999.2500  -999.2500   -25.3334   189.9818     6.6565     5.4946
  320.0000  -999.2500  -999.2500   -25.3095   194.7110     6.3703     5.4061
  320.5000  -999.2500  -999.2500   -25.2856   199.4406     6.0827     5.3168
  321.0000  -999.2500  -999.2500   -25.2618   200.6951     5.9735     5.2296
  321.5000  -999.2500  -999.2500   -25.2379   199.1055     6.0238     5.2714
  322.0000  -999.2500  -999.2500   -25.2140   197.5397     6.0752     5.3132
  322.5000  -999.2500  -999.2500   -25.1901   194.8686     6.1256     5.3544
  323.0000  -999.2500  -999.2500   -25.1663   190.9544     6.1768     5.3962
  323.5000  -999.2500  -999.2500   -25.1424   187.0406     6.2632     5.4374
  324.0000  -999.2500  -999.2500   -25.1185   183.6981     6.3964     5.4791
  324.5000  -999.2500  -999.2500   -25.0946   181.1546     6.5439     5.5203
  325.0000  -999.2500  -999.2500   -25.0707   178.6101     6.4812     5.5620
  325.5000  -999.2500  -999.2500   -25.0468   176.0667     6.4108     5.6033
  326.0000  -999.2500  -999.2500   -25.0230   173.5221     6.4161     5.6450
  326.5000  -999.2500  -999.2500   -24.9990   172.1351     6.5649     5.6863
  327.0000  -999.2500  -999.2500   -24.9752   173.1131     6.7429     5.7279
  327.5000  -999.2500  -999.2500   -24.9512   174.0911     6.7116     5.7692
  328.0000  -999.2500  -999.2500   -24.9414   175.0697     6.6724     5.8109
  328.5000  -999.2500  -999.2500   -24.9682   176.0483     6.6617     5.8522
  329.0000  -999.2500  -999.2500   -24.9951   176.7928     6.7336     5.8939
  329.5000  -999.2500  -999.2500   -25.0220   175.8227     6.8050     5.9260
  330.0000  -999.2500  -999.2500   -25.0490   175.0398     6.8627     5.8921
  330.5000  -999.2500  -999.2500   -25.0758   175.7525     6.6578     5.8640
  331.0000  -999.2500  -999.2500   -25.1028   177.1225     6.6041     5.8362
  331.5000  -999.2500  -999.2500   -25.1296   178.4925     6.6372     5.8082
  332.0000  -999.2500  -999.2500   -25.1566   179.8625     6.6640     5.7804
  332.5000  -999.2500  -999.2500   -25.1835   181.2326     6.6826     5.7524
  333.0000  -999.2500  -999.2500   -25.2104   181.6988     6.3257     5.7245
  333.5000  -999.2500  -999.2500   -25.2374   181.5765     6.5674     5.6967
  334.0000  -999.2500  -999.2500   -25.2642   181.4542     6.6444     5.6686
  334.5000  -999.2500  -999.2500   -25.2912   181.3319     6.5684     5.6409
  335.0000  -999.2500  -999.2500   -25.3181   181.2095     6.4993     5.6276
  335.5000  -999.2500  -999.2500   -25.3193   181.0872     6.4639     5.6280
  336.0000  -999.2500  -999.2500   -25.2963   180.9649     6.5436     5.6274
  336.5000  -999.2500  -999.2500   -25.2735   180.8426     6.6212     5.6281
  337.0000  -999.2500  -999.2500   -25.2502   180.3237     6.7036     5.6273
  337.5000  -999.2500  -999.2500   -25.2275   179.3451     6.6987     5.6282
  338.0000  -999.2500  -999.2500   -25.2042   178.3665     6.6894     5.6272
  338.5000  -999.2500  -999.2500   -25.1816   175.8512     6.6791     5.6282
  339.0000  -999.2500  -999.2500   -25.1582   171.1214     6.6698     5.8386
  339.5000  -999.2500  -999.2500   -25.1327   166.3915     6.6631     6.0745
  340.0000  -999.2500  -999.2500   -25.2116   161.6617     6.9545     6.3082
  340.5000  -999.2500  -999.2500   -25.3042   156.9319     7.2894     6.5441
  341.0000  -999.2500  -999.2500   -25.3953   152.2020     7.6264     6.8220
  341.5000  -999.2500  -999.2500   -25.4881   148.7351     7.9610     6.8379
  342.0000  -999.2500  -999.2500   -25.5789   148.1759     8.2985     6.8858
  342.5000  -999.2500  -999.2500   -25.6719   147.6167     8.7138     6.9050
  343.0000  -999.2500  -999.2500   -25.7625   147.0593     8.1023     6.8390
  343.5000  -999.2500  -999.2500   -25.8555   148.6527     7.4793     6.7744
  344.0000  -999.2500  -999.2500   -25.9264   151.0018     7.7165     6.7087
  344.5000  -999.2500  -999.2500   -25.6526   153.3500     7.9771     6.6438
  345.0000  -999.2500  -999.2500   -25.2610   155.6987     7.5262     6.5783
