~VERSION INFORMATION
 VERS.                2.0:   CWLS LOG ASCII STANDARD - VERSION 2.0
 WRAP.                 NO:   ONE LINE PER DEPTH STEP
~WELL INFORMATION
#MNEM.UNIT      DATA TYPE    INFORMATION
#----------   ------------   ------------------------------
 STRT.F           80.0000:   START DEPTH
 STOP.F          718.0000:   STOP DEPTH
 STEP.F            0.5000:   STEP LENGTH
 NULL.          -999.2500:   NO VALUE
 COMP. U S NAVY-INTEX OIL:   COMPANY
 WELL. RES 3 TEAPOT DOM #11SX-2:   WELL
 FLD .             TEAPOT:   FIELD
 LOC .       S2 T38N R78W:   LOCATION
 CNTY.            NATRONA:   COUNTY
 STAT.            WYOMING:   STATE
 CTRY. UNITED STATES OF AMERICA:   COUNTRY
 SRVC.       Schlumberger:   SERVICE COMPANY
 DATE.        05-AUG-1961:   LOGDATE
 API .       490250647900:   API NUMBER
~CURVE INFORMATION
#MNEM.UNIT       API CODE    CURVE DESCRIPTION
#----------   ------------   ------------------------------
 DEPT.F                  :   
 ILD .OHMM   05 120 46 00:   INDUCTION LOG DEEP
 ASN .OHMM   05 041 16 00:   AMPLIFIED SHORT NORMAL 16"
 SPR .MV     05 010 01 00:   SPONTANEOUS POTENTIAL FROM RES.
 CILD.MMHO   05 110 46 00:   CONDUCTIVITY INDUCTION LOG DEEP
 GR  .GAPI   30 310 01 00:   GAMMA RAY
~PARAMETER INFORMATION
#MNEM.UNIT          VALUE    DESCRIPTION
#----------   ------------   ------------------------------
 LMF .                 KB:   LOG MEASURED FROM
 DMF .                 KB:   DRILLING MEASURED FROM
 EKB .F              5105:   KELLING BUSHING
 EGL .F              5100:   GROUND LEVEL
 DATE.           8-5-1961:   RUN DATE
 RUN .                  1:   RUN NUMBER
 DD  .F               715:   DEPTH DRILLER
 DL  .F               719:   DEPTH LOGGER
 BLI .F               718:   BOTTOM LOG INTERVAL
 TLI .F               120:   TOP LOG INTERVAL
 BS  .IN             6.75:   BIT SIZE
 BSD .F               715:   BIT SIZE AT DEPTH
 DFT .       OIL EMULSION:   DRILLING FLUID TYPE
 DFV .                 40:   DRILLING FLUID VISCOSITY
 RMS .OHMM           1.11:   RESISTIVITY MUD SAMPLE
 MST .F                68:   MUD SAMPLE TEMPERATURE
 TCS .HRS               2:   TIME CURCULATED STOPPED
 LUN .               2544:   LOGGING UNIT NUMBER
 LUL .                 NC:   LOGGING UNIT LOCATION
 ENGI.            EARNEST:   RECORDING ENGINEER
 WITN.          JORGENSEN:   WITNESSED BY
 CLNT.            A2DTECH:   CLIENT CODE
 ORIG.      2" & 5" PRINT:   ORIGIN OF DATA
 UWI .       490250647900:   UNIQUE WELL ID
 DICO. A2D Technologies, Inc.:   DIGITIZING COMPANY
~OTHER INFORMATION
~A   DEPT        ILD        ASN      SPR        CILD        GR   
# ...
  385.0000    11.3227    13.9207   -47.5320   101.8887  -999.2500
  385.5000    10.1696    13.7043   -47.2845    96.1040  -999.2500
  386.0000     0.4241     4.1417   -47.0369    90.3194  -999.2500
  386.5000     0.7797     4.5409   -46.7889    90.3194  -999.2500
  387.0000     1.3036     5.5498   -46.5401    90.3194  -999.2500
  387.5000     2.7164     7.2293   -46.3006    90.7232  -999.2500
  388.0000     4.0901     9.9784   -56.8818    91.3436  -999.2500
  388.5000     5.0820    12.4319   -57.1121    92.1709  -999.2500
  389.0000     5.3237    12.4243   -57.0241    92.9982  -999.2500
  389.5000     5.3925    12.4193   -56.9359    93.8255  -999.2500
  390.0000     5.3398    12.4283   -56.8447    94.6528  -999.2500
  390.5000     5.2872    12.3889   -56.7652    95.4797  -999.2500
  391.0000     5.2347    12.1258   -56.8898    96.3080  -999.2500
  391.5000     5.1803    11.8632   -57.0185    96.3101  -999.2500
  392.0000     5.1859    11.5994   -57.1462    95.3548  -999.2500
  392.5000     5.2290    11.3269   -57.2732    93.9258  -999.2500
  393.0000     5.2727    11.5058   -57.4011    92.4968  -999.2500
  393.5000     5.3171    11.7419   -57.5353    91.0679  -999.2500
  394.0000     5.3620    11.9789   -57.3894    90.3268  -999.2500
  394.5000     5.3233    12.2048   -57.1831    90.3265  -999.2500
  395.0000     5.2771    12.1118   -56.9735    90.8405  -999.2500
  395.5000     5.2311    11.9123   -56.7737    91.7411  -999.2500
  396.0000     5.1852    11.6981   -56.5057    92.6423  -999.2500
  396.5000     5.1394    11.4826   -56.1799    93.5457  -999.2500
  397.0000     5.0936    11.2658   -55.8508    94.4490  -999.2500
  397.5000     5.0477    11.2058   -55.5419    95.3094  -999.2500
  398.0000     5.0065    11.1024   -55.3602    95.3094  -999.2500
  398.5000     4.9768    11.0017   -55.1759    96.9972  -999.2500
  399.0000     4.9471    10.9011   -55.1679    98.5382  -999.2500
  399.5000     4.9174    10.8012   -55.1699   100.0792  -999.2500
  400.0000     4.8877    10.7256   -55.3124   100.2994  -999.2500
  400.5000     4.8580    10.6987   -55.5943   100.2994  -999.2500
  401.0000     4.8283    10.6706   -55.8843   100.2994  -999.2500
  401.5000     4.7986    10.6425   -56.0311   100.2994  -999.2500
  402.0000     4.7689    10.5437   -56.1323   100.2994  -999.2500
  402.5000     4.7392    10.3663   -56.2309   101.8039  -999.2500
  403.0000     4.7095    10.1837   -56.3296   104.0359  -999.2500
  403.5000     4.6798    10.1735   -56.4286   106.2680  -999.2500
  404.0000     4.6500    10.3580   -56.5276   108.5000  -999.2500
  404.5000     4.6203    10.5157   -56.6268   109.2814  -999.2500
  405.0000     4.6162    10.3531   -56.7256   109.2814  -999.2500
  405.5000     4.6037    10.1780   -56.8243   109.2814  -999.2500
  406.0000     4.5895    10.0001   -56.9325   109.2814  -999.2500
  406.5000     4.5752     9.8361   -56.6736   109.0265  -999.2500
  407.0000     4.5608     9.9011   -56.2449   108.7784  -999.2500
  407.5000     4.5465     9.9733   -55.8146   108.5304  -999.2500
  408.0000     4.5322    10.0446   -55.5022   108.2824  -999.2500
  408.5000     4.5179    10.1163   -55.3483   108.0344  -999.2500
  409.0000     4.5037    10.1297   -55.1939   107.7864  -999.2500
  409.5000     4.4894    10.1304   -55.1690   107.5384  -999.2500
  410.0000     4.4745    10.1295   -55.1685   107.2854  -999.2500
  410.5000     4.4169    10.1238   -55.1703   110.8959  -999.2500
  411.0000     4.2822     9.9522   -55.0569   114.5806  -999.2500
  411.5000     4.1487     9.8680   -54.8764   118.2652  -999.2500
  412.0000     4.0149     9.7967   -54.6952   121.9498  -999.2500
  412.5000     3.8816     9.7180   -54.5138   125.6345  -999.2500
  413.0000     3.7672     9.5607   -54.3325   129.3045  -999.2500
  413.5000     3.7670     9.1885   -54.1512   133.2150  -999.2500
  414.0000     3.7674     8.8731   -53.9699   134.0968  -999.2500
  414.5000     3.7674     8.6345   -53.7887   135.0456  -999.2500
  415.0000     3.7676     8.5353   -53.6074   135.9656  -999.2500
  415.5000     3.7678     8.5566   -53.4261   134.3091  -999.2500
  416.0000     3.8079     8.5776   -53.2448   131.6383  -999.2500
  416.5000     3.8859     8.6220   -53.0634   128.9675  -999.2500
  417.0000     3.9640     8.6773   -52.8821   126.3012  -999.2500
  417.5000     4.0452     8.7686   -52.7017   123.6363  -999.2500
  418.0000     4.0589     8.8589   -52.5835   122.4958  -999.2500
  418.5000     4.0489     9.0347   -52.5533   122.9638  -999.2500
  419.0000     4.0378     9.1881   -52.5122   123.4303  -999.2500
  419.5000     4.0262     9.1422   -52.4705   123.9027  -999.2500
  420.0000     4.0208     9.0902   -52.4277   123.7244  -999.2500
  420.5000     4.1213     9.0899   -52.3913   121.7094  -999.2500
  421.0000     4.2216     9.0998   -52.6571   119.6980  -999.2500
  421.5000     4.3152     9.3285   -52.9479   117.6792  -999.2500
  422.0000     4.3353     9.5761   -53.2390   115.6616  -999.2500
  422.5000     4.3527    10.0381   -53.2623   113.6434  -999.2500
  423.0000     4.3661    10.0415   -53.0438   111.6254  -999.2500
  423.5000     4.3442     9.7821   -52.8224   112.0003  -999.2500
  424.0000     4.3222     9.6014   -52.5951   113.1784  -999.2500
  424.5000     4.3005     9.4742   -52.6899   114.3557  -999.2500
  425.0000     4.2787     9.4931   -52.8106   115.5320  -999.2500
  425.5000     4.2570     9.6109   -52.9302   116.7072  -999.2500
  426.0000     4.2352     9.7133   -53.0512   117.8809  -999.2500
  426.5000     4.2135     9.6585   -53.1654   119.0529  -999.2500
  427.0000     4.1917     9.5315   -52.7042   120.2595  -999.2500
  427.5000     4.1699     9.4973   -52.1429   120.2595  -999.2500
  428.0000     4.1482     9.4791   -52.0859   120.2595  -999.2500
  428.5000     4.1264     9.4829   -52.1070   120.2595  -999.2500
  429.0000     4.1206     9.5391   -51.7690   120.0961  -999.2500
  429.5000     4.1272     9.6190   -51.6470   119.6347  -999.2500
  430.0000     4.1339     9.6737   -51.7658   119.1733  -999.2500
  430.5000     4.1406     9.7289   -51.8833   118.7119  -999.2500
  431.0000     4.1473     9.7126   -52.0017   118.2505  -999.2500
  431.5000     4.1540     9.6060   -52.1195   117.7891  -999.2500
  432.0000     4.1607     9.4750   -52.1424   117.3277  -999.2500
  432.5000     4.1666     9.5610   -52.0434   116.8663  -999.2500
  433.0000     4.1672     9.6662   -51.9450   116.4049  -999.2500
  433.5000     4.1457     9.6903   -51.8457   117.0337  -999.2500
  434.0000     4.1161     9.7074   -51.6612   118.1249  -999.2500
  434.5000     4.0863     9.5098   -51.3583   119.2162  -999.2500
  435.0000     4.0565     9.4035   -51.0573   120.3074  -999.2500
  435.5000     4.0267     9.3445   -50.7552   121.3986  -999.2500
  436.0000     3.9970     9.1902   -50.4494   122.4898  -999.2500
  436.5000     3.9672     9.0108   -50.4570   123.5810  -999.2500
  437.0000     3.9375     8.8931   -50.5278   124.6723  -999.2500
  437.5000     3.9076     8.9314   -50.6010   125.7635  -999.2500
  438.0000     3.8792     8.9927   -50.6737   126.8547  -999.2500
  438.5000     3.7701     8.9126   -50.7462   129.8995  -999.2500
  439.0000     3.6201     8.7605   -50.8187   135.9224  -999.2500
  439.5000     3.4696     8.6073   -50.8906   141.9454  -999.2500
  440.0000     3.3187     8.4540   -50.9633   147.9684  -999.2500
  440.5000     3.1673     8.2813   -50.9236   153.9913  -999.2500
  441.0000     3.0225     8.0274   -50.8063   160.0143  -999.2500
  441.5000     3.0180     7.5830   -50.6881   161.1776  -999.2500
  442.0000     3.0214     7.1460   -50.5685   162.1756  -999.2500
  442.5000     3.0365     7.1108   -50.4489   161.5589  -999.2500
  443.0000     3.0509     7.2129   -50.2668   160.5682  -999.2500
  443.5000     3.0622     7.3220   -50.0372   159.5607  -999.2500
  444.0000     3.1850     7.5157   -49.8067   155.0771  -999.2500
  444.5000     3.3327     7.9621   -49.5755   148.0434  -999.2500
  445.0000     3.4820     8.1415   -49.3450   141.4878  -999.2500
  445.5000     3.6338     8.2875   -49.1139   137.3675  -999.2500
