~VERSION INFORMATION
 VERS.                2.0:   CWLS LOG ASCII STANDARD - VERSION 2.0
 WRAP.                 NO:   ONE LINE PER DEPTH STEP
~WELL INFORMATION
#MNEM.UNIT      DATA TYPE    INFORMATION
#----------   ------------   ------------------------------
 STRT.F           30.0000:   START DEPTH
 STOP.F          759.0000:   STOP DEPTH
 STEP.F            0.5000:   STEP LENGTH
 NULL.          -999.2500:   NO VALUE
 COMP. FENIX & SCISSON INC:   COMPANY
 WELL.    NPR ##3 15-S-14:   WELL
 FLD .             TEAPOT:   FIELD
 LOC .      S14 T38N R78W:   LOCATION
 CNTY.            NATRONA:   COUNTY
 STAT.            WYOMING:   STATE
 CTRY. UNITED STATES OF AMERICA:   COUNTRY
 SRVC.              Welex:   SERVICE COMPANY
 DATE.        23-FEB-1977:   LOGDATE
 API .       490251027600:   API NUMBER
~CURVE INFORMATION
#MNEM.UNIT       API CODE    CURVE DESCRIPTION
#----------   ------------   ------------------------------
 DEPT.F                  :   
 GURD.OHMM   07 220 05 00:   SHALLOW SHORT GUARD RESISTIVITY
 ILD .OHMM   07 120 46 00:   INDUCTION LOG DEEP
 ILM .OHMM   07 120 44 00:   INDUCTION LOG MEDIUM
 SPR .MV     07 010 01 00:   SPONTANEOUS POTENTIAL
 CALD.IN     45 280 60 00:   CALIPER FROM DENSITY LOG
 CORR.G/C3   45 356 01 00:   DENSITY CORRECTION
 DPHI.DEC    45 890 12 00:   DENSITY POROSITY SANDSTONE
 GRD .GAPI   45 310 01 00:   GAMMA RAY FROM DENSITY LOG
 RHOB.G/C3   45 350 01 00:   BULK DENSITY
~PARAMETER INFORMATION
#MNEM.UNIT          VALUE    DESCRIPTION
#----------   ------------   ------------------------------
 PD  .                 GL:   PERMANENT DATUM
 EPD .F            5229.2:   ELEVATION PERMANENT DATUM
 LMF .                 GL:   LOG MEASURED FROM
 DMF .                 GL:   DRILLING MEASURED FROM
 EGL .F            5229.2:   GROUND LEVEL
 DATE.        23-FEB-1977:   RUN DATE
 RUN .                  1:   RUN NUMBER
 DD  .F               764:   DEPTH DRILLER
 DL  .F               762:   DEPTH LOGGER
 BLI .F               760:   BOTTOM LOG INTERVAL
 TLI .F                40:   TOP LOG INTERVAL
 CS  .IN            8.625:   CASING SIZE
 CBD .F                40:   CASING BOTTOM DRILLER
 CBL .F                40:   CASING BOTTOM LOGGER
 BS  .IN            7.875:   BIT SIZE
 BSD .F               764:   BIT SIZE AT DEPTH
 DFT .           CHEM/GEL:   DRILLING FLUID TYPE
 DFD .                9.4:   DRILLING FLUID DENSITY
 DFV .                 50:   DRILLING FLUID VISCOSITY
 DFPH.               11.0:   DRILLING FLUID PH
 DFL .               12.2:   DRILLING FLUID LOSS
 MSS .           FLOWLINE:   MUD SAMPLE SOURCE
 RMS .OHMM           0.23:   RESISTIVITY MUD SAMPLE
 MST .F                38:   MUD SAMPLE TEMPERATURE
 RMF .OHMM           0.15:   RESISTIVITY MUD FILTRATE SAMPLE
 MFST.F                38:   MUD FILTRATE SAMPLE TEMPERATURE
 RMC .OHMM           0.54:   RESISTIVITY MUD CAKE
 MCST.F                38:   MUD CAKE SAMPLE TEMPERATURE
 MFSS.               MEAS:   MUD FILTRATE SAMPLE SOURCE
 MCSS.               MEAS:   MUD CAKE SAMPLE SOURCE
 RMB .OHMM           .148:   RESISTIVITY MUD AT BHT
 BHT .F                59:   BOTTOM HOLE TEMPERATURE
 TCS .HRS               2:   TIME CURCULATED STOPPED
 MRT .F                59:   MAXIMUM RECORDED TEMPERATURE
 LUN .               8611:   LOGGING UNIT NUMBER
 LUL .           GILLETTE:   LOGGING UNIT LOCATION
 ENGI.             C.DOAK:   RECORDING ENGINEER
 WITN.         STUEBINGER:   WITNESSED BY
 CLNT.            A2DTECH:   CLIENT CODE
 ORIG.           5" PRINT:   ORIGIN OF DATA
 UWI .       490251027600:   UNIQUE WELL ID
 DICO. A2D Technologies, Inc.:   DIGITIZING COMPANY
~OTHER INFORMATION
~A   DEPT     GURD        ILD        ILM        SPR         CALD      CORR      DPHI         GRD        RHOB 
# ...
  358.5000    11.7216     7.8622     9.8388   -47.6739     8.3161     0.1108     0.0718   111.9856     2.5286
  359.0000    12.2186     7.9721     9.9065   -47.5239     8.3157     0.1078     0.0766   109.8988     2.5233
  359.5000    12.3894     8.1394     9.9743   -47.3739     8.3152     0.1033     0.0850   107.3636     2.5111
  360.0000    12.4762     8.2530     9.9736   -47.2140     8.3148     0.0977     0.0920   105.5758     2.4926
  360.5000    12.5635     8.4262    10.0421   -46.9878     8.3144     0.0898     0.0983   105.8806     2.4806
  361.0000    12.6515     8.6030    10.0414   -46.6252     8.2989     0.0868     0.0996   107.8297     2.4873
  361.5000    12.6523     8.8443    10.1104   -46.4753     8.2985     0.0883     0.0892   109.6293     2.4993
  362.0000    12.6532     9.0299    10.1232   -46.1760     8.2980     0.0943     0.0915   110.5321     2.4955
  362.5000    12.5669     9.2832    10.2495   -46.0260     8.2976     0.0973     0.0969   110.3885     2.4865
  363.0000    12.5835     9.5506    10.3201   -45.8760     8.3047     0.0973     0.1008   111.4828     2.4783
  363.5000    13.4680     9.8794    10.4628   -45.8753     8.2967     0.0928     0.1035   112.0446     2.4797
  364.0000    15.1476    10.0866    10.6077   -45.7253     8.3113     0.0928     0.0981   110.5572     2.4887
  364.5000    15.5729    10.2983    10.7546   -45.7246     8.3107     0.0928     0.0912   109.2178     2.4962
  365.0000    13.6581    10.4421    10.8334   -45.7239     8.3103     0.0958     0.0894   107.5794     2.5052
  365.5000    12.9245    10.5879    10.9783   -45.7231     8.2948     0.1048     0.0858   105.3432     2.5134
  366.0000    16.2356    10.7357    11.0537   -45.5731     8.2944     0.1108     0.0787   101.9111     2.5224
  366.5000    19.0334    10.8107    11.0528   -45.4230     8.2940     0.1123     0.0727   100.7197     2.5322
  367.0000    16.5779    10.8863    11.0520   -45.4223     8.2935     0.1063     0.0691   101.7719     2.5352
  367.5000    14.0456    10.9624    11.1281   -45.2723     8.2781     0.1048     0.0658    96.2472     2.5395
  368.0000    14.5552    10.8878    11.2043   -45.1223     8.2777     0.1108     0.0616    99.9915     2.5485
  368.5000    14.8459    10.6656    11.2036   -45.1216     8.2772     0.1153     0.0580   102.6879     2.5523
  369.0000    14.3430    10.3760    11.2028   -44.9716     8.2839     0.1168     0.0628   103.7402     2.5425
  369.5000    13.7614    10.2343    11.1183   -44.9708     8.2913     0.1149     0.0711   103.1482     2.5275
  370.0000    13.2950    10.0255    10.9713   -44.9701     8.2909     0.1138     0.0825   104.4993     2.5170
  370.5000    13.1132    10.0262    10.8200   -45.1186     8.3054     0.1123     0.0894   107.6443     2.5065
  371.0000    13.2053     9.9578    10.6708   -45.1179     8.3049     0.1108     0.0903   110.8032     2.4982
  371.5000    13.7651     9.9586    10.5966   -45.1171     8.3244     0.1090     0.0893   110.0275     2.4945
  372.0000    13.6713    10.0282    10.4505   -45.1164     8.3341     0.1063     0.0879   105.3005     2.4967
  372.5000    13.1170    10.0197    10.3064   -45.1155     8.3335     0.1033     0.0942   104.5288     2.4967
  373.0000    13.3320     9.8921    10.3057   -45.1148     8.3331     0.1003     0.0993   108.2731     2.4937
  373.5000    15.0631     9.7572    10.3050   -45.1141     8.3326     0.0988     0.0966   109.1744     2.4883
  374.0000    14.0584     9.6243    10.3758   -45.1133     8.3322     0.0988     0.0978   106.4912     2.4847
  374.5000    13.3033     9.4278    10.3749   -45.1415     8.3469     0.1003     0.0987   108.2908     2.4862
  375.0000    12.8524     9.2993    10.3742   -45.2612     8.3313     0.1018     0.0909   106.3535     2.4944
  375.5000    12.4168     9.1724    10.3021   -45.2605     8.3241     0.1033     0.0846   103.5193     2.5056
  376.0000    13.1234     9.1100    10.2304   -45.2597     8.3304     0.1063     0.0876   102.9258     2.5108
  376.5000    14.2589     9.0480    10.1593   -45.4082     8.3300     0.1078     0.0930   102.4848     2.5056
  377.0000    14.1616     9.0486    10.0887   -45.4453     8.3295     0.1101     0.0944    99.9496     2.4981
  377.5000    13.4939     9.2386    10.0185   -45.5560     8.3290     0.1128     0.0878    98.3112     2.5025
  378.0000    13.0294     9.3676     9.9489   -45.5552     8.3286     0.1168     0.0756    95.6265     2.5198
  378.5000    13.1765     9.1763     9.8711   -45.5543     8.3131     0.1183     0.0828    94.9726     2.5182
  379.0000    15.9313     8.9271     9.8109   -45.4044     8.3127     0.1198     0.0849    97.4321     2.5115
  379.5000    14.5637     8.6847     9.8782   -45.4038     8.2972     0.1198     0.0852    99.6846     2.5085
  380.0000    13.3134     8.5661     9.9462   -45.2537     8.2819     0.1183     0.0819   101.0413     2.5062
  380.5000    12.1705     8.5669     9.8769   -45.1037     8.2664     0.1183     0.0798   100.6831     2.5071
  381.0000    11.5168     8.6267     9.7407   -45.1029     8.2509     0.1183     0.0830    99.5483     2.5114
  381.5000    11.4381     8.6903     9.6064   -44.9530     8.2505     0.1183     0.0851   101.4989     2.5054
  382.0000    12.1730     8.7478     9.4739   -44.9522     8.2351     0.1183     0.0839   102.9995     2.5032
  382.5000    12.9549     8.8091     9.2789   -44.9515     8.2346     0.1153     0.0827   103.6033     2.5091
  383.0000    13.1360     8.7491     9.1417   -44.9507     8.2342     0.1149     0.0849   102.4134     2.5061
  383.5000    12.7537     8.7497     8.9625   -45.0993     8.2317     0.1138     0.0910   101.2235     2.4994
  384.0000    12.1765     8.6900     8.8389   -45.2476     8.2182     0.1130     0.0971   100.4805     2.4941
  384.5000    11.8454     8.5716     8.7774   -45.3961     8.2178     0.1108     0.1022   102.5806     2.4881
  385.0000    12.0110     8.5722     8.7768   -45.5446     8.2174     0.1091     0.1040   104.9781     2.4821
  385.5000    12.1789     8.5138     8.7158   -45.6934     8.2019     0.1063     0.0992   103.9377     2.4783
  386.0000    12.0126     8.4551     8.6552   -45.8419     8.1865     0.1048     0.0938    99.7582     2.4791
  386.5000    11.7668     8.3405     8.6546   -45.9902     8.1710     0.1033     0.0944   103.6505     2.4881
  387.0000    11.6062     8.2268     8.7141   -45.9895     8.1706     0.1018     0.0938   106.9449     2.4957
  387.5000    11.4477     8.1708     8.7739   -46.1381     8.1701     0.1018     0.0896   108.1466     2.5009
  388.0000    11.4485     8.2850     8.8341   -46.1373     8.1697     0.1018     0.0899   108.0030     2.4970
  388.5000    11.5375     8.5764     8.8948   -46.1366     8.1843     0.1018     0.0944   106.5097     2.4872
  389.0000    12.1010     8.6363     8.8940   -46.1358     8.1988     0.1033     0.0971   107.1440     2.4887
  389.5000    15.9544     8.6369     8.9552   -46.1351     8.1983     0.1033     0.0938   108.0209     2.4992
  390.0000    15.3075     8.5781     8.9545   -46.1342     8.2129     0.1018     0.0851   106.2344     2.5097
  390.5000    12.4426     8.5787     8.9539   -46.1335     8.2124     0.1018     0.0806   104.1476     2.5149
  391.0000    11.2184     8.5203     8.8916   -46.2822     8.2270     0.1018     0.0788   101.7618     2.5179
  391.5000    10.9888     8.4041     8.8298   -46.2812     8.2415     0.1016     0.0779    99.3761     2.5164
  392.0000    11.1426     8.3468     8.7683   -46.2805     8.2410     0.0988     0.0860    96.3925     2.5111
  392.5000    11.4557     8.2330     8.7073   -46.4827     8.2557     0.0989     0.1006    95.2011     2.4886
  393.0000    11.4580     8.1207     8.7067   -46.7060     8.2702     0.0993     0.1111    97.7496     2.4714
  393.5000    11.2222     7.9551     8.6462   -46.9293     8.2848     0.0988     0.1189    99.6987     2.4569
  394.0000    11.1963     7.7926     8.5861   -47.1527     8.2542     0.0988     0.1222   100.9004     2.4419
  394.5000    10.5472     7.7103     8.5264   -47.3760     8.2538     0.0973     0.1209   102.7000     2.4376
