~VERSION INFORMATION
 VERS.                2.0:   CWLS LOG ASCII STANDARD - VERSION 2.0
 WRAP.                 NO:   ONE LINE PER DEPTH STEP
~WELL INFORMATION
#MNEM.UNIT      DATA TYPE    INFORMATION
#----------   ------------   ------------------------------
 STRT.F            0.0000:   START DEPTH
 STOP.F          743.0000:   STOP DEPTH
 STEP.F            0.5000:   STEP LENGTH
 NULL.          -999.2500:   NO VALUE
 COMP. LAWRENCE/ALLISON INC:   COMPANY
 WELL.   NPR 3 #33-16SX11:   WELL
 FLD .                NPR:   FIELD
 LOC .      S11 T38N R78W:   LOCATION
 CNTY.            NATRONA:   COUNTY
 STAT.            WYOMING:   STATE
 CTRY. UNITED STATES OF AMERICA:   COUNTRY
 SRVC.           Gearhart:   SERVICE COMPANY
 DATE.        05-JUN-1986:   LOGDATE
 API .       490251107500:   API NUMBER
~CURVE INFORMATION
#MNEM.UNIT       API CODE    CURVE DESCRIPTION
#----------   ------------   ------------------------------
 DEPT.F                  :   
 GRR .GAPI   07 310 01 00:   GAMMA RAY
 RILD.OHMM   07 120 46 00:   INDUCTION LOG DEEP RESISTIVITY
 RILM.OHMM   07 120 44 00:   INDUCTION LOG MEDIUM RESISTIVITY
 RLL .OHMM   07 220 00 00:   LATEROLOG RESISTIVITY
 SPR .MV     07 010 01 00:   SPONTANEOUS POTENTIAL
~PARAMETER INFORMATION
#MNEM.UNIT          VALUE    DESCRIPTION
#----------   ------------   ------------------------------
 PD  .                 GL:   PERMANENT DATUM
 EPD .F              5175:   ELEVATION PERMANENT DATUM
 LMF .                 KB:   LOG MEASURED FROM
 DMF .                 KB:   DRILLING MEASURED FROM
 EKB .F              5175:   KELLING BUSHING
 EGL .F              5175:   GROUND LEVEL
 DATE.        05-JUN-1986:   RUN DATE
 RUN .                  1:   RUN NUMBER
 DD  .F               736:   DEPTH DRILLER
 DL  .F               744:   DEPTH LOGGER
 BLI .F               743:   BOTTOM LOG INTERVAL
 TLI .F                42:   TOP LOG INTERVAL
 CS  .IN            8.625:   CASING SIZE
 CBD .F                42:   CASING BOTTOM DRILLER
 CBL .F                42:   CASING BOTTOM LOGGER
 BS  .IN            7.875:   BIT SIZE
 BSD .F               736:   BIT SIZE AT DEPTH
 DFT .           KCL- GEL:   DRILLING FLUID TYPE
 DFD .                9.2:   DRILLING FLUID DENSITY
 DFV .                 42:   DRILLING FLUID VISCOSITY
 DFPH.                 11:   DRILLING FLUID PH
 MSS .           FLOWLINE:   MUD SAMPLE SOURCE
 RMS .OHMM            .51:   RESISTIVITY MUD SAMPLE
 MST .F                81:   MUD SAMPLE TEMPERATURE
 RMF .OHMM            .48:   RESISTIVITY MUD FILTRATE SAMPLE
 MFST.F                65:   MUD FILTRATE SAMPLE TEMPERATURE
 RMC .OHMM            .81:   RESISTIVITY MUD CAKE
 MCST.F                66:   MUD CAKE SAMPLE TEMPERATURE
 MFSS.               MEAS:   MUD FILTRATE SAMPLE SOURCE
 MCSS.               MEAS:   MUD CAKE SAMPLE SOURCE
 RMB .OHMM            .47:   RESISTIVITY MUD AT BHT
 BHT .F                90:   BOTTOM HOLE TEMPERATURE
 TCS .HRS            1930:   TIME CURCULATED STOPPED
 TLAB.HRS            2114:   TIME LOGGER AT BOTTOM
 LUN .               7609:   LOGGING UNIT NUMBER
 LUL .           GILLETTE:   LOGGING UNIT LOCATION
 ENGI. WEATHERMON/ JOHNSTON:   RECORDING ENGINEER
 WITN.           LENNINGS:   WITNESSED BY
 CLNT.            A2DTECH:   CLIENT CODE
 ORIG.           5" PRINT:   ORIGIN OF DATA
 UWI .       490251107500:   UNIQUE WELL ID
 DICO. A2D Technologies, Inc.:   DIGITIZING COMPANY
~OTHER INFORMATION
~A    DEPT     GRR       RILD       RILM        RLL        SPR   
# ...
  244.0000    92.2610     8.2475     8.1901    10.7012   -48.7102
  244.5000    93.1715     8.2492     8.1918    10.6281   -47.0410
  245.0000    91.9373     8.3087     8.1934    10.6308   -45.8270
  245.5000    91.0470     8.3686     8.2525    10.6330   -45.5022
  246.0000    92.8680     8.4290     8.2597    10.4873   -46.4340
  246.5000    96.2064     8.4898     8.3724    10.5632   -47.0582
  247.0000   100.1517     8.5514     8.4328    10.7900   -46.2822
  247.5000   103.4901     8.6735     8.6131    10.7164   -45.8270
  248.0000   105.3111     8.7360     8.7360    10.6438   -45.6753
  248.5000   102.2762     8.7990     8.8607    10.9488   -44.7648
  249.0000    97.3232     8.9246     8.9871    11.1054   -44.1578
  249.5000    92.8680     9.0519     9.1154    11.1077   -43.5508
  250.0000    90.5900     9.2454     9.2454    11.1879   -44.1578
  250.5000    89.5235     9.3429     9.5368    11.8472   -45.9851
  251.0000    89.8214     9.6452     9.7780    12.1718   -45.8391
  251.5000    90.4211     9.9899     9.9857    12.4318   -45.5429
  252.0000    90.7202    10.2035    10.1268    12.8762   -45.8522
  252.5000    91.0167    10.3491    10.2699    13.2436   -46.3118
  253.0000    88.8862    10.4242    10.3428    13.4321   -45.8624
  253.5000    82.8091    10.4263    10.3434    13.4227   -46.9319
  254.0000    80.0719    10.4284    10.3441    12.9741   -46.9377
  254.5000    81.8870    10.3574    10.3448    12.4422   -46.7933
  255.0000    84.9161    10.2879    10.2735    11.9322   -45.8886
  255.5000    85.5680    10.1473    10.2027    11.5234   -43.9218
  256.0000    84.9044    10.1283    10.0621    10.7459   -43.6226
  256.5000    86.1629    10.1037     9.9926    10.4507   -44.3886
  257.0000    88.8367    10.0828     9.9237    10.6742   -44.6981
  257.5000    88.5273    10.0853     9.8555    11.1335   -44.7052
  258.0000    86.0936    10.0171     9.7875    11.6125   -44.5579
  258.5000    83.6599     9.9494     9.6525    12.0277   -44.2602
  259.0000    83.6540     9.8822     9.5192    12.2846   -44.2675
  259.5000    86.0747     9.8154     9.3878    12.1121   -44.2733
  260.0000    88.8002     9.8179     9.2583    11.7830   -44.5827
  260.5000    92.1328     9.8198     9.2590    11.7020   -45.1969
  261.0000    95.1619     9.8218     9.2597    11.6219   -46.1132
  261.5000    97.8875     9.8238     9.2603    11.7055   -46.4225
  262.0000    96.6677     9.6226     9.2611    11.6254   -46.4283
  262.5000    94.7901     9.4910     9.2617    11.5459   -46.1305
  263.0000    93.0127     9.3608     9.2623    12.0563   -45.9717
  263.5000    92.0964     9.3632     9.2629    11.9607   -45.5367
  264.0000    92.3941     9.2998     9.2635    11.6321   -45.5426
  264.5000    93.2989     9.3018     9.2642    11.4716   -45.5484
  265.0000    91.7754     9.2393     9.2649    11.0017   -45.8577
  265.5000    91.1624     9.2412     9.2009    10.6994   -45.5599
  266.0000    93.2798     9.2431     9.2017    10.7009   -45.5822
  266.5000    93.8824     9.1801     9.1383    10.7026   -46.0284
  267.0000    92.9646     9.1824     9.1389    10.7792   -46.1859
  267.5000    92.0483     9.1204     9.1395    11.0094   -46.0400
  268.0000    91.4355     9.0592     9.0765    11.2446   -45.4389
  268.5000    91.1262     9.0610     9.0773    11.0897   -44.5342
  269.0000    92.0294     9.0628     9.0146    10.7098   -44.5594
  269.5000    92.9340     9.0647     9.0153    10.4159   -45.4578
  270.0000    94.4456     9.0034     9.0159    10.2009   -46.2223
  270.5000    95.9573     8.9407     8.9538    10.1308   -46.6834
  271.0000    97.7724     8.8208     8.9546    10.2753   -46.0822
  271.5000    99.9920     8.8225     8.8927    10.5684   -44.7223
  272.0000   102.6151     8.7019     8.7701    10.8730   -42.9924
  272.5000   104.1282     8.5830     8.6491    11.0246   -43.8250
  273.0000   104.4259     8.5250     8.4703    10.5731   -44.4378
  273.5000   104.4186     8.4078     8.2370    10.1396   -44.8988
  274.0000   103.5023     8.1789     7.9556     9.7923   -45.5116
  274.5000   101.0671     8.0109     7.7912     9.3908   -45.9727
  275.0000    98.9368     7.8464     7.5771     9.1970   -45.0695
  275.5000    97.4135     7.6849     7.4205     9.3279   -44.4669
  276.0000    97.1042     7.5271     7.3181     9.5274   -45.8399
  276.5000    99.2228     7.4246     7.2676     9.7308   -45.0870
  277.0000   101.3414     7.3744     7.2682     9.9386   -43.8788
  277.5000   102.5496     7.4800     7.3197    10.1509   -43.4294
  278.0000   101.0248     7.5868     7.4751    10.2954   -44.1954
  278.5000    96.7701     7.6950     7.6874    10.3691   -45.1117
  279.0000    94.6399     7.8595     7.8506    10.2981   -44.9658
  279.5000    93.4201     8.0275     8.0174    10.1564   -44.6681
  280.0000    92.5038     8.0930     8.1383    10.0165   -45.1292
  280.5000    92.1942     8.1441     8.2457     9.8790   -45.5958
  281.0000    93.0977     8.1457     8.2463     9.9497   -45.7478
  281.5000    93.6988     8.1473     8.2468    10.0209   -44.9964
  282.0000    94.3000     8.1490     8.1899    10.1639   -44.3952
  282.5000    93.3837     8.1506     8.1905    10.2366   -44.2478
  283.0000    91.5569     8.1523     8.1911    10.2380   -44.7103
  283.5000    89.6793     8.0972     8.1918    10.0971   -45.1801
  284.0000    87.2949     8.0424     8.1352    10.0280   -45.9374
  284.5000    88.1996     7.9881     8.0791    10.0294   -46.2467
  285.0000    91.5321     7.9901     8.0798    10.0310   -45.9490
  285.5000    93.3980     7.9917     8.0241    10.1028   -45.1961
  286.0000    92.4310     7.9377     8.0247    10.3186   -43.9880
  286.5000    92.1214     7.9953     8.0816    10.5390   -44.4608
  287.0000    93.6318     7.9969     8.0821    10.8396   -45.0633
  287.5000    94.8399     8.0546     8.1963    10.9172   -45.6761
  288.0000    96.0481     8.1695     8.2543    11.3998   -46.2889
  288.5000    96.9529     8.2861     8.3709    11.0745   -45.8395
  289.0000    98.1609     8.4632     8.4892    10.6205   -45.0866
  289.5000    99.6710     8.6445     8.6697    10.7716   -44.4854
  290.0000    98.4512     8.7068     8.7310    11.3935   -44.9480
  290.5000    94.5000     8.7696     8.7928    11.5556   -45.7125
  291.0000    91.1558     8.8328     8.7934    11.3965   -45.8686
  291.5000    88.1151     8.8346     8.7328    11.1616   -44.6619
  292.0000    84.7709     8.7749     8.7334    10.6294   -44.6678
  292.5000    81.3253     8.7160     8.6732    10.0520   -45.4325
  293.0000    82.9368     8.6567     8.6135    10.0533   -45.2864
  293.5000    86.1183     8.5384     8.4947    10.2680   -44.9887
  294.0000    89.9059     8.4216     8.4360    10.4200   -45.2995
  294.5000    93.2888     8.3651     8.3197    10.4891   -45.9108
  295.0000    94.1431     8.3668     8.3202    10.4905   -45.0076
  295.5000    94.1358     8.3689     8.3209    10.4919   -44.2547
  296.0000    95.0405     8.3706     8.3215    10.2753   -45.3242
  296.5000    98.3730     8.3723     8.3220    10.2767   -45.9370
  297.0000   101.0986     8.3740     8.2645    10.2752   -46.3981
  297.5000    98.8669     8.3757     8.2652    10.2077   -46.7074
  298.0000    96.2297     8.3774     8.2658    10.2095   -46.8650
  298.5000    94.4029     8.3795     8.2665    10.2108   -46.3920
  299.0000    93.1831     8.3812     8.2670    10.2122   -45.5124
  299.5000    91.6598     8.3241     8.2676    10.2853   -45.0630
  300.0000    90.7436     8.3133     8.2772    10.2150   -45.2890
  300.5000    95.3789     8.2357     8.3287    10.3605   -45.6753
  301.0000    97.4072     8.2152     8.2724    10.3619   -45.8270
  301.5000    97.7063     8.1602     8.2170    10.2192   -45.5235
  302.0000    98.6094     8.0497     8.1626    10.2927   -44.7648
  302.5000   100.4245     8.0519     8.1080    10.3664   -44.1426
  303.0000   102.5431     7.9975     8.1107    10.5139   -43.5508
  303.5000   103.7512     7.9440     8.0559    10.3688   -44.0061
  304.0000   101.3159     7.8913     8.0586    10.3706   -44.7648
  304.5000    98.8822     7.8935     8.0041    10.5182   -45.9788
