~VERSION INFORMATION
 VERS.                2.0:   CWLS LOG ASCII STANDARD - VERSION 2.0
 WRAP.                 NO:   ONE LINE PER DEPTH STEP
~WELL INFORMATION
#MNEM.UNIT      DATA TYPE    INFORMATION
#----------   ------------   ------------------------------
 STRT.F            0.0000:   START DEPTH
 STOP.F          964.0000:   STOP DEPTH
 STEP.F            0.5000:   STEP LENGTH
 NULL.          -999.2500:   NO VALUE
 COMP. LAWRENCE/ALLISON INC:   COMPANY
 WELL.  NPR 3 #58-16-SX-2:   WELL
 FLD .           NPR NO.3:   FIELD
 LOC .       S2 T38N R78W:   LOCATION
 CNTY.            NATRONA:   COUNTY
 STAT.            WYOMING:   STATE
 CTRY. UNITED STATES OF AMERICA:   COUNTRY
 SRVC.           Gearhart:   SERVICE COMPANY
 DATE.        07-MAY-1987:   LOGDATE
 API .       490251113700:   API NUMBER
~CURVE INFORMATION
#MNEM.UNIT       API CODE    CURVE DESCRIPTION
#----------   ------------   ------------------------------
 DEPT.F                  :   
 GRR .GAPI   07 310 01 00:   GAMMA RAY FROM RES. LOG.
 RILD.OHMM   07 120 46 00:   INDUCTION LOG DEEP RESISTIVITY
 RILM.OHMM   07 120 44 00:   INDUCTION LOG MEDIUM RESISTIVITY
~PARAMETER INFORMATION
#MNEM.UNIT          VALUE    DESCRIPTION
#----------   ------------   ------------------------------
 PD  .                 GL:   PERMANENT DATUM
 EPD .F              5173:   ELEVATION PERMANENT DATUM
 LMF .                 GL:   LOG MEASURED FROM
 DMF .                 GL:   DRILLING MEASURED FROM
 EGL .F              5173:   GROUND LEVEL
 DATE.           5-7-1987:   RUN DATE
 RUN .                  1:   RUN NUMBER
 DD  .F               971:   DEPTH DRILLER
 DL  .F               971:   DEPTH LOGGER
 BLI .F               963:   BOTTOM LOG INTERVAL
 TLI .F                37:   TOP LOG INTERVAL
 CS  .IN            8.625:   CASING SIZE
 CBD .F                44:   CASING BOTTOM DRILLER
 CBL .F                37:   CASING BOTTOM LOGGER
 BS  .IN            7.875:   BIT SIZE
 BSD .F               971:   BIT SIZE AT DEPTH
 TCS .HRS            2100:   TIME CURCULATED STOPPED
 TLAB.HRS            2338:   TIME LOGGER AT BOTTOM
 MRT .F                80:   MAXIMUM RECORDED TEMPERATURE
 LUN .               7597:   LOGGING UNIT NUMBER
 LUL .           GILLETTE:   LOGGING UNIT LOCATION
 ENGI.         WEATHERMON:   RECORDING ENGINEER
 WITN. STRONG/TAYLOR/LOWE:   WITNESSED BY
 CLNT.            A2DTECH:   CLIENT CODE
 ORIG.           5" PRINT:   ORIGIN OF DATA
 UWI .       490251113700:   UNIQUE WELL ID
 DICO. A2D Technologies, Inc.:   DIGITIZING COMPANY
~OTHER INFORMATION
~A    DEPT      GRR      RILD       RILM   
# ...
  364.0000   107.1414     8.2216     7.9210
  364.5000   108.4413     8.2378     7.9883
  365.0000   111.6260     8.2613     8.0302
  365.5000   114.8099     8.1930     7.8878
  366.0000   116.0333     8.0725     7.7847
  366.5000   116.4804     7.9539     7.6829
  367.0000   115.0931     7.8745     7.5824
  367.5000   113.4831     7.8601     7.4832
  368.0000   112.0261     7.8458     7.3858
  368.5000   111.8067     7.8316     7.3060
  369.0000   111.6363     7.8173     7.3396
  369.5000   112.1848     7.8019     7.3686
  370.0000   112.8147     7.7810     7.3977
  370.5000   111.6611     7.7601     7.4270
  371.0000   109.9727     7.7394     7.4451
  371.5000   108.5491     7.7186     7.4226
  372.0000   110.1360     7.6980     7.4036
  372.5000   113.6448     7.6774     7.3847
  373.0000   116.2112     7.6568     7.3658
  373.5000   113.8491     7.6363     7.3470
  374.0000   110.6446     7.6159     7.3282
  374.5000   108.2802     7.5874     7.3057
  375.0000   108.1617     7.6061     7.3220
  375.5000   108.0203     7.6385     7.3424
  376.0000   106.8762     7.6707     7.3628
  376.5000   105.5273     7.7031     7.3834
  377.0000   105.9966     7.7356     7.4040
  377.5000   107.5396     7.7683     7.4247
  378.0000   107.5536     7.8011     7.4454
  378.5000   107.5598     7.8340     7.4661
  379.0000   108.3105     7.8671     7.4872
  379.5000   110.9996     7.8797     7.5156
  380.0000   113.6574     7.8095     7.4785
  380.5000   116.2971     7.7604     7.4172
  381.0000   118.0483     7.7115     7.3568
  381.5000   117.4780     7.6629     7.2970
  382.0000   116.9475     7.6147     7.2375
  382.5000   116.4182     7.5060     7.1798
  383.0000   115.8939     7.3201     7.0369
  383.5000   115.3533     7.1388     6.8821
  384.0000   113.6668     6.9683     6.7304
  384.5000   111.8363     6.9569     6.6465
  385.0000   110.0028     6.9459     6.6465
  385.5000   108.3258     6.9349     6.6465
  386.0000   108.0641     6.9240     6.6465
  386.5000   109.4453     6.9129     6.6365
  387.0000   111.8126     6.9027     6.5960
  387.5000   115.0455     6.8667     6.5559
  388.0000   118.3943     6.8325     6.5159
  388.5000   119.2783     6.7986     6.4762
  389.0000   117.8949     6.7734     6.4367
  389.5000   116.8196     6.9215     6.3999
  390.0000   116.4620     7.0345     6.4387
  390.5000   115.8870     7.1532     6.5226
  391.0000   113.6359     7.2586     6.6573
  391.5000   111.3613     7.3416     6.7954
  392.0000   109.0746     7.4255     6.9363
  392.5000   107.5755     7.5105     7.0802
  393.0000   107.7631     7.5963     7.2270
  393.5000   110.7011     7.6594     7.3309
  394.0000   113.7831     7.8462     7.3845
  394.5000   115.3044     8.0242     7.4451
  395.0000   113.1131     8.2064     7.4222
  395.5000   110.5712     8.3398     7.3962
  396.0000   108.6288     8.1178     7.3703
  396.5000   108.7018     7.9180     7.3445
  397.0000   109.9188     7.7223     7.3187
  397.5000   111.0991     7.5710     7.2775
  398.0000   111.1219     7.5141     7.2202
  398.5000   110.9991     7.4583     7.1634
  399.0000   110.8740     7.4029     7.1071
  399.5000   109.9147     7.3664     7.0511
  400.0000   108.0916     7.3489     6.9957
  400.5000   108.6778     7.3314     6.9240
  401.0000   110.5037     7.3056     6.8367
  401.5000   112.3868     7.3505     6.7505
  402.0000   114.2845     7.4384     6.7096
  402.5000   116.1807     7.5274     6.8537
  403.0000   118.1468     7.6175     7.0572
  403.5000   117.4554     7.7086     7.2644
  404.0000   115.4387     8.1499     7.4623
  404.5000   114.1337     8.4192     7.6657
  405.0000   114.3403     8.4512     7.8746
  405.5000   114.0449     8.4754     8.1835
  406.0000   111.1463     8.4987     8.1017
  406.5000   108.7163     8.3439     7.9598
  407.0000   108.7488     8.1862     7.8204
  407.5000   110.7178     8.0317     7.6835
  408.0000   114.0077     7.8804     7.5490
  408.5000   115.0843     7.7318     7.4170
  409.0000   113.9845     7.5861     7.2866
  409.5000   112.8599     7.4432     7.1216
  410.0000   112.4042     7.3056     6.9354
  410.5000   114.3573     7.2112     6.7545
  411.0000   116.6872     7.1688     6.5839
  411.5000   119.0348     7.2472     6.6380
  412.0000   119.2329     7.3025     6.6908
  412.5000   118.8756     7.3583     6.7441
  413.0000   118.5308     7.4151     6.7977
  413.5000   117.9987     7.4723     6.8822
  414.0000   114.1949     7.5776     7.0559
  414.5000   110.3647     7.6843     7.2339
  415.0000   109.3775     7.7938     7.4163
  415.5000   109.7265     7.9136     7.5880
  416.0000   109.7795     8.0783     7.6611
  416.5000   108.8664     8.2613     7.7297
  417.0000   108.8876     8.2310     7.8056
  417.5000   109.9079     8.1974     7.7322
  418.0000   110.7180     8.1636     7.6600
  418.5000   109.6654     8.1302     7.7470
  419.0000   108.7778     8.0970     7.8263
  419.5000   110.9501     8.0639     7.8797
  420.0000   113.3180     8.0309     7.8212
  420.5000   115.3119     7.9980     7.7776
  421.0000   112.3197     7.9653     7.7321
  421.5000   109.0316     7.9327     7.6586
  422.0000   108.3975     7.9002     7.5621
  422.5000   109.6337     7.8522     7.4668
  423.0000   110.9712     7.7779     7.3726
  423.5000   112.3175     7.7042     7.2797
  424.0000   112.4161     7.6313     7.1688
  424.5000   111.6942     7.5591     7.1733
  425.0000   110.9395     7.5159     7.1789
  425.5000   110.7447     7.5159     7.1846
  426.0000   113.6259     7.5159     7.1903
  426.5000   117.0823     7.5159     7.1960
  427.0000   119.8741     7.5159     7.2017
  427.5000   118.5711     7.5159     7.2075
  428.0000   116.6946     7.5159     7.2132
  428.5000   114.9355     7.5157     7.2189
  429.0000   114.8785     7.5162     7.2246
  429.5000   114.3694     7.5147     7.2305
  430.0000   113.1958     7.6419     7.2361
  430.5000   111.9893     7.7646     7.3073
  431.0000   112.8895     7.8797     7.4151
  431.5000   114.7480     7.9096     7.5159
  432.0000   114.4623     7.9439     7.5330
  432.5000   113.2788     7.9782     7.5489
  433.0000   112.0753     8.0128     7.5649
  433.5000   111.2063     8.0475     7.5809
  434.0000   112.2053     8.0826     7.5970
  434.5000   114.1512     8.1286     7.6131
  435.0000   116.0990     8.2014     7.6292
  435.5000   118.1297     8.2744     7.6454
  436.0000   117.8895     8.3481     7.6708
  436.5000   116.9594     8.4225     7.7581
  437.0000   117.2846     8.4975     7.8465
  437.5000   118.6825     8.5732     7.9358
  438.0000   118.9710     8.6496     8.0302
  438.5000   118.9802     8.7266     8.2149
  439.0000   119.3487     8.8043     8.4126
  439.5000   121.7378     8.8828     8.4990
  440.0000   124.1229     8.9951     8.4792
  440.5000   124.7409     8.9596     8.4625
  441.0000   123.2109     8.8989     8.4456
  441.5000   121.6995     8.8272     8.4287
  442.0000   120.2296     8.9497     8.4195
  442.5000   119.6353     9.1054     8.4702
  443.0000   119.0758     9.2645     8.5069
  443.5000   118.6800     9.4261     8.5437
  444.0000   118.6640     9.5331     8.5797
  444.5000   121.0867     9.5899     8.7207
  445.0000   123.4979     9.6471     8.8601
  445.5000   124.6843     9.7020     8.9951
  446.0000   123.5715     9.8479     9.2400
  446.5000   120.3410     9.9894     9.5202
  447.0000   117.1999    10.1330     9.5760
  447.5000   114.8536    10.2786     9.6412
  448.0000   115.4824    10.4263     9.7020
  448.5000   118.1070    10.5761    10.2684
  449.0000   119.7490    10.7282    10.4973
  449.5000   118.1722    10.8678    10.6642
  450.0000   116.4098    10.8303    10.5957
  450.5000   114.5805    10.7961    10.5501
  451.0000   114.0807    10.7619    10.5046
  451.5000   113.6526    10.7279    10.4640
  452.0000   113.0197    10.6940    10.4001
  452.5000   111.1064    10.6602    10.3297
  453.0000   109.1617    10.6265    10.2598
  453.5000   107.2349    10.5930    10.1904
  454.0000   107.7639    10.5595    10.0551
  454.5000   109.6942    10.5261     9.8972
