~VERSION INFORMATION
 VERS.                2.0:   CWLS LOG ASCII STANDARD - VERSION 2.0
 WRAP.                 NO:   ONE LINE PER DEPTH STEP
~WELL INFORMATION
#MNEM.UNIT      DATA TYPE    INFORMATION
#----------   ------------   ------------------------------
 STRT.F            8.5000:   START DEPTH
 STOP.F          509.0000:   STOP DEPTH
 STEP.F            0.5000:   STEP LENGTH
 NULL.          -999.2500:   NO VALUE
 COMP. LAWRENCE-ALLISON &AS:   COMPANY
 WELL. NPR 3 #68-26SX3LP2:   WELL
 FLD .             TEAPOT:   FIELD
 LOC .       S3 T38N R78W:   LOCATION
 CNTY.            NATRONA:   COUNTY
 STAT.            WYOMING:   STATE
 CTRY. UNITED STATES OF AMERICA:   COUNTRY
 SRVC.      Dresser Atlas:   SERVICE COMPANY
 DATE.        12-DEC-1984:   LOGDATE
 API .       490251099600:   API NUMBER
~CURVE INFORMATION
#MNEM.UNIT       API CODE    CURVE DESCRIPTION
#----------   ------------   ------------------------------
 DEPT.F                  :   
 CNC .DEC    42 890 03 00:   NEUTRON POROSITY SANDSTONE
 CALD.IN     45 280 60 00:   CALIPER FROM DENSITY LOG
 CORR.G/C3   45 356 01 00:   DENSITY CORRECTION
 GRD .GAPI   45 310 01 00:   GAMMA RAY FROM DENSITY LOG
 PORD.DEC    45 890 12 00:   POROSITY DENSITY SANDSTONE
 RHOB.G/C3   45 350 01 00:   BULK DENSITY
 DT  .US/F   60 520 00 00:   INTERVAL TRANSIT TIME
 SPR .MV     11 010 01 00:   SPONTANEOUS POTENTIAL FROM RES.
 RS  .OHMM   11 220 09 00:   RESISTIVITY SHALLOW
 RD  .OHMM   11 220 10 00:   RESISTIVITY DEEP
~PARAMETER INFORMATION
#MNEM.UNIT          VALUE    DESCRIPTION
#----------   ------------   ------------------------------
 PD  .                 GL:   PERMANENT DATUM
 EPD .F              5158:   ELEVATION PERMANENT DATUM
 LMF .                 GL:   LOG MEASURED FROM
 DMF .                 GL:   DRILLING MEASURED FROM
 EGL .F              5158:   GROUND LEVEL
 DATE.        12-DEC-1984:   RUN DATE
 RUN .                  1:   RUN NUMBER
 DD  .F               510:   DEPTH DRILLER
 DL  .F               510:   DEPTH LOGGER
 BLI .F               501:   BOTTOM LOG INTERVAL
 TLI .F                20:   TOP LOG INTERVAL
 CS  .IN            8.625:   CASING SIZE
 CBD .F                20:   CASING BOTTOM DRILLER
 CBL .F                20:   CASING BOTTOM LOGGER
 BS  .IN            7.875:   BIT SIZE
 BSD .F               510:   BIT SIZE AT DEPTH
 DFT .          KCL/WATER:   DRILLING FLUID TYPE
 MSS .            MUDTANK:   MUD SAMPLE SOURCE
 RMS .OHMM           0.21:   RESISTIVITY MUD SAMPLE
 MST .F                70:   MUD SAMPLE TEMPERATURE
 RMF .OHMM           0.16:   RESISTIVITY MUD FILTRATE SAMPLE
 MFST.F                70:   MUD FILTRATE SAMPLE TEMPERATURE
 RMC .OHMM           0.26:   RESISTIVITY MUD CAKE
 MCST.F                70:   MUD CAKE SAMPLE TEMPERATURE
 MFSS.               CALC:   MUD FILTRATE SAMPLE SOURCE
 MCSS.               CALC:   MUD CAKE SAMPLE SOURCE
 RMB .OHMM           0.17:   RESISTIVITY MUD AT BHT
 BHT .F                85:   BOTTOM HOLE TEMPERATURE
 TCS .HRS               6:   TIME CURCULATED STOPPED
 MRT .F               100:   MAXIMUM RECORDED TEMPERATURE
 LUN .               6270:   LOGGING UNIT NUMBER
 LUL .                 FM:   LOGGING UNIT LOCATION
 ENGI.           E.GOVETT:   RECORDING ENGINEER
 WITN.              LUERS:   WITNESSED BY
 CLNT.            A2DTECH:   CLIENT CODE
 ORIG.           5" PRINT:   ORIGIN OF DATA
 UWI .       490251099600:   UNIQUE WELL ID
 DICO. A2D Technologies, Inc.:   DIGITIZING COMPANY
~OTHER INFORMATION
~A    DEPT     CNC       CALD       CORR        GRD       PORD       RHOB          DT       SPR         RS         RD   
# ...
  209.5000     0.3345     7.8086     0.0000   112.5103     0.1332     2.4610   109.1731   -44.7380    10.7345    14.4149
  210.0000     0.3354     7.8104     0.0016   114.4521     0.1388     2.4551   108.7804   -44.7234    10.6683    14.1272
  210.5000     0.3296     7.8118    -0.0026   111.2011     0.1442     2.4454   108.9253   -44.5602    10.0991    13.7497
  211.0000     0.3302     7.8133    -0.0100   110.3234     0.1466     2.4403   109.7898   -44.4006     9.7612    13.2845
  211.5000     0.3341     7.8147    -0.0113   111.2273     0.1526     2.4336   110.9495   -44.5346     9.3047    12.5603
  212.0000     0.3344     7.8162    -0.0096   113.9110     0.1577     2.4232   113.5500   -44.5163     8.8695    11.6510
  212.5000     0.3232     7.8325    -0.0049   117.0895     0.1552     2.4157   115.0372   -44.6508     8.8123    11.6747
  213.0000     0.2982     7.8188     0.0013   117.4980     0.1465     2.4173   114.2190   -44.4870     8.8804    11.7630
  213.5000     0.2857     7.8206     0.0076   114.8437     0.1338     2.4249   113.0914   -44.4723     8.9477    11.9344
  214.0000     0.2890     7.8220     0.0157   111.8894     0.1220     2.4635   111.0803   -44.4576     9.0154    12.2771
  214.5000     0.3349     7.8086     0.0350   108.9351     0.1168     2.4771   110.0130   -44.4428     9.1469    12.0321
  215.0000     0.3581     7.7953     0.0533   107.4645     0.1162     2.4847   110.1478   -44.5770     8.5991    11.0030
  215.5000     0.3792     7.7813     0.0610   107.7744     0.1225     2.4839   110.2865   -44.4101     7.3366     9.8550
  216.0000     0.3523     7.7685     0.0627   107.1940     0.1361     2.4723   109.6662   -44.3955     6.4354     8.3511
  216.5000     0.3163     7.7852     0.0613   106.1685     0.1390     2.4489   108.2984   -44.3808     6.4841     8.2973
  217.0000     0.2973     7.7866     0.0676   106.1316     0.1321     2.4468   106.8554   -44.5185     6.9096     9.2126
  217.5000     0.2872     7.7729     0.0678   108.4202     0.1230     2.4589   106.3892   -44.9459     7.5936    10.5145
  218.0000     0.2784     7.7747     0.0634   109.3234     0.1182     2.4747   106.5992   -45.3770     8.9654    11.4326
  218.5000     0.2875     7.7761     0.0351   109.7943     0.1184     2.4808   107.1848   -45.5126     9.3865    12.0930
  219.0000     0.3274     7.7776     0.0277   110.7102     0.1184     2.4824   107.2445   -45.4964     9.5896    12.4387
  219.5000     0.3091     7.7639     0.0339   110.5529     0.1181     2.4810   107.3168   -45.7789     9.6622    12.4464
  220.0000     0.2962     7.7657     0.0371   106.2633     0.1181     2.4811   107.8108   -46.0614     9.6682    12.5423
  220.5000     0.2943     7.7671     0.0356   103.4541     0.1186     2.4812   108.3213   -45.8982     9.7414    12.5500
  221.0000     0.3024     7.7983     0.0240   104.0639     0.1195     2.4805   108.6064   -45.5864     9.7474    12.6449
  221.5000     0.3182     7.8146     0.0122   104.3705     0.1204     2.4783   108.0651   -45.4232     9.7534    12.5635
  222.0000     0.3311     7.8309     0.0078   103.1999     0.1261     2.4746   107.6740   -45.1113     9.7594    12.4844
  222.5000     0.3471     7.8323     0.0186   101.4326     0.1264     2.4678   107.6586   -44.9430     9.4328    12.4059
  223.0000     0.3552     7.8341     0.0368   101.5940     0.1266     2.4659   108.2442   -44.6360     8.5067    10.9604
  223.5000     0.3591     7.8353     0.0400   104.5388     0.1299     2.4667   111.0086   -44.4725     7.7248     8.8483
  224.0000     0.3485     7.8368     0.0282   107.7044     0.1347     2.4585   114.2238   -44.4548     6.2352     8.0915
  224.5000     0.3272     7.8385     0.0088   109.3495     0.1633     2.4173   116.9186   -44.5924     6.0684     7.8740
  225.0000     0.3004     7.8399     0.0060   109.5109     0.1817     2.3754   116.6967   -44.8713     6.3300     8.0455
  225.5000     0.2865     7.8562     0.0032   108.6338     0.1829     2.3702   115.0001   -44.8566     7.0857     8.7480
  226.0000     0.2932     7.8577    -0.0041   107.7567     0.1614     2.4011   112.9562   -44.8420     7.9382    10.3361
  226.5000     0.2981     7.8443    -0.0175   108.0791     0.1310     2.4402   111.5132   -44.8273     8.8282    11.4010
  227.0000     0.2922     7.8458    -0.0044   108.2279     0.1249     2.4561   110.1454   -44.8127     9.6189    12.0593
  227.5000     0.2770     7.8472     0.0206   105.8704     0.1222     2.4652   109.3036   -44.7981     9.8271    12.4112
  228.0000     0.2725     7.8487     0.0223   102.9161     0.1203     2.4728   108.3866   -44.7834    10.0397    12.9339
  228.5000     0.2749     7.8353     0.0179   104.2645     0.1173     2.4744   107.6949   -44.7688    10.3282    13.3053
  229.0000     0.2791     7.8219     0.0302   106.6515     0.1146     2.4769   107.2287   -44.6056    10.6251    13.7826
  229.5000     0.2812     7.8386     0.0333   108.8901     0.1133     2.4851   106.6874   -44.5909    10.8550    13.9833
  230.0000     0.2878     7.8248     0.0215   108.1613     0.1133     2.4867   106.4363   -44.2791    10.8616    14.1871
  230.5000     0.3062     7.8266     0.0157   105.8005     0.1133     2.4860   106.1182   -43.5215    10.8683    14.3938
  231.0000     0.3074     7.8281     0.0219   104.1816     0.1136     2.4868   105.8859   -43.0609    10.7982    14.4026
  231.5000     0.3013     7.8296     0.0326   102.4142     0.1141     2.4861   105.7953   -42.8975    10.8817    14.4114
  232.0000     0.2883     7.8310     0.0163   100.7952     0.1129     2.4855   105.7048   -42.8826    10.9641    14.5205
  232.5000     0.2783     7.8325     0.0059   100.2149     0.1095     2.4939   105.5391   -42.8649    11.2013    14.5294
  233.0000     0.2771     7.8191     0.0152   101.9595     0.1089     2.4962   105.2231   -42.8503    11.2861    14.5383
  233.5000     0.2882     7.8205     0.0061   104.9921     0.1173     2.4880   105.0574   -42.6871    11.4507    14.6483
  234.0000     0.2906     7.8220     0.0035   103.0764     0.1212     2.4799   104.6663   -42.5239    11.5375    14.6573
  234.5000     0.2927     7.8235     0.0037   102.0509     0.1212     2.4747   104.2001   -42.5092    11.5447    14.6664
  235.0000     0.2945     7.8249     0.0039   101.9123     0.1203     2.4763   103.6588   -42.4946    11.4718    14.5740
  235.5000     0.2929     7.8115     0.0071   102.2221     0.1199     2.4779   102.8833   -42.4799    11.4013    14.6423
  236.0000     0.2887     7.8134     0.0103   101.7901     0.1224     2.4765   102.5004   -42.3167    11.3278    14.6956
  236.5000     0.2871     7.7996     0.0120   102.6967     0.1275     2.4706   103.4584   -42.1535    10.8748    14.6009
  237.0000     0.2874     7.8014     0.0182   104.6385     0.1292     2.4654   104.1191   -41.8417    10.5840    14.4111
  237.5000     0.2889     7.8029     0.0290   106.2837     0.1249     2.4640   104.6296   -41.8270    10.5905    14.1235
  238.0000     0.3000     7.7891     0.0472   106.2967     0.1213     2.4738   104.4639   -41.9614    10.8196    13.8394
  238.5000     0.3115     7.7758     0.0609   103.8372     0.1195     2.4777   103.6972   -42.0951    11.2080    14.3380
  239.0000     0.3000     7.7624     0.0641   100.0425     0.1200     2.4785   103.0056   -42.3775    11.6103    14.6480
  239.5000     0.2955     7.7490     0.0275    95.6568     0.1209     2.4771   101.6378   -42.5220    12.0271    14.8614
  240.0000     0.2670     7.7360     0.0057    93.8862     0.1215     2.4772   100.0446   -42.6454    12.4588    14.9739
  240.5000     0.2597     7.7374     0.0030    94.6443     0.1175     2.4788    98.7519   -42.6271    12.5531    15.0872
  241.0000     0.2618     7.7389     0.0123    95.8444     0.1145     2.4811    98.5862   -42.4638    11.9660    13.5131
  241.5000     0.2748     7.7404     0.0366    99.7150     0.1126     2.4895    99.1270   -42.3006     9.8615    11.8543
  242.0000     0.3382     7.7567     0.0442   106.5530     0.1155     2.4926   105.8392   -42.1374     7.8698     8.0486
  242.5000     0.3515     7.7730     0.0429   112.7976     0.1397     2.4685   109.7306   -41.9742     6.0538     6.4976
