~VERSION INFORMATION
 VERS.                2.0:   CWLS LOG ASCII STANDARD - VERSION 2.0
 WRAP.                 NO:   ONE LINE PER DEPTH STEP
~WELL INFORMATION
#MNEM.UNIT      DATA TYPE    INFORMATION
#----------   ------------   ------------------------------
 STRT.F            0.5000:   START DEPTH
 STOP.F         3087.0000:   STOP DEPTH
 STEP.F            0.5000:   STEP LENGTH
 NULL.          -999.2500:   NO VALUE
 COMP. DEPARTMENT OF ENERGY:   COMPANY
 WELL.    NPR-3 #201-A-29:   WELL
 FLD . TEAPOT NAVAL RESERVE:   FIELD
 LOC .      S29 T39N R78W:   LOCATION
 CNTY.            NATRONA:   COUNTY
 STAT.            WYOMING:   STATE
 CTRY. UNITED STATES OF AMERICA:   COUNTRY
 SRVC.      NL McCullough:   SERVICE COMPANY
 DATE.        24-JUN-1965:   LOGDATE
 API .       490251144400:   API NUMBER
~CURVE INFORMATION
#MNEM.UNIT       API CODE    CURVE DESCRIPTION
#----------   ------------   ------------------------------
 DEPT.F                  :   
 GRR .GAPI   30 310 01 00:   GAMMA RAY
 CALI.IN     30 280 01 00:   CALIPER
~PARAMETER INFORMATION
#MNEM.UNIT          VALUE    DESCRIPTION
#----------   ------------   ------------------------------
 PD  .                 GL:   PERMANENT DATUM
 LMF .                 GL:   LOG MEASURED FROM
 EDF .F              5012:   DRILLING FLOOR
 DATE.        24-JUN-1965:   RUN DATE
 RUN .                  1:   RUN NUMBER
 DD  .F              2782:   DEPTH DRILLER
 DL  .F              2772:   DEPTH LOGGER
 BLI .F              2770:   BOTTOM LOG INTERVAL
 TLI .F              2300:   TOP LOG INTERVAL
 CS  .IN            6.625:   CASING SIZE
 CBD .F              2756:   CASING BOTTOM DRILLER
 ENGI.         COWLTHORPE:   RECORDING ENGINEER
 WITN.             HUDSON:   WITNESSED BY
 CLNT.            A2DTECH:   CLIENT CODE
 ORIG.           5" PRINT:   ORIGIN OF DATA
 UWI .       490251144400:   UNIQUE WELL ID
 DICO. A2D Technologies, Inc.:   DIGITIZING COMPANY
~OTHER INFORMATION
~A    DEPT     GRR         CALI 
# ...
  729.5000  -999.2500     6.4107
  730.0000  -999.2500     6.4122
  730.5000  -999.2500     6.4138
  731.0000  -999.2500     6.4153
  731.5000  -999.2500     6.4169
  732.0000  -999.2500     6.4184
  732.5000  -999.2500     6.4200
  733.0000  -999.2500     6.4216
  733.5000  -999.2500     6.4231
  734.0000  -999.2500     6.4246
  734.5000  -999.2500     6.4233
  735.0000  -999.2500     6.4217
  735.5000  -999.2500     6.4201
  736.0000  -999.2500     6.4186
  736.5000  -999.2500     6.4170
  737.0000  -999.2500     6.4155
  737.5000  -999.2500     6.4139
  738.0000  -999.2500     6.4123
  738.5000  -999.2500     6.4108
  739.0000  -999.2500     6.4092
  739.5000  -999.2500     6.4076
  740.0000  -999.2500     6.4061
  740.5000  -999.2500     6.4051
  741.0000  -999.2500     6.4078
  741.5000  -999.2500     6.4105
  742.0000  -999.2500     6.4132
  742.5000  -999.2500     6.4159
  743.0000  -999.2500     6.4186
  743.5000  -999.2500     6.4213
  744.0000  -999.2500     6.4241
  744.5000  -999.2500     6.4220
  745.0000  -999.2500     6.4184
  745.5000  -999.2500     6.4147
  746.0000  -999.2500     6.4110
  746.5000  -999.2500     6.4073
  747.0000  -999.2500     6.4047
  747.5000  -999.2500     6.4048
  748.0000  -999.2500     6.4048
  748.5000  -999.2500     6.4048
  749.0000  -999.2500     6.4048
  749.5000  -999.2500     6.4048
  750.0000  -999.2500     6.4048
  750.5000  -999.2500     6.4048
  751.0000  -999.2500     6.4048
  751.5000  -999.2500     6.4048
  752.0000  -999.2500     6.4048
  752.5000  -999.2500     6.4048
  753.0000  -999.2500     6.4048
  753.5000  -999.2500     6.4048
  754.0000  -999.2500     6.4048
  754.5000  -999.2500     6.4048
  755.0000  -999.2500     6.4048
  755.5000  -999.2500     6.4048
  756.0000  -999.2500     6.4048
  756.5000  -999.2500     6.4048
  757.0000  -999.2500     6.4048
  757.5000  -999.2500     6.4048
  758.0000  -999.2500     6.4048
  758.5000  -999.2500     6.4048
  759.0000  -999.2500     6.4048
  759.5000  -999.2500     6.4048
  760.0000  -999.2500     6.4048
  760.5000  -999.2500     6.4048
  761.0000  -999.2500     6.4048
  761.5000  -999.2500     6.4048
  762.0000  -999.2500     6.4048
  762.5000  -999.2500     6.4048
  763.0000  -999.2500     6.4048
  763.5000  -999.2500     6.4048
  764.0000  -999.2500     6.4048
  764.5000  -999.2500     6.4048
  765.0000  -999.2500     6.4048
  765.5000  -999.2500     6.4048
  766.0000  -999.2500     6.4048
  766.5000  -999.2500     6.4048
  767.0000  -999.2500     6.4048
  767.5000  -999.2500     6.4048
  768.0000  -999.2500     6.4048
  768.5000  -999.2500     6.4048
  769.0000  -999.2500     6.4048
  769.5000  -999.2500     6.4048
  770.0000  -999.2500     6.4053
  770.5000  -999.2500     6.4062
  771.0000  -999.2500     6.4072
  771.5000  -999.2500     6.4082
  772.0000  -999.2500     6.4092
  772.5000  -999.2500     6.4102
  773.0000  -999.2500     6.4111
  773.5000  -999.2500     6.4121
  774.0000  -999.2500     6.4131
  774.5000  -999.2500     6.4141
  775.0000  -999.2500     6.4150
  775.5000  -999.2500     6.4160
  776.0000  -999.2500     6.4170
  776.5000  -999.2500     6.4180
  777.0000  -999.2500     6.4190
  777.5000  -999.2500     6.4199
  778.0000  -999.2500     6.4209
  778.5000  -999.2500     6.4219
  779.0000  -999.2500     6.4229
  779.5000  -999.2500     6.4239
  780.0000  -999.2500     6.4247
  780.5000  -999.2500     6.4247
  781.0000  -999.2500     6.4247
  781.5000  -999.2500     6.4247
  782.0000  -999.2500     6.4247
  782.5000  -999.2500     6.4247
  783.0000  -999.2500     6.4247
  783.5000  -999.2500     6.4247
  784.0000  -999.2500     6.4247
  784.5000  -999.2500     6.4247
  785.0000  -999.2500     6.4247
  785.5000  -999.2500     6.4247
  786.0000  -999.2500     6.4247
  786.5000  -999.2500     6.4247
  787.0000  -999.2500     6.4247
  787.5000  -999.2500     6.4247
  788.0000  -999.2500     6.4247
  788.5000  -999.2500     6.4247
  789.0000  -999.2500     6.4247
  789.5000  -999.2500     6.4247
  790.0000  -999.2500     6.4247
  790.5000  -999.2500     6.4248
  791.0000  -999.2500     6.4258
  791.5000  -999.2500     6.4267
  792.0000  -999.2500     6.4277
  792.5000  -999.2500     6.4286
  793.0000  -999.2500     6.4296
  793.5000  -999.2500     6.4305
  794.0000  -999.2500     6.4315
  794.5000  -999.2500     6.4324
  795.0000  -999.2500     6.4334
  795.5000  -999.2500     6.4343
  796.0000  -999.2500     6.4353
  796.5000  -999.2500     6.4362
  797.0000  -999.2500     6.4372
  797.5000  -999.2500     6.4381
  798.0000  -999.2500     6.4391
  798.5000  -999.2500     6.4401
  799.0000  -999.2500     6.4410
  799.5000  -999.2500     6.4419
  800.0000  -999.2500     6.4429
  800.5000  -999.2500     6.4439
  801.0000  -999.2500     6.4447
  801.5000  -999.2500     6.4447
  802.0000  -999.2500     6.4447
  802.5000  -999.2500     6.4447
  803.0000  -999.2500     6.4447
  803.5000  -999.2500     6.4447
  804.0000  -999.2500     6.4447
  804.5000  -999.2500     6.4447
  805.0000  -999.2500     6.4447
  805.5000  -999.2500     6.4447
  806.0000  -999.2500     6.4447
  806.5000  -999.2500     6.4447
  807.0000  -999.2500     6.4447
  807.5000  -999.2500     6.4447
  808.0000  -999.2500     6.4447
  808.5000  -999.2500     6.4447
  809.0000  -999.2500     6.4447
  809.5000  -999.2500     6.4447
  810.0000  -999.2500     6.4447
  810.5000  -999.2500     6.4447
  811.0000  -999.2500     6.4447
  811.5000  -999.2500     6.4449
  812.0000  -999.2500     6.4458
  812.5000  -999.2500     6.4468
  813.0000  -999.2500     6.4478
  813.5000  -999.2500     6.4487
  814.0000  -999.2500     6.4497
  814.5000  -999.2500     6.4506
  815.0000  -999.2500     6.4516
  815.5000  -999.2500     6.4525
  816.0000  -999.2500     6.4535
  816.5000  -999.2500     6.4544
  817.0000  -999.2500     6.4554
  817.5000  -999.2500     6.4563
  818.0000  -999.2500     6.4573
  818.5000  -999.2500     6.4583
  819.0000  -999.2500     6.4592
  819.5000  -999.2500     6.4602
  820.0000  -999.2500     6.4611
  820.5000  -999.2500     6.4621
  821.0000  -999.2500     6.4630
  821.5000  -999.2500     6.4640
  822.0000  -999.2500     6.4643
  822.5000  -999.2500     6.4626
  823.0000  -999.2500     6.4609
  823.5000  -999.2500     6.4593
  824.0000  -999.2500     6.4576
  824.5000  -999.2500     6.4560
  825.0000  -999.2500     6.4544
  825.5000  -999.2500     6.4527
  826.0000  -999.2500     6.4511
  826.5000  -999.2500     6.4494
  827.0000  -999.2500     6.4478
  827.5000  -999.2500     6.4461
  828.0000  -999.2500     6.4444
  828.5000  -999.2500     6.4425
  829.0000  -999.2500     6.4404
  829.5000  -999.2500     6.4384
  830.0000  -999.2500     6.4364
  830.5000  -999.2500     6.4344
  831.0000  -999.2500     6.4324
  831.5000  -999.2500     6.4304
  832.0000  -999.2500     6.4284
  832.5000  -999.2500     6.4264
  833.0000  -999.2500     6.4247
  833.5000  -999.2500     6.4247
  834.0000  -999.2500     6.4247
  834.5000  -999.2500     6.4247
  835.0000  -999.2500     6.4247
  835.5000  -999.2500     6.4247
  836.0000  -999.2500     6.4247
  836.5000  -999.2500     6.4248
  837.0000  -999.2500     6.4244
  837.5000  -999.2500     6.4148
  838.0000  -999.2500     6.4051
  838.5000  -999.2500     6.4047
  839.0000  -999.2500     6.4047
  839.5000  -999.2500     6.4048
  840.0000  -999.2500     6.4048
  840.5000  -999.2500     6.4048
  841.0000  -999.2500     6.4048
  841.5000  -999.2500     6.4048
  842.0000  -999.2500     6.4048
  842.5000  -999.2500     6.4048
  843.0000  -999.2500     6.4048
  843.5000  -999.2500     6.4048
  844.0000  -999.2500     6.4047
  844.5000  -999.2500     6.4074
  845.0000  -999.2500     6.4114
  845.5000  -999.2500     6.4154
  846.0000  -999.2500     6.4194
  846.5000  -999.2500     6.4235
  847.0000  -999.2500     6.4238
  847.5000  -999.2500     6.4225
  848.0000  -999.2500     6.4211
  848.5000  -999.2500     6.4198
  849.0000  -999.2500     6.4184
  849.5000  -999.2500     6.4171
  850.0000  -999.2500     6.4157
  850.5000  -999.2500     6.4144
