~VERSION INFORMATION
 VERS.                2.0:   CWLS LOG ASCII STANDARD - VERSION 2.0
 WRAP.                 NO:   ONE LINE PER DEPTH STEP
~WELL INFORMATION
#MNEM.UNIT      DATA TYPE    INFORMATION
#----------   ------------   ------------------------------
 STRT.F            0.0000:   START DEPTH
 STOP.F          700.0000:   STOP DEPTH
 STEP.F            0.5000:   STEP LENGTH
 NULL.          -999.2500:   NO VALUE
 COMP. FENIX & SCISSON INC:   COMPANY
 WELL. 37-11 SX 11 WP #11-11:   WELL
 FLD .             TEAPOT:   FIELD
 LOC .      S11 T38N R78W:   LOCATION
 CNTY.            NATRONA:   COUNTY
 STAT.            WYOMING:   STATE
 CTRY. UNITED STATES OF AMERICA:   COUNTRY
 SRVC.      Dresser Atlas:   SERVICE COMPANY
 DATE.        21-AUG-1980:   LOGDATE
 API .       490251084200:   API NUMBER
~CURVE INFORMATION
#MNEM.UNIT       API CODE    CURVE DESCRIPTION
#----------   ------------   ------------------------------
 DEPT.F                  :   
 SPR .MV     07 010 01 00:   SPONTANEOUS POTENTIAL
 RFOC.OHMM   07 220 04 00:   RESISTIVITY FOCUSED LOG
 RILD.OHMM   07 120 46 00:   INDUCTION LOG DEEP RESISTIVITY
 RILM.OHMM   07 120 44 00:   INDUCTION LOG MEDIUM RESISTIVITY
 GRD .GAPI   45 310 01 00:   GAMMA RAY FROM DENSITY LOG
 CALD.IN     45 280 60 00:   CALIPER
 RHOB.G/C3   45 350 01 00:   BULK DENSITY
 CORR.G/C3   45 356 01 00:   DENSITY CORRECTION
 CNC .DEC    42 890 03 00:   NEUTRON POROSITY SANDSTONE
 PORD.DEC    45 890 12 00:   POROSITY DENSITY SANDSTONE
~PARAMETER INFORMATION
#MNEM.UNIT          VALUE    DESCRIPTION
#----------   ------------   ------------------------------
 PD  .                 GL:   PERMANENT DATUM
 EPD .F              5194:   ELEVATION PERMANENT DATUM
 LMF .                 KB:   LOG MEASURED FROM
 DAPD.F                 5:   FEET ABOVE PERMANENT DATUM
 DMF .                 KB:   DRILLING MEASURED FROM
 EKB .F              5199:   KELLING BUSHING
 EDF .F              5198:   DRILLING FLOOR
 EGL .F              5194:   GROUND LEVEL
 DATE.            8-21-80:   RUN DATE
 RUN .                  1:   RUN NUMBER
 DD  .F               695:   DEPTH DRILLER
 DL  .F               700:   DEPTH LOGGER
 BLI .F               699:   BOTTOM LOG INTERVAL
 BS  .IN            7.875:   BIT SIZE
 BSD .F               695:   BIT SIZE AT DEPTH
 DFT .      DISPERSED KCL:   DRILLING FLUID TYPE
 DFD .               2.68:   DRILLING FLUID DENSITY
 DFV .                 50:   DRILLING FLUID VISCOSITY
 DFPH.                 14:   DRILLING FLUID PH
 DFL .                 18:   DRILLING FLUID LOSS
 MSS .           FLOWLINE:   MUD SAMPLE SOURCE
 RMS .OHMM           .256:   RESISTIVITY MUD SAMPLE
 MST .F                70:   MUD SAMPLE TEMPERATURE
 RMF .OHMM           .393:   RESISTIVITY MUD FILTRATE SAMPLE
 MFST.F                66:   MUD FILTRATE SAMPLE TEMPERATURE
 RMC .OHMM           .858:   RESISTIVITY MUD CAKE
 MCST.F                66:   MUD CAKE SAMPLE TEMPERATURE
 MFSS.               MEAS:   MUD FILTRATE SAMPLE SOURCE
 MCSS.               MEAS:   MUD CAKE SAMPLE SOURCE
 RMB .OHMM            .53:   RESISTIVITY MUD AT BHT
 BHT .F                99:   BOTTOM HOLE TEMPERATURE
 TCS .HRS               3:   TIME CURCULATED STOPPED
 MRT .F                99:   MAXIMUM RECORDED TEMPERATURE
 LUN .               9369:   LOGGING UNIT NUMBER
 LUL .       ROCK SPRINGS:   LOGGING UNIT LOCATION
 ENGI.            PAULSON:   RECORDING ENGINEER
 WITN.              SCOTT:   WITNESSED BY
 CLNT.            A2DTECH:   CLIENT CODE
 ORIG.       2", 5" PRINT:   ORIGIN OF DATA
 UWI .       490251084200:   UNIQUE WELL ID
 DICO. A2D Technologies, Inc.:   DIGITIZING COMPANY
~OTHER INFORMATION
~A    DEPT     SPR       RFOC       RILD       RILM        GRD       CALD       RHOB       CORR        CNC         PORD 
# ...
  569.5000   -73.6394    11.6778     9.8830    10.2809    76.6695     7.8306     2.4836     0.0876     0.2277     0.1060
  570.0000   -74.4661    11.6791     9.8830    10.3131    75.4677     7.8294     2.4809     0.0805     0.2202     0.1033
  570.5000   -76.2014    11.6359     9.9153    10.3454    75.2338     7.8283     2.4833     0.0865     0.2230     0.0971
  571.0000   -78.0599    11.5814     9.9991    10.3778    77.1655     7.8271     2.4958     0.0936     0.2329     0.0908
  571.5000   -80.2837    11.5272    10.0837    10.4104    80.5206     7.8260     2.5010     0.1002     0.2476     0.0846
  572.0000   -82.4409    11.4641    10.1690    10.4430    83.8388     7.8249     2.5085     0.1057     0.2571     0.0760
  572.5000   -83.0841    11.7015    10.2550    10.4757    84.5595     7.8200     2.5190     0.1119     0.2448     0.0742
  573.0000   -79.9503    11.9942    10.3418    10.5085    79.0117     7.8147     2.5298     0.1212     0.2348     0.0918
  573.5000   -75.1112    12.2944    10.4293    10.5415    75.2534     7.8093     2.5424     0.1307     0.2259     0.1168
  574.0000   -70.3581    12.5811    10.5175    10.5746    75.4120     7.8047     2.5548     0.1334     0.2200     0.1315
  574.5000   -69.3554    12.3631    10.5459    10.6079    79.4109     7.8083     2.5532     0.1128     0.2166     0.1303
  575.0000   -70.0178    12.1248    10.4233    10.6442    82.1687     7.8120     2.5223     0.1051     0.2153     0.1229
  575.5000   -71.0405    12.0082    10.3103    10.4571    81.4262     7.8156     2.4757     0.0967     0.2300     0.1178
  576.0000   -72.1654    12.0082    10.1991    10.2533    79.7099     7.8193     2.4580     0.0880     0.2531     0.1219
  576.5000   -73.3102    11.8236    10.0893    10.0535    79.3182     7.8229     2.4646     0.0974     0.2584     0.1278
  577.0000   -72.5169    11.6277     9.9806     9.8574    80.1245     7.8235     2.4751     0.1069     0.2549     0.1235
  577.5000   -71.0536    11.4572     9.8731     9.6655    79.1367     7.8154     2.4780     0.1091     0.2519     0.1100
  578.0000   -70.6489    11.4252     9.7661     9.4351    76.9249     7.8073     2.4700     0.1073     0.2435     0.0980
  578.5000   -71.4547    11.3917     9.6962     9.4441    76.6971     7.7991     2.4644     0.1074     0.2361     0.0862
  579.0000   -72.1339    11.3583     9.6815     9.4558    77.8072     7.7910     2.4739     0.1097     0.2363     0.0842
  579.5000   -73.6049    11.3250     9.6676     9.4675    77.9015     7.7854     2.5008     0.1190     0.2545     0.0938
  580.0000   -75.0681    11.2919     9.6533     9.4792    77.2399     7.7942     2.5219     0.1241     0.2644     0.1052
  580.5000   -76.5795    11.2537     9.6394     9.4909    79.8221     7.8029     2.5391     0.1155     0.2475     0.1085
  581.0000   -76.8075    11.3122     9.6251     9.5021    83.4524     7.8005     2.5263     0.1071     0.2401     0.1092
  581.5000   -75.7896    11.3832     9.6117     9.5134    84.8730     7.7956     2.5034     0.0968     0.2318     0.1123
  582.0000   -74.7473    11.4547     9.8935     9.5173    83.3642     7.7906     2.4974     0.0861     0.2406     0.1153
  582.5000   -73.7263    11.5266    10.1681    10.0490    82.0293     7.7856     2.4985     0.0751     0.2451     0.1347
  583.0000   -74.1195    11.5990    11.0351    10.5189    82.6782     7.7807     2.4932     0.0701     0.2341     0.1472
  583.5000   -75.4329    11.6787    12.2815    11.1415    83.3114     7.7757     2.4873     0.0684     0.2298     0.1657
  584.0000   -76.7273    11.9401    13.6685    12.2753    83.5586     7.7708     2.4786     0.0734     0.2248     0.1613
  584.5000   -78.0208    12.7671    15.2096    14.0259    82.3432     7.7658     2.4486     0.0683     0.2088     0.1408
  585.0000   -79.3385    14.3406    16.9446    16.1578    80.9382     7.7641     2.4159     0.0628     0.1927     0.1391
  585.5000   -80.4022    17.6817    18.0766    17.4832    79.6509     7.7641     2.4011     0.0704     0.1884     0.1624
  586.0000   -82.0051    21.7965    19.0410    19.0116    78.6107     7.7641     2.4165     0.0825     0.1924     0.1940
  586.5000   -83.5933    24.5273    20.0498    20.5643    77.1842     7.7641     2.4418     0.0865     0.2051     0.2014
  587.0000   -83.9566    23.5123    21.3488    20.5643    74.3214     7.7641     2.4400     0.0839     0.2211     0.2015
  587.5000   -84.1512    21.8676    21.3472    20.0003    70.3497     7.7641     2.3851     0.0812     0.2419     0.2017
  588.0000   -84.8132    21.4861    20.6282    19.3081    66.0239     7.7637     2.3456     0.0819     0.2625     0.1987
  588.5000   -87.4368    20.8834    20.0491    18.6457    61.9244     7.7604     2.3380     0.0852     0.2704     0.1936
  589.0000   -89.9961    20.1611    19.4862    18.1344    61.7458     7.7570     2.3381     0.0865     0.2571     0.1929
  589.5000   -92.5246    19.4638    18.9397    17.5366    62.6124     7.7536     2.3388     0.0762     0.2358     0.1888
  590.0000   -92.5965    18.7906    18.4086    16.9584    62.8364     7.7502     2.3504     0.0680     0.2257     0.1864
  590.5000   -84.6965    18.4366    17.7264    16.6530    63.7549     7.7468     2.3520     0.0707     0.2330     0.1854
  591.0000   -76.5818    18.2380    17.7285    16.4080    66.7694     7.7460     2.3571     0.0731     0.2424     0.1741
  591.5000   -65.8492    18.0601    17.4784    16.1666    72.2014     7.7607     2.3656     0.0756     0.2543     0.1531
  592.0000   -60.7652    17.7694    17.2872    15.9288    74.2328     7.7752     2.3668     0.0780     0.2615     0.1436
  592.5000   -59.3401    17.5080    17.0974    15.7223    72.5713     7.7899     2.3687     0.0816     0.2634     0.1614
  593.0000   -56.9532    17.2504    16.9096    15.4563    70.8814     7.8038     2.3978     0.0905     0.2641     0.1783
  593.5000   -52.7382    17.0825    16.7233    15.2831    70.6880     7.7969     2.4335     0.0991     0.2643     0.1837
  594.0000   -48.9084    17.1973    16.5404    15.4400    70.7156     7.7889     2.4333     0.0992     0.2673     0.1875
  594.5000   -48.2766    17.2985    16.4587    15.5786    72.6611     7.7797     2.3963     0.0871     0.2724     0.1899
  595.0000   -48.2681    17.4003    16.6364    15.7191    74.9184     7.7684     2.3732     0.0768     0.2625     0.1887
  595.5000   -48.1341    17.5027    16.7675    15.8613    76.4287     7.7570     2.3679     0.0834     0.2426     0.1841
  596.0000   -47.7901    17.5645    16.8999    15.6536    74.6157     7.7453     2.3633     0.0875     0.2297     0.1791
  596.5000   -47.4594    17.4118    17.0318    15.3964    71.8860     7.7567     2.3601     0.0870     0.2368     0.1827
  597.0000   -47.2749    17.3024    17.0825    15.1413    70.8444     7.7719     2.3648     0.0822     0.2506     0.1902
  597.5000   -47.4586    17.2417    16.6780    15.0030    71.2550     7.7872     2.3733     0.0837     0.2673     0.1936
  598.0000   -47.7014    17.2414    16.3550    15.1922    72.3030     7.8022     2.3794     0.0851     0.2801     0.1696
  598.5000   -47.9414    17.2418    16.0383    15.3271    72.7992     7.8143     2.3684     0.0868     0.2805     0.1552
  599.0000   -47.9553    17.2408    15.7277    15.4255    72.6909     7.8256     2.3564     0.0901     0.2640     0.1484
  599.5000   -47.4542    17.2460    15.5452    15.2846    72.5016     7.8368     2.3517     0.0933     0.2528     0.1588
  600.0000   -46.9706    17.0839    15.4951    15.1748    71.9141     7.8419     2.3943     0.0961     0.2456     0.1682
  600.5000   -46.4930    16.9082    15.4457    15.1173    72.0346     7.8294     2.4262     0.0936     0.2397     0.1756
  601.0000   -46.4421    16.7343    15.3964    15.0825    73.4874     7.8174     2.4283     0.0831     0.2346     0.1801
  601.5000   -46.4462    16.6177    15.3470    15.0475    75.5887     7.8057     2.4042     0.0731     0.2251     0.1822
  602.0000   -46.5463    16.6727    15.2978    15.0127    77.6654     7.8100     2.3896     0.0669     0.2218     0.1792
  602.5000   -46.2397    16.7188    15.2016    14.8609    78.0658     7.8164     2.3820     0.0726     0.2262     0.1524
