~VERSION INFORMATION
 VERS.                2.0:   CWLS LOG ASCII STANDARD - VERSION 2.0
 WRAP.                 NO:   ONE LINE PER DEPTH STEP
~WELL INFORMATION
#MNEM.UNIT      DATA TYPE    INFORMATION
#----------   ------------   ------------------------------
 STRT.F           38.0000:   START DEPTH
 STOP.F          637.0000:   STOP DEPTH
 STEP.F            0.5000:   STEP LENGTH
 NULL.          -999.2500:   NO VALUE
 COMP. FENIX & SCISSON INC:   COMPANY
 WELL.    NPR ##3 57-S-34:   WELL
 FLD .             TEAPOT:   FIELD
 LOC .      S34 T39N R78W:   LOCATION
 CNTY.            NATRONA:   COUNTY
 STAT.            WYOMING:   STATE
 CTRY. UNITED STATES OF AMERICA:   COUNTRY
 SRVC.              Welex:   SERVICE COMPANY
 DATE.        12-MAR-1977:   LOGDATE
 API .       490251030600:   API NUMBER
~CURVE INFORMATION
#MNEM.UNIT       API CODE    CURVE DESCRIPTION
#----------   ------------   ------------------------------
 DEPT.F                  :   
 SPR .MV     07 010 01 00:   SPONTANEOUS POTENTIAL
 ILM .OHMM   07 120 44 00:   INDUCTION LOG MEDIUM
 ILD .OHMM   07 120 46 00:   INDUCTION LOG DEEP
 SGRD.OHMM   07 221 05 00:   SHALLOW SHORT GUARD RESISTIVITY
 CALD.IN     45 280 60 00:   CALIPER FROM DENSITY LOG
 GRD .GAPI   45 310 01 00:   GAMMA RAY FROM DENSITY LOG
 CORR.G/C3   45 356 01 00:   DENSITY CORRECTION
 DPHI.DEC    45 890 12 00:   DENSITY POROSITY SANDSTONE
 RHOB.G/C3   45 350 01 00:   BULK DENSITY
~PARAMETER INFORMATION
#MNEM.UNIT          VALUE    DESCRIPTION
#----------   ------------   ------------------------------
 PD  .                 GL:   PERMANENT DATUM
 EPD .F              5107:   ELEVATION PERMANENT DATUM
 LMF .                 GL:   LOG MEASURED FROM
 DMF .                 GL:   DRILLING MEASURED FROM
 EGL .F              5107:   GROUND LEVEL
 DATE.          3-12-1977:   RUN DATE
 RUN .                  1:   RUN NUMBER
 DD  .F               650:   DEPTH DRILLER
 DL  .F               637:   DEPTH LOGGER
 BLI .F               636:   BOTTOM LOG INTERVAL
 TLI .F                46:   TOP LOG INTERVAL
 CS  .IN            8.625:   CASING SIZE
 CBD .F                45:   CASING BOTTOM DRILLER
 CBL .F                46:   CASING BOTTOM LOGGER
 BS  .IN            7.875:   BIT SIZE
 BSD .F               650:   BIT SIZE AT DEPTH
 DFT .            KCL MUD:   DRILLING FLUID TYPE
 DFD .                8.9:   DRILLING FLUID DENSITY
 DFV .                 35:   DRILLING FLUID VISCOSITY
 MSS .            MUD PIT:   MUD SAMPLE SOURCE
 RMS .OHMM            .53:   RESISTIVITY MUD SAMPLE
 MST .F                68:   MUD SAMPLE TEMPERATURE
 RMF .OHMM            .41:   RESISTIVITY MUD FILTRATE SAMPLE
 MFST.F                69:   MUD FILTRATE SAMPLE TEMPERATURE
 RMC .OHMM            .62:   RESISTIVITY MUD CAKE
 MCST.F                65:   MUD CAKE SAMPLE TEMPERATURE
 MFSS.           MEASURED:   MUD FILTRATE SAMPLE SOURCE
 MCSS.           MEASURED:   MUD CAKE SAMPLE SOURCE
 RMB .OHMM            .60:   RESISTIVITY MUD AT BHT
 BHT .F                60:   BOTTOM HOLE TEMPERATURE
 TCS .HRS               1:   TIME CURCULATED STOPPED
 MRT .F                60:   MAXIMUM RECORDED TEMPERATURE
 LUN .               0716:   LOGGING UNIT NUMBER
 LUL .             VERNAL:   LOGGING UNIT LOCATION
 ENGI.        E. CALLAHAN:   RECORDING ENGINEER
 WITN.         STUEBUNGER:   WITNESSED BY
 CLNT.            A2DTECH:   CLIENT CODE
 ORIG.           5" PRINT:   ORIGIN OF DATA
 UWI .       490251030600:   UNIQUE WELL ID
 DICO. A2D Technologies, Inc.:   DIGITIZING COMPANY
~OTHER INFORMATION
~A   DEPT      SPR        ILM        ILD       SGRD       CALD        GRD       CORR       DPHI       RHOB   
# ...
  293.5000   -35.2322     7.3381     6.4471     8.4646     8.0803   108.2641     0.0740     0.1031     2.4759
  294.0000   -35.2467     7.3875     6.3555     8.5859     8.0798   107.1759     0.0661     0.1111     2.4635
  294.5000   -35.2616     7.5408     6.3525     8.7558     8.0950   105.9329     0.0629     0.1159     2.4635
  295.0000   -35.2794     7.6971     6.4380     8.8143     8.0944   106.2379     0.0628     0.1130     2.4682
  295.5000   -35.2940     7.7489     6.5247     8.8725     8.0939   106.6976     0.0643     0.1103     2.4713
  296.0000   -35.3085     7.6936     6.6125     8.8688     8.0935   108.0862     0.0658     0.1130     2.4736
  296.5000   -35.3230     7.6921     6.7057     8.8658     8.0930   110.7131     0.0654     0.1156     2.4628
  297.0000   -35.3376     7.6905     6.7917     8.8018     8.1080   111.7933     0.0671     0.1111     2.4705
  297.5000   -35.1990     7.7427     6.8357     8.7382     8.1076   110.0847     0.0717     0.1057     2.4767
  298.0000   -35.2172     7.7407     6.8799     8.7352     8.1226   111.7828     0.0731     0.1017     2.4846
  298.5000   -35.2317     7.8469     6.9236     8.7929     8.1221   114.5657     0.0684     0.1144     2.4698
  299.0000   -35.0968     7.9029     6.9204     8.8510     8.1217   114.2504     0.0559     0.1193     2.4582
  299.5000   -34.9618     8.0635     6.9171     9.0327     8.1212   114.4017     0.0605     0.1203     2.4505
  300.0000   -34.8201     8.1789     6.9139     9.1562     8.1362   116.4084     0.0728     0.1153     2.4582
  300.5000   -34.7368     8.2380     7.0046     9.2146     8.1357   117.0253     0.0665     0.1057     2.4822
  301.0000   -34.6535     8.2820     7.0953     9.2742     8.1198   116.4023     0.0649     0.1058     2.4706
  301.5000   -34.5702     8.3367     7.1961     9.2688     8.1193   114.5417     0.0726     0.1070     2.4690
  302.0000   -34.4869     8.3917     7.1928     9.3299     8.1344   113.7646     0.0772     0.1011     2.4729
  302.5000   -34.4313     8.3882     7.1895     9.3245     8.1339   111.7492     0.0771     0.1005     2.4783
  303.0000   -34.4438     8.3284     7.1861     9.3202     8.1334   109.5789     0.0739     0.1033     2.4830
  303.5000   -34.4538     8.3827     7.1324     9.3159     8.1330   109.1115     0.0661     0.1092     2.4822
  304.0000   -34.3143     8.3799     7.1291     9.3115     8.1325   109.2921     0.0552     0.1154     2.4775
  304.5000   -34.4738     8.4352     7.1258     9.3062     8.1320   113.3756     0.0490     0.1206     2.4548
  305.0000   -34.3368     8.4902     7.1225     9.2377     8.1315   115.7579     0.0582     0.1188     2.4512
  305.5000   -34.4963     8.4873     7.1192     9.1698     8.1310   116.3740     0.0659     0.1110     2.4665
  306.0000   -34.3543     8.4261     7.1158     9.1024     8.1306   116.6806     0.0612     0.1138     2.4729
  306.5000   -34.3668     8.3653     7.1118     9.0982     8.1301   118.6899     0.0596     0.1200     2.4528
  307.0000   -34.3768     8.1293     7.0595     9.1571     8.1297   120.0808     0.0657     0.1154     2.4574
  307.5000   -34.2373     7.9096     7.0562     9.2803     8.1447   119.9222     0.0767     0.1110     2.4714
  308.0000   -34.3993     7.8525     7.0529     9.4052     8.1598   116.0492     0.0780     0.0980     2.4830
  308.5000   -34.2573     7.7959     7.0496     9.4661     8.1748   113.5693     0.0593     0.1148     2.4582
  309.0000   -34.4193     7.8480     7.0456     9.4606     8.1898   112.6375     0.0562     0.1244     2.4389
  309.5000   -34.2795     8.0090     7.0423     9.3263     8.1893   111.8604     0.0685     0.1180     2.4536
  310.0000   -33.9909     8.1741     6.9905     9.2567     8.2043   113.4054     0.0715     0.1132     2.4590
  310.5000   -33.8514     8.1144     6.9872     9.1253     8.2039   113.0927     0.0622     0.1163     2.4605
  311.0000   -33.8639     7.9453     6.9358     8.9958     8.2034   113.0897     0.0575     0.1173     2.4598
  311.5000   -33.7244     7.8337     6.9326     8.9297     8.2029   114.7894     0.0512     0.1272     2.4551
  312.0000   -33.5824     7.7236     6.8808     8.8640     8.2025   116.9535     0.0419     0.1284     2.4303
  312.5000   -33.2960     7.7211     6.8776     8.7988     8.2020   117.4149     0.0433     0.1247     2.4342
  313.0000   -33.0070     7.8802     6.8744     8.7938     8.2015   117.2570     0.0464     0.1210     2.4435
  313.5000   -33.3185     7.8769     6.8713     8.7291     8.2010   117.2539     0.0463     0.1204     2.4475
  314.0000   -33.4779     7.7662     6.7737     8.7251     8.2006   119.8825     0.0524     0.1229     2.4448
  314.5000   -33.4879     7.6044     6.6774     8.6610     8.2002   118.0211     0.0601     0.1191     2.4505
  315.0000   -33.6474     7.4459     6.5819     8.6569     8.1996   116.4700     0.0523     0.1232     2.4489
  315.5000   -33.6756     7.3413     6.4437     8.5932     8.1992   112.1326     0.0523     0.1241     2.4443
  316.0000   -33.9688     7.3383     6.2648     8.5291     8.1987   113.9871     0.0460     0.1241     2.4427
  316.5000   -33.9788     7.2352     6.1333     8.3502     8.2138   116.3068     0.0444     0.1241     2.4420
  317.0000   -34.1383     7.1830     6.0879     8.1186     8.2132   114.7550     0.0463     0.1232     2.4428
  317.5000   -34.1483     7.0333     5.9596     7.9483     8.2128   113.9780     0.0536     0.1207     2.4551
  318.0000   -34.1584     6.8393     5.8750     7.7800     8.1968   109.4858     0.0504     0.1213     2.4466
  318.5000   -34.3203     6.5975     5.7516     7.4609     8.1964   109.4827     0.0534     0.1198     2.4474
  319.0000   -34.3303     6.2041     5.6308     6.9592     8.1805   111.1824     0.0580     0.1188     2.4574
  319.5000   -34.3403     6.0753     5.5509     6.0576     8.1800   113.6562     0.0626     0.1155     2.4551
  320.0000   -34.1983     6.1154     5.4720     5.2728     8.1795   115.0463     0.0641     0.1062     2.4644
  320.5000   -34.3603     6.3277     5.4311     6.1362     8.1791   114.5788     0.0733     0.1080     2.4698
  321.0000   -34.3728     6.6851     5.4286     7.9813     8.1786   113.1826     0.0810     0.1111     2.4636
  321.5000   -34.2333     7.0141     5.5017     8.1400     8.1782   112.2507     0.0778     0.1068     2.4814
  322.0000   -34.2433     7.1093     5.5765     8.1353     8.1777   112.2477     0.0623     0.1031     2.4845
  322.5000   -34.2533     7.1064     5.6901     7.9645     8.1772   112.8845     0.0560     0.1158     2.4667
  323.0000   -34.2633     7.1040     5.8068     7.9060     8.1768   113.4800     0.0513     0.1189     2.4590
  323.5000   -34.1238     7.0528     5.9252     7.7938     8.1763   113.8669     0.0497     0.1167     2.4520
  324.0000   -34.1363     7.0019     6.0050     7.9535     8.1758   113.3183     0.0528     0.1142     2.4605
  324.5000   -34.1463     6.8559     6.0865     8.1718     8.1753   112.5412     0.0575     0.1167     2.4644
  325.0000   -34.3033     6.8060     6.2106     8.1680     8.1749   113.0026     0.0526     0.1195     2.4489
  325.5000   -34.1659     6.8037     6.2508     8.1642     8.1744   113.4647     0.0478     0.1205     2.4497
  326.0000   -34.1764     6.8492     6.2913     8.0484     8.1740   113.4609     0.0398     0.1257     2.4450
  326.5000   -34.1888     6.9416     6.3320     7.9324     8.1735   112.8386     0.0354     0.1329     2.4272
  327.0000   -34.1988     6.9874     6.2847     7.7667     8.1731   108.8108     0.0415     0.1253     2.4365
  327.5000   -34.2088     6.9364     6.2385     7.7097     8.1726   109.7365     0.0461     0.1242     2.4435
  328.0000   -33.9198     6.8390     6.1075     7.7061     8.1721   111.2822     0.0538     0.1186     2.4373
  328.5000   -33.7803     6.7896     5.9763     7.5967     8.1716   111.1236     0.0615     0.1226     2.4543
  329.0000   -33.6409     6.6024     5.7726     7.3861     8.1712   110.9658     0.0723     0.1192     2.4450
  329.5000   -33.5039     6.4648     5.5737     7.2265     8.1707   110.6531     0.0629     0.1214     2.4574
