~VERSION INFORMATION
 VERS.                2.0:   CWLS LOG ASCII STANDARD - VERSION 2.0
 WRAP.                 NO:   ONE LINE PER DEPTH STEP
~WELL INFORMATION
#MNEM.UNIT      DATA TYPE    INFORMATION
#----------   ------------   ------------------------------
 STRT.F            0.0000:   START DEPTH
 STOP.F          580.0000:   STOP DEPTH
 STEP.F            0.5000:   STEP LENGTH
 NULL.          -999.2500:   NO VALUE
 COMP. Fluor Daniel (NPOSR) Inc:   COMPANY
 WELL.    NPR 3 #53-3-X-3:   WELL
 FLD .             TEAPOT:   FIELD
 LOC .       S3 T38N R78W:   LOCATION
 CNTY.            NATRONA:   COUNTY
 STAT.            WYOMING:   STATE
 CTRY. UNITED STATES OF AMERICA:   COUNTRY
 SRVC.      Western Atlas:   SERVICE COMPANY
 DATE.        15-APR-1996:   LOGDATE
 API .       490252277800:   API NUMBER
~CURVE INFORMATION
#MNEM.UNIT       API CODE    CURVE DESCRIPTION
#----------   ------------   ------------------------------
 DEPT.F                  :   
 GRR .GAPI   07 310 01 00:   GAMMA RAY FROM RES. LOG.
 RILD.OHMM   07 120 46 00:   INDUCTION LOG DEEP RESISTIVITY
 RILM.OHMM   07 120 44 00:   INDUCTION LOG MEDIUM RESISTIVITY
~PARAMETER INFORMATION
#MNEM.UNIT          VALUE    DESCRIPTION
#----------   ------------   ------------------------------
 PD  .                 GL:   PERMANENT DATUM
 EPD .F              5105:   ELEVATION PERMANENT DATUM
 LMF .                 KB:   LOG MEASURED FROM
 DAPD.F                10:   FEET ABOVE PERMANENT DATUM
 DMF .                 KB:   DRILLING MEASURED FROM
 EKB .F              5115:   KELLING BUSHING
 EDF .F              5114:   DRILLING FLOOR
 EGL .F              5105:   GROUND LEVEL
 DATE.        15-APR-1996:   RUN DATE
 RUN .                  1:   RUN NUMBER
 DD  .F               594:   DEPTH DRILLER
 DL  .F               588:   DEPTH LOGGER
 BLI .F               580:   BOTTOM LOG INTERVAL
 CS  .IN            9.625:   CASING SIZE
 CBD .F                54:   CASING BOTTOM DRILLER
 CBL .F                56:   CASING BOTTOM LOGGER
 BS  .IN             8.75:   BIT SIZE
 BSD .F               594:   BIT SIZE AT DEPTH
 DFT .                AIR:   DRILLING FLUID TYPE
 MRT .F                85:   MAXIMUM RECORDED TEMPERATURE
 LUN .            HL-6530:   LOGGING UNIT NUMBER
 LUL .             CASPER:   LOGGING UNIT LOCATION
 ENGI.             RAUTIO:   RECORDING ENGINEER
 WITN.              HARDY:   WITNESSED BY
 CLNT.            A2DTECH:   CLIENT CODE
 ORIG.       2", 5" PRINT:   ORIGIN OF DATA
 UWI .       490252277800:   UNIQUE WELL ID
 DICO. A2D Technologies, Inc.:   DIGITIZING COMPANY
~OTHER INFORMATION
~A    DEPT      GRR      RILD       RILM   
    0.0000    18.2731  -999.2500  -999.2500
    0.5000    15.4450  -999.2500  -999.2500
    1.0000    13.0522  -999.2500  -999.2500
    1.5000    12.7958  -999.2500  -999.2500
    2.0000    13.5792  -999.2500  -999.2500
    2.5000    15.9766  -999.2500  -999.2500
    3.0000    15.6803  -999.2500  -999.2500
    3.5000    14.5883  -999.2500  -999.2500
    4.0000    10.9945  -999.2500  -999.2500
    4.5000     8.2964  -999.2500  -999.2500
    5.0000     6.7542  -999.2500  -999.2500
    5.5000     5.6699  -999.2500  -999.2500
    6.0000     5.4233  -999.2500  -999.2500
    6.5000     5.7330  -999.2500  -999.2500
    7.0000     6.3389  -999.2500  -999.2500
    7.5000     7.4866  -999.2500  -999.2500
    8.0000     8.9484  -999.2500  -999.2500
    8.5000     9.5456  -999.2500  -999.2500
    9.0000     9.7257  -999.2500  -999.2500
    9.5000    10.0553  -999.2500  -999.2500
   10.0000    11.6256  -999.2500  -999.2500
   10.5000    13.4865  -999.2500  -999.2500
   11.0000    16.1426  -999.2500  -999.2500
   11.5000    18.8948  -999.2500  -999.2500
   12.0000    25.3235  -999.2500  -999.2500
   12.5000    40.5365  -999.2500  -999.2500
   13.0000    57.8238  -999.2500  -999.2500
   13.5000    72.2824  -999.2500  -999.2500
   14.0000    83.8192  -999.2500  -999.2500
   14.5000    85.2698  -999.2500  -999.2500
   15.0000    82.1691  -999.2500  -999.2500
   15.5000    79.5471  -999.2500  -999.2500
   16.0000    76.9826  -999.2500  -999.2500
   16.5000    71.9732  -999.2500  -999.2500
   17.0000    63.3346  -999.2500  -999.2500
   17.5000    58.4115  -999.2500  -999.2500
   18.0000    67.2044  -999.2500  -999.2500
   18.5000    80.0218  -999.2500  -999.2500
   19.0000    79.5712  -999.2500  -999.2500
   19.5000    75.8103  -999.2500  -999.2500
   20.0000    73.6181  -999.2500  -999.2500
   20.5000    72.6132  -999.2500  -999.2500
   21.0000    72.5777  -999.2500  -999.2500
   21.5000    72.7097  -999.2500  -999.2500
   22.0000    72.8324  -999.2500  -999.2500
   22.5000    73.8891  -999.2500  -999.2500
   23.0000    75.4812  -999.2500  -999.2500
   23.5000    76.1426  -999.2500  -999.2500
   24.0000    76.5426  -999.2500  -999.2500
   24.5000    78.4251  -999.2500  -999.2500
   25.0000    79.4693  -999.2500  -999.2500
   25.5000    78.2395  -999.2500  -999.2500
   26.0000    74.9066  -999.2500  -999.2500
   26.5000    74.4828  -999.2500  -999.2500
   27.0000    74.4901  -999.2500  -999.2500
   27.5000    74.9128  -999.2500  -999.2500
   28.0000    77.4111  -999.2500  -999.2500
   28.5000    78.8579  -999.2500  -999.2500
   29.0000    77.7477  -999.2500  -999.2500
   29.5000    76.5307  -999.2500  -999.2500
   30.0000    76.3833  -999.2500  -999.2500
   30.5000    75.0315  -999.2500  -999.2500
   31.0000    74.5199  -999.2500  -999.2500
   31.5000    75.3779  -999.2500  -999.2500
   32.0000    77.4593  -999.2500  -999.2500
   32.5000    78.5820  -999.2500  -999.2500
   33.0000    76.6915  -999.2500  -999.2500
   33.5000    74.8605  -999.2500  -999.2500
   34.0000    74.3777  -999.2500  -999.2500
   34.5000    74.2259  -999.2500  -999.2500
   35.0000    74.0927  -999.2500  -999.2500
   35.5000    74.2280  -999.2500  -999.2500
   36.0000    75.4487  -999.2500  -999.2500
   36.5000    75.5794  -999.2500  -999.2500
   37.0000    75.4213  -999.2500  -999.2500
   37.5000    75.4491  -999.2500  -999.2500
   38.0000    78.7677  -999.2500  -999.2500
   38.5000    81.8641  -999.2500  -999.2500
   39.0000    80.7548  -999.2500  -999.2500
   39.5000    77.1809  -999.2500  -999.2500
   40.0000    76.0645  -999.2500  -999.2500
   40.5000    75.5032  -999.2500  -999.2500
   41.0000    74.9611  -999.2500  -999.2500
   41.5000    74.5240  -999.2500  -999.2500
   42.0000    75.9385  -999.2500  -999.2500
   42.5000    77.8362  -999.2500  -999.2500
   43.0000    79.4051  -999.2500  -999.2500
   43.5000    79.6304  -999.2500  -999.2500
   44.0000    80.2824  -999.2500  -999.2500
   44.5000    81.1312  -999.2500  -999.2500
   45.0000    81.3207  -999.2500  -999.2500
   45.5000    81.3469  -999.2500  -999.2500
   46.0000    83.4747  -999.2500  -999.2500
   46.5000    86.1282  -999.2500  -999.2500
   47.0000    86.8972  -999.2500  -999.2500
   47.5000    88.7910  -999.2500  -999.2500
   48.0000    90.1799  -999.2500  -999.2500
   48.5000    88.7418  -999.2500  -999.2500
   49.0000    87.4327  -999.2500  -999.2500
   49.5000    89.7231  -999.2500  -999.2500
   50.0000    91.1435  -999.2500  -999.2500
   50.5000    88.6103  -999.2500  -999.2500
   51.0000    85.8045  -999.2500  -999.2500
   51.5000    84.7922  -999.2500  -999.2500
   52.0000    84.4818  -999.2500  -999.2500
   52.5000    84.1595  -999.2500  -999.2500
   53.0000    84.6150  -999.2500  -999.2500
   53.5000    84.4802  -999.2500  -999.2500
   54.0000    81.1289  -999.2500  -999.2500
   54.5000    78.4169  -999.2500  -999.2500
   55.0000    81.4689  -999.2500  -999.2500
   55.5000    94.2906  -999.2500  -999.2500
   56.0000   115.2911  -999.2500     4.1246
   56.5000   122.8411    13.0236     3.2618
   57.0000   123.6048     3.6841     3.7475
   57.5000   117.3313     3.2021     6.1095
   58.0000   117.7922     5.0033    12.4040
   58.5000   123.4221    15.0789    16.2265
   59.0000   123.2654  1967.8988    21.1445
   59.5000   120.9240  2031.3230    37.0330
   60.0000   121.5446   125.8055    85.0499
   60.5000   121.7702    17.2797    67.9814
   61.0000   121.6109    10.9918    27.1435
   61.5000   121.5318     9.9861    14.6755
   62.0000   123.1753     9.4910    12.6388
   62.5000   126.8193     9.0204    13.9024
   63.0000   129.1459     8.5960    15.5279
   63.5000   129.1202     8.5960    13.7933
   64.0000   129.1030     9.3899    11.3757
   64.5000   129.9478    10.0562    10.2058
   65.0000   133.3693    10.0562     9.8723
   65.5000   135.5710     9.4573     9.7666
   66.0000   134.5157     8.9854     9.7485
   66.5000   131.5587     8.5170     9.7305
   67.0000   130.4832     8.4388     9.7125
   67.5000   131.8770     8.7346     9.6945
   68.0000   132.3164     9.0854     9.5882
   68.5000   132.7042     9.0619     9.4675
   69.0000   133.0935     9.0265     9.3482
   69.5000   132.1816     8.9915     9.2547
   70.0000   130.3519     8.9567     9.2641
   70.5000   129.1207     8.9195     9.2789
   71.0000   128.2419     8.8996     9.2939
   71.5000   126.5960     8.8784     9.3089
   72.0000   125.9411     8.8570     9.3246
   72.5000   129.6420     8.8373     9.3450
   73.0000   133.6287     8.8122     9.2079
   73.5000   134.1538     8.7840     9.1410
   74.0000   133.8570     8.7561     9.0745
   74.5000   132.1693     8.6533     9.0085
   75.0000   131.2256     8.5528     8.9430
   75.5000   131.5419     8.4535     8.8779
   76.0000   131.7908     8.3554     8.7512
   76.5000   134.3665     8.2584     8.7619
   77.0000   135.9088     8.1625     8.8323
   77.5000   135.1423     8.0596     8.6101
   78.0000   134.2964     7.9544     8.4371
   78.5000   138.5818     7.8528     8.2660
   79.0000   141.0799     7.7062     8.0985
   79.5000   141.4005     7.5623     7.9342
   80.0000   141.6129     7.4210     7.7730
   80.5000   141.8512     7.2804     7.5545
   81.0000   142.6731     7.3695     7.5864
   81.5000   145.5530     7.3968     7.6436
   82.0000   146.7634     7.4406     7.7246
   82.5000   143.2689     7.6658     7.9972
   83.0000   135.7293     7.8979     8.2795
   83.5000   128.2769     8.1370     8.5717
   84.0000   122.7754     8.3623     8.8742
   84.5000   121.5849     8.4541     9.0854
   85.0000   121.5983     8.5405     9.0528
   85.5000   120.1414     8.6273     9.0093
   86.0000   118.2134     8.6757     8.9660
   86.5000   118.3871     8.6490     8.9228
   87.0000   121.9203     8.6187     8.8809
   87.5000   125.4098     8.5883     8.8336
   88.0000   125.3125     8.5581     8.9228
   88.5000   123.3274     8.5279     8.9189
   89.0000   123.5446     8.4979     8.9194
   89.5000   126.1947     8.4679     8.9195
   90.0000   126.0345     8.4388     8.9383
   90.5000   124.3257     8.4951     9.0295
