~VERSION INFORMATION
 VERS.                2.0:   CWLS LOG ASCII STANDARD - VERSION 2.0
 WRAP.                 NO:   ONE LINE PER DEPTH STEP
~WELL INFORMATION
#MNEM.UNIT      DATA TYPE    INFORMATION
#----------   ------------   ------------------------------
 STRT.F            0.0000:   START DEPTH
 STOP.F         2230.0000:   STOP DEPTH
 STEP.F            0.5000:   STEP LENGTH
 NULL.          -999.2500:   NO VALUE
 COMP. LAWRENCE/ALLISON INC:   COMPANY
 WELL. NPR 3 SH X 34 #48-34:   WELL
 FLD .            WILDCAT:   FIELD
 LOC .      S34 T39N R78W:   LOCATION
 CNTY.            NATRONA:   COUNTY
 STAT.            WYOMING:   STATE
 CTRY. UNITED STATES OF AMERICA:   COUNTRY
 SRVC.            Unknown:   SERVICE COMPANY
 DATE.        02-SEP-1991:   LOGDATE
 API .       490251110600:   API NUMBER
~CURVE INFORMATION
#MNEM.UNIT       API CODE    CURVE DESCRIPTION
#----------   ------------   ------------------------------
 DEPT.F                  :   
 ROP .MIN/FT 91 810 01 00:   RAT OF DRILLING PENETRATION
 TGAS.UNITS  91 830 01 00:   TOTAL GAS FROM HOTWIRE
 C1  .VF     91 831 01 00:   METHANE
 C2  .VF     91 832 01 00:   ETHANE
 C3  .VF     91 833 01 00:   PROPANE
 C4  .VF     91 834 01 00:   BUTANE
 TT  .US/F   81 520 00 00:   TRANSIT TIME
 GR  .GAPI   81 310 01 00:   GAMMA RAY FROM CEMENT BOND LOG
~PARAMETER INFORMATION
#MNEM.UNIT          VALUE    DESCRIPTION
#----------   ------------   ------------------------------
 EKB .F              5145:   KELLING BUSHING
 EGL .F              5135:   GROUND LEVEL
 DATE.          09-2-1991:   RUN DATE
 RUN .                  1:   RUN NUMBER
 BLI .F              2400:   BOTTOM LOG INTERVAL
 TLI .F              2200:   TOP LOG INTERVAL
 ENGI.           C. TOWER:   RECORDING ENGINEER
 WITN.            R. HUSK:   WITNESSED BY
 CLNT.            A2DTECH:   CLIENT CODE
 ORIG.           5" PRINT:   ORIGIN OF DATA
 UWI .       490251110600:   UNIQUE WELL ID
 DICO. A2D Technologies, Inc.:   DIGITIZING COMPANY
~OTHER INFORMATION
~A    DEPT     ROP       TGAS         C1         C2         C3         C4          TT         GR  
# ...
 1093.5000     0.7534     6.8304     9.5657     1.8698  -999.2500  -999.2500  -999.2500  -999.2500
 1094.0000     0.7550     6.8444     9.5263     1.8731  -999.2500  -999.2500  -999.2500  -999.2500
 1094.5000     0.7565     6.8585     9.4869     1.8764  -999.2500  -999.2500  -999.2500  -999.2500
 1095.0000     0.7580     6.8726     9.4475     1.8798  -999.2500  -999.2500  -999.2500  -999.2500
 1095.5000     0.7596     6.8866     9.4081     1.8831  -999.2500  -999.2500  -999.2500  -999.2500
 1096.0000     0.7611     6.9007     9.3687     1.8865  -999.2500  -999.2500  -999.2500  -999.2500
 1096.5000     0.7626     6.9147     9.3293     1.8898  -999.2500  -999.2500  -999.2500  -999.2500
 1097.0000     0.7642     6.9288     9.2899     1.8931  -999.2500  -999.2500  -999.2500  -999.2500
 1097.5000     0.7657     6.9429     9.2505     1.8965  -999.2500  -999.2500  -999.2500  -999.2500
 1098.0000     0.7673     6.9569     9.2111     1.8999  -999.2500  -999.2500  -999.2500  -999.2500
 1098.5000     0.7688     6.9710     9.1716     1.9031  -999.2500  -999.2500  -999.2500  -999.2500
 1099.0000     0.7703     6.9850     9.1322     1.9064  -999.2500  -999.2500  -999.2500  -999.2500
 1099.5000     0.7718     6.9991     9.0928     1.9096  -999.2500  -999.2500  -999.2500  -999.2500
 1100.0000     0.7726     7.0131     9.0534     1.9129  -999.2500  -999.2500  -999.2500  -999.2500
 1100.5000     0.7726     7.0272     9.0140     1.9162  -999.2500  -999.2500  -999.2500  -999.2500
 1101.0000     0.7726     7.0413     8.9746     1.9194  -999.2500  -999.2500  -999.2500  -999.2500
 1101.5000     0.7726     7.0553     8.9352     1.9227  -999.2500  -999.2500  -999.2500  -999.2500
 1102.0000     0.7726     7.0694     8.8958     1.9260  -999.2500  -999.2500  -999.2500  -999.2500
 1102.5000     0.7726     7.0834     8.8563     1.9293  -999.2500  -999.2500  -999.2500  -999.2500
 1103.0000     0.7726     7.0975     8.8169     1.9325  -999.2500  -999.2500  -999.2500  -999.2500
 1103.5000     0.7726     7.1115     8.7778     1.9358  -999.2500  -999.2500  -999.2500  -999.2500
 1104.0000     0.7726     7.1256     8.7506     1.9391  -999.2500  -999.2500  -999.2500  -999.2500
 1104.5000     0.7726     7.1397     8.7558     1.9424  -999.2500  -999.2500  -999.2500  -999.2500
 1105.0000     0.7731     7.1537     8.7603     1.9456  -999.2500  -999.2500  -999.2500  -999.2500
 1105.5000     0.7735     7.1678     8.7648     1.9489  -999.2500  -999.2500  -999.2500  -999.2500
 1106.0000     0.7740     7.1818     8.7693     1.9522  -999.2500  -999.2500  -999.2500  -999.2500
 1106.5000     0.7744     7.1959     8.7738     1.9555  -999.2500  -999.2500  -999.2500  -999.2500
 1107.0000     0.7749     7.2100     8.7782     1.9587  -999.2500  -999.2500  -999.2500  -999.2500
 1107.5000     0.7753     7.2240     8.7827     1.9620  -999.2500  -999.2500  -999.2500  -999.2500
 1108.0000     0.7757     7.2381     8.7872     1.9653  -999.2500  -999.2500  -999.2500  -999.2500
 1108.5000     0.7762     7.2521     8.7917     1.9685  -999.2500  -999.2500  -999.2500  -999.2500
 1109.0000     0.7766     7.2662     8.7962     1.9718  -999.2500  -999.2500  -999.2500  -999.2500
 1109.5000     0.7771     7.2803     8.8007     1.9751  -999.2500  -999.2500  -999.2500  -999.2500
 1110.0000     0.7775     7.2943     8.8052     1.9784  -999.2500  -999.2500  -999.2500  -999.2500
 1110.5000     0.7780     7.3084     8.8097     1.9816  -999.2500  -999.2500  -999.2500  -999.2500
 1111.0000     0.7784     7.3224     8.8141     1.9849  -999.2500  -999.2500  -999.2500  -999.2500
 1111.5000     0.7789     7.3365     8.8186     1.9882  -999.2500  -999.2500  -999.2500  -999.2500
 1112.0000     0.7793     7.3506     8.8231     1.9915  -999.2500  -999.2500  -999.2500  -999.2500
 1112.5000     0.7797     7.3646     8.8276     1.9947  -999.2500  -999.2500  -999.2500  -999.2500
 1113.0000     0.7802     7.3787     8.8321     1.9980  -999.2500  -999.2500  -999.2500  -999.2500
 1113.5000     0.7806     7.3927     8.8366     2.0013  -999.2500  -999.2500  -999.2500  -999.2500
 1114.0000     0.7811     7.4068     8.8410     2.0045  -999.2500  -999.2500  -999.2500  -999.2500
 1114.5000     0.7815     7.4208     8.8455     2.0078  -999.2500  -999.2500  -999.2500  -999.2500
 1115.0000     0.7819     7.4349     8.8500     2.0111  -999.2500  -999.2500  -999.2500  -999.2500
 1115.5000     0.7824     7.4490     8.8545     2.0144  -999.2500  -999.2500  -999.2500  -999.2500
 1116.0000     0.7828     7.4630     8.8590     2.0176  -999.2500  -999.2500  -999.2500  -999.2500
 1116.5000     0.7833     7.4771     8.8635     2.0209  -999.2500  -999.2500  -999.2500  -999.2500
 1117.0000     0.7837     7.4911     8.8680     2.0242  -999.2500  -999.2500  -999.2500  -999.2500
 1117.5000     0.7841     7.5052     8.8724     2.0275  -999.2500  -999.2500  -999.2500  -999.2500
 1118.0000     0.7847     7.5193     8.8769     2.0307  -999.2500  -999.2500  -999.2500  -999.2500
 1118.5000     0.7863     7.5333     8.8814     2.0340  -999.2500  -999.2500  -999.2500  -999.2500
 1119.0000     0.7570     7.5474     8.8859     2.0373  -999.2500  -999.2500  -999.2500  -999.2500
 1119.5000     0.6804     7.5614     8.8904     2.0406  -999.2500  -999.2500  -999.2500  -999.2500
 1120.0000     0.6033     7.5755     8.8949     2.0438  -999.2500  -999.2500  -999.2500  -999.2500
 1120.5000     0.6230     7.5896     8.8993     2.0471  -999.2500  -999.2500  -999.2500  -999.2500
 1121.0000     0.6772     7.6036     8.9038     2.0504  -999.2500  -999.2500  -999.2500  -999.2500
 1121.5000     0.7326     7.6177     8.9083     2.0537  -999.2500  -999.2500  -999.2500  -999.2500
 1122.0000     0.7843     7.6317     8.9128     2.0569  -999.2500  -999.2500  -999.2500  -999.2500
 1122.5000     0.7837     7.6458     8.9173     2.0602  -999.2500  -999.2500  -999.2500  -999.2500
 1123.0000     0.7814     7.6598     8.9218     2.0635  -999.2500  -999.2500  -999.2500  -999.2500
 1123.5000     0.7792     7.6739     8.9263     2.0668  -999.2500  -999.2500  -999.2500  -999.2500
 1124.0000     0.7771     7.6880     8.9307     2.0700  -999.2500  -999.2500  -999.2500  -999.2500
 1124.5000     0.7750     7.7020     8.9352     2.0733  -999.2500  -999.2500  -999.2500  -999.2500
 1125.0000     0.7729     7.7161     8.9397     2.0766  -999.2500  -999.2500  -999.2500  -999.2500
 1125.5000     0.7708     7.7301     8.9442     2.0798  -999.2500  -999.2500  -999.2500  -999.2500
 1126.0000     0.7687     7.7442     8.9487     2.0831  -999.2500  -999.2500  -999.2500  -999.2500
 1126.5000     0.7666     7.7583     8.9532     2.0864  -999.2500  -999.2500  -999.2500  -999.2500
 1127.0000     0.7645     7.7723     8.9576     2.0897  -999.2500  -999.2500  -999.2500  -999.2500
 1127.5000     0.7622     7.7864     8.9621     2.0929  -999.2500  -999.2500  -999.2500  -999.2500
 1128.0000     0.7603     7.8004     8.9666     2.0963  -999.2500  -999.2500  -999.2500  -999.2500
 1128.5000     0.8102     7.8145     8.9711     2.1004  -999.2500  -999.2500  -999.2500  -999.2500
 1129.0000     0.8688     7.8285     8.9756     2.0749  -999.2500  -999.2500  -999.2500  -999.2500
 1129.5000     0.9267     7.8426     8.9801     2.0454  -999.2500  -999.2500  -999.2500  -999.2500
 1130.0000     0.9646     7.8567     8.9846     2.0156  -999.2500  -999.2500  -999.2500  -999.2500
 1130.5000     0.9071     7.8707     8.9890     1.9858  -999.2500  -999.2500  -999.2500  -999.2500
 1131.0000     0.8515     7.8848     8.9935     1.9561  -999.2500  -999.2500  -999.2500  -999.2500
 1131.5000     0.7966     7.8988     8.9980     1.9264  -999.2500  -999.2500  -999.2500  -999.2500
 1132.0000     0.7610     7.9129     9.0025     1.8967  -999.2500  -999.2500  -999.2500  -999.2500
 1132.5000     0.7671     7.9270     9.0070     1.8670  -999.2500  -999.2500  -999.2500  -999.2500
 1133.0000     0.7723     7.9410     9.0115     1.8373  -999.2500  -999.2500  -999.2500  -999.2500
 1133.5000     0.7775     7.9551     9.0159     1.8076  -999.2500  -999.2500  -999.2500  -999.2500
