~VERSION INFORMATION
 VERS.                2.0:   CWLS LOG ASCII STANDARD - VERSION 2.0
 WRAP.                 NO:   ONE LINE PER DEPTH STEP
~WELL INFORMATION
#MNEM.UNIT      DATA TYPE    INFORMATION
#----------   ------------   ------------------------------
 STRT.F            0.0000:   START DEPTH
 STOP.F          384.0000:   STOP DEPTH
 STEP.F            0.5000:   STEP LENGTH
 NULL.          -999.2500:   NO VALUE
 COMP. DEPARTMENT OF ENERGY:   COMPANY
 WELL. NPR 3 #65-15 SX3 C4:   WELL
 FLD .        TEAPOT EAST:   FIELD
 LOC .       S3 T38N R78W:   LOCATION
 CNTY.            NATRONA:   COUNTY
 STAT.            WYOMING:   STATE
 CTRY. UNITED STATES OF AMERICA:   COUNTRY
 SRVC.      Dresser Atlas:   SERVICE COMPANY
 DATE.        02-JUL-1985:   LOGDATE
 API .       490251134600:   API NUMBER
~CURVE INFORMATION
#MNEM.UNIT       API CODE    CURVE DESCRIPTION
#----------   ------------   ------------------------------
 DEPT.F                  :   
 CALD.IN     45 280 60 00:   CALIPER FROM DENSITY LOG
 CORR.G/C3   45 356 01 00:   DENSITY CORRECTION
 DEN .G/C3   45 350 01 00:   COMPENSATED BULK DENSTIY
 NPOR.DEC    42 890 03 00:   NEUTRON POROSITY SANDSTONE
 PORD.DEC    45 890 12 00:   POROSITY DENSITY SANDSTONE
 GRR .GAPI   07 310 01 00:   GAMMA RAY
 RILD.OHMM   07 120 46 00:   INDUCTION LOG DEEP RESISTIVITY
 RILM.OHMM   07 120 44 00:   RESITIVITY LONG MEDIUM
~PARAMETER INFORMATION
#MNEM.UNIT          VALUE    DESCRIPTION
#----------   ------------   ------------------------------
 PD  .                 GL:   PERMANENT DATUM
 EPD .F              5162:   ELEVATION PERMANENT DATUM
 LMF .                 GL:   LOG MEASURED FROM
 DMF .                 GL:   DRILLING MEASURED FROM
 EGL .F              5162:   GROUND LEVEL
 DATE.        02-JUL-1985:   RUN DATE
 RUN .                  1:   RUN NUMBER
 DD  .F               399:   DEPTH DRILLER
 DL  .F               388:   DEPTH LOGGER
 BLI .F               380:   BOTTOM LOG INTERVAL
 CS  .IN                7:   CASING SIZE
 CBD .F                80:   CASING BOTTOM DRILLER
 CBL .F                68:   CASING BOTTOM LOGGER
 BS  .IN            4.875:   BIT SIZE
 BSD .F               399:   BIT SIZE AT DEPTH
 DFT .                OIL:   DRILLING FLUID TYPE
 TCS .HRS               4:   TIME CURCULATED STOPPED
 MRT .F               158:   MAXIMUM RECORDED TEMPERATURE
 LUN .               6274:   LOGGING UNIT NUMBER
 LUL .           GILLETTE:   LOGGING UNIT LOCATION
 ENGI.             RAUTIO:   RECORDING ENGINEER
 WITN.            SCHULTE:   WITNESSED BY
 CLNT.            A2DTECH:   CLIENT CODE
 ORIG.           5" PRINT:   ORIGIN OF DATA
 UWI .       490251134600:   UNIQUE WELL ID
 DICO. A2D Technologies, Inc.:   DIGITIZING COMPANY
~OTHER INFORMATION
~A    DEPT    CALD       CORR        DEN       NPOR       PORD         GRR      RILD       RILM   
# ...
   81.0000     6.6008     0.0648     2.4583     0.2688     0.1151   127.2609     7.4946     7.8994
   81.5000     6.6022     0.0663     2.4531     0.2721     0.1175   124.7960     7.4496     8.1253
   82.0000     6.5881     0.0678     2.4458     0.2757     0.1199   120.9445     7.5618     8.1874
   82.5000     6.5742     0.0725     2.4407     0.2726     0.1226   124.0043     7.8506     8.3075
   83.0000     6.5907     0.0754     2.4362     0.2708     0.1262   126.7552     8.2932     8.4294
   83.5000     6.5919     0.0514     2.4370     0.2696     0.1280   129.8091     8.4758     8.6127
   84.0000     6.5931     0.0379     2.4454     0.2684     0.1274   131.9539     8.6625     8.6786
   84.5000     6.5943     0.0499     2.4537     0.2675     0.1207   130.7654     8.8533     8.6844
   85.0000     6.5957     0.0650     2.4576     0.2659     0.1162   125.0315     9.0482     8.6904
   85.5000     6.5969     0.0785     2.4531     0.2629     0.1155   122.3278     9.2475     8.7582
   86.0000     6.5981     0.0861     2.4432     0.2583     0.1219   121.7454     9.3857     8.8867
   86.5000     6.5993     0.0891     2.4353     0.2556     0.1264   121.7697     9.5324     9.0170
   87.0000     6.6004     0.0474     2.4338     0.2562     0.1285   120.8894     9.7380     9.4071
   87.5000     6.6016     0.0140     2.4392     0.2571     0.1288   118.7918     9.8836     9.5451
   88.0000     6.6178     0.0306     2.4430     0.2541     0.1260   115.7851    10.0313     9.6852
   88.5000     6.6190     0.0441     2.4483     0.2499     0.1224   113.9906    10.2522     9.8965
   89.0000     6.6202     0.0487     2.4536     0.2441     0.1191   114.0142    10.5510    10.1210
   89.5000     6.6063     0.0547     2.4582     0.2435     0.1151   115.5529    10.7833    10.4045
   90.0000     6.6075     0.0682     2.4576     0.2426     0.1160   115.8796    11.0208    10.5572
   90.5000     6.6104     0.0759     2.4486     0.2411     0.1184   113.7820    11.2636    10.7867
   91.0000     6.6252     0.0563     2.4519     0.2395     0.1190   113.1995    11.4461    10.8692
   91.5000     6.6263     0.0316     2.4578     0.2362     0.1166   113.5321    11.6055    11.0287
   92.0000     6.6122     0.0007     2.4564     0.2372     0.1153   113.2527    11.6974    11.1905
   92.5000     6.6137     0.0053     2.4482     0.2398     0.1184   111.4581    11.7900    11.2762
   93.0000     6.6299     0.0203     2.4385     0.2386     0.1253   108.1484    11.8834    11.2055
   93.5000     6.6157     0.0233     2.4280     0.2389     0.1301   105.4447    11.8095    11.0584
   94.0000     6.6172     0.0098     2.4228     0.2389     0.1340   104.2503    11.7416    10.9892
   94.5000     6.6184     0.0023     2.4213     0.2382     0.1389   104.5828    11.5906    10.9205
   95.0000     6.6195     0.0309     2.4313     0.2373     0.1349   106.1216    11.3623    10.7789
   95.5000     6.6208     0.0415     2.4465     0.2367     0.1225   108.8970    11.1411    10.7112
   96.0000     6.6222     0.0400     2.4539     0.2337     0.1176   111.3212    10.9978    10.5708
   96.5000     6.6233     0.0400     2.4480     0.2361     0.1200   111.3499    10.8563    10.4257
   97.0000     6.6245     0.0506     2.4368     0.2379     0.1273   110.4644    10.7913    10.2238
   97.5000     6.6407     0.0626     2.4264     0.2397     0.1357   109.8760    10.7242    10.1598
   98.0000     6.6266     0.0641     2.4182     0.2406     0.1421   109.9055    10.7369     9.9587
   98.5000     6.6431     0.0491     2.4167     0.2415     0.1411   111.7473    10.6726     9.8263
   99.0000     6.6443     0.0341     2.4161     0.2418     0.1408   114.1952    10.6899     9.7665
   99.5000     6.6454     0.0176     2.4124     0.2411     0.1435   117.5521    10.7699     9.9097
  100.0000     6.6466     0.0297     2.4080     0.2390     0.1453   117.8788    10.7801    10.1252
  100.5000     6.6328     0.0694     2.4117     0.2375     0.1417   108.2024    11.0175     9.8533
  101.0000     6.6342     0.0742     2.4329     0.2345     0.1356   105.7959    11.1047    10.0692
  101.5000     6.6201     0.0648     2.4465     0.2315     0.1211   103.6924    11.1152    10.1463
  102.0000     6.6215     0.0554     2.4503     0.2300     0.1209   104.0131    11.1257    10.2256
  102.5000     6.6074     0.0460     2.4407     0.2302     0.1287   108.2732    10.9824    10.2324
  103.0000     6.5935     0.0512     2.4355     0.2324     0.1298   112.8526    10.6879    10.1667
  103.5000     6.5950     0.0701     2.4446     0.2357     0.1247   116.5293    10.3965     9.9654
  104.0000     6.5962     0.0918     2.4446     0.2384     0.1231   116.2094    10.1353     9.8544
  104.5000     6.5973     0.0963     2.4417     0.2411     0.1246   113.8029    10.0050     9.7054
  105.0000     6.6136     0.0889     2.4388     0.2432     0.1264   112.3010     9.9451     9.5780
  105.5000     6.6147     0.0859     2.4397     0.2447     0.1276   114.7473     9.8832     9.4460
  106.0000     6.6310     0.0800     2.4457     0.2456     0.1261   116.2801     9.7584     9.2009
  106.5000     6.6324     0.0665     2.4525     0.2462     0.1193   115.0857     9.7676     9.0172
  107.0000     6.6336     0.0605     2.4571     0.2465     0.1152   112.3761     9.7083     8.9594
  107.5000     6.6348     0.0699     2.4632     0.2465     0.1125   110.8687     9.6425     8.9048
  108.0000     6.6206     0.0802     2.4655     0.2465     0.1109   110.9414     9.5269     8.9108
  108.5000     6.6221     0.0502     2.4618     0.2465     0.1133   112.1305     9.3415     8.9168
  109.0000     6.6082     0.0368     2.4559     0.2465     0.1169   112.4513     9.2191     8.8610
  109.5000     6.6094     0.0519     2.4492     0.2468     0.1209   113.0750     9.1005     8.8670
  110.0000     6.6106     0.0760     2.4408     0.2477     0.1246   113.3957     9.0461     8.7506
  110.5000     6.6268     0.0805     2.4309     0.2483     0.1308   113.1059     8.9938     8.6371
  111.0000     6.6280     0.0731     2.4224     0.2471     0.1383   110.7038     9.0026     8.5237
  111.5000     6.6292     0.0792     2.4180     0.2456     0.1416   108.6003     9.0741     8.5294
  112.0000     6.6306     0.0914     2.4278     0.2453     0.1368   106.4967     9.0846     8.6546
  112.5000     6.6468     0.0943     2.4407     0.2450     0.1304   107.4747     9.0917     8.7207
  113.0000     6.6480     0.0703     2.4445     0.2441     0.1247   108.0472     9.1018     8.7875
  113.5000     6.6642     0.0523     2.4416     0.2417     0.1247   105.0390     9.1739     8.7948
  114.0000     6.6654     0.0419     2.4415     0.2341     0.1262   103.8402     9.1819     8.6793
  114.5000     6.6512     0.0359     2.4515     0.2311     0.1219   105.6805     9.1908     8.6236
  115.0000     6.6527     0.0540     2.4637     0.2389     0.1147   107.5163     9.2640     8.5104
  115.5000     6.6539     0.0751     2.4667     0.2453     0.1113   110.2613     9.2086     8.4000
  116.0000     6.6550     0.0935     2.4562     0.2495     0.1164   109.3699     9.1535     8.3472
  116.5000     6.6562     0.0873     2.4435     0.2504     0.1243   107.5475     8.9753     8.2379
  117.0000     6.6574     0.0783     2.4338     0.2519     0.1304   107.2840     8.8598     8.1816
  117.5000     6.6589     0.0709     2.4271     0.2528     0.1366   110.0334     8.7127     8.0243
  118.0000     6.6447     0.0709     2.4249     0.2531     0.1318   113.3844     8.5122     7.8641
  118.5000     6.6462     0.0830     2.4416     0.2524     0.1254   115.8263     8.2888     7.6537
  119.0000     6.6474     0.0951     2.4499     0.2516     0.1206   117.6622     8.0692     7.2954
  119.5000     6.6485     0.1013     2.4568     0.2522     0.1163   118.5890     7.7998     6.9539
  120.0000     6.6497     0.0847     2.4598     0.2573     0.1145   116.4854     7.5353     6.8150
  120.5000     6.6509     0.0679     2.4591     0.2606     0.1151   112.8668     7.3440     6.7724
  121.0000     6.6370     0.0578     2.4547     0.2603     0.1247   110.7354     7.2478     6.7771
