~VERSION INFORMATION
 VERS.                2.0:   CWLS LOG ASCII STANDARD - VERSION 2.0
 WRAP.                 NO:   ONE LINE PER DEPTH STEP
~WELL INFORMATION
#MNEM.UNIT      DATA TYPE    INFORMATION
#----------   ------------   ------------------------------
 STRT.F            1.0000:   START DEPTH
 STOP.F          478.0000:   STOP DEPTH
 STEP.F            0.1000:   STEP LENGTH
 NULL.          -999.2500:   NO VALUE
 COMP. LAWRENCE/ALLISON INC:   COMPANY
 WELL.     58-61 SX #58-3:   WELL
 FLD .             TEAPOT:   FIELD
 LOC .       S3 T38N R78W:   LOCATION
 CNTY.            NATRONA:   COUNTY
 STAT.            WYOMING:   STATE
 CTRY. UNITED STATES OF AMERICA:   COUNTRY
 SRVC.           Gearhart:   SERVICE COMPANY
 DATE.        08-JUL-1988:   LOGDATE
 API .       490251123400:   API NUMBER
~CURVE INFORMATION
#MNEM.UNIT       API CODE    CURVE DESCRIPTION
#----------   ------------   ------------------------------
 DEPT.F                  :   
 GRR .GAPI   07 310 01 00:   GAMMA RAY
 RILD.OHMM   07 120 46 00:   INDUCTION LOG DEEP RESISTIVITY
 RILM.OHMM   07 120 44 00:   INDUCTION LOG MEDIUM RESISTIVITY
~PARAMETER INFORMATION
#MNEM.UNIT          VALUE    DESCRIPTION
#----------   ------------   ------------------------------
 PD  .                 GL:   PERMANENT DATUM
 EPD .F              5184:   ELEVATION PERMANENT DATUM
 LMF .                 KB:   LOG MEASURED FROM
 DAPD.F                 5:   FEET ABOVE PERMANENT DATUM
 DMF .                 KB:   DRILLING MEASURED FROM
 EKB .F              5189:   KELLING BUSHING
 EGL .F              5184:   GROUND LEVEL
 DATE.        08-JUL-1988:   RUN DATE
 RUN .                  1:   RUN NUMBER
 DD  .F               485:   DEPTH DRILLER
 DL  .F               486:   DEPTH LOGGER
 BLI .F               478:   BOTTOM LOG INTERVAL
 CS  .IN            9.625:   CASING SIZE
 CBD .F                45:   CASING BOTTOM DRILLER
 CBL .F                44:   CASING BOTTOM LOGGER
 BS  .IN             8.75:   BIT SIZE
 BSD .F               485:   BIT SIZE AT DEPTH
 DFT .                AIR:   DRILLING FLUID TYPE
 TCS .HRS            2200:   TIME CURCULATED STOPPED
 TLAB.HRS            2315:   TIME LOGGER AT BOTTOM
 LUN .               7597:   LOGGING UNIT NUMBER
 LUL .           GILLETTE:   LOGGING UNIT LOCATION
 ENGI.           JOHNSTON:   RECORDING ENGINEER
 WITN.              FIVAS:   WITNESSED BY
 CLNT.            A2DTECH:   CLIENT CODE
 ORIG.           5" PRINT:   ORIGIN OF DATA
 UWI .       490251123400:   UNIQUE WELL ID
 DICO. A2D Technologies, Inc.:   DIGITIZING COMPANY
~OTHER INFORMATION
~A    DEPT     GRR       RILD       RILM   
# ...
  183.0000   138.1872     3.1433     3.2432
  183.1000   137.0671     3.1255     3.1703
  183.2000   136.4370     3.0999     3.0685
  183.3000   135.5486     3.0685     2.9351
  183.4000   134.6647     3.0508     2.8181
  183.5000   133.8907     3.0338     2.7560
  183.6000   132.8391     3.0294     2.7169
  183.7000   132.1578     3.0117     2.6783
  183.8000   131.2522     2.9824     2.6414
  183.9000   130.3855     2.9663     2.6270
  184.0000   129.5376     2.9663     2.6269
  184.1000   128.3078     2.9525     2.6268
  184.2000   127.3296     2.9358     2.6267
  184.3000   126.7256     2.9249     2.6319
  184.4000   126.1062     2.9229     2.6468
  184.5000   125.4456     2.9045     2.6634
  184.6000   124.9574     2.9044     2.6633
  184.7000   124.3886     2.9153     2.6632
  184.8000   123.7754     2.9318     2.6760
  184.9000   122.8927     2.9485     2.7034
  185.0000   122.1851     2.9659     2.7193
  185.1000   121.9763     2.9984     2.7341
  185.2000   121.9816     3.0326     2.7610
  185.3000   122.4310     3.0847     2.7845
  185.4000   122.9277     3.1506     2.8002
  185.5000   123.4244     3.2057     2.8170
  185.6000   123.9720     3.2982     2.8653
  185.7000   124.7339     3.3778     2.9013
  185.8000   125.6979     3.4554     2.9438
  185.9000   127.0525     3.5415     2.9999
  186.0000   128.4087     3.6452     3.0686
  186.1000   129.5759     3.7885     3.1484
  186.2000   130.5868     3.8640     3.2111
  186.3000   132.3474     3.9385     3.2848
  186.4000   133.3504     4.0060     3.3601
  186.5000   134.8711     4.0747     3.4404
  186.6000   136.5135     4.1491     3.5455
  186.7000   137.9951     4.2159     3.6412
  186.8000   139.6521     4.2883     3.7309
  186.9000   140.7415     4.3502     3.8269
  187.0000   141.6571     4.3997     3.9367
  187.1000   142.3999     4.4499     4.0494
  187.2000   143.1429     4.5007     4.1425
  187.3000   143.9219     4.5925     4.2376
  187.4000   144.1602     4.6834     4.3620
  187.5000   144.5877     4.7553     4.5128
  187.6000   144.9647     4.8116     4.6643
  187.7000   145.2152     4.9072     4.7882
  187.8000   145.4657     4.9784     4.8810
  187.9000   145.7161     5.0639     4.9930
  188.0000   145.9666     5.1396     5.1074
  188.1000   146.0801     5.2025     5.2243
  188.2000   146.0844     5.2996     5.3544
  188.3000   146.1111     5.3828     5.4384
  188.4000   146.3970     5.4540     5.5316
  188.5000   146.4006     5.5304     5.6264
  188.6000   146.5591     5.6252     5.7227
  188.7000   146.9064     5.7233     5.8223
  188.8000   147.3634     5.8200     5.9206
  188.9000   147.6319     5.9200     6.0221
  189.0000   148.0931     6.0038     6.1072
  189.1000   148.5898     6.0723     6.1868
  189.2000   149.3147     6.1433     6.2888
  189.3000   150.2470     6.2679     6.3308
  189.4000   150.9912     6.2971     6.3900
  189.5000   151.2413     6.3756     6.4627
  189.6000   151.4918     6.4586     6.5229
  189.7000   151.4796     6.4998     6.5644
  189.8000   151.3117     6.5821     6.6473
  189.9000   151.3159     6.6490     6.6808
  190.0000   151.3209     6.6997     6.6935
  190.1000   150.9129     6.7378     6.7094
  190.2000   150.4247     6.7761     6.7473
  190.3000   150.0277     6.8161     6.7869
  190.4000   149.7857     6.8533     6.7867
  190.5000   149.5209     6.8638     6.8145
  190.6000   149.0788     6.8830     6.8338
  190.7000   148.5906     6.9221     6.8437
  190.8000   147.9940     6.9602     6.8812
  190.9000   147.3107     6.9601     6.8809
  191.0000   146.8104     6.9600     6.8806
  191.1000   146.5744     6.9823     6.8803
  191.2000   146.1495     7.0087     6.8800
  191.3000   145.6613     7.0086     6.8797
  191.4000   145.2415     7.0085     6.8794
  191.5000   144.9884     7.0084     6.8791
  191.6000   144.4087     7.0083     6.8789
  191.7000   144.0120     6.9923     6.8786
  191.8000   143.5237     6.9592     6.8717
  191.9000   143.0355     6.9591     6.8300
  192.0000   142.5191     6.9222     6.7935
  192.1000   141.6982     6.8829     6.7548
  192.2000   141.4847     6.8438     6.7163
  192.3000   141.4027     6.8049     6.6779
  192.4000   141.4070     6.7660     6.6401
  192.5000   141.4112     6.6896     6.6398
  192.6000   141.4157     6.6431     6.5816
  192.7000   141.6542     6.5852     6.5269
  192.8000   142.0820     6.5221     6.4784
  192.9000   142.5786     6.4822     6.4049
  193.0000   143.0753     6.3976     6.3210
  193.1000   143.5721     6.3366     6.2906
  193.2000   144.0688     6.2866     6.2547
  193.3000   144.7599     6.2376     6.2057
  193.4000   145.3657     6.1721     6.1404
  193.5000   145.9424     6.1340     6.1023
  193.6000   146.6627     6.0708     6.0081
  193.7000   147.2291     6.0022     5.9292
  193.8000   147.6560     5.9493     5.8620
  193.9000   147.9984     5.9012     5.8025
  194.0000   148.3460     5.7996     5.7689
  194.1000   148.8825     5.7673     5.6730
  194.2000   149.6780     5.7103     5.6245
  194.3000   150.1396     5.6622     5.5599
  194.4000   150.4647     5.6210     5.4833
  194.5000   150.8296     5.5574     5.4487
  194.6000   151.2692     5.4834     5.3400
  194.7000   151.5199     5.4578     5.3150
  194.8000   151.7702     5.3910     5.2847
  194.9000   152.0206     5.3210     5.2440
  195.0000   152.2711     5.2908     5.1882
  195.1000   152.5216     5.2575     5.1553
  195.2000   152.7891     5.2046     5.1291
  195.3000   153.3670     5.1458     5.0999
  195.4000   153.5765     5.0998     5.0708
  195.5000   153.5296     5.0709     5.0419
  195.6000   153.1961     5.0410     5.0120
  195.7000   152.7079     5.0135     4.9845
  195.8000   152.1740     4.9646     4.9561
  195.9000   151.5083     4.9360     4.9278
  196.0000   150.7739     4.9359     4.9070
  196.1000   150.1481     4.9359     4.9068
  196.2000   149.5572     4.9358     4.9066
  196.3000   148.5531     4.9582     4.9512
  196.4000   147.3553     4.9863     4.9914
  196.5000   146.1284     5.0147     5.0196
  196.6000   145.0274     5.0460     5.0508
  196.7000   143.9782     5.1112     5.1159
  196.8000   142.7625     5.1364     5.1665
  196.9000   141.5990     5.1844     5.2253
  197.0000   141.0015     5.2435     5.2726
  197.1000   140.2671     5.3033     5.3076
  197.2000   139.7042     5.3675     5.3717
  197.3000   139.4902     5.4250     5.4291
  197.4000   139.4955     5.4869     5.4688
  197.5000   139.4993     5.5495     5.5146
  197.6000   139.6637     5.6050     5.5697
  197.7000   140.1202     5.6371     5.6011
  197.8000   140.8174     5.7015     5.6328
  197.9000   141.3374     5.7665     5.7150
  198.0000   141.8108     5.8143     5.7770
  198.1000   142.6624     5.8577     5.8303
  198.2000   143.4113     5.9244     5.9274
  198.3000   143.9709     6.0026     6.0054
  198.4000   144.7138     6.0605     6.0632
  198.5000   145.4568     6.1082     6.1322
  198.6000   146.1997     6.1563     6.2019
  198.7000   146.9426     6.2264     6.2724
  198.8000   147.6055     6.3035     6.3499
  198.9000   148.0793     6.3363     6.4161
  199.0000   148.3648     6.3971     6.4639
  199.1000   149.0040     6.4701     6.5172
  199.2000   149.7469     6.5520     6.5913
  199.3000   150.2952     6.6661     6.6674
  199.4000   150.6258     6.7410     6.7045
  199.5000   151.4206     6.8180     6.7714
  199.6000   151.6536     6.9163     6.8281
  199.7000   152.0759     7.0233     6.8893
  199.8000   152.4581     7.1034     7.0028
  199.9000   152.7085     7.1989     7.0495
  200.0000   152.9590     7.2056     7.0778
  200.1000   152.9639     7.2137     7.1123
  200.2000   153.3402     7.2218     7.1468
  200.3000   153.5806     7.2300     7.1813
  200.4000   153.5854     7.2381     7.2157
  200.5000   153.5901     7.2462     7.2494
  200.6000   153.3414     7.2744     7.2494
  200.7000   153.1017     7.3154     7.2813
  200.8000   152.5900     7.3567     7.3224
  200.9000   151.8610     7.4032     7.3637
  201.0000   151.1502     7.4399     7.4074
  201.1000   150.5853     7.5089     7.5075
