~VERSION INFORMATION
 VERS.                2.0:   CWLS LOG ASCII STANDARD - VERSION 2.0
 WRAP.                 NO:   ONE LINE PER DEPTH STEP
~WELL INFORMATION
#MNEM.UNIT      DATA TYPE    INFORMATION
#----------   ------------   ------------------------------
 STRT.F            0.0000:   START DEPTH
 STOP.F          984.0000:   STOP DEPTH
 STEP.F            0.5000:   STEP LENGTH
 NULL.          -999.2500:   NO VALUE
 COMP. LAWRENCE/ALLISON INC:   COMPANY
 WELL.     NPR 3 #51-X-11:   WELL
 FLD .             TEAPOT:   FIELD
 LOC .      S11 T38N R78W:   LOCATION
 CNTY.            NATRONA:   COUNTY
 STAT.            WYOMING:   STATE
 CTRY. UNITED STATES OF AMERICA:   COUNTRY
 SRVC.           Gearhart:   SERVICE COMPANY
 DATE.        22-AUG-1988:   LOGDATE
 API .       490251125400:   API NUMBER
~CURVE INFORMATION
#MNEM.UNIT       API CODE    CURVE DESCRIPTION
#----------   ------------   ------------------------------
 DEPT.F                  :   
 GRR .GAPI   07 310 01 00:   GAMMA RAY FROM RES. LOG.
 ILM .OHMM   07 120 44 00:   INDUCTION LOG MEDIUM
 ILD .OHMM   07 120 46 00:   INDUCTION LOG DEEP
~PARAMETER INFORMATION
#MNEM.UNIT          VALUE    DESCRIPTION
#----------   ------------   ------------------------------
 PD  .                 GL:   PERMANENT DATUM
 EPD .F              5187:   ELEVATION PERMANENT DATUM
 LMF .                 KB:   LOG MEASURED FROM
 DAPD.F                10:   FEET ABOVE PERMANENT DATUM
 DMF .                 KB:   DRILLING MEASURED FROM
 EKB .F              5197:   KELLING BUSHING
 EGL .F              5187:   GROUND LEVEL
 DATE.            8-22-88:   RUN DATE
 RUN .                  1:   RUN NUMBER
 DD  .F              1000:   DEPTH DRILLER
 DL  .F               992:   DEPTH LOGGER
 BLI .F             983.5:   BOTTOM LOG INTERVAL
 CS  .IN            9.625:   CASING SIZE
 CBD .F                49:   CASING BOTTOM DRILLER
 CBL .F                49:   CASING BOTTOM LOGGER
 BS  .IN             8.75:   BIT SIZE
 BSD .F              1000:   BIT SIZE AT DEPTH
 DFT .                AIR:   DRILLING FLUID TYPE
 BHT .F                70:   BOTTOM HOLE TEMPERATURE
 TLAB.HRS            0300:   TIME LOGGER AT BOTTOM
 MRT .F                70:   MAXIMUM RECORDED TEMPERATURE
 LUN .               7609:   LOGGING UNIT NUMBER
 LUL .           GILLETTE:   LOGGING UNIT LOCATION
 ENGI.          HUCKFELDT:   RECORDING ENGINEER
 WITN.             STRONG:   WITNESSED BY
 CLNT.            A2DTECH:   CLIENT CODE
 ORIG.      1" 2.5" PRINT:   ORIGIN OF DATA
 UWI .       490251125400:   UNIQUE WELL ID
 DICO. A2D Technologies, Inc.:   DIGITIZING COMPANY
~OTHER INFORMATION
~A    DEPT      GRR       ILM        ILD   
# ...
  455.0000   115.6319     6.1988     6.3988
  455.5000   113.4148     6.2737     6.4342
  456.0000   111.5357     6.3494     6.4859
  456.5000   109.4997     6.4261     6.5195
  457.0000   110.4206     6.5037     6.5195
  457.5000   111.5505     6.4698     6.5195
  458.0000   110.7982     6.4079     6.5195
  458.5000   108.9111     6.3467     6.5195
  459.0000   107.3023     6.2860     6.5195
  459.5000   105.4398     6.2260     6.4724
  460.0000   105.2980     6.1642     6.3988
  460.5000   105.2497     6.2597     6.4695
  461.0000   105.2912     6.3607     6.5950
  461.5000   105.2813     6.4633     6.7228
  462.0000   105.2672     6.5676     6.8957
  462.5000   105.2915     6.6301     6.8743
  463.0000   105.2997     6.5877     6.8015
  463.5000   105.1912     6.5457     6.7292
  464.0000   106.5387     6.5039     6.6577
  464.5000   108.4156     6.4624     6.5868
  465.0000   107.4127     6.4212     6.5168
  465.5000   106.5064     6.3660     6.4476
  466.0000   105.4774     6.2945     6.3929
  466.5000   104.5554     6.2238     6.3725
  467.0000   103.7873     6.1539     6.3521
  467.5000   105.3069     6.0847     6.3319
  468.0000   107.4664     6.0164     6.3116
  468.5000   109.9379     5.9381     6.2804
  469.0000   111.6754     6.0069     6.3163
  469.5000   111.3469     6.0899     6.3957
  470.0000   111.0821     6.1740     6.4773
  470.5000   111.6873     6.2593     6.5599
  471.0000   112.4728     6.3458     6.6435
  471.5000   110.5931     6.4334     6.7281
  472.0000   108.5477     6.5223     6.8137
  472.5000   106.9283     6.6124     6.9004
  473.0000   107.4926     6.7037     6.9882
  473.5000   108.3039     6.7963     7.0771
  474.0000   107.5879     6.8902     7.1673
  474.5000   105.2747     6.9854     7.2586
  475.0000   104.3752     7.1306     7.3512
  475.5000   104.2579     7.1274     7.4448
  476.0000   104.0625     6.9918     7.5704
  476.5000   103.8456     6.9106     7.5444
  477.0000   103.6318     6.9661     7.5038
  477.5000   102.7592     7.0221     7.4635
  478.0000   101.8215     7.0785     7.4298
  478.5000   100.8500     7.1578     7.3326
  479.0000    99.9152     7.0824     7.2502
  479.5000    99.6533     6.9598     7.1687
  480.0000   101.4454     6.8394     7.0882
  480.5000   103.5278     6.7210     7.0086
  481.0000   105.8391     6.6251     6.9298
  481.5000   106.2304     6.5716     6.8946
  482.0000   103.9242     6.5191     6.8947
  482.5000   101.8013     6.5505     6.8948
  483.0000   100.8126     6.5823     6.8950
  483.5000   102.1592     6.6140     6.8952
  484.0000   103.4975     6.6458     6.8952
  484.5000   104.7931     6.6777     6.8953
  485.0000   106.0054     6.7098     6.8953
  485.5000   105.3512     6.7421     6.8953
  486.0000   104.6877     6.7672     6.8953
  486.5000   104.4752     6.7672     6.8953
  487.0000   104.4510     6.7676     6.8952
  487.5000   104.3708     6.7677     6.8953
  488.0000   102.7169     6.7677     6.8949
  488.5000   100.9925     6.7678     6.8953
  489.0000   100.2742     6.7677     6.8949
  489.5000   101.3921     6.7681     6.8949
  490.0000   103.5844     6.7682     6.9173
  490.5000   105.7145     6.7682     6.9701
  491.0000   107.7372     6.8060     7.0231
  491.5000   109.2603     6.8495     7.0765
  492.0000   106.3707     6.8928     7.1301
  492.5000   102.7238     6.9359     7.1841
  493.0000   101.1242     6.9792     7.2397
  493.5000   101.3996     7.0254     7.2928
  494.0000   104.3483     6.9171     7.1730
  494.5000   107.4140     6.8141     7.0591
  495.0000   109.2421     6.7126     6.9471
  495.5000   109.1291     6.6126     6.8368
  496.0000   105.9860     6.5142     6.7282
  496.5000   102.9159     6.3988     6.6424
  497.0000   100.9504     6.3988     6.6424
  497.5000   102.2690     6.3988     6.6424
  498.0000   104.2045     6.3988     6.6424
  498.5000   106.0335     6.3988     6.6424
  499.0000   107.5285     6.3988     6.6424
  499.5000   108.6800     6.3988     6.6336
  500.0000   109.8608     6.3988     6.6094
  500.5000   111.0082     6.3988     6.5853
  501.0000   112.2032     6.3988     6.5612
  501.5000   113.4186     6.3988     6.5258
  502.0000   113.5899     6.3986     6.5360
  502.5000   111.2729     6.3986     6.5984
  503.0000   108.7361     6.3987     6.6614
  503.5000   108.5804     6.3970     6.7250
  504.0000   108.5008     6.3941     6.7894
  504.5000   108.5674     6.4018     6.8532
  505.0000   108.0430     6.4763     6.9419
  505.5000   107.2648     6.5450     7.0749
  506.0000   106.4814     6.6144     7.2105
  506.5000   105.8475     6.7986     7.3486
  507.0000   103.5679     7.0677     7.4894
  507.5000    98.2544     7.3475     7.6330
  508.0000    92.8263     7.6384     7.7792
  508.5000    84.7524     7.8587     7.9283
  509.0000    82.9682     7.6555     8.0069
  509.5000    87.7270     7.4295     7.7363
  510.0000    94.8517     7.2101     7.4954
  510.5000   108.9184     6.9972     7.2620
  511.0000   108.7328     6.7906     7.0359
  511.5000   106.2997     6.5901     6.8168
  512.0000   103.8654     6.3956     6.6424
  512.5000   105.6358     6.2804     6.6891
  513.0000   107.4352     6.3705     6.7289
  513.5000   108.6991     6.4618     6.7690
  514.0000   108.4862     6.5544     6.8092
  514.5000   108.4571     6.6484     6.8498
  515.0000   106.9677     6.7437     6.8953
  515.5000   105.0179     6.8404     6.9861
  516.0000   105.9021     6.9385     7.0905
  516.5000   109.1421     7.0265     7.1964
  517.0000   109.6241     7.1525     7.3039
  517.5000   106.3300     7.2661     7.4130
  518.0000   105.3531     7.3815     7.5705
  518.5000   105.6959     7.4300     7.4562
  519.0000   106.1111     7.2844     7.2641
  519.5000   104.6080     7.1643     7.0770
  520.0000   101.0619     7.0462     6.8947
  520.5000    98.0442     6.9310     6.7171
  521.0000    98.3533     6.8168     6.5440
  521.5000    99.4577     6.7045     6.3755
  522.0000   100.6899     6.5941     6.2112
  522.5000   101.4048     6.5195     6.1642
  523.0000   101.6043     6.5195     6.1642
  523.5000   101.7775     6.5726     6.2734
  524.0000   103.3456     6.6449     6.4227
  524.5000   106.0870     6.7181     6.5769
  525.0000   106.6700     6.7921     6.7190
  525.5000   103.5854     6.8669     6.8530
  526.0000   100.6153     6.9567     6.9897
  526.5000   100.4770     7.0564     7.1292
  527.0000   100.1616     7.1576     7.2911
  527.5000   102.4387     7.2928     7.2616
  528.0000   106.1356     7.2403     7.2278
  528.5000   108.5174     7.1644     7.1942
  529.0000   107.3418     7.0892     7.1582
  529.5000   106.1601     7.0254     7.2144
  530.0000   104.8127     7.0731     7.2751
  530.5000   104.6513     7.1152     7.3361
  531.0000   105.2908     7.1575     7.3976
  531.5000   105.9115     7.2001     7.4595
  532.0000   106.5810     7.2423     7.5538
  532.5000   106.5626     7.2922     7.5482
  533.0000   105.5315     7.2239     7.4545
  533.5000   104.3916     7.1439     7.3620
  534.0000   105.8039     7.0648     7.2706
  534.5000   108.5445     6.9866     7.1804
  535.0000   108.6990     6.9092     7.0913
  535.5000   107.2179     6.8325     7.0033
  536.0000   105.9243     6.7677     6.8982
  536.5000   105.1704     6.7807     6.9039
  537.0000   106.0268     6.7920     6.9152
  537.5000   108.8677     6.8033     6.9265
  538.0000   113.0226     6.8146     6.9378
  538.5000   117.3041     6.8260     6.9492
  539.0000   117.0540     6.8374     6.9606
  539.5000   112.5427     6.8488     6.9721
  540.0000   109.9189     6.8602     6.9834
  540.5000   110.1939     6.8716     6.9948
  541.0000   110.3708     6.8830     7.0064
  541.5000   108.1094     6.8945     7.0182
  542.0000   104.1579     6.9060     7.0299
  542.5000   101.2605     6.9175     7.0414
  543.0000   104.4730     6.9290     7.0532
  543.5000   108.0509     6.9406     7.0652
  544.0000   111.4155     6.9521     7.0771
  544.5000   107.6429     6.9635     7.0890
  545.0000   103.9683     6.9750     7.1010
  545.5000   101.0584     6.9866     7.1130
