~VERSION INFORMATION
 VERS.                2.0:   CWLS LOG ASCII STANDARD - VERSION 2.0
 WRAP.                 NO:   ONE LINE PER DEPTH STEP
~WELL INFORMATION
#MNEM.UNIT      DATA TYPE    INFORMATION
#----------   ------------   ------------------------------
 STRT.F           64.0000:   START DEPTH
 STOP.F          795.0000:   STOP DEPTH
 STEP.F            0.5000:   STEP LENGTH
 NULL.          -999.2500:   NO VALUE
 COMP. LAWRENCE/ALLISON INC:   COMPANY
 WELL.      23-61 SX #2-2:   WELL
 FLD .             TEAPOT:   FIELD
 LOC .       S2 T38N R78W:   LOCATION
 CNTY.            NATRONA:   COUNTY
 STAT.            WYOMING:   STATE
 CTRY. UNITED STATES OF AMERICA:   COUNTRY
 SRVC.              Welex:   SERVICE COMPANY
 DATE.        14-AUG-1985:   LOGDATE
 API .       490251103800:   API NUMBER
~CURVE INFORMATION
#MNEM.UNIT       API CODE    CURVE DESCRIPTION
#----------   ------------   ------------------------------
 DEPT.F                  :   
 SPR .MV     07 010 01 00:   SPONTANEOUS POTENTIAL
 ILD .OHMM   07 120 46 00:   INDUCTION LOG DEEP
 ILM .OHMM   07 120 44 00:   INDUCTION LOG MEDIUM
 SGRD.OHMM   07 221 05 00:   SHALLOW SHORT GUARD RESISTIVITY
 DPHI.DEC    45 890 12 00:   DENSITY POROSITY SANDSTONE
 NPHI.DEC    42 890 03 00:   NEUTRON POROSITY SANDSTONE
 GRD .GAPI   45 310 01 00:   GAMMA RAY FROM DENSITY LOG
 CALD.IN     45 280 60 00:   CALIPER FROM DENSITY
 CORR.G/C3   45 356 01 00:   DENSITY CORRECTION
 RHOB.G/C3   45 350 01 00:   BULK DENSITY
~PARAMETER INFORMATION
#MNEM.UNIT          VALUE    DESCRIPTION
#----------   ------------   ------------------------------
 PD  .                 GL:   PERMANENT DATUM
 EPD .F              5112:   ELEVATION PERMANENT DATUM
 LMF .                 GL:   LOG MEASURED FROM
 DMF .                 GL:   DRILLING MEASURED FROM
 EGL .F              5112:   GROUND LEVEL
 DATE.        14-AUG-1985:   RUN DATE
 RUN .                  1:   RUN NUMBER
 DD  .F               800:   DEPTH DRILLER
 DL  .F               797:   DEPTH LOGGER
 BLI .F               795:   BOTTOM LOG INTERVAL
 TLI .F                76:   TOP LOG INTERVAL
 CS  .IN            8.625:   CASING SIZE
 CBD .F                76:   CASING BOTTOM DRILLER
 CBL .F                76:   CASING BOTTOM LOGGER
 BS  .IN            7.875:   BIT SIZE
 BSD .F               800:   BIT SIZE AT DEPTH
 DFT .                KCL:   DRILLING FLUID TYPE
 MSS .               TANK:   MUD SAMPLE SOURCE
 RMS .OHMM           0.22:   RESISTIVITY MUD SAMPLE
 MST .F                64:   MUD SAMPLE TEMPERATURE
 MFSS.               MEAS:   MUD FILTRATE SAMPLE SOURCE
 TCS .HRS            2230:   TIME CURCULATED STOPPED
 TLAB.HRS            0200:   TIME LOGGER AT BOTTOM
 LUN .               1892:   LOGGING UNIT NUMBER
 LUL .             CASPER:   LOGGING UNIT LOCATION
 ENGI.         T. QUINLAN:   RECORDING ENGINEER
 WITN.        N. JENNINGS:   WITNESSED BY
 CLNT.            A2DTECH:   CLIENT CODE
 ORIG.        2" 5" PRINT:   ORIGIN OF DATA
 UWI .       490251103800:   UNIQUE WELL ID
 DICO. A2D Technologies, Inc.:   DIGITIZING COMPANY
 R1  . POROSITY WITH SANDSTONE:   REMARKS 1
~OTHER INFORMATION
~A   DEPT      SPR        ILD        ILM       SGRD       DPHI       NPHI         GRD      CALD       CORR       RHOB   
# ...
  399.0000   -43.3420    10.3890     9.9643    13.2628     0.1475     0.2972    99.7142     8.0244     0.0290     2.4282
  399.5000   -43.3458    10.3839     9.9587    13.2562     0.1500     0.2948    98.8155     8.0241     0.0289     2.4289
  400.0000   -43.3765    10.3672     9.9746    12.8859     0.1491     0.2952    98.2143     8.0081     0.0305     2.4381
  400.5000   -43.7154    10.2276    10.2297    12.9666     0.1412     0.2979    97.3182     8.0024     0.0315     2.4431
  401.0000   -44.3917    10.2205    10.2241    13.1398     0.1382     0.2992   100.2915     7.9967     0.0317     2.4491
  401.5000   -45.3318    10.2135    10.2185    13.6922     0.1346     0.2986    99.9910     7.9936     0.0305     2.4551
  402.0000   -46.0330    10.2065    10.0713    13.2136     0.1343     0.2916    99.0952     7.9935     0.0255     2.4527
  402.5000   -44.9848    10.1994     9.9263    12.9310     0.1395     0.2871    97.0089     7.9933     0.0223     2.4466
  403.0000   -44.3858    10.1215     9.6477    12.6544     0.1375     0.2884    96.4107     7.9932     0.0238     2.4488
  403.5000   -45.7292     9.9050     9.5607    12.5577     0.1334     0.2932    97.6360     7.9930     0.0275     2.4586
  404.0000   -46.6246     9.8294     9.3604    12.5385     0.1298     0.2969   101.3096     7.9779     0.0282     2.4645
  404.5000   -46.9221     9.5523     9.1077    12.3511     0.1297     0.3048   104.1925     7.9629     0.0296     2.4614
  405.0000   -46.9206     9.3480     8.9141    12.1849     0.1352     0.3049   105.0292     7.9628     0.0273     2.4553
  405.5000   -46.7696     9.2766     8.8473    12.1765     0.1419     0.3009   104.7286     7.9626     0.0249     2.4469
  406.0000   -46.1703     9.1417     8.8424    11.9995     0.1449     0.2967   103.8329     7.9625     0.0226     2.4377
  406.5000   -45.7203     9.1354     8.9007    11.8251     0.1458     0.2974   102.6394     7.9475     0.0248     2.4369
  407.0000   -45.5694     9.2625     9.0196    11.7348     0.1435     0.2977   101.1484     7.9176     0.0277     2.4400
  407.5000   -45.4184     9.3158     9.0790    11.6452     0.1399     0.2961   100.8486     7.9323     0.0307     2.4452
  408.0000   -44.9685     9.3091     9.2002    11.8833     0.1365     0.2925   103.5235     7.9321     0.0359     2.4492
  408.5000   -44.3692     9.2367     9.3257    12.7333     0.1351     0.2892   106.1991     7.9171     0.0366     2.4532
  409.0000   -43.7698     8.9763     9.1262    12.9937     0.1363     0.2851   106.4946     7.9170     0.0335     2.4517
  409.5000   -43.3124     8.7843     8.9323    12.4524     0.1375     0.2839   104.7052     7.9168     0.0319     2.4516
  410.0000   -44.3647     8.5964     8.8036    11.6864     0.1382     0.2852   101.7260     7.9166     0.0317     2.4507
  410.5000   -44.2138     8.4715     8.6165    11.4254     0.1406     0.2925    99.9374     7.9165     0.0355     2.4401
  411.0000   -44.0628     8.3483     8.6118    11.6704     0.1470     0.2964    99.0416     7.9163     0.0392     2.4324
  411.5000   -43.8894     8.2846     8.7891    11.6623     0.1516     0.2980    99.3363     7.9162     0.0399     2.4240
  412.0000   -43.7605     8.2789     8.9192    11.3313     0.1568     0.2974    99.9365     7.9310     0.0390     2.4148
  412.5000   -44.3573     8.2156     9.0899    11.0909     0.1651     0.2965   100.2233     7.9308     0.0289     2.4026
  413.0000   -44.0569     8.2100     9.2784    11.0832     0.1693     0.2975    99.3274     7.9306     0.0197     2.3965
  413.5000   -45.5498     8.2632     9.2720    11.0740     0.1626     0.2987    95.7524     7.9454     0.0138     2.4025
  414.0000   -46.1463     8.4307     9.2669    11.3796     0.1557     0.2999    93.9637     7.9452     0.0123     2.4176
  414.5000   -46.1448     8.6031     9.1974    11.0587     0.1463     0.3003    93.3656     7.9451     0.0205     2.4296
  415.0000   -46.1433     8.9025     9.0650    11.0511     0.1382     0.3000    94.2555     7.9598     0.0295     2.4447
  415.5000   -45.8429     9.1481     8.9345    11.4356     0.1358     0.2982    94.2526     7.9900     0.0385     2.4560
  416.0000   -45.5425     9.2058     8.7446    12.0018     0.1455     0.2961    93.3568     8.0042     0.0408     2.4429
  416.5000   -44.9431     9.1354     8.4992    11.6615     0.1565     0.2946    92.4610     8.0040     0.0323     2.4274
  417.0000   -44.3437     8.9399     8.2607    11.3327     0.1671     0.2941    92.1604     8.0038     0.0254     2.4097
  417.5000   -43.8938     8.6866     8.0290    11.0903     0.1711     0.2953    92.1575     8.0037     0.0186     2.3951
  418.0000   -44.3407     8.4417     7.8037    11.0056     0.1744     0.2979    93.3450     8.0185     0.0109     2.3867
  418.5000   -44.7877     8.2037     7.4785    10.8456     0.1757     0.3010    94.5326     8.0183     0.0048     2.3858
  419.0000   -45.2346     7.9724     7.2155    10.6137     0.1757     0.3069    95.7202     8.0181     0.0032     2.3842
  419.5000   -45.8311     7.8019     7.1650     9.8227     0.1769     0.3091    96.9077     8.0031     0.0046     2.3834
  420.0000   -46.1285     7.5819     7.1601     9.0908     0.1742     0.3121    96.3095     8.0030     0.0098     2.3894
  420.5000   -46.2766     7.4717     7.3076     8.5913     0.1691     0.3097    95.7113     8.0028     0.0166     2.4014
  421.0000   -46.2751     7.3119     7.3557     9.2178     0.1640     0.3079    95.7084     7.9878     0.0226     2.4067
  421.5000   -46.4231     7.2560     7.4021    10.1024     0.1608     0.3061    97.0193     7.9728     0.0255     2.4119
  422.0000   -46.1223     7.3031     7.4509    10.8053     0.1554     0.3052   100.6072     7.9875     0.0270     2.4179
  422.5000   -45.9713     7.4524     7.5515    10.4145     0.1505     0.3077   104.0322     7.9874     0.0277     2.4254
  423.0000   -45.5214     7.5506     7.5991    10.0505     0.1466     0.3093   106.1126     7.9872     0.0253     2.4336
  423.5000   -45.2210     7.6517     7.6492     9.9738     0.1414     0.3087   107.5985     7.9870     0.0237     2.4404
  424.0000   -44.9206     7.6462     7.6985    10.3208     0.1381     0.3066   106.9995     7.9720     0.0268     2.4464
  424.5000   -44.9191     7.6409     7.6397    10.6074     0.1375     0.3082   104.6157     7.9570     0.0344     2.4509
  425.0000   -44.4692     7.6892     7.6355    10.5983     0.1433     0.3103   102.5294     7.9568     0.0371     2.4409
  425.5000   -44.4677     7.6838     7.6849    10.4442     0.1461     0.3106   101.6336     7.9567     0.0370     2.4332
  426.0000   -44.4662     7.7380     7.7343    10.3645     0.1507     0.3079   101.6307     7.9565     0.0400     2.4279
  426.5000   -44.6146     7.8905     7.7301    10.5029     0.1465     0.3077   102.8182     7.9564     0.0452     2.4365
  427.0000   -44.7626     8.0518     7.9445    10.4957     0.1435     0.3080   103.7089     7.9562     0.0482     2.4428
  427.5000   -44.9106     8.1026     8.0124    10.6358     0.1395     0.3074   104.5981     7.9710     0.0519     2.4492
  428.0000   -44.9087     8.2108     8.1592    10.8536     0.1362     0.3056   104.2975     8.0006     0.0533     2.4555
  428.5000   -45.5052     8.2626     8.1548    10.6138     0.1329     0.3011   103.6993     8.0153     0.0548     2.4619
  429.0000   -47.2974     8.0845     8.1503    11.0677     0.1293     0.2984   102.2083     8.0152     0.0547     2.4682
  429.5000   -49.2391     8.0789     8.0892    11.3731     0.1254     0.2972   100.7144     8.0150     0.0554     2.4728
  430.0000   -51.4798     8.0173     8.0847    11.1298     0.1227     0.2988   100.0992     8.0000     0.0530     2.4636
  430.5000   -52.2332     8.0678     7.9683    11.1220     0.1298     0.3037    99.8184     7.9849     0.0484     2.4605
  431.0000   -52.5232     8.0623     8.0208    11.0370     0.1316     0.3049    99.8690     7.9550     0.0468     2.4604
  431.5000   -52.2003     8.0567     8.0725    10.9511     0.1295     0.3040   100.4079     7.9549     0.0475     2.4626
  432.0000   -50.2777     8.1076     8.0670    10.8675     0.1280     0.3013   102.7852     7.9547     0.0467     2.4664
