~VERSION INFORMATION
 VERS.                2.0:   CWLS LOG ASCII STANDARD - VERSION 2.0
 WRAP.                 NO:   ONE LINE PER DEPTH STEP
~WELL INFORMATION
#MNEM.UNIT      DATA TYPE    INFORMATION
#----------   ------------   ------------------------------
 STRT.F         1179.0000:   START DEPTH
 STOP.F         2186.0000:   STOP DEPTH
 STEP.F            0.5000:   STEP LENGTH
 NULL.          -999.2500:   NO VALUE
 COMP. FENIX & SCISSON INC:   COMPANY
 WELL.  404 SH 33 #404-33:   WELL
 FLD .             TEAPOT:   FIELD
 LOC .      S33 T39N R78W:   LOCATION
 CNTY.            NATRONA:   COUNTY
 STAT.            WYOMING:   STATE
 CTRY. UNITED STATES OF AMERICA:   COUNTRY
 SRVC.            Unknown:   SERVICE COMPANY
 DATE.        19-NOV-1992:   LOGDATE
 API .       490251071100:   API NUMBER
~CURVE INFORMATION
#MNEM.UNIT       API CODE    CURVE DESCRIPTION
#----------   ------------   ------------------------------
 DEPT.F                  :   
 TGAS.UNITS  91 830 01 00:   TOTAL GAS FROM HOTWIRE
 ROP .MIN/FT 91 810 01 00:   RATE OF DRILLING PENETRATION
~PARAMETER INFORMATION
#MNEM.UNIT          VALUE    DESCRIPTION
#----------   ------------   ------------------------------
 EKB .F              5170:   KELLING BUSHING
 EGL .F              5160:   GROUND LEVEL
 DATE.        19-NOV-1992:   RUN DATE
 RUN .                  1:   RUN NUMBER
 DD  .F              2186:   DEPTH DRILLER
 TLI .F              1186:   TOP LOG INTERVAL
 CS  .IN             8.25:   CASING SIZE
 CBD .F              1080:   CASING BOTTOM DRILLER
 WITN.   C. TOWER/R. HUSK:   WITNESSED BY
 CLNT.            A2DTECH:   CLIENT CODE
 ORIG.           5" PRINT:   ORIGIN OF DATA
 UWI .       490251071100:   UNIQUE WELL ID
 DICO. A2D Technologies, Inc.:   DIGITIZING COMPANY
~OTHER INFORMATION
~A  DEPT       TGAS       ROP   
# ...
 1300.5000    58.2011     0.4926
 1301.0000    58.2280     0.5256
 1301.5000    58.2550     0.5368
 1302.0000    58.2820     0.5370
 1302.5000    58.3090     0.5372
 1303.0000    58.3359     0.5375
 1303.5000    58.3629     0.5376
 1304.0000    58.3899     0.5488
 1304.5000    58.4168     0.5819
 1305.0000    58.4438     0.5930
 1305.5000    58.4708     0.6261
 1306.0000    58.4978     0.6591
 1306.5000    58.5247     0.6703
 1307.0000    58.5517     0.7033
 1307.5000    58.6155     0.7145
 1308.0000    58.7091     0.7475
 1308.5000    58.8026     0.7587
 1309.0000    58.8961     0.7589
 1309.5000    58.9896     0.7591
 1310.0000    59.0831     0.7374
 1310.5000    59.1767     0.7157
 1311.0000    59.2702     0.6831
 1311.5000    59.3637     0.6724
 1312.0000    59.4572     0.6398
 1312.5000    58.4392     0.6291
 1313.0000    58.5593     0.6294
 1313.5000    57.5191     0.6186
 1314.0000    56.5240     0.6189
 1314.5000    56.6366     0.6190
 1315.0000    56.7341     0.5974
 1315.5000    56.8242     0.5976
 1316.0000    56.9217     0.5869
 1316.5000    55.8816     0.5871
 1317.0000    56.0092     0.5763
 1317.5000    56.0992     0.5547
 1318.0000    52.8961     0.5440
 1318.5000    52.9861     0.5442
 1319.0000    51.9459     0.5335
 1319.5000    52.0735     0.5118
 1320.0000    49.9556     0.5121
 1320.5000    48.9304     0.5123
 1321.0000    47.9202     0.5015
 1321.5000    48.0403     0.5018
 1322.0000    44.8372     0.5020
 1322.5000    44.9347     0.5022
 1323.0000    43.8946     0.5025
 1323.5000    40.7214     0.5027
 1324.0000    39.7037     0.5028
 1324.5000    39.8088     0.5031
 1325.0000    37.6759     0.5033
 1325.5000    36.6657     0.5035
 1326.0000    35.6555     0.5037
 1326.5000    35.7756     0.5149
 1327.0000    34.7579     0.5151
 1327.5000    32.6325     0.5153
 1328.0000    31.6598     0.5265
 1328.5000    31.7499     0.5377
 1329.0000    31.8475     0.5488
 1329.5000    31.9376     0.5490
 1330.0000    32.0351     0.5492
 1330.5000    32.1252     0.5495
 1331.0000    32.2228     0.5497
 1331.5000    32.2275     0.5389
 1332.0000    32.1957     0.5173
 1332.5000    32.1640     0.5175
 1333.0000    32.1322     0.5178
 1333.5000    32.1005     0.5180
 1334.0000    32.0687     0.5182
 1334.5000    32.0370     0.5184
 1335.0000    32.0052     0.5186
 1335.5000    31.9734     0.5188
 1336.0000    31.9417     0.5191
 1336.5000    31.9099     0.5193
 1337.0000    31.8782     0.5195
 1337.5000    31.8464     0.5197
 1338.0000    31.8147     0.5199
 1338.5000    31.7829     0.5202
 1339.0000    31.7511     0.5204
 1339.5000    31.7194     0.5315
 1340.0000    31.6876     0.5427
 1340.5000    31.6559     0.5429
 1341.0000    31.6241     0.5541
 1341.5000    31.5924     0.5543
 1342.0000    31.5606     0.5654
 1342.5000    31.5288     0.5876
 1343.0000    31.4971     0.5987
 1343.5000    31.4653     0.5989
 1344.0000    31.4336     0.5992
 1344.5000    31.4018     0.6103
 1345.0000    31.3700     0.6105
 1345.5000    31.3383     0.6108
 1346.0000    31.3065     0.6000
 1346.5000    31.2748     0.6002
 1347.0000    31.2430     0.5895
 1347.5000    31.2113     0.5678
 1348.0000    31.1795     0.5571
 1348.5000    31.1477     0.5574
 1349.0000    31.1160     0.5466
 1349.5000    31.0842     0.5249
 1350.0000    31.0525     0.5252
 1350.5000    31.0207     0.5254
 1351.0000    30.9890     0.5256
 1351.5000    30.9572     0.5258
 1352.0000    30.9254     0.5261
 1352.5000    30.8937     0.5263
 1353.0000    30.8619     0.5265
 1353.5000    30.8302     0.5267
 1354.0000    30.7984     0.5379
 1354.5000    30.7666     0.5490
 1355.0000    30.7349     0.5493
 1355.5000    30.7031     0.5495
 1356.0000    30.6714     0.5497
 1356.5000    30.6396     0.5389
 1357.0000    30.6079     0.5282
 1357.5000    30.5761     0.5284
 1358.0000    30.5443     0.5287
 1358.5000    30.5126     0.5289
 1359.0000    30.4808     0.5291
 1359.5000    30.4491     0.5293
 1360.0000    30.4173     0.5405
 1360.5000    30.3856     0.5407
 1361.0000    30.3538     0.5519
 1361.5000    30.3220     0.5630
 1362.0000    30.2929     0.5633
 1362.5000    29.2828     0.5854
 1363.0000    29.4028     0.6075
 1363.5000    30.5932     0.6077
 1364.0000    35.0917     0.6188
 1364.5000    41.7833     0.6410
 1365.0000    50.6828     0.6412
 1365.5000    59.5748     0.6523
 1366.0000    66.2738     0.6525
 1366.5000    74.0656     0.6637
 1367.0000    79.6644     0.6639
 1367.5000    86.3559     0.6860
 1368.0000    91.9547     0.6862
 1368.5000    93.1451     0.6865
 1369.0000    95.4356     0.6867
 1369.5000    96.6334     0.6869
 1370.0000    95.6007     0.6762
 1370.5000    93.4903     0.6654
 1371.0000    91.4099     0.6657
 1371.5000    89.2770     0.6659
 1372.0000    88.2743     0.6661
 1372.5000    88.3944     0.6663
 1373.0000    85.1837     0.6665
 1373.5000    83.0733     0.6668
 1374.0000    77.6697     0.6560
 1374.5000    72.2585     0.6562
 1375.0000    67.9401     0.6565
 1375.5000    63.6292     0.6567
 1376.0000    58.2255     0.6350
 1376.5000    53.9146     0.6243
 1377.0000    49.5962     0.6135
 1377.5000    45.2928     0.6028
 1378.0000    42.0821     0.5811
 1378.5000    39.9942     0.5704
 1379.0000    36.7836     0.5593
 1379.5000    36.8887     0.5381
 1380.0000    33.6555     0.5383
 1380.5000    33.7756     0.5276
 1381.0000    32.7220     0.5278
 1381.5000    32.7734     0.5280
 1382.0000    32.8247     0.5283
 1382.5000    32.8761     0.5285
 1383.0000    32.9274     0.5287
 1383.5000    32.9787     0.5289
 1384.0000    33.0301     0.5181
 1384.5000    33.0814     0.5184
 1385.0000    33.1328     0.5186
 1385.5000    33.1841     0.5079
 1386.0000    33.2354     0.4971
 1386.5000    33.2868     0.4974
 1387.0000    33.3381     0.4976
 1387.5000    33.3895     0.5088
 1388.0000    33.4408     0.5199
 1388.5000    33.4921     0.5201
 1389.0000    33.5435     0.5313
 1389.5000    33.5948     0.5315
 1390.0000    33.6461     0.5318
 1390.5000    33.6975     0.5429
 1391.0000    33.7488     0.5431
 1391.5000    33.8002     0.5543
 1392.0000    33.8515     0.5654
 1392.5000    33.9028     0.5766
 1393.0000    33.9542     0.5768
 1393.5000    34.0055     0.5880
 1394.0000    34.0569     0.6101
 1394.5000    34.1082     0.6213
 1395.0000    34.1595     0.6215
 1395.5000    34.2109     0.6326
 1396.0000    34.2622     0.6438
 1396.5000    34.3136     0.6659
 1397.0000    34.3649     0.6661
 1397.5000    34.4162     0.6772
 1398.0000    34.4676     0.7103
 1398.5000    34.5189     0.7105
 1399.0000    34.5703     0.7217
 1399.5000    34.6216     0.7438
 1400.0000    34.6729     0.7550
 1400.5000    34.7243     0.7442
 1401.0000    34.7756     0.7116
 1401.5000    34.8270     0.6790
 1402.0000    34.8783     0.6682
 1402.5000    34.9296     0.6575
 1403.0000    34.9810     0.6359
 1403.5000    35.0323     0.6361
 1404.0000    35.0836     0.6254
 1404.5000    35.1350     0.6266
 1405.0000    35.1863     0.6270
 1405.5000    35.2377     0.5944
 1406.0000    35.2890     0.5948
 1406.5000    35.3403     0.5951
 1407.0000    35.3774     0.5955
 1407.5000    35.4048     0.5958
 1408.0000    35.4322     0.5961
 1408.5000    35.4596     0.5964
 1409.0000    35.4871     0.6186
 1409.5000    35.5145     0.6299
 1410.0000    35.5419     0.6302
 1410.5000    35.5693     0.6306
 1411.0000    35.5967     0.6418
 1411.5000    35.6242     0.6531
 1412.0000    35.6516     0.6424
 1412.5000    35.6790     0.6428
 1413.0000    35.7064     0.6432
 1413.5000    35.7338     0.6325
 1414.0000    35.7612     0.6329
 1414.5000    35.7887     0.6004
 1415.0000    35.8161     0.5897
 1415.5000    35.8435     0.5901
 1416.0000    35.8709     0.5795
 1416.5000    35.8983     0.5579
 1417.0000    35.9258     0.5582
 1417.5000    35.9532     0.5586
 1418.0000    35.9806     0.5589
 1418.5000    36.0080     0.5482
 1419.0000    36.0354     0.5486
 1419.5000    36.0628     0.5489
 1420.0000    36.0903     0.5602
 1420.5000    36.1177     0.5605
 1421.0000    36.1451     0.5827
 1421.5000    36.1725     0.5940
