~VERSION INFORMATION
 VERS.                2.0:   CWLS LOG ASCII STANDARD - VERSION 2.0
 WRAP.                 NO:   ONE LINE PER DEPTH STEP
~WELL INFORMATION
#MNEM.UNIT      DATA TYPE    INFORMATION
#----------   ------------   ------------------------------
 STRT.F          100.0000:   START DEPTH
 STOP.F          872.0000:   STOP DEPTH
 STEP.F            0.5000:   STEP LENGTH
 NULL.          -999.2500:   NO VALUE
 COMP. U S NAVY/INTEX OIL CO:   COMPANY
 WELL. 53 S 11 #N P R 3-11:   WELL
 FLD .             TEAPOT:   FIELD
 LOC .      S11 T38N R78W:   LOCATION
 CNTY.            NATRONA:   COUNTY
 STAT.            WYOMING:   STATE
 CTRY. UNITED STATES OF AMERICA:   COUNTRY
 SRVC.       Schlumberger:   SERVICE COMPANY
 DATE.        07-AUG-1961:   LOGDATE
 API .       490250635800:   API NUMBER
~CURVE INFORMATION
#MNEM.UNIT       API CODE    CURVE DESCRIPTION
#----------   ------------   ------------------------------
 DEPT.F                  :   
 CILD.MMHO   05 110 46 00:   CONDUCTIVITY INDUCTION LOG DEEP
 ILD .OHMM   05 120 46 00:   INDUCTION LOG DEEP
 SPR .MV     05 010 01 00:   SPONTANEOUS POTENTIAL FROM RES.
 ASN .OHMM   05 041 16 00:   AMPLIFIED SHORT NORMAL 16"
~PARAMETER INFORMATION
#MNEM.UNIT          VALUE    DESCRIPTION
#----------   ------------   ------------------------------
 PD  .                 GL:   PERMANENT DATUM
 EPD .F              5192:   ELEVATION PERMANENT DATUM
 LMF .                 KB:   LOG MEASURED FROM
 DAPD.F                 6:   FEET ABOVE PERMANENT DATUM
 DMF .                 KB:   DRILLING MEASURED FROM
 EKB .F              5198:   KELLING BUSHING
 EGL .F              5192:   GROUND LEVEL
 DATE.             8-7-61:   RUN DATE
 RUN .                  1:   RUN NUMBER
 DD  .F               870:   DEPTH DRILLER
 DL  .F               873:   DEPTH LOGGER
 BLI .F               872:   BOTTOM LOG INTERVAL
 TLI .F               100:   TOP LOG INTERVAL
 BS  .IN            7.875:   BIT SIZE
 BSD .F               870:   BIT SIZE AT DEPTH
 DFT .            GEL/OIL:   DRILLING FLUID TYPE
 DFD .               10.4:   DRILLING FLUID DENSITY
 DFV .                 43:   DRILLING FLUID VISCOSITY
 RMS .OHMM            .02:   RESISTIVITY MUD SAMPLE
 MST .F                70:   MUD SAMPLE TEMPERATURE
 TCS .HRS               1:   TIME CURCULATED STOPPED
 LUN .               2544:   LOGGING UNIT NUMBER
 LUL .                 NC:   LOGGING UNIT LOCATION
 ENGI.             QUINCY:   RECORDING ENGINEER
 WITN.          JORGENSON:   WITNESSED BY
 CLNT.            A2DTECH:   CLIENT CODE
 ORIG.       2", 5" PRINT:   ORIGIN OF DATA
 UWI .       490250635800:   UNIQUE WELL ID
 DICO. A2D Technologies, Inc.:   DIGITIZING COMPANY
~OTHER INFORMATION
~A   DEPT      CILD         ILD      SPR          ASN 
# ...
  684.0000   192.9155     3.8237   -23.3159     7.3239
  684.5000   205.5902     3.7351   -23.3830     6.6543
  685.0000   209.6321     3.6551   -23.5202     6.2039
  685.5000   211.4714     3.5711   -23.6165     6.2026
  686.0000   211.1525     3.4772   -23.9068     6.0094
  686.5000   210.8146     3.4923   -24.3814     6.1329
  687.0000   210.4650     3.5643   -24.5035     6.6649
  687.5000   210.1127     3.6321   -24.5147     6.9100
  688.0000   209.6289     3.6993   -24.6830     6.9326
  688.5000   208.2648     3.7584   -24.5574     6.8830
  689.0000   204.9081     3.8235   -24.3517     6.6512
  689.5000   201.5513     3.8844   -24.1595     6.3141
  690.0000   197.5928     3.9509   -23.9582     6.1561
  690.5000   197.5928     4.0079   -23.7665     6.2227
  691.0000   196.5664     4.0930   -23.5619     6.2806
  691.5000   195.5868     4.2826   -23.4789     6.6950
  692.0000   188.6709     4.5510   -23.4891     7.1087
  692.5000   177.0498     4.8681   -23.4842     7.3474
  693.0000   163.5755     5.1613   -23.4871     7.5110
  693.5000   159.2438     5.4569   -23.4854     7.6084
  694.0000   155.3794     5.4818   -23.4967     7.6031
  694.5000   157.3193     5.2083   -23.6627     7.5829
  695.0000   162.6159     4.7910   -23.8987     7.5698
  695.5000   175.4073     4.3978   -24.1020     7.5082
  696.0000   188.2543     3.9733   -24.3617     7.3106
  696.5000   201.0943     3.6591   -24.4681     6.9928
  697.0000   211.8686     3.4782   -24.2888     6.4808
  697.5000   215.8681     3.3625   -24.1418     6.0559
  698.0000   213.9149     3.4133   -23.9704     5.9548
  698.5000   211.6749     3.5673   -23.8361     5.8848
  699.0000   209.4486     3.7263   -23.7255     5.9957
  699.5000   207.6229     3.8900   -23.6104     6.4016
  700.0000   191.5747     4.3326   -23.4932     6.8362
  700.5000   176.9272     4.8764   -23.3699     7.2726
  701.0000   162.2796     5.3905   -23.2486     7.7426
  701.5000   147.6320     5.9358   -23.1124     8.1298
  702.0000   142.2359     6.3832   -23.1475     8.3510
  702.5000   139.9120     6.7739   -23.2766     8.5284
  703.0000   137.4122     6.9138   -23.3783     8.6331
  703.5000   135.6239     6.9033   -23.4908     8.7438
  704.0000   133.1008     6.9254   -23.5985     8.9214
  704.5000   130.5692     6.9317   -23.7116     9.0478
  705.0000   128.0381     6.9452   -23.9972     9.0518
  705.5000   127.3816     6.9574   -24.0743     9.0766
  706.0000   128.2284     6.9655   -23.9991     9.1142
  706.5000   128.9691     6.9853   -23.9510     9.1642
  707.0000   129.7080     6.9669   -23.8898     9.1583
  707.5000   130.4729     6.8763   -23.8356     9.1521
  708.0000   131.3942     6.8674   -23.7778     9.1471
  708.5000   131.3942     6.8390   -23.7217     9.1263
  709.0000   130.8344     6.8284   -23.6644     9.0879
  709.5000   130.3549     6.7945   -23.6081     9.0526
  710.0000   129.8753     6.8682   -23.5509     9.0254
  710.5000   129.3882     7.0877   -23.4955     9.0550
  711.0000   127.2819     7.2939   -23.4366     9.1924
  711.5000   123.6853     7.5266   -23.3845     9.3495
  712.0000   119.3581     7.6808   -23.3184     9.4981
  712.5000   120.3611     7.3331   -23.3036     9.6544
  713.0000   125.3761     6.5614   -23.3771     9.7089
  713.5000   146.9278     5.6279   -23.4412     9.5123
  714.0000   171.2148     4.6867   -23.5437     9.1148
  714.5000   195.5018     3.8952   -23.6951     8.6384
  715.0000   212.0998     3.6866   -23.8233     7.5447
  715.5000   210.1836     3.7339   -23.4503     6.4419
  716.0000   205.6590     3.8219   -22.9575     6.2388
  716.5000   201.0821     3.8793   -22.5396     6.2584
  717.0000   196.5141     4.0133   -22.8596     6.4672
  717.5000   193.0184     4.5249   -23.1379     7.5219
  718.0000   165.3871     5.6071   -23.1807     8.7582
  718.5000   143.1389     6.9209   -23.2802     9.9833
  719.0000   121.8215     8.1485   -23.2342    10.0861
  719.5000   102.7482     9.2702   -23.1743    10.3565
  720.0000    99.7325     9.7825   -23.1052    10.6431
  720.5000   101.4109     9.7098   -23.1121    10.9006
  721.0000   103.0893     9.4428   -23.1742    10.9107
  721.5000   104.7676     9.1687   -23.2233    10.9236
  722.0000   106.4460     8.9876   -23.2782    10.7217
  722.5000   106.1518     9.1249   -23.2510    10.2580
  723.0000   101.9559     9.2131   -23.2046    10.1107
  723.5000    97.7599     9.4672   -23.1667    10.8149
  724.0000    93.5640    10.2025   -23.1144    11.7431
  724.5000    89.3681    11.0342   -23.1209    12.7572
  725.0000    84.3219    11.6632   -23.4480    13.4306
  725.5000    78.4187    12.5988   -23.7972    14.0342
  726.0000    72.5155    13.7172   -24.1204    15.2696
  726.5000    66.6123    14.9413   -24.4996    17.1529
  727.0000    60.7090    16.2470   -24.7150    17.7226
  727.5000    54.8058    17.7416   -24.7041    18.0566
  728.0000    51.3484    19.1617   -24.9325    17.9572
  728.5000    51.9527    19.6712   -25.1784    17.8701
  729.0000    52.5569    19.6642   -25.4293    18.1954
  729.5000    53.1611    19.6584   -25.6769    18.7455
  730.0000    53.7653    19.6182   -25.9258    18.6655
  730.5000    54.3695    19.5981   -26.1755    18.3442
  731.0000    54.9737    19.5369   -26.4230    18.3879
  731.5000    55.5779    19.1051   -26.6769    18.4115
  732.0000    56.1822    18.5778   -26.8946    18.4939
  732.5000    56.7864    18.1434   -26.8532    18.4177
  733.0000    57.1715    17.6245   -26.7833    18.0159
  733.5000    58.5410    17.0448   -26.6980    17.6245
  734.0000    60.3312    16.4877   -26.3091    17.2170
  734.5000    62.1215    15.9066   -25.7564    17.0349
  735.0000    63.9117    15.3612   -25.4034    16.7553
  735.5000    65.7020    14.7440   -25.2403    16.5225
  736.0000    67.4922    14.3185   -25.0440    16.3018
  736.5000    69.2825    14.0474   -24.8648    16.0604
  737.0000    71.0728    13.7316   -24.6749    15.9384
  737.5000    73.2197    13.7936   -24.4904    16.0341
  738.0000    72.5278    13.9620   -24.3237    16.1222
  738.5000    70.8114    14.1314   -24.5944    16.2021
  739.0000    69.0965    14.3193   -24.9315    16.3643
  739.5000    67.3783    14.6051   -25.2927    16.5995
  740.0000    65.6554    15.0244   -25.5720    16.8093
  740.5000    63.9291    15.4350   -26.1580    17.0308
  741.0000    62.2016    15.8697   -26.9661    17.2444
  741.5000    60.4729    16.4789   -27.5072    17.4643
  742.0000    59.1546    17.1094   -27.7730    17.6760
  742.5000    58.0185    17.7188   -27.9095    17.9046
  743.0000    56.8996    18.3515   -27.8461    18.0069
  743.5000    55.7807    18.6292   -27.7737    17.8995
  744.0000    54.6618    18.7650   -27.7053    17.6699
  744.5000    53.5429    18.6170   -27.6310    17.7446
  745.0000    53.6158    18.3021   -27.5691    17.8890
  745.5000    55.3781    18.0091   -27.3658    18.0710
  746.0000    57.1404    17.4982   -26.9125    17.7951
  746.5000    58.9027    16.9652   -26.6970    17.3136
  747.0000    60.6650    16.4458   -26.7097    16.8404
  747.5000    62.4273    15.8971   -26.5088    16.4474
  748.0000    64.1896    15.5235   -26.2619    16.3823
  748.5000    65.9519    15.3727   -26.0261    16.2047
  749.0000    67.2016    15.2337   -25.7750    16.0129
  749.5000    69.3236    15.0270   -25.7527    15.8336
  750.0000    69.7172    14.6913   -25.8756    15.9373
  750.5000    70.1107    14.3405   -25.9572    15.6410
  751.0000    70.5043    14.0442   -26.0702    15.3693
  751.5000    70.8978    14.0891   -26.0799    15.3798
  752.0000    71.2913    14.2217   -25.9986    15.4397
  752.5000    71.6849    14.3538   -25.9313    15.5080
  753.0000    72.0784    14.4510   -25.8568    15.5310
  753.5000    72.4719    14.3639   -25.7863    15.4709
  754.0000    72.8655    14.2543   -25.7031    15.4244
  754.5000    73.2197    14.1369   -25.5364    15.3634
  755.0000    70.8617    14.2282   -25.3449    15.3572
  755.5000    70.1578    14.4668   -25.1585    15.3968
  756.0000    69.4540    14.6639   -25.0893    15.4327
  756.5000    68.7501    14.9112   -25.1075    15.4277
