~VERSION INFORMATION
 VERS.                2.0:   CWLS LOG ASCII STANDARD - VERSION 2.0
 WRAP.                 NO:   ONE LINE PER DEPTH STEP
~WELL INFORMATION
#MNEM.UNIT      DATA TYPE    INFORMATION
#----------   ------------   ------------------------------
 STRT.F           34.5000:   START DEPTH
 STOP.F          665.5000:   STOP DEPTH
 STEP.F            0.5000:   STEP LENGTH
 NULL.          -999.2500:   NO VALUE
 COMP. FENIX & SCISSON INC:   COMPANY
 WELL.    NPR-3 SX #14-14:   WELL
 FLD .        TEAPOT DOME:   FIELD
 LOC .      S14 T38N R78W:   LOCATION
 CNTY.            NATRONA:   COUNTY
 STAT.            WYOMING:   STATE
 CTRY. UNITED STATES OF AMERICA:   COUNTRY
 SRVC.            Unknown:   SERVICE COMPANY
 DATE.        01-JUN-1978:   LOGDATE
 API .       490251063100:   API NUMBER
~CURVE INFORMATION
#MNEM.UNIT       API CODE    CURVE DESCRIPTION
#----------   ------------   ------------------------------
 DEPT.F                  :   
 SPR .MV     05 010 01 00:   SPONTANEOUS POTENTIAL FROM RES.
 SN  .OHMM   05 040 16 00:   SHORT NORMAL 16"
 IL  .OHMM   05 120 00 00:   INDUCTION LOG
 GRD .GAPI   45 310 01 00:   GAMMA RAY FROM DENSITY LOG
 RHOB.G/C3   45 350 01 00:   BULK DENSITY
 DPHI.DEC    45 890 12 00:   DENSITY POROSITY SANDSTONE
 CORR.G/C3   45 356 01 00:   DENSITY CORRECTION
 CALD.IN     45 280 60 00:   CALIPER FROM DENSITY LOG
~PARAMETER INFORMATION
#MNEM.UNIT          VALUE    DESCRIPTION
#----------   ------------   ------------------------------
 PD  .                 GL:   PERMANENT DATUM
 EPD .F              5212:   ELEVATION PERMANENT DATUM
 LMF .                 KB:   LOG MEASURED FROM
 DAPD.F                 4:   FEET ABOVE PERMANENT DATUM
 DMF .                 KB:   DRILLING MEASURED FROM
 EKB .F              5216:   KELLING BUSHING
 EGL .F              5212:   GROUND LEVEL
 DATE.           6-1-1978:   RUN DATE
 RUN .                  1:   RUN NUMBER
 DD  .F               670:   DEPTH DRILLER
 DL  .F               670:   DEPTH LOGGER
 BLI .F               664:   BOTTOM LOG INTERVAL
 TLI .F                40:   TOP LOG INTERVAL
 CS  .IN            8.625:   CASING SIZE
 CBD .F                40:   CASING BOTTOM DRILLER
 BS  .IN            7.875:   BIT SIZE
 BSD .F               670:   BIT SIZE AT DEPTH
 DFT .                KCL:   DRILLING FLUID TYPE
 DFD .                8.7:   DRILLING FLUID DENSITY
 DFV .                 32:   DRILLING FLUID VISCOSITY
 DFPH.                 10:   DRILLING FLUID PH
 RMS .OHMM            .30:   RESISTIVITY MUD SAMPLE
 MST .F                66:   MUD SAMPLE TEMPERATURE
 BHT .F                75:   BOTTOM HOLE TEMPERATURE
 TCS .HRS               2:   TIME CURCULATED STOPPED
 MRT .F                75:   MAXIMUM RECORDED TEMPERATURE
 LUN .               2958:   LOGGING UNIT NUMBER
 LUL .              CSPR.:   LOGGING UNIT LOCATION
 ENGI.             MILLER:   RECORDING ENGINEER
 WITN.           MCGINLEY:   WITNESSED BY
 CLNT.            A2DTECH:   CLIENT CODE
 ORIG.      2" , 5" PRINT:   ORIGIN OF DATA
 UWI .       490251063100:   UNIQUE WELL ID
 DICO. A2D Technologies, Inc.:   DIGITIZING COMPANY
~OTHER INFORMATION
~A   DEPT      SPR         SN         IL         GRD      RHOB       DPHI       CORR       CALD   
# ...
  156.0000   -29.2502     8.3929     8.2995    77.3779     2.4728     0.1238     0.0498     7.7265
  156.5000   -29.1404     8.3781     8.2818    76.3806     2.4714     0.1245     0.0580     7.6701
  157.0000   -29.0307     8.3632     8.2641    75.6447     2.4695     0.1244     0.0662     7.6125
  157.5000   -28.9216     8.3484     8.2466    75.8751     2.4683     0.1242     0.0743     7.5549
  158.0000   -28.8422     8.3337     8.2292    75.3063     2.4696     0.1221     0.0805     7.4975
  158.5000   -28.8505     8.3189     8.2117    73.7148     2.4728     0.1210     0.0800     7.4931
  159.0000   -28.8570     8.3042     8.1943    73.5670     2.4739     0.1238     0.0796     7.6121
  159.5000   -28.8635     8.2895     8.1770    74.9644     2.4716     0.1299     0.0791     7.7630
  160.0000   -28.8700     8.2749     8.1596    76.6057     2.4576     0.1391     0.0787     7.8231
  160.5000   -28.8764     8.2603     8.1423    78.3582     2.4435     0.1409     0.0792     7.8461
  161.0000   -28.8829     8.2456     8.1251    78.5999     2.4410     0.1455     0.0870     7.8172
  161.5000   -28.8894     8.2310     8.1079    78.5954     2.4357     0.1500     0.0975     7.7836
  162.0000   -28.8958     8.2165     8.0907    78.5929     2.4273     0.1380     0.1139     7.7503
  162.5000   -28.9023     8.2020     8.0736    78.5986     2.4541     0.1273     0.1307     7.7188
  163.0000   -28.9088     8.1876     8.0564    78.5678     2.4691     0.1166     0.1326     7.5647
  163.5000   -28.9153     8.1790     8.0391    77.3769     2.4779     0.1098     0.1310     7.3696
  164.0000   -28.9217     8.1905     7.9559    76.0944     2.4948     0.1195     0.1156     7.3310
  164.5000   -28.9282     8.2000     7.9659    74.8691     2.4995     0.1320     0.0968     7.3348
  165.0000   -28.9347     8.2094     7.9784    75.3597     2.4765     0.1290     0.0777     7.4406
  165.5000   -28.9411     8.2189     7.9905    76.7736     2.4550     0.1425     0.0690     7.5919
  166.0000   -28.9476     8.2283     8.0026    77.6759     2.4634     0.1599     0.0666     7.6479
  166.5000   -28.9541     8.2378     8.0146    77.8397     2.3984     0.1699     0.0768     7.6490
  167.0000   -28.9605     8.2473     8.0267    77.9745     2.3895     0.1444     0.1087     7.6489
  167.5000   -28.9670     8.2568     8.0388    77.4799     2.4462     0.1524     0.1298     7.6488
  168.0000   -28.9735     8.2663     8.0509    76.9692     2.4377     0.1447     0.1334     7.6488
  168.5000   -28.9799     8.2758     8.0631    76.8071     2.4264     0.1385     0.1456     7.6488
  169.0000   -28.9864     8.2854     8.0752    76.8026     2.4451     0.1384     0.1777     7.6488
  169.5000   -28.9929     8.2949     8.0874    76.8055     2.4438     0.1385     0.1939     7.6488
  170.0000   -28.9993     8.3045     8.0996    76.9049     2.4493     0.1193     0.1846     7.6488
  170.5000   -29.0058     8.3140     8.1118    77.6522     2.4685     0.1015     0.1639     7.6488
  171.0000   -29.0123     8.3236     8.1240    78.9145     2.5032     0.0852     0.1436     7.6488
  171.5000   -29.0187     8.3296     8.1363    79.6464     2.5379     0.1046     0.1004     7.6488
  172.0000   -29.0252     8.2935     8.1485    78.4373     2.5542     0.1237     0.0491     7.6488
  172.5000   -29.0317     8.2660     8.1607    77.2382     2.4699     0.1248     0.0121     7.6488
  173.0000   -29.0381     8.2385     8.1779    76.0945     2.4684     0.1262     0.0087     7.6488
  173.5000   -29.0382     8.2112     8.1158    77.9084     2.4661     0.1273     0.0092     7.6488
  174.0000   -29.0291     8.1840     8.0156    80.8905     2.4635     0.1267     0.0099     7.6488
  174.5000   -29.0200     8.1568     7.9167    82.6965     2.4647     0.1263     0.0105     7.6537
  175.0000   -29.0109     8.1297     7.8190    81.9972     2.4654     0.1271     0.0111     7.6618
  175.5000   -29.0019     8.1027     7.7224    80.5562     2.4637     0.1278     0.0118     7.6701
  176.0000   -28.9928     8.0758     7.6271    79.1212     2.4620     0.1286     0.0124     7.6783
  176.5000   -28.9837     8.0491     7.5329    78.6268     2.4603     0.1294     0.0125     7.6866
  177.0000   -28.9747     8.0223     7.4399    81.0858     2.4601     0.1294     0.0122     7.6948
  177.5000   -28.9656     7.9957     7.3481    81.6244     2.4600     0.1286     0.0119     7.7030
  178.0000   -28.9566     7.9691     7.2574    80.4050     2.4594     0.1322     0.0116     7.7113
  178.5000   -28.9475     7.9549     7.1678    79.1694     2.4566     0.1326     0.0113     7.7195
  179.0000   -28.9384     7.9548     7.1217    78.6415     2.4539     0.1357     0.0110     7.7277
  179.5000   -28.9294     7.9548     7.1212    78.5848     2.4542     0.1322     0.0108     7.7360
  180.0000   -28.9203     7.9548     7.1216    78.7440     2.4557     0.1293     0.0121     7.7442
  180.5000   -28.9112     7.9548     7.2106    79.8724     2.4573     0.1293     0.0135     7.7525
  181.0000   -28.9022     7.9547     7.3067    81.0763     2.4555     0.1348     0.0161     7.7607
  181.5000   -28.8931     7.9548     7.4040    82.2921     2.4503     0.1365     0.0188     7.7680
  182.0000   -28.8840     7.9633     7.5025    83.4897     2.4489     0.1329     0.0232     7.7669
  182.5000   -28.8750     8.0000     7.6023    82.6847     2.4618     0.1241     0.0311     7.7659
  183.0000   -28.8659     8.0369     7.7035    80.6730     2.4794     0.1150     0.0340     7.7650
  183.5000   -28.8568     8.0740     7.8060    79.1063     2.4823     0.1191     0.0328     7.7641
  184.0000   -28.8478     8.1113     7.9098    78.5865     2.4779     0.1213     0.0345     7.7632
  184.5000   -28.8387     8.1488     8.0150    76.7637     2.4760     0.1188     0.0378     7.7623
  185.0000   -28.8297     8.1864     8.1028    74.9033     2.4766     0.1162     0.0412     7.7614
  185.5000   -28.8206     8.2241     8.1028    73.3941     2.4808     0.1142     0.0443     7.7604
  186.0000   -28.8115     8.2536     8.0876    73.6455     2.4854     0.1145     0.0419     7.7595
  186.5000   -28.8025     8.2225     8.0514    74.8040     2.4886     0.1149     0.0392     7.7586
  187.0000   -28.7934     8.1971     8.0152    75.9380     2.4794     0.1153     0.0366     7.7577
  187.5000   -28.7843     8.1717     7.9793    76.9915     2.4815     0.1158     0.0340     7.7568
  188.0000   -28.7753     8.1465     7.9435    77.1332     2.4820     0.1173     0.0322     7.7559
  188.5000   -28.7662     8.1213     7.9079    76.8662     2.4797     0.1187     0.0316     7.7550
  189.0000   -28.7572     8.0962     7.8724    76.2164     2.4774     0.1201     0.0310     7.7541
  189.5000   -28.7481     8.0712     7.8371    76.4255     2.4752     0.1216     0.0306     7.7532
  190.0000   -28.7390     8.0462     7.8019    77.3567     2.4729     0.1226     0.0310     7.7523
  190.5000   -28.7300     8.0214     7.7669    78.2474     2.4706     0.1222     0.0313     7.7513
  191.0000   -28.7209     7.9966     7.7321    79.1572     2.4708     0.1210     0.0316     7.7504
  191.5000   -28.7118     7.9718     7.6974    79.1450     2.4733     0.1216     0.0319     7.7495
  192.0000   -28.7028     7.9548     7.6668    77.3809     2.4733     0.1221     0.0322     7.7486
  192.5000   -28.6937     8.0285     7.6668    77.7008     2.4683     0.1208     0.0325     7.7480
  193.0000   -28.6846     8.1288     7.7140    79.5898     2.4713     0.1195     0.0320     7.7480
  193.5000   -28.6756     8.2371     7.8481    81.3747     2.4748     0.1191     0.0303     7.7480
  194.0000   -28.6665     8.3467     7.9850    81.5711     2.4761     0.1205     0.0286     7.7480
  194.5000   -28.6574     8.4578     8.1242    79.6600     2.4735     0.1213     0.0284     7.7480
  195.0000   -28.6484     8.5703     8.2657    77.0725     2.4711     0.1213     0.0282     7.7480
  195.5000   -28.6393     8.6844     8.4097    74.6480     2.4712     0.1206     0.0280     7.7520
  196.0000   -28.6303     8.7999     8.5563    73.9080     2.4722     0.1172     0.0278     7.7584
