~VERSION INFORMATION
 VERS.                2.0:   CWLS LOG ASCII STANDARD - VERSION 2.0
 WRAP.                 NO:   ONE LINE PER DEPTH STEP
~WELL INFORMATION
#MNEM.UNIT      DATA TYPE    INFORMATION
#----------   ------------   ------------------------------
 STRT.F            0.0000:   START DEPTH
 STOP.F         1027.0000:   STOP DEPTH
 STEP.F            0.1000:   STEP LENGTH
 NULL.          -999.2500:   NO VALUE
 COMP.       F D SERV INC:   COMPANY
 WELL.   77-1 X 27 #77-27:   WELL
 FLD .             TEAPOT:   FIELD
 LOC .      S27 T39N R78W:   LOCATION
 CNTY.            NATRONA:   COUNTY
 STAT.            WYOMING:   STATE
 CTRY. UNITED STATES OF AMERICA:   COUNTRY
 SRVC.      Western Atlas:   SERVICE COMPANY
 DATE.        04-NOV-1991:   LOGDATE
 API .       490252248600:   API NUMBER
~CURVE INFORMATION
#MNEM.UNIT       API CODE    CURVE DESCRIPTION
#----------   ------------   ------------------------------
 DEPT.F                  :   
 GRR .GAPI   07 310 01 00:   GAMMA RAY
 RILD.OHMM   07 120 46 00:   INDUCTION LOG DEEP RESISTIVITY
 RFOC.OHMM   07 220 04 00:   RESISTIVITY FOCUSED LOG
 RILM.OHMM   07 120 44 00:   INDUCTION LOG MEDIUM RESISTIVITY
 SPR .MV     07 010 01 00:   SPONTANEOUS POTENTIAL
~PARAMETER INFORMATION
#MNEM.UNIT          VALUE    DESCRIPTION
#----------   ------------   ------------------------------
 PD  .                 GL:   PERMANENT DATUM
 EPD .F              5077:   ELEVATION PERMANENT DATUM
 LMF .                 KB:   LOG MEASURED FROM
 DAPD.F                10:   FEET ABOVE PERMANENT DATUM
 DMF .                 KB:   DRILLING MEASURED FROM
 EKB .F              5087:   KELLING BUSHING
 EDF .F              5086:   DRILLING FLOOR
 EGL .F              5077:   GROUND LEVEL
 DATE.        04-NOV-1991:   RUN DATE
 RUN .                  1:   RUN NUMBER
 DD  .F              1030:   DEPTH DRILLER
 DL  .F              1030:   DEPTH LOGGER
 BLI .F              1027:   BOTTOM LOG INTERVAL
 CS  .IN            9.625:   CASING SIZE
 CBD .F                50:   CASING BOTTOM DRILLER
 CBL .F                52:   CASING BOTTOM LOGGER
 BS  .IN             8.75:   BIT SIZE
 BSD .F              1030:   BIT SIZE AT DEPTH
 DFT .          KCL WATER:   DRILLING FLUID TYPE
 MSS .           FLOWLINE:   MUD SAMPLE SOURCE
 RMS .OHMM            .24:   RESISTIVITY MUD SAMPLE
 MST .F                72:   MUD SAMPLE TEMPERATURE
 RMB .OHMM            .19:   RESISTIVITY MUD AT BHT
 BHT .F                90:   BOTTOM HOLE TEMPERATURE
 TCS .HRS               2:   TIME CURCULATED STOPPED
 MRT .F                90:   MAXIMUM RECORDED TEMPERATURE
 LUN .            HL-6274:   LOGGING UNIT NUMBER
 LUL .             CASPER:   LOGGING UNIT LOCATION
 ENGI.             RAUTIO:   RECORDING ENGINEER
 WITN.             STRONG:   WITNESSED BY
 CLNT.            A2DTECH:   CLIENT CODE
 ORIG.           5" PRINT:   ORIGIN OF DATA
 UWI .       490252248600:   UNIQUE WELL ID
 DICO. A2D Technologies, Inc.:   DIGITIZING COMPANY
~OTHER INFORMATION
~A    DEPT      GRR      RILD       RFOC       RILM        SPR   
# ...
  878.4000    81.6341    11.6088    11.6786    11.2030   -23.4621
  878.5000    81.6767    11.6090    11.6785    11.2030   -23.4611
  878.6000    81.8659    11.6092    11.6783    11.2030   -23.5379
  878.7000    81.8695    11.6093    11.6781    11.2030   -23.6084
  878.8000    82.0180    11.6095    11.6780    11.1928   -23.6072
  878.9000    82.2066    11.6097    11.6778    11.1822   -23.6060
  879.0000    82.3293    11.6098    11.6653    11.1716   -23.6048
  879.1000    82.3593    11.6100    11.5968    11.1609   -23.7001
  879.2000    82.5613    11.6101    11.5966    11.1503   -23.7521
  879.3000    82.5647    11.6103    11.5965    11.1397   -23.7509
  879.4000    82.5683    11.6105    11.5963    11.1290   -23.7497
  879.5000    82.6647    11.6106    11.5961    11.1681   -23.7484
  879.6000    82.8533    11.6108    11.5960    11.2030   -23.8623
  879.7000    83.0281    11.6109    11.5958    11.2030   -23.8958
  879.8000    83.0322    11.6111    11.5956    11.2030   -23.8946
  879.9000    83.0353    11.6113    11.5955    11.2030   -23.8934
  880.0000    83.0389    11.6114    11.5953    11.2030   -23.8922
  880.1000    83.1228    11.6116    11.5952    11.1650   -23.8909
  880.2000    83.3522    11.6117    11.5950    11.1014   -23.8898
  880.3000    83.7271    11.6119    11.5948    11.0486   -23.8886
  880.4000    84.2856    11.6121    11.5947    11.0486   -23.8874
  880.5000    84.5509    11.6122    11.5945    10.9887   -23.8862
  880.6000    84.7396    11.6124    11.5944    10.9261   -23.8850
  880.7000    84.8605    11.6125    11.5942    10.8963   -24.0333
  880.8000    84.8641    11.6127    11.5940    10.8772   -24.0323
  880.9000    84.8679    11.6129    11.5939    10.8209   -24.1043
  881.0000    84.8713    11.6130    11.5937    10.8209   -24.1796
  881.1000    84.8748    11.6132    11.5936    10.8209   -24.1784
  881.2000    84.8784    11.6134    11.5934    10.8209   -24.1772
  881.3000    84.8269    11.6135    11.5932    10.7932   -24.2939
  881.4000    84.6608    11.6137    11.5931    10.7460   -24.4161
  881.5000    84.6651    11.6138    11.5929    10.7460   -24.5384
  881.6000    84.6683    11.6140    11.5928    10.7460   -24.6607
  881.7000    84.6719    11.6142    11.5590    10.7957   -24.7829
  881.8000    84.6755    11.6143    11.5123    10.8209   -24.9184
  881.9000    84.6790    11.6145    11.5067    10.8209   -25.0274
  882.0000    84.6826    11.6146    11.4324    10.8209   -25.0659
  882.1000    84.6869    11.6148    11.4323    10.8209   -25.0647
  882.2000    84.6898    11.6150    11.4321    10.8209   -25.0635
  882.3000    84.6934    11.6151    11.4320    10.8209   -25.0623
  882.4000    84.6970    11.6153    11.4166    10.8209   -25.0609
  882.5000    84.7006    11.6154    11.3526    10.8209   -25.0599
  882.6000    84.7044    11.5923    11.3524    10.8209   -25.1347
  882.7000    84.8833    11.5355    11.3523    10.8209   -25.2072
  882.8000    84.9359    11.5357    11.3136    10.8209   -25.2060
  882.9000    84.9395    11.5358    11.2735    10.8209   -25.2048
  883.0000    85.0000    11.5360    11.2734    10.8209   -25.3244
  883.1000    85.1887    11.5034    11.2732    10.8067   -25.3521
  883.2000    85.3998    11.4566    11.2731    10.7460   -25.3509
  883.3000    85.5659    11.4567    11.2729    10.7460   -25.3497
  883.4000    85.7545    11.4569    11.2728    10.7460   -25.3485
  883.5000    86.0270    11.4570    11.2726    10.7460   -25.3472
  883.6000    86.3120    11.4572    11.2724    10.7460   -25.3461
  883.7000    86.3252    11.4574    11.2723    10.7460   -25.3449
  883.8000    86.7689    11.4575    11.2721    10.7460   -25.3437
  883.9000    87.0724    11.4577    11.2720    10.7460   -25.3425
  884.0000    87.3354    11.4578    11.2718    10.7460   -25.3493
  884.1000    87.5953    11.4580    11.2717    10.7460   -25.4896
  884.2000    88.0005    11.4581    11.2715    10.7460   -25.4886
  884.3000    88.5828    11.4583    11.2713    10.7460   -25.4874
  884.4000    88.9408    11.4487    11.2712    10.7460   -25.4862
  884.5000    89.1767    11.3794    11.2710    10.7460   -25.4850
  884.6000    89.4635    11.3796    11.2709    10.7460   -25.4838
  884.7000    89.7785    11.3797    11.2707    10.7460   -25.4826
  884.8000    89.9671    11.3799    11.2706    10.7460   -25.4814
  884.9000    90.1764    11.3610    11.2704    10.7460   -25.4802
  885.0000    90.6737    11.3015    11.2703    10.7460   -25.4790
  885.1000    91.2325    11.3017    11.2701    10.7460   -25.4778
  885.2000    91.6198    11.3019    11.2699    10.7820   -25.4766
  885.3000    91.8545    11.3020    11.2698    10.8209   -25.4754
  885.4000    92.2282    11.3022    11.2696    10.8209   -25.3846
  885.5000    92.6683    11.3023    11.2695    10.8209   -25.3234
  885.6000    92.9755    11.3025    11.2693    10.8209   -25.2850
  885.7000    93.3491    11.3027    11.2692    10.8658   -25.1713
  885.8000    93.7228    11.3028    11.2720    10.8963   -25.1699
  885.9000    94.0628    11.3030    11.2826    10.8963   -25.1689
  886.0000    94.2576    11.3031    11.2933    10.9013   -25.0858
  886.1000    94.4402    11.3033    11.3039    10.9721   -25.0168
  886.2000    94.7683    11.3035    11.3145    11.0266   -25.0156
  886.3000    95.1419    11.3036    11.3251    11.0486   -25.0144
  886.4000    95.4551    11.3038    11.3357    11.0486   -25.0130
  886.5000    95.6438    11.3039    11.3466    11.0627   -25.0120
  886.6000    95.8513    11.3041    11.4116    11.1255   -25.0108
  886.7000    95.8545    11.3042    11.4250    11.1255   -25.0096
  886.8000    95.7311    11.3044    11.5010    11.1255   -25.0084
  886.9000    95.4622    11.3045    11.5842    11.1255   -25.0071
  887.0000    95.0958    11.3477    11.5943    11.1488   -25.0060
  887.1000    94.7293    11.3835    11.6645    11.2030   -25.0048
  887.2000    94.3012    11.3991    11.6644    11.2030   -25.0036
  887.3000    93.6886    11.4631    11.7130    11.2030   -25.0024
  887.4000    92.8377    11.4633    11.7452    11.2030   -25.0012
  887.5000    91.8411    11.5166    11.7451    11.2030   -24.9999
  887.6000    90.5929    11.5827    11.7510    11.2030   -24.9988
  887.7000    88.7049    11.6238    11.8265    11.2030   -24.9976
  887.8000    87.2615    11.6240    11.8859    11.2030   -24.9964
  887.9000    86.3504    11.6242    11.9085    11.2030   -24.9952
  888.0000    86.0210    11.6243    11.9083    11.2030   -25.0000
  888.1000    86.0246    11.6739    11.9245    11.2030   -25.1423
  888.2000    86.0509    11.7055    11.9908    11.2030   -25.1413
  888.3000    86.2566    11.7057    11.9078    11.2030   -25.1401
  888.4000    86.2599    11.7059    11.9076    11.2030   -25.0882
  888.5000    86.3922    11.7060    11.9075    11.2030   -24.9880
  888.6000    86.5808    11.7062    11.9073    11.2030   -24.9868
  888.7000    86.7694    11.7064    11.8951    11.2030   -24.9856
  888.8000    86.9683    11.7065    11.8247    11.2030   -24.9844
  888.9000    87.4012    11.7067    11.8245    11.2030   -24.9832
  889.0000    87.8712    11.7068    11.7737    11.2030   -24.9820
  889.1000    88.5461    11.7070    11.7425    11.2030   -24.9808
  889.2000    89.1366    11.7072    11.7423    11.1710   -24.9796
  889.3000    89.4359    11.7073    11.7345    11.1073   -24.9784
  889.4000    89.4396    11.6814    11.6608    11.0486   -24.9772
  889.5000    89.4431    11.6267    11.6607    11.0486   -24.9761
  889.6000    89.3036    11.6269    11.6605    11.0486   -24.9749
  889.7000    89.2257    11.6271    11.6287    11.0081   -24.9825
  889.8000    89.0371    11.6272    11.5796    10.9453   -25.1220
  889.9000    88.4610    11.5918    11.5794    10.8963   -25.1210
  890.0000    87.6650    11.5472    11.5792    10.8963   -25.1198
  890.1000    86.6480    11.5401    11.5791    10.8963   -25.1186
  890.2000    85.5412    11.4677    11.5789    10.8963   -25.1174
  890.3000    84.7078    11.4093    11.5515    10.8608   -25.1162
  890.4000    84.1564    11.3445    11.4854    10.8209   -25.1150
  890.5000    83.6287    11.2799    11.4190    10.8209   -25.1138
