~VERSION INFORMATION
 VERS.                2.0:   CWLS LOG ASCII STANDARD - VERSION 2.0
 WRAP.                 NO:   ONE LINE PER DEPTH STEP
~WELL INFORMATION
#MNEM.UNIT      DATA TYPE    INFORMATION
#----------   ------------   ------------------------------
 STRT.F            8.5000:   START DEPTH
 STOP.F          642.0000:   STOP DEPTH
 STEP.F            0.5000:   STEP LENGTH
 NULL.          -999.2500:   NO VALUE
 COMP. FENIX & SCISSON INC:   COMPANY
 WELL. 26-36 S11 W1 #26-36 SX11:   WELL
 FLD .             TEAPOT:   FIELD
 LOC .      S11 T38N R78W:   LOCATION
 CNTY.            NATRONA:   COUNTY
 STAT.            WYOMING:   STATE
 CTRY. UNITED STATES OF AMERICA:   COUNTRY
 SRVC.      Dresser Atlas:   SERVICE COMPANY
 DATE.        16-JUL-1980:   LOGDATE
 API .       490251083500:   API NUMBER
~CURVE INFORMATION
#MNEM.UNIT       API CODE    CURVE DESCRIPTION
#----------   ------------   ------------------------------
 DEPT.F                  :   
 NPHI.DEC    42 890 03 00:   NEUTRON POROSITY SANDSTONE
 RHOB.G/C3   45 350 01 00:   BULK DENSITY
 CORR.G/C3   45 356 01 00:   DENSITY CORRECTION
 GRD .GAPI   45 310 01 00:   GAMMA RAY FROM DENSITY LOG
 CALD.IN     45 280 60 00:   CALIPER
 SPR .MV     07 010 01 00:   SPONTANEOUS POTENTIAL
 SFL .OHMM   07 220 01 00:   SHALLOW FOCUSED LOG RESISTIVITY
 ILD .OHMM   07 120 46 00:   INDUCTION LOG DEEP
 ILM .OHMM   07 120 44 00:   INDUCTION LOG MEDIUM
 DPHI.DEC    45 890 12 00:   DENSITY POROSITY SANDSTONE
~PARAMETER INFORMATION
#MNEM.UNIT          VALUE    DESCRIPTION
#----------   ------------   ------------------------------
 PD  .                 GL:   PERMANENT DATUM
 EPD .F              5184:   ELEVATION PERMANENT DATUM
 LMF .                 KB:   LOG MEASURED FROM
 DAPD.F                 5:   FEET ABOVE PERMANENT DATUM
 DMF .                 KB:   DRILLING MEASURED FROM
 EKB .F              5189:   KELLING BUSHING
 EGL .F              5184:   GROUND LEVEL
 DATE.            7-16-80:   RUN DATE
 RUN .                  1:   RUN NUMBER
 DD  .F               630:   DEPTH DRILLER
 DL  .F               637:   DEPTH LOGGER
 BLI .F               635:   BOTTOM LOG INTERVAL
 TLI .F                 8:   TOP LOG INTERVAL
 BS  .IN            7.875:   BIT SIZE
 BSD .F               630:   BIT SIZE AT DEPTH
 DFT .           CHEM GEL:   DRILLING FLUID TYPE
 DFD .                9.2:   DRILLING FLUID DENSITY
 DFV .                 65:   DRILLING FLUID VISCOSITY
 DFPH.                 10:   DRILLING FLUID PH
 DFL .                  8:   DRILLING FLUID LOSS
 MSS .           FLOWLINE:   MUD SAMPLE SOURCE
 RMS .OHMM            .61:   RESISTIVITY MUD SAMPLE
 MST .F                60:   MUD SAMPLE TEMPERATURE
 RMC .OHMM            .62:   RESISTIVITY MUD CAKE
 MCST.F                58:   MUD CAKE SAMPLE TEMPERATURE
 MFSS.               MEAS:   MUD FILTRATE SAMPLE SOURCE
 MCSS.               MEAS:   MUD CAKE SAMPLE SOURCE
 RMB .OHMM            .41:   RESISTIVITY MUD AT BHT
 BHT .F                90:   BOTTOM HOLE TEMPERATURE
 TCS .HRS               5:   TIME CURCULATED STOPPED
 MRT .F                90:   MAXIMUM RECORDED TEMPERATURE
 LUN .               6109:   LOGGING UNIT NUMBER
 LUL .              GLTTE:   LOGGING UNIT LOCATION
 ENGI.            GARONER:   RECORDING ENGINEER
 WITN.              AMEND:   WITNESSED BY
 CLNT.            A2DTECH:   CLIENT CODE
 ORIG.           5" PRINT:   ORIGIN OF DATA
 UWI .       490251083500:   UNIQUE WELL ID
 DICO. A2D Technologies, Inc.:   DIGITIZING COMPANY
~OTHER INFORMATION
~A    DEPT    NPHI       RHOB       CORR        GRD       CALD        SPR        SFL          ILD      ILM       DPHI   
# ...
  511.0000     0.2631     2.4476     0.0055    70.3728     7.7285   -33.3208    15.3150    11.4388    11.9290     0.1172
  511.5000     0.2517     2.4540     0.0041    71.1789     7.7251   -33.5241    15.0776    11.3544    11.9287     0.1167
  512.0000     0.2472     2.4696     0.0077    72.1950     7.7218   -33.5352    14.8438    11.2858    11.9285     0.1136
  512.5000     0.2581     2.4860     0.0118    73.1822     7.7185   -33.5034    14.6140    11.2858    11.9282     0.1230
  513.0000     0.2794     2.4859     0.0158    73.5533     7.7152   -33.4047    14.6955    11.2858    11.9274     0.1295
  513.5000     0.2989     2.4899     0.0149    72.2907     7.7119   -33.3118    14.8334    11.2858    11.9267     0.1424
  514.0000     0.2988     2.4695     0.0079    71.0587     7.7086   -33.2210    14.9864    11.2858    11.9712     0.1516
  514.5000     0.2488     2.4475     0.0009    69.7821     7.7053   -33.1358    15.1490    11.3762    12.0419     0.1376
  515.0000     0.2525     2.4285    -0.0059    69.5011     7.7020   -33.1335    15.3133    11.4833    12.1136     0.1303
  515.5000     0.2564     2.4422    -0.0020    69.4851     7.6987   -33.1313    15.4794    11.5915    12.1859     0.1365
  516.0000     0.2587     2.4591     0.0082    70.0044     7.6954   -33.1324    15.7392    11.7048    12.2584     0.1402
  516.5000     0.2579     2.4601     0.0177    70.6750     7.6922   -33.1323    15.7334    11.8170    12.3303     0.1336
  517.0000     0.2559     2.4458     0.0156    71.3475     7.6938   -33.1322    14.8858    11.9359    12.3767     0.1435
  517.5000     0.2551     2.4558     0.0162    72.0226     7.7045   -33.1326    15.0794    11.7180    12.3769     0.1443
  518.0000     0.2589     2.4534     0.0213    72.3052     7.7151   -33.1329    15.4456    11.6541    12.3769     0.1463
  518.5000     0.2634     2.4410     0.0167    71.4152     7.7259   -33.1328    15.3310    11.4834    12.1895     0.1496
  519.0000     0.2643     2.4405     0.0161    69.9385     7.7178   -33.1329    15.1362    11.3154    12.0005     0.1480
  519.5000     0.2581     2.4344     0.0175    68.4625     7.6976   -33.1339    14.9439    11.1506    11.8144     0.1404
  520.0000     0.2551     2.4283     0.0102    67.2565     7.6901   -33.1319    14.7541    10.9840    11.6312     0.1287
  520.5000     0.2632     2.4393     0.0023    68.4102     7.6900   -33.1306    14.6136    10.8242    11.4509     0.1132
  521.0000     0.2647     2.4523     0.0057    70.1615     7.6900   -33.0396    14.6136    10.6779    11.2733     0.1064
  521.5000     0.2665     2.4772     0.0183    71.9206     7.6900   -32.9307    14.6136    10.4826    11.0794     0.1150
  522.0000     0.2679     2.5019     0.0311    72.9068     7.6900   -32.8202    14.6136    10.4826    11.0794     0.1179
  522.5000     0.2619     2.4919     0.0291    72.8989     7.6900   -32.7113    14.6136    10.4826    11.0794     0.1236
  523.0000     0.2591     2.4847     0.0233    72.8969     7.6900   -32.6018    14.6136    10.4826    11.2650     0.1267
  523.5000     0.2636     2.4804     0.0204    72.8747     7.6900   -32.4919    14.6136    10.8608    11.4700     0.1207
  524.0000     0.2663     2.4688     0.0179    73.7833     7.6900   -32.3830    14.6136    11.2056    11.6787     0.1155
  524.5000     0.2628     2.4728     0.0207    74.8097     7.6900   -32.2736    14.8132    11.5613    11.8912     0.1193
  525.0000     0.2596     2.4813     0.0284    75.0902     7.6900   -32.1617    15.0759    11.9284    12.1075     0.1255
  525.5000     0.2567     2.4837     0.0356    73.6421     7.6881   -32.0575    15.3433    12.9099    13.6577     0.1357
  526.0000     0.2598     2.4767     0.0360    71.7136     7.6815   -31.9355    15.7334    14.9699    15.7980     0.1479
  526.5000     0.2615     2.4688     0.0312    69.1485     7.6750   -31.9275    16.7562    17.3587    18.2737     0.1771
  527.0000     0.2645     2.4446     0.0257    66.6139     7.6685   -31.9252    18.5365    20.1286    21.1375     0.2019
  527.5000     0.2625     2.4276     0.0178    64.5014     7.6620   -31.9280    20.5061    23.3270    24.4500     0.1853
  528.0000     0.2522     2.3779     0.0102    63.3840     7.6555   -31.9206    22.6849    27.0452    28.2816     0.1634
  528.5000     0.2419     2.3438     0.0124    62.2481     7.6498   -31.9938    25.0952    31.3579    32.7136     0.1506
  529.0000     0.2347     2.3892     0.0264    61.2701     7.6500   -32.1471    27.4882    36.8318    36.1030     0.1782
  529.5000     0.2284     2.4230     0.0401    61.8736     7.6500   -32.2926    29.4909    35.7178    32.6815     0.1979
  530.0000     0.2347     2.4299     0.0437    62.8699     7.6500   -32.4375    31.6394    33.8715    29.3605     0.2129
  530.5000     0.2420     2.3831     0.0383    63.3479     7.6472   -32.5847    33.5335    32.1222    26.8712     0.2109
  531.0000     0.2452     2.3398     0.0321    62.9136     7.6301   -32.7296    31.9387    30.4632    25.8359     0.2125
  531.5000     0.2486     2.3300     0.0318    62.5198     7.6133   -32.8763    30.0033    28.8816    24.9851     0.2041
  532.0000     0.2554     2.3303     0.0319    62.9045     7.5965   -33.0236    28.1852    27.3832    24.5023     0.1684
  532.5000     0.2649     2.3316     0.0243    63.9288     7.5797   -33.1322    26.8712    25.9626    24.5023     0.1249
  533.0000     0.2797     2.3494     0.0144    64.1182     7.5699   -33.1309    30.9720    24.6156    24.4884     0.0713
  533.5000     0.2945     2.4051     0.0198    63.2210     7.5700   -33.1338    44.2303    23.1824    23.8939     0.2073
  534.0000     0.2979     2.4900     0.0364    62.3364     7.5700   -33.1333    40.5344    23.1824    23.3447     0.1892
  534.5000     0.2979     2.5589     0.0531    61.4663     7.5733   -33.1272    33.8007    23.1824    22.8088     0.1659
  535.0000     0.2980     2.5318     0.0595    61.2907     7.5889   -33.1887    28.1856    22.6154    22.2858     0.1614
  535.5000     0.2981     2.4852     0.0584    61.9439     7.6041   -33.3148    24.5023    22.0065    21.7752     0.1678
  536.0000     0.2982     2.4339     0.0576    62.8947     7.6191   -33.4340    24.4497    21.4121    21.2752     0.1780
  536.5000     0.2719     2.4101     0.0567    63.8554     7.6262   -33.5530    24.5471    20.8350    20.7695     0.1885
  537.0000     0.2749     2.3988     0.0551    64.8216     7.6085   -33.6766    24.5343    20.3694    20.3726     0.1893
  537.5000     0.2787     2.3834     0.0407    65.5794     7.5915   -33.7906    23.6236    20.3757    20.3726     0.1872
  538.0000     0.2677     2.3684     0.0296    66.1737     7.5734   -33.9265    23.6959    20.3759    20.3726     0.1811
  538.5000     0.2593     2.3667     0.0299    65.7602     7.5490   -33.9346    24.1529    20.2295    20.3726     0.1786
  539.0000     0.2542     2.3741     0.0340    65.0079     7.5776   -33.9384    24.5055    19.8892    20.3726     0.1818
  539.5000     0.2491     2.3814     0.0431    64.3261     7.6088   -33.9355    23.9312    19.5531    20.1279     0.1863
  540.0000     0.2480     2.3817     0.0421    64.4978     7.6395   -33.9360    23.1719    19.2248    19.8440     0.1915
  540.5000     0.2559     2.3770     0.0350    64.8907     7.6698   -33.9362    23.1932    18.9021    19.5641     0.1957
  541.0000     0.2560     2.3656     0.0276    65.3171     7.6829   -33.9358    23.6724    18.5848    19.2882     0.2017
  541.5000     0.2600     2.3605     0.0259    65.4025     7.6608   -33.9352    24.0600    18.2728    19.0162     0.2065
  542.0000     0.2616     2.3534     0.0257    64.7928     7.6391   -33.9357    23.5350    17.9660    18.7479     0.1998
  542.5000     0.2675     2.3402     0.0177    64.3109     7.6302   -33.9360    22.8382    17.6644    18.4834     0.1849
  543.0000     0.2642     2.3394     0.0134    65.2314     7.6251   -33.9320    22.1632    17.3679    18.2228     0.1675
  543.5000     0.2603     2.3502     0.0180    66.1970     7.5959   -33.9712    21.5096    17.0763    17.9663     0.1626
  544.0000     0.2655     2.3818     0.0199    67.1602     7.5672   -34.0434    21.1287    16.7897    17.7137     0.1717
