~VERSION INFORMATION
 VERS.                2.0:   CWLS LOG ASCII STANDARD - VERSION 2.0
 WRAP.                 NO:   ONE LINE PER DEPTH STEP
~WELL INFORMATION
#MNEM.UNIT      DATA TYPE    INFORMATION
#----------   ------------   ------------------------------
 STRT.F          672.0000:   START DEPTH
 STOP.F         2343.5000:   STOP DEPTH
 STEP.F            0.5000:   STEP LENGTH
 NULL.          -999.2500:   NO VALUE
 COMP. FENIX & SCISSON INC:   COMPANY
 WELL.   23 SHX-33 #23-33:   WELL
 FLD .             TEAPOT:   FIELD
 LOC .      S33 T39N R78W:   LOCATION
 CNTY.            NATRONA:   COUNTY
 STAT.            WYOMING:   STATE
 CTRY. UNITED STATES OF AMERICA:   COUNTRY
 SRVC.            Unknown:   SERVICE COMPANY
 DATE.        01-MAY-1978:   LOGDATE
 API .       490251062700:   API NUMBER
~CURVE INFORMATION
#MNEM.UNIT       API CODE    CURVE DESCRIPTION
#----------   ------------   ------------------------------
 DEPT.F                  :   
 IL  .OHMM   05 120 00 00:   INDUCTION LOG
 CIL .MMHO   05 110 00 00:   CONDUCTIVITY INDUCTION LOG
 CALD.IN     45 280 60 00:   CALIPER FROM DENSITY LOG
 GRD .GAPI   45 310 01 00:   GAMMA RAY FROM DENSITY LOG
 DPHI.DEC    45 890 12 00:   DENSITY POROSITY SANDSTONE
 RHOB.G/C3   45 350 01 00:   BULK DENSITY
 CORR.G/C3   45 356 01 00:   DENSITY CORRECTION
~PARAMETER INFORMATION
#MNEM.UNIT          VALUE    DESCRIPTION
#----------   ------------   ------------------------------
 PD  .                 GL:   PERMANENT DATUM
 EPD .F              5163:   ELEVATION PERMANENT DATUM
 LMF .                 KB:   LOG MEASURED FROM
 DAPD.F                10:   FEET ABOVE PERMANENT DATUM
 DMF .                 KB:   DRILLING MEASURED FROM
 EKB .F              5173:   KELLING BUSHING
 EGL .F              5163:   GROUND LEVEL
 DATE.           5-1-1978:   RUN DATE
 RUN .                  1:   RUN NUMBER
 DD  .F              2331:   DEPTH DRILLER
 DL  .F              2260:   DEPTH LOGGER
 BLI .F              2250:   BOTTOM LOG INTERVAL
 TLI .F               690:   TOP LOG INTERVAL
 CS  .IN            9.625:   CASING SIZE
 CBD .F               683:   CASING BOTTOM DRILLER
 CBL .F               690:   CASING BOTTOM LOGGER
 BS  .IN             8.75:   BIT SIZE
 BSD .F              2331:   BIT SIZE AT DEPTH
 DFT .                OIL:   DRILLING FLUID TYPE
 BHT .F               104:   BOTTOM HOLE TEMPERATURE
 TCS .HRS               5:   TIME CURCULATED STOPPED
 MRT .F               104:   MAXIMUM RECORDED TEMPERATURE
 LUN .               2958:   LOGGING UNIT NUMBER
 LUL .               CASP:   LOGGING UNIT LOCATION
 ENGI.             MILLER:   RECORDING ENGINEER
 WITN.           MCGINLEY:   WITNESSED BY
 CLNT.            A2DTECH:   CLIENT CODE
 ORIG.       2", 5" PRINT:   ORIGIN OF DATA
 UWI .       490251062700:   UNIQUE WELL ID
 DICO. A2D Technologies, Inc.:   DIGITIZING COMPANY
~OTHER INFORMATION
~A   DEPT       IL        CIL       CALD         GRD      DPHI       RHOB       CORR   
# ...
 1536.5000     6.1515   149.3719    10.6955    89.1771    -0.0146     2.5593     0.1082
 1537.0000     6.1546   149.4278    10.6630    87.6109    -0.0267     2.5728     0.1148
 1537.5000     6.1576   149.4837    10.6399    86.1867    -0.0455     2.5705     0.1215
 1538.0000     6.1607   149.5397    10.6547    85.7510    -0.0157     2.6190     0.1248
 1538.5000     6.1638   149.5956    10.6173    85.4027    -0.0198     2.5903     0.1192
 1539.0000     6.1669   149.6515    10.6602    85.4590    -0.0359     2.5699     0.1124
 1539.5000     6.1700   149.7074    10.7032    85.5069    -0.0321     2.6071     0.1064
 1540.0000     6.1731   149.7634    10.6363    85.5557    -0.0274     2.5801     0.0963
 1540.5000     6.1761   149.8193    10.6539    85.6197    -0.0227     2.5991     0.0857
 1541.0000     6.1792   149.8752    10.6496    84.9191    -0.0181     2.6054     0.0751
 1541.5000     6.1823   149.9312    10.5391    84.1008    -0.0150     2.5876     0.0646
 1542.0000     6.1854   149.9871    10.5762    83.2095    -0.0194     2.5750     0.0570
 1542.5000     6.1885   150.0430    10.6697    82.9979    -0.0220     2.5636     0.0571
 1543.0000     6.1916   150.0990    10.5769    84.1629    -0.0206     2.5844     0.0569
 1543.5000     6.1947   150.1549    10.6745    85.4474    -0.0302     2.5795     0.0629
 1544.0000     6.1977   150.2108    10.5506    85.6379    -0.0385     2.5842     0.0720
 1544.5000     6.2009   150.2667    10.4638    85.4172    -0.0432     2.6030     0.0811
 1545.0000     6.2025   150.3227    10.4735    85.4074    -0.0361     2.6193     0.0902
 1545.5000     6.2036   150.3786    10.3889    85.3981    -0.0251     2.6210     0.0992
 1546.0000     6.2048   150.4345    10.3024    86.0568    -0.0130     2.5874     0.1083
 1546.5000     6.2059   150.4905    10.3099    87.5875    -0.0221     2.5601     0.1174
 1547.0000     6.2071   150.5464    10.3346    89.1154    -0.0321     2.5816     0.1264
 1547.5000     6.2082   150.6023    10.3590    90.6561    -0.0380     2.5918     0.1255
 1548.0000     6.2093   150.6582    10.3736    92.9493    -0.0408     2.5944     0.1134
 1548.5000     6.2105   150.7142    10.3409    96.4940    -0.0408     2.6108     0.0978
 1549.0000     6.2116   150.7701    10.3120    99.9914    -0.0348     2.6234     0.0820
 1549.5000     6.2128   150.8260    10.2836   101.1186    -0.0293     2.5983     0.0664
 1550.0000     6.2139   150.8822    10.2605   101.1110    -0.0278     2.5901     0.0544
 1550.5000     6.2150   150.9381    10.2996   101.3238    -0.0221     2.5926     0.0549
 1551.0000     6.2162   150.9955    10.2893   103.2049    -0.0220     2.5877     0.0573
 1551.5000     6.2173   150.7785    10.2348   104.4330    -0.0238     2.5805     0.0598
 1552.0000     6.2185   150.4514    10.1824   106.0447    -0.0233     2.5810     0.0622
 1552.5000     6.2196   150.1239    10.2594   108.7899    -0.0229     2.5893     0.0646
 1553.0000     6.2207   149.7964    10.2729   109.3336    -0.0234     2.5866     0.0673
 1553.5000     6.2219   149.4682    10.2351   108.3640    -0.0278     2.5827     0.0766
 1554.0000     6.2230   149.1441    10.3332   103.7062    -0.0322     2.5804     0.0861
 1554.5000     6.2242   149.0695    10.3668   100.9773    -0.0363     2.5985     0.0942
 1555.0000     6.2253   149.2276    10.3398   102.6916    -0.0202     2.6084     0.0816
 1555.5000     6.2264   149.3832    10.3867   104.2433    -0.0273     2.5995     0.0689
 1556.0000     6.2276   149.5385    10.4340   101.2165    -0.0241     2.5769     0.0748
 1556.5000     6.2287   149.6937    10.4765    96.9023    -0.0198     2.5920     0.0894
 1557.0000     6.2299   149.8489    10.4871    92.6211    -0.0299     2.5918     0.0827
 1557.5000     6.2310   150.0041    10.4976    90.6546    -0.0353     2.5719     0.0829
 1558.0000     6.2321   150.1593    10.5337    96.2348    -0.0333     2.6119     0.0885
 1558.5000     6.2333   150.3146    10.5745   102.6762    -0.0440     2.6032     0.0941
 1559.0000     6.2344   150.4698    10.6142   104.1113    -0.0492     2.6084     0.0998
 1559.5000     6.2356   150.6250    10.5872   100.3746    -0.0399     2.6253     0.0966
 1560.0000     6.2367   150.7802    10.5562   100.5877    -0.0365     2.6117     0.0845
 1560.5000     6.2378   150.9355    10.5442   104.8692    -0.0452     2.6010     0.0733
 1561.0000     6.2390   151.0907    10.5648   105.5372    -0.0388     2.6117     0.0727
 1561.5000     6.2401   151.2459    10.5849   102.6762    -0.0326     2.6206     0.0713
 1562.0000     6.2413   151.4012    10.6017    97.3121    -0.0293     2.6083     0.0700
 1562.5000     6.2424   151.5564    10.6124    94.4907    -0.0300     2.5945     0.0686
 1563.0000     6.2435   151.7119    10.6857    98.3114    -0.0305     2.5977     0.0673
 1563.5000     6.2447   151.8668    10.7611   102.1356    -0.0236     2.5976     0.0661
 1564.0000     6.2458   152.0202    10.8373   104.2942    -0.0186     2.5740     0.0737
 1564.5000     6.2470   151.8693    10.8933   104.2450    -0.0317     2.5855     0.0813
 1565.0000     6.2481   151.7201    10.8905   101.4062    -0.0249     2.5984     0.0887
 1565.5000     6.2492   151.5710    10.8773    98.9604    -0.0309     2.5859     0.0889
 1566.0000     6.2504   151.4219    10.8539   101.1229    -0.0206     2.6022     0.0844
 1566.5000     6.2515   151.2727    10.7630   105.2617    -0.0246     2.5929     0.0797
 1567.0000     6.2527   151.1236    10.6651   105.2933    -0.0273     2.5833     0.0750
 1567.5000     6.2538   150.9745    10.5676   102.9525    -0.0224     2.5919     0.0703
 1568.0000     6.2549   150.8253    10.4701   101.3481    -0.0202     2.5848     0.0656
 1568.5000     6.2561   150.6762    10.3717   101.3119    -0.0212     2.5756     0.0719
 1569.0000     6.2572   150.5270    10.2649   101.3093    -0.0221     2.5723     0.0821
 1569.5000     6.2584   150.3779    10.3006   100.8872    -0.0226     2.5908     0.0873
 1570.0000     6.2595   150.2288    10.3276    99.2968    -0.0279     2.5884     0.0911
 1570.5000     6.2606   150.0796    10.2802    97.7365    -0.0349     2.5823     0.0932
 1571.0000     6.2618   149.9305    10.2390    96.9185    -0.0320     2.5959     0.0926
 1571.5000     6.2629   149.7813    10.2390    97.3697    -0.0268     2.6088     0.0765
 1572.0000     6.2641   149.6322    10.2593   101.4918    -0.0254     2.5986     0.0617
 1572.5000     6.2652   149.4831    10.2820   105.6957    -0.0369     2.5900     0.0723
 1573.0000     6.2663   149.3339    10.3138   105.9064    -0.0298     2.5977     0.0794
 1573.5000     6.2675   149.1848    10.3462   106.5243    -0.0217     2.6064     0.0705
 1574.0000     6.2686   149.0356    10.3788   106.4509    -0.0214     2.5912     0.0639
 1574.5000     6.2698   148.8865    10.4103   106.1700    -0.0368     2.5854     0.0792
 1575.0000     6.2709   148.7374    10.4306   105.2584    -0.0464     2.5916     0.0928
 1575.5000     6.2720   148.5882    10.3834   103.2771    -0.0346     2.6123     0.0895
 1576.0000     6.2732   148.4391    10.3602   101.3475    -0.0355     2.6215     0.0776
 1576.5000     6.2743   148.2900    10.4319   100.5087    -0.0295     2.5986     0.0769
 1577.0000     6.2755   148.1408    10.4673   100.5130    -0.0322     2.6214     0.0785
 1577.5000     6.2766   147.9798    10.4836   100.9463    -0.0341     2.5994     0.0803
 1578.0000     6.2778   148.2761    10.4994   102.7084    -0.0258     2.5823     0.0822
 1578.5000     6.2789   148.5980    10.5153   105.2252    -0.0314     2.5824     0.0842
 1579.0000     6.2800   148.9200    10.5312   107.6655    -0.0341     2.5990     0.0860
 1579.5000     6.2812   149.2419    10.5472   110.1071    -0.0317     2.5975     0.0879
 1580.0000     6.2822   149.5639    10.5631   112.5410    -0.0285     2.6103     0.0879
 1580.5000     6.2759   149.8858    10.5770   113.7929    -0.0317     2.5901     0.0831
 1581.0000     6.2550   150.2078    10.5745   108.2343    -0.0275     2.5942     0.0785
 1581.5000     6.2344   150.5297    10.5606   103.2501    -0.0218     2.5998     0.0738
