~VERSION INFORMATION
 VERS.                2.0:   CWLS LOG ASCII STANDARD - VERSION 2.0
 WRAP.                 NO:   ONE LINE PER DEPTH STEP
~WELL INFORMATION
#MNEM.UNIT      DATA TYPE    INFORMATION
#----------   ------------   ------------------------------
 STRT.F           32.0000:   START DEPTH
 STOP.F          501.0000:   STOP DEPTH
 STEP.F            0.5000:   STEP LENGTH
 NULL.          -999.2500:   NO VALUE
 COMP.    FENIX & SCISSON:   COMPANY
 WELL.    NPR "SX" #75-10:   WELL
 FLD .             TEAPOT:   FIELD
 LOC .      S10 T38N R78W:   LOCATION
 CNTY.            NATRONA:   COUNTY
 STAT.            WYOMING:   STATE
 CTRY. UNITED STATES OF AMERICA:   COUNTRY
 SRVC.              Welex:   SERVICE COMPANY
 DATE.        08-MAR-1977:   LOGDATE
 API .       490251029200:   API NUMBER
~CURVE INFORMATION
#MNEM.UNIT       API CODE    CURVE DESCRIPTION
#----------   ------------   ------------------------------
 DEPT.F                  :   
 SPR .MV     07 010 01 00:   SPONTANEOUS POTENTIAL
 ILD .OHMM   07 120 46 00:   INDUCTION LOG DEEP
 ILM .OHMM   07 120 44 00:   INDUCTION LOG MEDIUM
 SGRD.OHMM   07 221 05 00:   SHALLOW SHORT GUARD RESISTIVITY
 GRD .GAPI   45 310 01 00:   GAMMA RAY FROM DENSITY LOG
 CALD.IN     45 280 60 00:   CALIPER FROM DENSITY LOG
 CORR.G/C3   45 356 01 00:   DENSITY CORRECTION
 RHOB.G/C3   45 350 01 00:   BULK DENSITY
 DPHI.DEC    45 890 12 00:   DENSITY POROSITY SANDSTONE
~PARAMETER INFORMATION
#MNEM.UNIT          VALUE    DESCRIPTION
#----------   ------------   ------------------------------
 PD  .                 GL:   PERMANENT DATUM
 EPD .F              5184:   ELEVATION PERMANENT DATUM
 LMF .                 GL:   LOG MEASURED FROM
 DAPD.F                GL:   FEET ABOVE PERMANENT DATUM
 EGL .F              5184:   GROUND LEVEL
 DATE.          03-8-1977:   RUN DATE
 RUN .                  1:   RUN NUMBER
 DD  .F               510:   DEPTH DRILLER
 DL  .F               505:   DEPTH LOGGER
 BLI .F               503:   BOTTOM LOG INTERVAL
 TLI .F                35:   TOP LOG INTERVAL
 CS  .IN            8.625:   CASING SIZE
 CBD .F                42:   CASING BOTTOM DRILLER
 CBL .F                43:   CASING BOTTOM LOGGER
 BS  .IN            7.875:   BIT SIZE
 BSD .F               510:   BIT SIZE AT DEPTH
 DFT .            KCL MUD:   DRILLING FLUID TYPE
 DFD .                8.6:   DRILLING FLUID DENSITY
 DFV .                 36:   DRILLING FLUID VISCOSITY
 DFPH.                9.5:   DRILLING FLUID PH
 DFL .                  2:   DRILLING FLUID LOSS
 MSS .           FLOWLINE:   MUD SAMPLE SOURCE
 RMS .OHMM            .49:   RESISTIVITY MUD SAMPLE
 MST .F                56:   MUD SAMPLE TEMPERATURE
 RMF .OHMM            .42:   RESISTIVITY MUD FILTRATE SAMPLE
 MFST.F                56:   MUD FILTRATE SAMPLE TEMPERATURE
 RMC .OHMM            .62:   RESISTIVITY MUD CAKE
 MCST.F                56:   MUD CAKE SAMPLE TEMPERATURE
 MFSS.               MEAS:   MUD FILTRATE SAMPLE SOURCE
 MCSS.               MEAS:   MUD CAKE SAMPLE SOURCE
 RMB .OHMM            .44:   RESISTIVITY MUD AT BHT
 BHT .F                62:   BOTTOM HOLE TEMPERATURE
 TCS .HRS               2:   TIME CURCULATED STOPPED
 MRT .F                62:   MAXIMUM RECORDED TEMPERATURE
 LUN .               8611:   LOGGING UNIT NUMBER
 LUL .           GILLETTE:   LOGGING UNIT LOCATION
 ENGI.            C. DOAK:   RECORDING ENGINEER
 WITN.           S. BURNE:   WITNESSED BY
 CLNT.            A2DTECH:   CLIENT CODE
 ORIG.        2" 5" PRINT:   ORIGIN OF DATA
 UWI .       490251029200:   UNIQUE WELL ID
 DICO. A2D Technologies, Inc.:   DIGITIZING COMPANY
~OTHER INFORMATION
~A   DEPT      SPR        ILD        ILM       SGRD         GRD        CALD      CORR        RHOB     DPHI   
# ...
  141.5000   -43.1826     6.9389     8.1109    10.2262   117.4322     8.1255     0.0449     2.4365     0.1260
  142.0000   -43.3376     6.9852     8.6276     9.2809   115.0613     8.1276     0.0480     2.4448     0.1226
  142.5000   -43.4926     6.9833     9.0521     8.9014   113.5844     8.1446     0.0541     2.4591     0.1184
  143.0000   -43.4985     7.0298     9.2396     9.5998   115.3861     8.1467     0.0573     2.4711     0.1097
  143.5000   -43.6548     7.1252     9.1730    10.1416   115.5486     8.1488     0.0589     2.4809     0.1007
  144.0000   -43.6605     7.1732     8.7938    10.5670   116.3071     8.1509     0.0590     2.4833     0.0977
  144.5000   -43.8155     7.1708     8.3811    10.8602   117.8109     8.1381     0.0576     2.4788     0.1003
  145.0000   -43.8213     7.2686     8.1508    10.4152   120.0597     8.1402     0.0562     2.4721     0.1048
  145.5000   -43.6776     7.3170     8.4346    10.1282   122.4576     8.1124     0.0518     2.4631     0.1096
  146.0000   -43.6836     7.3146     8.9726    10.6253   122.0239     8.0996     0.0489     2.4549     0.1141
  146.5000   -43.6907     7.3638     8.8473    10.7695   119.3548     8.1018     0.0475     2.4505     0.1177
  147.0000   -43.6964     7.3613     8.4256    10.4726   119.0581     8.1038     0.0476     2.4475     0.1192
  147.5000   -43.7022     7.3594     8.2525     9.9066   120.7229     8.1059     0.0522     2.4476     0.1179
  148.0000   -43.5572     7.3574     8.1936    10.1106   117.6066     8.1080     0.0553     2.4514     0.1152
  148.5000   -43.5644     7.3554     8.1357    10.0882   114.9374     8.1101     0.0599     2.4575     0.1131
  149.0000   -43.5701     7.3531     8.3611     9.4944   113.9076     8.1271     0.0615     2.4613     0.1122
  149.5000   -43.5773     7.3511     8.8326     9.9612   110.4933     8.1441     0.0616     2.4621     0.1116
  150.0000   -43.5897     7.2986     9.4610    10.5908   109.9349     8.1308     0.0602     2.4568     0.1134
  150.5000   -43.6913     7.2121     9.8100    11.0073   110.9698     8.1460     0.0556     2.4464     0.1197
  151.0000   -43.7494     7.1182     9.9259    10.6637   113.0710     8.1590     0.0500     2.4375     0.1256
  151.5000   -43.6088     7.0438     9.5616    10.0879   113.0858     8.1720     0.0441     2.4428     0.1244
  152.0000   -43.6196     7.0409     9.0045     9.6760   113.2496     8.1669     0.0412     2.4339     0.1250
  152.5000   -43.6282     7.0386     9.0022     9.8759   114.4566     8.1361     0.0382     2.4362     0.1276
  153.0000   -43.6369     7.0362     8.9379    10.1497   116.1107     8.1251     0.0339     2.4235     0.1321
  153.5000   -43.6455     6.9855     8.7525    10.2883   118.9571     8.1117     0.0310     2.4198     0.1309
  154.0000   -43.6542     6.9832     8.2803    10.3566   121.0583     8.1135     0.0326     2.4222     0.1324
  154.5000   -43.6628     6.9808     7.8878    10.2112   123.3085     8.1150     0.0357     2.4200     0.1288
  155.0000   -43.8209     6.9784     7.8856    10.0684   123.6214     8.1012     0.0389     2.4328     0.1269
  155.5000   -43.8316     6.9756     8.2162     9.7916   123.1683     8.1180     0.0405     2.4336     0.1269
  156.0000   -43.8402     6.9253     8.8008     9.7216   121.9801     8.1343     0.0421     2.4337     0.1260
  156.5000   -43.9981     6.9230     9.1072     9.6522   121.2603     8.1656     0.0422     2.4367     0.1236
  157.0000   -44.0068     6.9207     9.0422     9.7838   120.8488     8.1820     0.0424     2.4406     0.1221
  157.5000   -44.1647     6.9184     8.5544     9.7810   121.1653     8.1835     0.0440     2.4571     0.1175
  158.0000   -44.3226     6.8212     8.0335     9.7106   122.0743     8.1850     0.0411     2.4497     0.1184
  158.5000   -44.3313     6.7206     7.8700     9.5090   122.3871     8.1563     0.0382     2.4400     0.1223
  159.0000   -44.3421     6.5395     8.0880     9.3761   121.3587     8.1283     0.0398     2.4363     0.1247
  159.5000   -44.5000     6.3593     8.5447     9.3097   120.9226     8.1145     0.0445     2.4388     0.1253
  160.0000   -44.5086     6.1840     8.7821     9.5015   123.0275     8.1015     0.0461     2.4449     0.1216
  160.5000   -44.8158     6.0552     8.0260     9.4329   121.9991     8.1029     0.0477     2.4470     0.1204
  161.0000   -44.9737     5.8883     7.5930     8.9765   120.5199     8.1044     0.0448     2.4441     0.1207
  161.5000   -44.9823     5.8056     7.7623     8.7389   120.3893     8.1059     0.0450     2.4457     0.1222
  162.0000   -44.9910     5.6846     8.0196     9.4253   118.1686     8.1223     0.0466     2.4525     0.1204
  162.5000   -44.9751     5.6823     7.8527     9.6873   117.5835     8.1238     0.0482     2.4593     0.1167
  163.0000   -44.8590     5.6804     6.8861     9.7519   120.2846     8.1103     0.0528     2.4661     0.1118
  163.5000   -44.8699     5.6785     6.3812     9.8841   121.1935     8.1118     0.0560     2.4752     0.1052
  164.0000   -44.8785     5.6766     6.3679     9.7460   122.8476     8.0984     0.0561     2.4775     0.1020
  164.5000   -44.7357     5.7935     6.9771     9.5333   124.5017     8.0999     0.0562     2.4776     0.0998
  165.0000   -44.4478     5.8317     7.0227     9.2168   124.6618     8.1013     0.0533     2.4754     0.1013
  165.5000   -44.3065     5.9975     6.9241     8.7796   123.7861     8.1177     0.0504     2.4710     0.1034
  166.0000   -44.0176     6.1583     6.8747     8.8993   122.4596     8.1043     0.0521     2.4688     0.1052
  166.5000   -43.8770     6.2851     7.0652     9.3374   121.9348     8.1058     0.0582     2.4786     0.1022
  167.0000   -43.7364     6.3703     7.2115     9.6628   123.0853     8.0924     0.0613     2.4824     0.0991
  167.5000   -43.5958     6.4573     7.4108     9.7272   122.3549     8.0939     0.0630     2.4877     0.0961
  168.0000   -43.4552     6.4999     7.8365     9.5701   120.4322     8.0804     0.0631     2.4848     0.0955
  168.5000   -43.3164     6.4972     8.5022     9.0728   120.9256     8.0823     0.0617     2.4766     0.1000
  169.0000   -43.4747     6.5400     8.6777     9.3244   123.1445     8.0685     0.0603     2.4707     0.1048
  169.5000   -43.4836     6.5373     8.7360     9.7162   121.6259     8.0550     0.0604     2.4655     0.1092
  170.0000   -43.7926     6.4901     8.4954     9.9169   120.7894     8.0569     0.0590     2.4671     0.1086
  170.5000   -43.9505     6.3550     8.0927     9.7110   121.9134     8.0584     0.0592     2.4656     0.1083
  171.0000   -44.1084     6.3091     7.6561     9.1854   122.1539     8.0598     0.0593     2.4597     0.1092
  171.5000   -44.2663     6.1777     7.4973     8.8625   122.4767     8.0613     0.0594     2.4545     0.1112
  172.0000   -44.5735     6.0910     7.5467     8.6878   121.8954     8.0777     0.0595     2.4538     0.1169
  172.5000   -44.5822     5.9183     7.5974     8.9293   119.6747     8.1090     0.0597     2.4576     0.1187
  173.0000   -44.8896     5.7197     7.4393     8.9888   117.7520     8.1254     0.0598     2.4577     0.1169
  173.5000   -45.0494     5.5238     7.1852     8.8626   116.5745     8.1566     0.0584     2.4518     0.1169
  174.0000   -45.2073     5.3715     6.7508     8.5007   115.3970     8.1730     0.0570     2.4444     0.1195
  174.5000   -45.2160     5.1875     6.2984     8.0948   114.9610     8.1894     0.0571     2.4392     0.1240
  175.0000   -45.2246     5.0446     6.0838     7.8656   115.4266     8.2058     0.0527     2.4347     0.1261
  175.5000   -45.2333     4.9395     5.9573     7.3470   115.2923     8.1920     0.0483     2.4325     0.1261
  176.0000   -45.2419     4.8661     5.7142     6.0958   113.6677     8.1640     0.0484     2.4341     0.1276
  176.5000   -45.2507     4.7683     5.5190     5.2717   114.2786     8.1353     0.0531     2.4424     0.1238
  177.0000   -44.9629     4.7667     5.5175     5.7652   116.0818     8.1070     0.0592     2.4515     0.1197
  177.5000   -44.8201     4.8314     5.7096     7.0413   118.1830     8.0789     0.0639     2.4531     0.1143
