~VERSION INFORMATION
 VERS.                2.0:   CWLS LOG ASCII STANDARD - VERSION 2.0
 WRAP.                 NO:   ONE LINE PER DEPTH STEP
~WELL INFORMATION
#MNEM.UNIT      DATA TYPE    INFORMATION
#----------   ------------   ------------------------------
 STRT.F           36.0000:   START DEPTH
 STOP.F         2324.5000:   STOP DEPTH
 STEP.F            0.5000:   STEP LENGTH
 NULL.          -999.2500:   NO VALUE
 COMP. FENIX & SCISSON INC:   COMPANY
 WELL.           SX #57-3:   WELL
 FLD .             TEAPOT:   FIELD
 LOC .       S3 T38N R78W:   LOCATION
 CNTY.            NATRONA:   COUNTY
 STAT.            WYOMING:   STATE
 CTRY. UNITED STATES OF AMERICA:   COUNTRY
 SRVC.           BIRDWELL:   SERVICE COMPANY
 DATE.        15-JUN-1978:   LOGDATE
 API .       490251028800:   API NUMBER
~CURVE INFORMATION
#MNEM.UNIT       API CODE    CURVE DESCRIPTION
#----------   ------------   ------------------------------
 DEPT.F                  :   
 CALD.IN     45 280 60 00:   CALIPER FROM DENSITY LOG
 GRD .GAPI   45 310 01 00:   GAMMA RAY FROM DENSITY LOG
 CORR.G/C3   45 356 01 00:   DENSITY CORRECTION
 RHOB.G/C3   45 350 01 00:   BULK DENSITY
 DPHI.DEC    45 890 12 00:   DENSITY POROSITY SANDSTONE
 SPR .MV     07 010 01 00:   SPONTANEOUS POTENTIAL
 ILD .OHMM   07 120 46 00:   INDUCTION LOG DEEP
 ILM .OHMM   07 120 44 00:   INDUCTION LOG MEDIUM
 SGRD.OHMM   07 220 05 00:   SHALLOW GUARD RESISTIVITY
~PARAMETER INFORMATION
#MNEM.UNIT          VALUE    DESCRIPTION
#----------   ------------   ------------------------------
 PD  .                 GL:   PERMANENT DATUM
 EPD .F              5184:   ELEVATION PERMANENT DATUM
 LMF .                 KB:   LOG MEASURED FROM
 DAPD.F                10:   FEET ABOVE PERMANENT DATUM
 DMF .                 KB:   DRILLING MEASURED FROM
 EKB .F              5184:   KELLING BUSHING
 EGL .F              5184:   GROUND LEVEL
 DATE.            6-15-78:   RUN DATE
 RUN .                  1:   RUN NUMBER
 DD  .F              2340:   DEPTH DRILLER
 DL  .F              2324:   DEPTH LOGGER
 BLI .F              2324:   BOTTOM LOG INTERVAL
 TLI .F                50:   TOP LOG INTERVAL
 CS  .IN            9.625:   CASING SIZE
 CBD .F               600:   CASING BOTTOM DRILLER
 CBL .F               601:   CASING BOTTOM LOGGER
 BS  .IN             8.75:   BIT SIZE
 BSD .F              2340:   BIT SIZE AT DEPTH
 DFT .           AIR MIST:   DRILLING FLUID TYPE
 BHT .F                68:   BOTTOM HOLE TEMPERATURE
 MRT .F                68:   MAXIMUM RECORDED TEMPERATURE
 LUN .               2958:   LOGGING UNIT NUMBER
 LUL .               CASP:   LOGGING UNIT LOCATION
 ENGI.           REYNOLDS:   RECORDING ENGINEER
 WITN.           MCGINLEY:   WITNESSED BY
 CLNT.            A2DTECH:   CLIENT CODE
 ORIG.   2" 2.5" 5" PRINT:   ORIGIN OF DATA
 UWI .       490251028800:   UNIQUE WELL ID
 DICO. A2D Technologies, Inc.:   DIGITIZING COMPANY
~OTHER INFORMATION
~A   DEPT       CALD      GRD        CORR      RHOB         DPHI      SPR        ILD        ILM       SGRD   
# ...
 2299.0000     7.8037   130.5597     0.0229     2.5204     0.0229  -999.2500  -999.2500  -999.2500  -999.2500
 2299.5000     7.8039   129.9707     0.0243     2.5198     0.0224  -999.2500  -999.2500  -999.2500  -999.2500
 2300.0000     7.8039   130.8479     0.0257     2.5192     0.0213  -999.2500  -999.2500  -999.2500  -999.2500
 2300.5000     7.8039   132.4702     0.0271     2.5187     0.0227  -999.2500  -999.2500  -999.2500  -999.2500
 2301.0000     7.8039   135.4557     0.0277     2.5180     0.0261  -999.2500  -999.2500  -999.2500  -999.2500
 2301.5000     7.8039   139.9897     0.0283     2.5175     0.0307  -999.2500  -999.2500  -999.2500  -999.2500
 2302.0000     7.8039   140.1595     0.0291     2.5169     0.0250  -999.2500  -999.2500  -999.2500  -999.2500
 2302.5000     7.8039   139.7481     0.0298     2.5165     0.0158  -999.2500  -999.2500  -999.2500  -999.2500
 2303.0000     7.8040   139.0638     0.0306     2.5202     0.0112  -999.2500  -999.2500  -999.2500  -999.2500
 2303.5000     7.8039   138.4912     0.0314     2.5297     0.0069  -999.2500  -999.2500  -999.2500  -999.2500
 2304.0000     7.8040   138.2359     0.0314     2.5409    -0.0082  -999.2500  -999.2500  -999.2500  -999.2500
 2304.5000     7.8040   140.1839     0.0307     2.5521    -0.0156  -999.2500  -999.2500  -999.2500  -999.2500
 2305.0000     7.8038   142.3995     0.0300     2.5631    -0.0144  -999.2500  -999.2500  -999.2500  -999.2500
 2305.5000     7.8049   141.0823     0.0293     2.5746    -0.0130  -999.2500  -999.2500  -999.2500  -999.2500
 2306.0000     7.7936   136.7717     0.0287     2.5777    -0.0126  -999.2500  -999.2500  -999.2500  -999.2500
 2306.5000     7.7724   132.7362     0.0277     2.5764    -0.0124  -999.2500  -999.2500  -999.2500  -999.2500
 2307.0000     7.7522   129.4437     0.0293     2.5754    -0.0123  -999.2500  -999.2500  -999.2500  -999.2500
 2307.5000     7.7363   128.5683     0.0323     2.5744    -0.0122  -999.2500  -999.2500  -999.2500  -999.2500
 2308.0000     7.6899   130.7395     0.0350     2.5746    -0.0120  -999.2500  -999.2500  -999.2500  -999.2500
 2308.5000     7.6196   134.4579     0.0378     2.5763    -0.0119  -999.2500  -999.2500  -999.2500  -999.2500
 2309.0000     7.5560   139.0635     0.0400     2.5779    -0.0117  -999.2500  -999.2500  -999.2500  -999.2500
 2309.5000     7.4940   137.5446     0.0410     2.5772    -0.0112  -999.2500  -999.2500  -999.2500  -999.2500
 2310.0000     7.4906   133.5143     0.0421     2.5762    -0.0107  -999.2500  -999.2500  -999.2500  -999.2500
 2310.5000     7.4896   132.0963     0.0432     2.5761    -0.0103  -999.2500  -999.2500  -999.2500  -999.2500
 2311.0000     7.4903   135.3070     0.0446     2.5761    -0.0119  -999.2500  -999.2500  -999.2500  -999.2500
 2311.5000     7.4891   135.4056     0.0471     2.5777    -0.0156  -999.2500  -999.2500  -999.2500  -999.2500
 2312.0000     7.4720   135.1211     0.0435     2.5793    -0.0198  -999.2500  -999.2500  -999.2500  -999.2500
 2312.5000     7.4547   135.8959     0.0404     2.5810    -0.0187  -999.2500  -999.2500  -999.2500  -999.2500
 2313.0000     7.4369   138.3080     0.0369     2.5826    -0.0176  -999.2500  -999.2500  -999.2500  -999.2500
 2313.5000     7.4180   140.5329     0.0355     2.5843    -0.0165  -999.2500  -999.2500  -999.2500  -999.2500
 2314.0000     7.4165   140.8078     0.0356     2.5859    -0.0168  -999.2500  -999.2500  -999.2500  -999.2500
 2314.5000     7.4276   138.5618     0.0356     2.5863    -0.0192  -999.2500  -999.2500  -999.2500  -999.2500
 2315.0000     7.4373   137.1231     0.0369     2.5870    -0.0217  -999.2500  -999.2500  -999.2500  -999.2500
 2315.5000     7.4469   138.6172     0.0385     2.5876    -0.0229  -999.2500  -999.2500  -999.2500  -999.2500
 2316.0000     7.4570   140.5320     0.0402     2.5880    -0.0216  -999.2500  -999.2500  -999.2500  -999.2500
 2316.5000     7.4667   142.8255     0.0419     2.5879    -0.0198  -999.2500  -999.2500  -999.2500  -999.2500
 2317.0000     7.4762   141.7979     0.0435     2.5879    -0.0205  -999.2500  -999.2500  -999.2500  -999.2500
 2317.5000     7.4875   139.3946     0.0452     2.5879    -0.0219  -999.2500  -999.2500  -999.2500  -999.2500
 2318.0000     7.4805   137.0657     0.0468     2.5879    -0.0232  -999.2500  -999.2500  -999.2500  -999.2500
 2318.5000     7.4601   135.4132     0.0485     2.5879    -0.0237  -999.2500  -999.2500  -999.2500  -999.2500
 2319.0000     7.4416  -999.2500     0.0502     2.5879    -0.0235  -999.2500  -999.2500  -999.2500  -999.2500
 2319.5000     7.4231  -999.2500     0.0514     2.5879    -0.0233  -999.2500  -999.2500  -999.2500  -999.2500
 2320.0000     7.4040  -999.2500     0.0515     2.5879    -0.0231  -999.2500  -999.2500  -999.2500  -999.2500
 2320.5000     7.3863  -999.2500     0.0520     2.5879    -0.0231  -999.2500  -999.2500  -999.2500  -999.2500
 2321.0000     7.3660  -999.2500     0.0524     2.5879    -0.0236  -999.2500  -999.2500  -999.2500  -999.2500
 2321.5000     7.3484  -999.2500     0.0528     2.5879    -0.0224  -999.2500  -999.2500  -999.2500  -999.2500
 2322.0000     7.3394  -999.2500     0.0532     2.5879    -0.0205  -999.2500  -999.2500  -999.2500  -999.2500
 2322.5000     7.4061  -999.2500     0.0536     2.5879    -0.0216  -999.2500  -999.2500  -999.2500  -999.2500
 2323.0000     7.4483  -999.2500     0.0540     2.5879    -0.0199  -999.2500  -999.2500  -999.2500  -999.2500
 2323.5000     7.4172  -999.2500     0.0543     2.5879    -0.0181  -999.2500  -999.2500  -999.2500  -999.2500
 2324.0000     7.3763  -999.2500     0.0547     2.5879    -0.0166  -999.2500  -999.2500  -999.2500  -999.2500
 2324.5000     7.3352  -999.2500     0.0552     2.5879    -0.0219  -999.2500  -999.2500  -999.2500  -999.2500
