~VERSION INFORMATION
 VERS.                2.0:   CWLS LOG ASCII STANDARD - VERSION 2.0
 WRAP.                 NO:   ONE LINE PER DEPTH STEP
~WELL INFORMATION
#MNEM.UNIT      DATA TYPE    INFORMATION
#----------   ------------   ------------------------------
 STRT.F          100.0000:   START DEPTH
 STOP.F         1196.0000:   STOP DEPTH
 STEP.F            0.5000:   STEP LENGTH
 NULL.          -999.2500:   NO VALUE
 COMP. DEPARTMENT OF ENERGY:   COMPANY
 WELL.     NRP ##3 77S-11:   WELL
 FLD .             TEAPOT:   FIELD
 LOC .      S11 T38N R78W:   LOCATION
 CNTY.            NATRONA:   COUNTY
 STAT.            WYOMING:   STATE
 CTRY. UNITED STATES OF AMERICA:   COUNTRY
 SRVC.       Schlumberger:   SERVICE COMPANY
 DATE.        18-AUG-1959:   LOGDATE
 API .       490250632900:   API NUMBER
~CURVE INFORMATION
#MNEM.UNIT       API CODE    CURVE DESCRIPTION
#----------   ------------   ------------------------------
 DEPT.F                  :   
 SPR .MV     05 010 01 00:   SPONTANEOUS POTENTIAL FROM RES.
 ASN .OHMM   05 041 16 00:   AMPLIFIED SHORT NORMAL 16"
 ILD .OHMM   05 120 46 00:   INDUCTION LOG DEEP
 CILD.MMHO   05 110 46 00:   CONDUCTIVITY INDUCTION LOG DEEP
~PARAMETER INFORMATION
#MNEM.UNIT          VALUE    DESCRIPTION
#----------   ------------   ------------------------------
 PD  .                 GL:   PERMANENT DATUM
 EPD .F              5258:   ELEVATION PERMANENT DATUM
 LMF .                 KB:   LOG MEASURED FROM
 DAPD.F                 4:   FEET ABOVE PERMANENT DATUM
 DMF .                 KB:   DRILLING MEASURED FROM
 EKB .F              5262:   KELLING BUSHING
 EGL .F              5258:   GROUND LEVEL
 DATE.            8-18-59:   RUN DATE
 RUN .                  1:   RUN NUMBER
 DD  .F              1200:   DEPTH DRILLER
 DL  .F              1201:   DEPTH LOGGER
 BLI .F              1196:   BOTTOM LOG INTERVAL
 TLI .F               100:   TOP LOG INTERVAL
 CBD .F                17:   CASING BOTTOM DRILLER
 BS  .IN             6.75:   BIT SIZE
 BSD .F              1200:   BIT SIZE AT DEPTH
 DFT . GEL-OIL-PHDS-CAUSTIC:   DRILLING FLUID TYPE
 DFD .               10.8:   DRILLING FLUID DENSITY
 DFV .                 60:   DRILLING FLUID VISCOSITY
 DFPH.                  9:   DRILLING FLUID PH
 DFL .                  4:   DRILLING FLUID LOSS
 RMS .OHMM            1.8:   RESISTIVITY MUD SAMPLE
 MST .F                90:   MUD SAMPLE TEMPERATURE
 RMF .OHMM            1.5:   RESISTIVITY MUD FILTRATE SAMPLE
 MFST.F                90:   MUD FILTRATE SAMPLE TEMPERATURE
 RMC .OHMM              2:   RESISTIVITY MUD CAKE
 MCST.F                90:   MUD CAKE SAMPLE TEMPERATURE
 TCS .HRS               1:   TIME CURCULATED STOPPED
 LUN .               2523:   LOGGING UNIT NUMBER
 LUL .               CSPR:   LOGGING UNIT LOCATION
 ENGI.             KNOBEL:   RECORDING ENGINEER
 WITN.             MARTIN:   WITNESSED BY
 CLNT.            A2DTECH:   CLIENT CODE
 ORIG.     1", 2.5" PRINT:   ORIGIN OF DATA
 UWI .       490250632900:   UNIQUE WELL ID
 DICO. A2D Technologies, Inc.:   DIGITIZING COMPANY
~OTHER INFORMATION
~A   DEPT      SPR          ASN        ILD      CILD  
# ...
  903.0000   -30.1271     7.0206     6.9253   144.8865
  903.5000   -29.9557     6.9129     6.7611   146.2766
  904.0000   -29.7997     6.8355     6.5548   151.3121
  904.5000   -29.6713     6.7468     6.3617   153.3688
  905.0000   -29.5436     6.5875     6.1958   164.5390
  905.5000   -29.3920     6.3393     6.0360   172.4379
  906.0000   -29.2311     6.0464     5.8587   180.3369
  906.5000   -29.1021     5.7623     5.6646   188.2358
  907.0000   -28.9989     5.5147     5.4857   196.1348
  907.5000   -28.8377     5.3313     5.3390   204.0337
  908.0000   -28.5677     5.2376     5.1753   211.9326
  908.5000   -28.2973     5.2265     4.9464   217.1986
  909.0000   -28.2162     5.2919     4.7495   221.8794
  909.5000   -28.3812     5.4845     4.8042   225.3901
  910.0000   -28.6670     5.8509     5.2116   228.9007
  910.5000   -28.9334     6.3213     5.8053   231.3830
  911.0000   -29.1513     6.7379     6.3109   162.2340
  911.5000   -29.3622     7.0055     6.5998   157.3552
  912.0000   -29.6013     7.1558     6.7310   153.5520
  912.5000   -29.8706     7.2666     6.8102   149.7488
  913.0000   -30.1157     7.3782     6.8880   145.9456
  913.5000   -30.2377     7.4914     6.9704   140.7787
  914.0000   -30.1857     7.6027     7.0527   140.0551
  914.5000   -30.0251     7.7135     7.1318   136.5155
  915.0000   -29.8636     7.8257     7.2102   135.4628
  915.5000   -29.7379     7.9382     7.2931   133.4484
  916.0000   -29.6162     8.0490     7.3787   131.6616
  916.5000   -29.4764     8.1603     7.4576   130.0398
  917.0000   -29.3299     8.2741     7.5301   128.1146
  917.5000   -29.1934     8.3860     7.6125   126.7471
  918.0000   -29.0674     8.4937     7.7155   124.8504
  918.5000   -28.9366     8.6045     7.8212   123.3458
  919.0000   -28.7860     8.7229     7.9088   121.8467
  919.5000   -28.6346     8.8253     7.9899   120.2061
  920.0000   -28.5394     8.8697     8.0888   118.7414
  920.5000   -28.5378     8.8401     8.1911   117.0546
  921.0000   -28.6011     8.7677     8.2573   115.6375
  921.5000   -28.6710     8.6991     8.2901   113.8928
  922.0000   -28.7220     8.6514     8.3305   112.6242
  922.5000   -28.7674     8.6034     8.3758   113.3242
  923.0000   -28.8220     8.5217     8.3592   114.3915
  923.5000   -28.8839     8.3934     8.2364   115.0173
  924.0000   -28.9419     8.2374     8.0452   116.0522
  924.5000   -28.9885     8.0871     7.8514   119.4055
  925.0000   -29.0347     7.9521     7.6809   123.1090
  925.5000   -29.1019     7.8084     7.5198   127.2955
  926.0000   -29.1764     7.6333     7.3468   132.0007
  926.5000   -29.1936     7.4308     7.1558   135.4963
  927.0000   -29.0992     7.2048     6.9694   140.0283
  927.5000   -28.9135     6.9234     6.8173   143.1729
  928.0000   -28.7039     6.5536     6.6637   148.5645
  928.5000   -28.5117     6.1234     6.4066   154.9384
  929.0000   -28.3307     5.6996     5.9961   164.2199
  929.5000   -28.1466     5.2955     5.5024   172.5576
  930.0000   -27.9506     4.8636     5.0053   181.7376
  930.5000   -27.7473     4.4069     4.4925   218.5579
  931.0000   -27.5587     4.0250     3.9576   259.5154
  931.5000   -27.3937     3.7947     3.5142   305.8511
  932.0000   -27.2055     3.6572     3.2788   329.6383
  932.5000   -26.9530     3.4975     3.1830   357.0213
  933.0000   -26.7307     3.3003     3.0531   384.4043
  933.5000   -26.7171     3.1614     2.8649   411.7872
  934.0000   -26.9168     3.1653     2.7898   444.1489
  934.5000   -27.1033     3.3110     2.9641   436.2500
  935.0000   -27.1542     3.5499     3.3175   424.6454
  935.5000   -27.2770     3.8601     3.6775   386.8262
  936.0000   -27.6920     4.2651     3.9734   339.4326
  936.5000   -28.2405     4.7652     4.2750   292.0390
  937.0000   -28.5666     5.2637     4.6498   244.6454
  937.5000   -28.5851     5.6324     5.0461   185.2837
  938.0000   -28.4980     5.8535     5.3557   182.3316
  938.5000   -28.4228     6.0055     5.5656   178.3821
  939.0000   -28.2846     6.0966     5.7689   174.4326
  939.5000   -28.0505     6.0470     6.0136   169.3262
  940.0000   -27.8133     5.8693     6.2219   200.9758
  940.5000   -27.6221     5.3857     4.8327   204.5074
  941.0000   -27.4285     5.2896     4.7212   206.2732
  941.5000   -27.2252     5.1540     4.6097   215.2788
  942.0000   -27.0876     5.0184     4.4981   225.5709
  942.5000   -26.7274     4.8206     4.3866   236.2918
  943.0000   -26.8534     4.9308     4.2751   243.3550
  943.5000   -26.9794     5.1342     4.1496   245.1208
  944.0000   -27.1054     5.2444     4.4106   241.5892
  944.5000   -27.2314     5.3680     4.7088   232.9368
  945.0000   -27.3574     5.4210     5.0070   229.2286
  945.5000   -27.5400     5.8561     5.3053   215.3892
  946.0000   -27.4826     6.1725     5.6035   205.3241
  946.5000   -27.3785     6.4890     5.9017   195.2591
  947.0000   -27.4346     6.5163     5.9177   195.6276
  947.5000   -27.2684     6.8109     6.2043   184.9499
  948.0000   -27.1647     7.1170     6.4797   175.2852
  948.5000   -27.0695     7.3849     6.7974   161.9581
  949.0000   -26.9662     7.5536     7.1549   155.0725
  949.5000   -26.8585     7.6294     7.4279   153.2425
  950.0000   -26.7520     7.6615     7.5111   151.4550
  950.5000   -26.6467     7.6750     7.4548   149.3840
  951.0000   -26.5465     7.6589     7.3824   147.9615
  951.5000   -26.4485     7.6031     7.3241   149.1212
  952.0000   -26.3359     7.5151     7.2202   150.4591
  952.5000   -26.2125     7.4117     7.0463   151.5040
  953.0000   -26.1312     7.3031     6.8413   152.7023
  953.5000   -26.1519     7.1864     6.6370   153.9922
  954.0000   -26.2663     7.0535     6.4410   154.8117
  954.5000   -26.3894     6.8959     6.2642   160.6268
  955.0000   -26.4378     6.7121     6.0940   165.0088
  955.5000   -26.3997     6.5154     5.8691   169.5788
  956.0000   -26.3223     6.3196     5.5544   180.0826
  956.5000   -26.2494     6.1061     5.2289   190.0574
  957.0000   -26.1877     5.8418     5.0246   202.4884
  957.5000   -26.1240     5.5577     4.9731   207.2283
  958.0000   -26.0540     5.3593     4.9694   211.4505
  958.5000   -25.9848     5.3191     4.9153   217.7267
  959.0000   -25.9210     5.4113     4.8514   221.7209
  959.5000   -25.8568     5.5931     4.9000   227.7945
  960.0000   -25.7865     5.8754     5.0998   224.3109
  960.5000   -25.7164     6.2511     5.3640   219.1101
  961.0000   -25.6549     6.6241     5.6108   207.9576
  961.5000   -25.5940     6.8924     5.8557   193.3379
  962.0000   -25.5173     7.0557     6.1323   176.4508
  962.5000   -25.4376     7.1824     6.3918   155.7542
  963.0000   -25.4044     7.3128     6.5639   154.4701
  963.5000   -25.4518     7.4478     6.6743   153.4677
  964.0000   -25.5550     7.5858     6.8099   152.4653
  964.5000   -25.6606     7.7177     6.9860   151.4628
  965.0000   -25.7499     7.8117     7.1247   150.4604
  965.5000   -25.8423     7.8483     7.1702   149.7677
  966.0000   -25.9446     7.8521     7.1561   149.4332
  966.5000   -26.0386     7.8623     7.1448   149.1777
  967.0000   -26.1231     7.8834     7.1517   148.9221
  967.5000   -26.2258     7.8906     7.1570   148.6666
  968.0000   -26.3476     7.8715     7.1537   148.4111
  968.5000   -26.4301     7.8382     7.1518   148.1556
  969.0000   -26.4151     7.8059     7.1536   147.9001
  969.5000   -26.3172     7.7751     7.1522   147.6445
  970.0000   -26.2027     7.7444     7.1506   147.3890
  970.5000   -26.1069     7.7218     7.1556   147.1263
  971.0000   -26.0139     7.7236     7.1578   146.7690
  971.5000   -25.9107     7.7478     7.1475   146.6247
  972.0000   -25.8120     7.7519     7.1432   146.2623
  972.5000   -25.7207     7.6849     7.1642   146.2113
  973.0000   -25.6148     7.5660     7.1740   148.0262
  973.5000   -25.4959     7.4609     7.0974   149.6771
  974.0000   -25.4103     7.3614     6.9088   154.0035
  974.5000   -25.3954     7.1567     6.6675   160.2539
  975.0000   -25.4344     6.8112     6.4493   167.1826
  975.5000   -25.4884     6.4630     6.2707   174.1258
