~VERSION INFORMATION
 VERS.                2.0:   CWLS LOG ASCII STANDARD - VERSION 2.0
 WRAP.                 NO:   ONE LINE PER DEPTH STEP
~WELL INFORMATION
#MNEM.UNIT      DATA TYPE    INFORMATION
#----------   ------------   ------------------------------
 STRT.F            4.0000:   START DEPTH
 STOP.F          516.5000:   STOP DEPTH
 STEP.F            0.5000:   STEP LENGTH
 NULL.          -999.2500:   NO VALUE
 COMP. BROWN JOHN E&C INC:   COMPANY
 WELL. NAVAL PETROLEUM RESERVE 3 SX-1 #72-1-10:   WELL
 FLD .             TEAPOT:   FIELD
 LOC .      S10 T38N R78W:   LOCATION
 CNTY.            NATRONA:   COUNTY
 STAT.            WYOMING:   STATE
 CTRY. UNITED STATES OF AMERICA:   COUNTRY
 SRVC.     Atlas Wireline:   SERVICE COMPANY
 DATE.        19-SEP-1991:   LOGDATE
 API .       490252244600:   API NUMBER
~CURVE INFORMATION
#MNEM.UNIT       API CODE    CURVE DESCRIPTION
#----------   ------------   ------------------------------
 DEPT.F                  :   
 GRR .GAPI   07 310 01 00:   GAMMA RAY FROM RESISTIVITY
 RILD.OHMM   07 120 46 00:   RESISTIVITY INDUCTION LOG DEEP
 RILM.OHMM   07 120 44 00:   RESISTIVITY INDUCTION LOG MEDIUM
~PARAMETER INFORMATION
#MNEM.UNIT          VALUE    DESCRIPTION
#----------   ------------   ------------------------------
 PD  .                 GL:   PERMANENT DATUM
 EPD .F              5140:   ELEVATION PERMANENT DATUM
 LMF .                 KB:   LOG MEASURED FROM
 DAPD.F                10:   FEET ABOVE PERMANENT DATUM
 DMF .                 KB:   DRILLING MEASURED FROM
 EKB .F              5150:   KELLING BUSHING
 EGL .F              5140:   GROUND LEVEL
 DATE.        19-SEP-1991:   RUN DATE
 RUN .                  1:   RUN NUMBER
 DD  .F               530:   DEPTH DRILLER
 DL  .F               527:   DEPTH LOGGER
 BLI .F                55:   BOTTOM LOG INTERVAL
 CS  .IN                7:   CASING SIZE
 CBD .F                80:   CASING BOTTOM DRILLER
 CBL .F                90:   CASING BOTTOM LOGGER
 BS  .IN             8.75:   BIT SIZE
 BSD .F               530:   BIT SIZE AT DEPTH
 DFT .                AIR:   DRILLING FLUID TYPE
 LUN .            HL/6272:   LOGGING UNIT NUMBER
 LUL .          CASPER/WY:   LOGGING UNIT LOCATION
 ENGI.            KINNETT:   RECORDING ENGINEER
 WITN.     STRONG/HERMANN:   WITNESSED BY
 CLNT.            A2DTECH:   CLIENT CODE
 ORIG.           5" PRINT:   ORIGIN OF DATA
 UWI .       490252244600:   UNIQUE WELL ID
 DICO. A2D Technologies, Inc.:   DIGITIZING COMPANY
~OTHER INFORMATION
~A    DEPT      GRR      RILD       RILM   
# ...
  459.0000   120.4707    11.1273    11.8735
  459.5000   120.1750    11.2804    12.1223
  460.0000   118.6727    11.4356    12.2910
  460.5000   117.7737    11.5930    12.4618
  461.0000   120.9772    11.6713    12.5477
  461.5000   125.0709    11.7501    12.7219
  462.0000   122.6196    11.7471    12.8098
  462.5000   119.3073    11.9088    12.8980
  463.0000   117.2002    12.0732    13.0771
  463.5000   117.8109    12.2394    13.0762
  464.0000   119.6268    12.2362    13.0753
  464.5000   117.8228    12.3195    13.0744
  465.0000   115.7172    12.4027    13.0735
  465.5000   113.6115    12.3995    13.0726
  466.0000   111.2042    12.3970    13.0715
  466.5000   110.6069    12.3088    13.0706
  467.0000   110.0080    12.2212    13.1609
  467.5000   110.6188    12.2187    13.0688
  468.0000   113.6413    12.2156    12.9776
  468.5000   112.4406    12.2131    12.8870
  469.0000   108.8267    12.2106    12.7971
  469.5000   110.3410    12.2081    12.8855
  470.0000   113.6652    12.2056    12.8844
  470.5000   118.7993    12.1188    12.7061
  471.0000   116.6334    12.0326    12.7052
  471.5000   115.4930    11.9470    12.7043
  472.0000   113.6905    11.8620    12.7034
  472.5000   109.7749    11.8595    12.6017
  473.0000   110.6858    11.7752    12.3540
  473.5000   115.8200    11.6106    12.0988
  474.0000   125.1774    11.5259    11.9313
  474.5000   125.4850    11.3592    11.7661
  475.0000   122.4743    11.2079    11.5231
  475.5000   120.3672    10.9744    11.3636
  476.0000   121.5813    10.7462    11.2063
  476.5000   122.1906    10.5960    11.2055
  477.0000   121.2915    10.3757    11.0504
  477.5000   120.3910    10.3736    10.8974
  478.0000   119.7937    10.2286    10.7466
  478.5000   123.4210    10.0856    10.5978
  479.0000   124.6336    10.0139    10.5195
  479.5000   124.3379     9.9426    10.3688
  480.0000   126.1538     9.6018    10.0236
  480.5000   125.8431     9.5998    10.0229
  481.0000   125.2608     9.5979     9.9530
  481.5000   125.9608     9.5295     9.9523
  482.0000   129.4974     9.3963     9.9516
  482.5000   130.1052     9.3291     9.8822
  483.0000   128.0010     9.3272     9.8132
  483.5000   127.1005     9.3252     9.7447
  484.0000   135.5544     9.1949     9.7440
  484.5000   136.4654     9.1930     9.7434
  485.0000   134.0581     9.0645     9.6085
  485.5000   130.1425     9.0627     9.5414
  486.0000   127.7351     9.0608     9.4722
  486.5000   126.5345     8.9342     9.3366
  487.0000   126.2373     8.7484     9.2029
  487.5000   127.4513     8.6262     9.0867
  488.0000   128.9656     8.5056     8.9609
  488.5000   131.3848     8.3834     8.9603
  489.0000   133.8041     8.3270     8.8977
  489.5000   136.5250     8.2674     8.8356
  490.0000   137.4359     8.2086     8.7740
  490.5000   134.9684     8.0938     8.7127
  491.0000   127.9760     7.9255     8.6519
  491.5000   125.3874     7.6009     8.4146
  492.0000   126.6015     7.1892     8.1838
  492.5000   129.6240     6.7998     7.6881
  493.0000   132.0433     6.6124     7.1209
  493.5000   132.9542     6.5654     6.8796
  494.0000   133.2618     6.6096     6.9348
  494.5000   137.1893     6.6546     7.1213
  495.0000   139.3069     6.7928     7.4751
  495.5000   138.4079     6.9824     7.7384
  496.0000   136.9056     7.2273     8.1792
  496.5000   134.7999     7.6381     8.5855
  497.0000   133.2976     8.1849     9.0747
  497.5000   131.7953     8.6501     9.4597
  498.0000   131.4980     9.0192     9.7251
  498.5000   131.8072     9.2835     9.9982
  499.0000   133.0198     9.5263    10.1370
  499.5000   133.9307     9.6574    10.2068
  500.0000  -999.2500     9.7226    10.2772
  500.5000  -999.2500     9.8583    10.2054
  501.0000  -999.2500     9.8583    10.2047
  501.5000  -999.2500     9.7225    10.2772
  502.0000  -999.2500     9.5885    10.2061
  502.5000  -999.2500     9.4565    10.1356
  503.0000  -999.2500     9.3262    10.1356
  503.5000  -999.2500     9.3262    10.1356
  504.0000  -999.2500     9.3262    10.1356
  504.5000  -999.2500     9.3911    10.2061
  505.0000  -999.2500     9.4565    10.2061
  505.5000  -999.2500     9.5885    10.2061
  506.0000  -999.2500     9.6553    10.2061
  506.5000  -999.2500     9.6553    10.2061
  507.0000  -999.2500     0.2019    10.1356
  507.5000  -999.2500  -999.2500     9.9269
  508.0000  -999.2500  -999.2500     9.5885
  508.5000  -999.2500  -999.2500     9.3262
  509.0000  -999.2500  -999.2500     9.0710
  509.5000  -999.2500  -999.2500     8.6412
  510.0000  -999.2500  -999.2500     8.4632
  510.5000  -999.2500  -999.2500     8.1748
  511.0000  -999.2500  -999.2500     7.7336
  511.5000  -999.2500  -999.2500     7.3671
  512.0000  -999.2500  -999.2500     6.9213
  512.5000  -999.2500  -999.2500     6.0668
  513.0000  -999.2500  -999.2500     5.0307
  513.5000  -999.2500  -999.2500     3.9433
  514.0000  -999.2500  -999.2500     3.0848
  514.5000  -999.2500  -999.2500     2.7494
  515.0000  -999.2500  -999.2500     2.6763
  515.5000  -999.2500  -999.2500     2.7516
  516.0000  -999.2500  -999.2500     2.9086
  516.5000  -999.2500  -999.2500     3.0745
