~VERSION INFORMATION
 VERS.                2.0:   CWLS LOG ASCII STANDARD - VERSION 2.0
 WRAP.                 NO:   ONE LINE PER DEPTH STEP
~WELL INFORMATION
#MNEM.UNIT      DATA TYPE    INFORMATION
#----------   ------------   ------------------------------
 STRT.F           24.0000:   START DEPTH
 STOP.F          487.5000:   STOP DEPTH
 STEP.F            0.5000:   STEP LENGTH
 NULL.          -999.2500:   NO VALUE
 COMP. FENIX & SCISSON INC:   COMPANY
 WELL.       NPR #35-SX-3:   WELL
 FLD .        TEAPOT DOME:   FIELD
 LOC .       S3 T38N R78W:   LOCATION
 CNTY.            NATRONA:   COUNTY
 STAT.            WYOMING:   STATE
 CTRY. UNITED STATES OF AMERICA:   COUNTRY
 SRVC.       Schlumberger:   SERVICE COMPANY
 DATE.        26-MAR-1977:   LOGDATE
 API .       490251030700:   API NUMBER
~CURVE INFORMATION
#MNEM.UNIT       API CODE    CURVE DESCRIPTION
#----------   ------------   ------------------------------
 DEPT.F                  :   
 SPR .MV     07 010 01 00:   SPONTANEOUS POTENTIAL
 LL8 .OHMM   07 220 08 00:   LATEROLOG-8 RES.
 ILD .OHMM   07 120 46 00:   INDUCTION LOG DEEP
 ILM .OHMM   07 120 44 00:   INDUCTION LOG MEDIUM
 CALD.IN     45 280 60 00:   CALIPER FROM DENSITY LOG
 RHOB.G/C3   45 350 01 00:   BULK DENSITY
 DPOR.DEC    45 890 12 00:   DENSITY POROSITY SANDSTONE
 CORR.G/C3   45 356 01 00:   DENSITY CORRECTION
 GRD .GAPI   45 310 01 00:   GAMMA RAY FROM DENSITY LOG
~PARAMETER INFORMATION
#MNEM.UNIT          VALUE    DESCRIPTION
#----------   ------------   ------------------------------
 PD  .                 GL:   PERMANENT DATUM
 EPD .F          EST 5200:   ELEVATION PERMANENT DATUM
 LMF .                 GL:   LOG MEASURED FROM
 DMF .                 KB:   DRILLING MEASURED FROM
 EKB .F              5205:   KELLING BUSHING
 EGL .F          EST 5200:   GROUND LEVEL
 DATE.            3-26-77:   RUN DATE
 RUN .                  1:   RUN NUMBER
 DD  .F               524:   DEPTH DRILLER
 DL  .F               489:   DEPTH LOGGER
 BLI .F               483:   BOTTOM LOG INTERVAL
 TLI .F                39:   TOP LOG INTERVAL
 CS  .IN            8.625:   CASING SIZE
 CBD .F                40:   CASING BOTTOM DRILLER
 CBL .F                39:   CASING BOTTOM LOGGER
 BS  .IN            7.875:   BIT SIZE
 BSD .F               524:   BIT SIZE AT DEPTH
 DFT .                KCL:   DRILLING FLUID TYPE
 DFD .                8.8:   DRILLING FLUID DENSITY
 DFV .                 31:   DRILLING FLUID VISCOSITY
 DFPH.                  8:   DRILLING FLUID PH
 DFL .                9.1:   DRILLING FLUID LOSS
 MSS .          FLOW LINE:   MUD SAMPLE SOURCE
 RMS .OHMM            .18:   RESISTIVITY MUD SAMPLE
 MST .F                76:   MUD SAMPLE TEMPERATURE
 RMF .OHMM            .15:   RESISTIVITY MUD FILTRATE SAMPLE
 MFST.F                76:   MUD FILTRATE SAMPLE TEMPERATURE
 RMC .OHMM             .1:   RESISTIVITY MUD CAKE
 MCST.F                76:   MUD CAKE SAMPLE TEMPERATURE
 MFSS.                  M:   MUD FILTRATE SAMPLE SOURCE
 MCSS.                  C:   MUD CAKE SAMPLE SOURCE
 RMB .OHMM            .25:   RESISTIVITY MUD AT BHT
 BHT .F                55:   BOTTOM HOLE TEMPERATURE
 TCS .HRS               6:   TIME CURCULATED STOPPED
 MRT .F            EST 55:   MAXIMUM RECORDED TEMPERATURE
 LUN .               5642:   LOGGING UNIT NUMBER
 LUL .               CSPR:   LOGGING UNIT LOCATION
 ENGI.     LOHBECK/MARTIN:   RECORDING ENGINEER
 WITN.         STUEBINGER:   WITNESSED BY
 CLNT.            A2DTECH:   CLIENT CODE
 ORIG.       2", 5" PRINT:   ORIGIN OF DATA
 UWI .       490251030700:   UNIQUE WELL ID
 DICO. A2D Technologies, Inc.:   DIGITIZING COMPANY
~OTHER INFORMATION
~A   DEPT      SPR        LL8        ILD        ILM       CALD       RHOB       DPOR       CORR        GRD   
# ...
  316.0000   -49.6685    14.9844    12.0602    12.9250     8.2088     2.4385     0.1304     0.0410    81.6455
  316.5000   -48.9553    19.0695    13.0205    14.0072     8.1620     2.4028     0.1500     0.0554    76.6016
  317.0000   -47.8583    24.8604    14.0573    15.1800     8.1153     2.3633     0.1690     0.0599    72.5444
  317.5000   -46.7664    21.4482    15.1767    16.0056     8.0739     2.3383     0.1909     0.0467    72.4584
  318.0000   -45.6753    16.3482    16.3852    16.4191     8.0761     2.3707     0.1747     0.0622    76.8803
  318.5000   -44.5840    14.1399    17.6899    16.8433     8.0790     2.3894     0.1603     0.0788    78.4890
  319.0000   -43.4921    16.1692    18.6645    17.2785     8.0817     2.3462     0.1812     0.0488    77.5580
  319.5000   -42.3991    17.9238    17.5758    17.7325     8.0844     2.3148     0.2013     0.0329    76.2662
  320.0000   -41.3124    20.0827    16.7042    18.3168     8.0871     2.2981     0.2101     0.0599    74.9630
  320.5000   -40.3110    18.3461    16.7739    17.0360     8.0897     2.2906     0.2200     0.0802    73.6614
  321.0000   -39.7426    16.5874    16.8594    15.3394     8.0920     2.3358     0.2007     0.1428    72.3549
  321.5000   -39.1573    15.0110    17.4472    14.2849     8.1165     2.3247     0.1891     0.1065    71.0639
  322.0000   -38.5688    14.1430    18.1231    16.4843     8.1495     2.3389     0.2020     0.0524    71.0467
  322.5000   -37.9756    19.2162    18.8261    18.4335     8.1826     2.3608     0.1718     0.0428    71.8394
  323.0000   -37.9534    23.0078    19.3272    20.6025     8.2122     2.3828     0.1630     0.0478    75.4733
  323.5000   -38.0363    24.1896    19.6089    23.3022     8.2125     2.3940     0.1548     0.0385    80.1940
  324.0000   -38.5123    25.5597    19.8942    23.3022     8.2123     2.4020     0.1490     0.0432    84.6597
  324.5000   -39.0549    24.7744    20.1970    22.9813     8.2083     2.3931     0.1610     0.0122    86.5911
  325.0000   -39.6029    23.9300    20.5371    22.5304     8.2004     2.3887     0.1559     0.0220    86.3475
  325.5000   -40.1535    23.1145    20.8831    22.0886     8.1925     2.4046     0.1493     0.0323    84.2253
  326.0000   -40.3090    22.2494    21.2345    21.6545     8.1846     2.4019     0.1551     0.0428    82.2411
  326.5000   -40.3747    22.7487    21.5915    21.2278     8.1764     2.3819     0.1665     0.0566    81.0299
  327.0000   -40.4379    23.3166    21.9546    20.8075     8.1631     2.3810     0.1627     0.0572    80.5853
  327.5000   -40.5017    23.9577    22.3237    20.2843     8.1296     2.3819     0.1666     0.0471    80.4522
  328.0000   -40.5660    21.8979    22.6991    21.2520     8.1235     2.3950     0.1492     0.0558    80.0119
  328.5000   -40.6302    19.0129    23.0807    22.7150     8.1445     2.4454     0.1234     0.0382    78.4424
  329.0000   -40.6541    22.1127    23.4690    24.2788     8.1653     2.4664     0.1166     0.0195    76.8920
  329.5000   -40.4698    27.4375    23.8635    25.9564     8.1869     2.4758     0.1150     0.0251    75.3288
  330.0000   -39.9680    34.0445    24.2647    28.3038     8.1712     2.4305     0.1338     0.0324    73.6733
  330.5000   -39.4758    41.3409    24.6316    27.1424     8.1412     2.3859     0.1641     0.0399    71.9652
  331.0000   -39.0422    31.8391    24.7013    24.9591     8.1109     2.3142     0.2003     0.0341    73.3946
  331.5000   -39.0034    23.8086    24.7648    22.9560     8.0807     2.3084     0.2082     0.0324    76.9292
  332.0000   -38.9522    17.7966    24.8604    21.1136     8.0528     2.3115     0.2052     0.0386    81.4037
  332.5000   -38.9004    14.3837    24.0863    19.8574     8.0436     2.3537     0.1860     0.0499    83.2098
  333.0000   -38.9311    16.5751    22.6096    19.6771     8.0346     2.3889     0.1606     0.0786    81.0689
  333.5000   -39.1138    22.4651    21.2235    19.2500     8.0256     2.3646     0.1598     0.0846    79.7365
  334.0000   -39.2942    21.3108    19.5477    18.2743     8.0156     2.3392     0.2002     0.0605    80.1497
  334.5000   -39.4758    17.8652    19.9382    17.3499     8.0569     2.3283     0.1951     0.0435    81.4605
  335.0000   -39.6559    14.6759    20.5096    16.5505     8.1177     2.3498     0.1861     0.0301    83.5530
  335.5000   -39.6641    16.6272    21.0961    17.7977     8.1723     2.3644     0.1771     0.0282    85.4757
  336.0000   -39.6633    20.9515    21.6405    19.0129     8.1777     2.3736     0.1681     0.0386    85.7707
  336.5000   -39.7998    24.6316    21.5647    20.0711     8.1828     2.3768     0.1662     0.0375    85.6650
  337.0000   -40.0419    20.3124    21.4963    20.6629     8.1882     2.3693     0.1750     0.0243    86.1109
  337.5000   -40.2850    21.0197    21.4278    21.2174     8.1935     2.3758     0.1658     0.0290    87.1007
  338.0000   -40.5292    22.5073    21.3596    21.8509     8.1989     2.3911     0.1565     0.0370    88.2342
  338.5000   -40.7732    23.9428    21.2916    22.1073     8.2043     2.4063     0.1473     0.0451    89.4272
  339.0000   -41.0172    22.8752    21.2147    22.1990     8.2096     2.4156     0.1431     0.0506    90.4790
  339.5000   -41.2611    23.0006    21.1171    22.2878     8.2077     2.4172     0.1390     0.0479    91.4817
  340.0000   -41.5051    23.0975    21.0195    22.3779     8.1983     2.4207     0.1417     0.0488    92.3466
  340.5000   -41.7490    23.1947    20.9225    22.4688     8.1891     2.4032     0.1450     0.0304    90.3558
  341.0000   -41.9932    23.2924    20.8260    22.5602     8.1798     2.3785     0.1666     0.0147    88.2753
  341.5000   -42.2373    23.3905    20.7299    22.6518     8.1704     2.3604     0.1786     0.0187    86.3538
  342.0000   -42.4800    23.4891    20.6343    22.7439     8.1611     2.3658     0.1734     0.0171    85.7206
  342.5000   -42.6476    23.5880    20.5391    22.8363     8.1528     2.3533     0.1819     0.0106    85.5078
  343.0000   -42.6441    23.6873    20.4727    22.9291     8.1556     2.3391     0.1918     0.0070    85.6816
  343.5000   -42.6443    23.7871    20.8721    23.0223     8.1588     2.3449     0.1862     0.0148    85.4231
  344.0000   -42.6511    23.8873    21.1846    23.1278     8.1621     2.3503     0.1814     0.0191    83.9976
  344.5000   -42.3846    23.9879    21.5018    23.2619     8.1653     2.3477     0.1862     0.0165    85.1989
  345.0000   -42.0294    24.0890    21.8237    23.3970     8.1685     2.3507     0.1849     0.0270    86.3078
  345.5000   -41.6721    24.1803    22.2494    23.5340     8.1717     2.3458     0.1875     0.0203    87.3044
  346.0000   -41.3145    24.7457    22.0015    23.7416     8.1726     2.3517     0.1816     0.0148    88.3072
  346.5000   -40.9471    25.3245    21.6522    23.5550     8.1707     2.3612     0.1750     0.0298    89.2721
  347.0000   -40.8571    24.3598    21.3085    22.9576     8.1640     2.3576     0.1775     0.0443    87.4821
  347.5000   -40.8528    23.3310    20.9701    22.3755     8.1574     2.3717     0.1670     0.0559    85.7464
  348.0000   -40.8088    22.2494    20.4727    21.6407     8.1530     2.3636     0.1782     0.0496    84.1102
  348.5000   -40.6362    22.8118    20.5624    21.8491     8.1540     2.3769     0.1691     0.0502    83.2380
  349.0000   -40.4635    23.4535    20.7428    22.1502     8.1549     2.3932     0.1608     0.0600    84.6175
  349.5000   -40.4569    24.1132    20.9249    22.4556     8.1558     2.4044     0.1524     0.0671    86.6002
  350.0000   -40.5187    24.8604    21.1085    22.7651     8.1567     2.3734     0.1482     0.0428    88.7090
  350.5000   -40.7563    24.8604    21.2937    23.0791     8.1576     2.3713     0.1721     0.0268    91.0253
  351.0000   -40.9862    24.4974    21.4806    23.3023     8.1585     2.3719     0.1707     0.0327    91.7325
  351.5000   -41.2161    24.1714    21.6691    23.0822     8.1594     2.3754     0.1694     0.0371    89.8995
  352.0000   -41.4459    23.8497    21.8417    22.8835     8.1604     2.3765     0.1681     0.0373    88.3434
