~VERSION INFORMATION
 VERS.                2.0:   CWLS LOG ASCII STANDARD - VERSION 2.0
 WRAP.                 NO:   ONE LINE PER DEPTH STEP
~WELL INFORMATION
#MNEM.UNIT      DATA TYPE    INFORMATION
#----------   ------------   ------------------------------
 STRT.F            2.5000:   START DEPTH
 STOP.F          548.0000:   STOP DEPTH
 STEP.F            0.5000:   STEP LENGTH
 NULL.          -999.2500:   NO VALUE
 COMP. LAWRENCE/ALLISON INC:   COMPANY
 WELL.    55-61 SX #10-10:   WELL
 FLD .           N.P.R #3:   FIELD
 LOC .      S10 T38N R78W:   LOCATION
 CNTY.            NATRONA:   COUNTY
 STAT.            WYOMING:   STATE
 CTRY. UNITED STATES OF AMERICA:   COUNTRY
 SRVC.            Unknown:   SERVICE COMPANY
 DATE.        05-SEP-1984:   LOGDATE
 API .       490251098100:   API NUMBER
~CURVE INFORMATION
#MNEM.UNIT       API CODE    CURVE DESCRIPTION
#----------   ------------   ------------------------------
 DEPT.F                  :   
 GRR .GAPI   07 310 01 00:   GAMMA RAY FROM RES
 SPR .MV     07 010 01 00:   SPONTANEOUS POTENTIAL
 RFOC.OHMM   07 220 04 00:   RESISTIVITY FOCUSED LOG
 RILD.OHMM   07 120 46 00:   INDUCTION LOG DEEP RESISTIVITY
 RILM.OHMM   07 120 44 00:   INDUCTION LOG MEDIUM RESISTIVITY
 CALD.IN     45 280 60 00:   CALIPER FROM DENSITY LOG
 DEN .G/C3   45 350 01 00:   COMPENSATED BULK DENSTIY
 CNC .DEC    42 890 03 00:   NEUTRON POROSITY SANDSTONE
 PORD.DEC    45 890 12 00:   POROSITY DENSITY SANDSTONE
 CORR.G/C3   45 356 01 00:   DENSITY CORRECTION
 AC  .US/F   60 520 00 00:   ACCOUSTIC SONIC
~PARAMETER INFORMATION
#MNEM.UNIT          VALUE    DESCRIPTION
#----------   ------------   ------------------------------
 PD  .                 GL:   PERMANENT DATUM
 EPD .F              5191:   ELEVATION PERMANENT DATUM
 LMF .                 KB:   LOG MEASURED FROM
 DAPD.F                12:   FEET ABOVE PERMANENT DATUM
 DMF .                 KB:   DRILLING MEASURED FROM
 EKB .F              5203:   KELLING BUSHING
 EGL .F              5191:   GROUND LEVEL
 DATE.         5-SEP-1984:   RUN DATE
 RUN .                  1:   RUN NUMBER
 DD  .F               540:   DEPTH DRILLER
 DL  .F               550:   DEPTH LOGGER
 BLI .F               548:   BOTTOM LOG INTERVAL
 CS  .IN            8.625:   CASING SIZE
 CBD .F                42:   CASING BOTTOM DRILLER
 CBL .F                54:   CASING BOTTOM LOGGER
 BS  .IN            7.875:   BIT SIZE
 BSD .F               540:   BIT SIZE AT DEPTH
 DFT .        KCL POLYMER:   DRILLING FLUID TYPE
 MSS .           FLOWLINE:   MUD SAMPLE SOURCE
 RMS .OHMM            .79:   RESISTIVITY MUD SAMPLE
 MST .F                74:   MUD SAMPLE TEMPERATURE
 RMF .OHMM            .59:   RESISTIVITY MUD FILTRATE SAMPLE
 MFST.F                74:   MUD FILTRATE SAMPLE TEMPERATURE
 RMC .OHMM            .99:   RESISTIVITY MUD CAKE
 MCST.F                74:   MUD CAKE SAMPLE TEMPERATURE
 MFSS.               CALC:   MUD FILTRATE SAMPLE SOURCE
 MCSS.               CALC:   MUD CAKE SAMPLE SOURCE
 RMB .OHMM            .65:   RESISTIVITY MUD AT BHT
 BHT .F                90:   BOTTOM HOLE TEMPERATURE
 TCS .HRS               3:   TIME CURCULATED STOPPED
 MRT .F                90:   MAXIMUM RECORDED TEMPERATURE
 LUN .               6274:   LOGGING UNIT NUMBER
 LUL .               GLTE:   LOGGING UNIT LOCATION
 ENGI.             RAUTIO:   RECORDING ENGINEER
 WITN.            JOHNSON:   WITNESSED BY
 CLNT.            A2DTECH:   CLIENT CODE
 ORIG. 2", 2.5", 5" PRINT:   ORIGIN OF DATA
 UWI .       490251098100:   UNIQUE WELL ID
 DICO. A2D Technologies, Inc.:   DIGITIZING COMPANY
~OTHER INFORMATION
~A    DEPT      GRR       SPR       RFOC       RILD       RILM       CALD        DEN        CNC       PORD       CORR         AC   
# ...
   63.5000   119.4040  -200.1554  -999.2500     9.2030     9.1260     8.0320     2.4540     0.0840     0.1340     0.0100   136.7817
   64.0000   116.6870  -200.1554  -999.2500     9.0790     9.0790     8.0310     2.4470     0.0870     0.1380     0.0050   132.0510
   64.5000   114.9140  -200.1554  -999.2500     9.2980     9.4100     8.0290     2.4400     0.0900     0.1430    -0.0010   130.4555
   65.0000   116.3000  -200.1554  -999.2500     9.5590     9.7270     8.0270     2.4390     0.0920     0.1450    -0.0060   129.4018
   65.5000   116.8840  -200.1554  -999.2500     9.8200    10.0440     8.0260     2.4450     0.0890     0.1420     0.0040   128.3992
   66.0000   116.5410  -200.1554  -999.2500    10.0810    10.1210     8.0270     2.4520     0.0860     0.1370     0.0140   127.8466
   66.5000   116.3510  -200.1554  -999.2500    10.2310    10.2510     8.0270     2.4460     0.0860     0.1390     0.0050   127.9689
   67.0000   116.9520  -200.1554  -999.2500    10.2810    10.3800     8.0280     2.4370     0.0860     0.1420    -0.0050   129.5534
   67.5000   116.4520  -200.1554  -999.2500    10.3250    10.5160     8.0290     2.4280     0.0870     0.1510    -0.0150   131.9554
   68.0000   114.5170  -200.1554  -999.2500    10.2570    10.4080     8.0300     2.4180     0.0860     0.1550    -0.0250   128.7232
   68.5000   112.2620  -200.1554  -999.2500    10.1970    10.3720     8.0300     2.4170     0.0850     0.1580    -0.0250   130.8019
   69.0000   111.8930  -200.1554  -999.2500    10.1380    10.3350     8.0310     2.4220     0.0850     0.1550    -0.0250   128.7003
   69.5000   111.4400  -200.1554  -999.2500    10.0790    10.2990     8.0320     2.4220     0.0860     0.1530    -0.0340   129.9203
   70.0000   110.4000  -200.1554  -999.2500    10.0190    10.2620     8.0330     2.4210     0.0870     0.1540    -0.0280   122.5460
   70.5000   110.1310  -200.1554  -999.2500     9.9600    10.2260     8.0340     2.4260     0.0870     0.1530    -0.0070   129.1306
   71.0000   110.8700  -200.1554  -999.2500     9.9000    10.1900     8.0340     2.4300     0.0860     0.1500     0.0000   128.1585
   71.5000   111.9170  -200.1554  -999.2500     9.8410    10.1530     8.0350     2.4270     0.0850     0.1470    -0.0120   127.5757
   72.0000   114.8450  -200.1554  -999.2500     9.7720    10.1170     8.0360     2.4180     0.0860     0.1540    -0.0220   128.9455
   72.5000   116.9340  -200.1554  -999.2500     9.9070    10.0810     8.0370     2.4090     0.0880     0.1590    -0.0110   127.7581
   73.0000   115.9390  -200.1554  -999.2500    10.1230    10.0440     8.0370     2.4040     0.0870     0.1640     0.0010   126.7147
   73.5000   113.8030  -200.1554  -999.2500    10.3390    10.1340     8.0380     2.4050     0.0860     0.1650     0.0050   125.8481
   74.0000   112.2240  -200.1554  -999.2500    10.5550    10.2840     8.0390     2.4120     0.0850     0.1630     0.0090   124.5276
   74.5000   114.6180  -200.1554  -999.2500    10.7710    10.4330     8.0400     2.4240     0.0870     0.1560     0.0040   131.3987
   75.0000   114.5220  -200.1554  -999.2500    10.9100    10.5830     8.0400     2.4410     0.0890     0.1460    -0.0030   134.0715
   75.5000   110.9100  -200.1554  -999.2500    10.7550    10.7110     8.0410     2.4580     0.0910     0.1360    -0.0100   136.7443
   76.0000   107.3900  -200.1554  -999.2500    10.6530    10.5420     8.0420     2.4590     0.0930     0.1300    -0.0070   141.7426
   76.5000   105.0440  -200.1554  -999.2500    10.5510    10.4450     8.0430     2.4460     0.0950     0.1380    -0.0010   145.4692
   77.0000   104.0350  -200.1554  -999.2500    10.4490    10.3470     8.0430     2.4330     0.0950     0.1480     0.0040   149.1138
   77.5000   105.7970  -200.1554  -999.2500    10.3480    10.2500     8.0440     2.4260     0.0920     0.1510     0.0020   151.0657
   78.0000   113.7470  -200.1554  -999.2500    10.2460    10.1530     8.0450     2.4300     0.0890     0.1500    -0.0010   178.8353
   78.5000   121.5560  -200.1554  -999.2500    10.1440    10.0550     8.0460     2.4330     0.0860     0.1480     0.0050   240.0000
   79.0000   121.3880  -200.1554  -999.2500    10.0420     9.9580     8.0470     2.4350     0.0860     0.1460     0.0100   240.0000
   79.5000   119.5190  -200.1554  -999.2500     9.9410     9.8610     8.0470     2.4370     0.0870     0.1450     0.0160   240.0000
   80.0000   117.6910  -200.1554  -999.2500     9.8390     9.7630     8.0480     2.4400     0.0890     0.1440     0.0130   240.0000
   80.5000   116.0290  -200.1554  -999.2500     9.7370     9.6660     8.0490     2.4390     0.0900     0.1420     0.0080   240.0000
   81.0000   115.1940  -200.1554  -999.2500     9.6350     9.5690     8.0500     2.4310     0.0900     0.1470     0.0020   240.0000
   81.5000   114.6530  -200.1554  -999.2500     9.5580     9.4710     8.0500     2.4220     0.0890     0.1520    -0.0030   240.0000
   82.0000   115.7150  -200.1554  -999.2500     9.4960     9.3740     8.0510     2.4180     0.0880     0.1550    -0.0050   240.0000
   82.5000   117.4660  -200.1554  -999.2500     9.4350     9.2770     8.0520     2.4170     0.0860     0.1560    -0.0040   240.0000
   83.0000   117.5690  -200.1554  -999.2500     9.3740     9.1790     8.0530     2.4170     0.0850     0.1570    -0.0030   240.0000
   83.5000   116.9220  -200.1554  -999.2500     9.3210     9.0820     8.0530     2.4160     0.0850     0.1570    -0.0030   240.0000
   84.0000   116.1730  -200.1554  -999.2500     9.2850     9.0090     8.0540     2.4130     0.0840     0.1580    -0.0020   240.0000
   84.5000   112.3360  -200.1554  -999.2500     9.2500     9.0700     8.0550     2.4080     0.0830     0.1600    -0.0010   240.0000
   85.0000   108.2020  -200.1554  -999.2500     9.2140     9.0590     8.0560     2.4040     0.0840     0.1630    -0.0060   240.0000
   85.5000   108.1250  -200.1554  -999.2500     9.1780     9.0490     8.0560     2.4030     0.0850     0.1650    -0.0130   240.0000
   86.0000   112.5810  -200.1554  -999.2500     9.1420     9.0380     8.0570     2.4090     0.0860     0.1620    -0.0140   240.0000
   86.5000   114.9060  -200.1554  -999.2500     9.1070     9.0280     8.0580     2.4160     0.0870     0.1580    -0.0120   240.0000
   87.0000   114.3270  -200.1554  -999.2500     9.0790     9.0170     8.0590     2.4190     0.0860     0.1550    -0.0100   240.0000
   87.5000   115.9360  -200.1554  -999.2500     9.1020     9.0070     8.0600     2.4180     0.0840     0.1560    -0.0070   240.0000
   88.0000   117.2450  -200.1554  -999.2500     9.1240     8.9970     8.0600     2.4140     0.0850     0.1580     0.0010   240.0000
   88.5000   114.7820  -200.1554  -999.2500     9.1460     9.0230     8.0610     2.4120     0.0870     0.1600     0.0160   240.0000
   89.0000   112.5380  -200.1554  -999.2500     9.1680     9.0500     8.0620     2.4120     0.0880     0.1600     0.0280   240.0000
   89.5000   110.8110  -200.1554  -999.2500     9.1900     9.0760     8.0630     2.4130     0.0870     0.1590     0.0170   240.0000
   90.0000   109.8050  -200.1554  -999.2500     9.2110     9.1030     8.0630     2.4120     0.0860     0.1590     0.0060   240.0000
   90.5000   109.5090  -200.1554  -999.2500     9.2330     9.1300     8.0640     2.4090     0.0840     0.1610    -0.0050   240.0000
   91.0000   110.5730  -200.1554  -999.2500     9.2480     9.1630     8.0650     2.4080     0.0870     0.1630    -0.0070   240.0000
   91.5000   112.1700  -200.1554  -999.2500     8.9680     8.9410     8.0650     2.4110     0.0890     0.1590    -0.0060   240.0000
   92.0000   114.9640  -200.1554  -999.2500     8.7010     8.6790     8.0650     2.4180     0.0880     0.1560    -0.0060   240.0000
   92.5000   119.4000  -200.1554  -999.2500     8.4340     8.4170     8.0640     2.4190     0.0850     0.1560    -0.0060   240.0000
   93.0000   123.6440  -200.1554  -999.2500     8.1680     8.1550     8.0640     2.4140     0.0820     0.1590    -0.0130   240.0000
   93.5000   124.4420  -200.1554  -999.2500     7.9010     7.8930     8.0630     2.4100     0.0800     0.1610    -0.0190   240.0000
