~VERSION INFORMATION
 VERS.                2.0:   CWLS LOG ASCII STANDARD - VERSION 2.0
 WRAP.                 NO:   ONE LINE PER DEPTH STEP
~WELL INFORMATION
#MNEM.UNIT      DATA TYPE    INFORMATION
#----------   ------------   ------------------------------
 STRT.F           29.0000:   START DEPTH
 STOP.F          462.0000:   STOP DEPTH
 STEP.F            0.5000:   STEP LENGTH
 NULL.          -999.2500:   NO VALUE
 COMP.    FENIX & SCISSON:   COMPANY
 WELL.      NPR #71-SX-10:   WELL
 FLD .             TEAPOT:   FIELD
 LOC .      S10 T38N R78W:   LOCATION
 CNTY.            NATRONA:   COUNTY
 STAT.            WYOMING:   STATE
 CTRY. UNITED STATES OF AMERICA:   COUNTRY
 SRVC.              Welex:   SERVICE COMPANY
 DATE.        01-APR-1977:   LOGDATE
 API .       490251032300:   API NUMBER
~CURVE INFORMATION
#MNEM.UNIT       API CODE    CURVE DESCRIPTION
#----------   ------------   ------------------------------
 DEPT.F                  :   
 SPR .MV     07 010 01 00:   SPONTANEOUS POTENTIAL
 ILD .OHMM   07 120 46 00:   INDUCTION LOG DEEP
 ILM .OHMM   07 120 44 00:   INDUCTION LOG MEDIUM
 SGRD.OHMM   07 221 05 00:   SHALLOW SHORT GUARD RESISTIVITY
 CALD.IN     45 280 60 00:   CALIPER FROM DENSITY LOG
 GRD .GAPI   45 310 01 00:   GAMMA RAY FROM DENSITY LOG
 CORR.G/C3   45 356 01 00:   DENSITY CORRECTION
 RHOB.G/C3   45 350 01 00:   BULK DENSITY
 DPHI.DEC    45 890 12 00:   DENSITY POROSITY SANDSTONE
~PARAMETER INFORMATION
#MNEM.UNIT          VALUE    DESCRIPTION
#----------   ------------   ------------------------------
 PD  .                 GL:   PERMANENT DATUM
 EPD .F              5157:   ELEVATION PERMANENT DATUM
 LMF .                 GL:   LOG MEASURED FROM
 DMF .                 GL:   DRILLING MEASURED FROM
 EGL .F              5157:   GROUND LEVEL
 DATE.        01-APR-1977:   RUN DATE
 RUN .                  1:   RUN NUMBER
 DD  .F               475:   DEPTH DRILLER
 DL  .F               466:   DEPTH LOGGER
 BLI .F               463:   BOTTOM LOG INTERVAL
 TLI .F                30:   TOP LOG INTERVAL
 CS  .IN            8.625:   CASING SIZE
 BS  .IN            7.875:   BIT SIZE
 BSD .F               475:   BIT SIZE AT DEPTH
 DFT .                KCL:   DRILLING FLUID TYPE
 DFD .                8.5:   DRILLING FLUID DENSITY
 TCS .HRS               3:   TIME CURCULATED STOPPED
 MRT .F                67:   MAXIMUM RECORDED TEMPERATURE
 ENGI.            C. DOAK:   RECORDING ENGINEER
 WITN.   R. B. HARRINGTON:   WITNESSED BY
 CLNT.            A2DTECH:   CLIENT CODE
 ORIG.           5" PRINT:   ORIGIN OF DATA
 UWI .       490251032300:   UNIQUE WELL ID
 DICO. A2D Technologies, Inc.:   DIGITIZING COMPANY
~OTHER INFORMATION
~A   DEPT      SPR        ILD        ILM       SGRD         CALD      GRD       CORR       RHOB       DPHI   
# ...
  211.5000   -41.9771     5.9410     6.9804    10.3471     8.5600   134.3152    -0.0049     2.3937     0.1537
  212.0000   -42.1121     5.7425     6.3825     9.2654     8.5464   135.9825    -0.0077     2.3735     0.1681
  212.5000   -42.0989     5.3249     6.0413     5.1487     8.5485   136.6050    -0.0121     2.3653     0.1719
  213.0000   -41.9372     5.2179     6.2134     7.0294     8.5649   135.4365    -0.0165     2.3714     0.1632
  213.5000   -41.9239     5.1852     6.1725     8.0737     8.5666   131.8799    -0.0209     2.3843     0.1539
  214.0000   -41.7623     5.1526     6.1325     8.9982     8.5530   127.1292    -0.0238     2.3964     0.1535
  214.5000   -41.4522     5.1566     6.1782     7.5374     8.5550   127.6024    -0.0236     2.3980     0.1526
  215.0000   -41.2906     5.2317     6.3984     8.1347     8.5567   130.4637    -0.0189     2.4011     0.1481
  215.5000   -41.1289     5.3819     7.0036    10.0168     8.5431   131.5876    -0.0142     2.4101     0.1428
  216.0000   -40.8189     5.6135     7.0551     8.6606     8.5448   128.5744    -0.0110     2.4230     0.1346
  216.5000   -40.5089     5.8551     7.2061     8.0279     8.5468   125.3163    -0.0094     2.4351     0.1281
  217.0000   -40.1988     6.1922     7.6194    10.0210     8.5632   124.5891    -0.0092     2.4404     0.1248
  217.5000   -39.8838     6.4142     8.0009    10.8196     8.5496   125.9643    -0.0091     2.4398     0.1257
  218.0000   -39.5707     6.7367     8.5777    11.2725     8.5514   126.8853    -0.0074     2.4354     0.1281
  218.5000   -39.4169     6.9782     8.8833    11.2749     8.5678   123.9257    -0.0072     2.4309     0.1298
  219.0000   -39.2552     7.1290     8.8257    11.4454     8.5694   124.2497    -0.0056     2.4235     0.1311
  219.5000   -39.2418     7.2329     8.8294    11.6763     8.5710   126.2154    -0.0039     2.4371     0.1247
  220.0000   -39.2285     7.3382     9.4006    11.7603     8.5727   129.8230    -0.0023     2.4485     0.1174
  220.5000   -39.2151     7.3428     9.9398    11.6810     8.5743   132.0873    -0.0006     2.4628     0.1135
  221.0000   -39.3507     7.3473     9.7374    11.8250     8.5760   132.7098    -0.0004     2.4644     0.1162
  221.5000   -39.3368     7.3519     8.8993    11.5733     8.5776   132.8845    -0.0003     2.4600     0.1179
  222.0000   -39.4725     7.3046     8.6061    11.3275     8.5792   132.0145     0.0014     2.4638     0.1155
  222.5000   -39.4559     7.2098     8.6097    10.5153     8.5809   129.6519     0.0030     2.4677     0.1137
  223.0000   -39.5943     7.1140     8.6133    10.0910     8.5825   127.5815     0.0062     2.4550     0.1181
  223.5000   -39.7294     6.9721     8.5437    10.0262     8.5842   128.0611     0.0064     2.4574     0.1175
  224.0000   -39.7128     6.7871     8.1978     9.9618     8.5858   130.0269     0.0050     2.4612     0.1163
  224.5000   -39.8512     6.5151     7.7200     9.9678     8.5874   132.2911     0.0021     2.4403     0.1276
  225.0000   -39.8346     6.2540     7.7323     9.9726     8.5891   133.5106    -0.0007     2.4216     0.1336
  225.5000   -39.9730     5.8800     7.7802     9.7723     8.5907   134.8794    -0.0006     2.4090     0.1384
  226.0000   -40.4015     5.5284     7.5716     8.9974     8.5775   136.2482    -0.0020     2.4053     0.1443
  226.5000   -40.6849     5.3069     7.0196     8.7558     8.5792   138.5125    -0.0018     2.4031     0.1488
  227.0000   -40.9717     5.0942     6.5078     8.5207     8.5808   139.8812    -0.0032     2.3995     0.1521
  227.5000   -41.2551     4.8901     5.7480     7.7371     8.5672   140.5037    -0.0030     2.3906     0.1589
  228.0000   -41.3902     4.7595     5.4026     5.4000     8.5693   138.8874    -0.0029     2.3816     0.1658
  228.5000   -41.0769     4.7625     5.5571     4.5124     8.5709   136.9726    -0.0027     2.3802     0.1616
  229.0000   -40.7669     4.8992     6.0827     7.9662     8.5725   134.0130    -0.0010     2.4066     0.1415
  229.5000   -40.3085     5.0398     6.7042    10.1560     8.5742   132.3967     0.0006     2.4434     0.1207
  230.0000   -39.9984     5.3300     7.4406    10.5920     8.5758   131.5266     0.0023     2.4638     0.1151
  230.5000   -39.6884     5.7964     7.9770    10.8948     8.5775   130.3581     0.0040     2.4691     0.1125
  231.0000   -39.5268     6.1330     8.3764    11.2062     8.5791   128.8910     0.0041     2.4535     0.1159
  231.5000   -39.2168     6.4839     8.6749    11.3679     8.5808   128.6116     0.0058     2.4475     0.1209
  232.0000   -39.0551     6.7637     8.9220    10.7604     8.5824   130.8823     0.0074     2.4491     0.1217
  232.5000   -38.7451     7.0598     8.9877    10.3262     8.5840   132.3939     0.0091     2.4590     0.1184
  233.0000   -38.5834     7.2591     9.1167    10.4765     8.5857   130.4791     0.0092     2.4486     0.1190
  233.5000   -38.4207     7.3597     9.3765    11.8731     8.5873   133.4960     0.0079     2.4517     0.1199
  234.0000   -38.2601     7.4154     9.6436    11.9613     8.5890   135.2478     0.0035     2.4555     0.1186
  234.5000   -38.0985     7.4716     9.7146    11.8831     8.5906   134.7085     0.0006     2.4466     0.1246
  235.0000   -38.0852     7.4762     9.7186    11.8067     8.5922   134.8109    -0.0023     2.4152     0.1365
  235.5000   -37.9235     7.5328     9.6546    11.8138     8.5939   136.8164    -0.0067     2.3995     0.1410
  236.0000   -37.9102     7.5908     9.5920    11.8195     8.5955   138.8617    -0.0095     2.4281     0.1323
  236.5000   -37.8969     7.7014     9.6636    11.9074     8.5972   136.6905    -0.0063     2.4462     0.1217
  237.0000   -37.8837     7.7061     9.6676    11.9131     8.5988   132.5791    -0.0032     2.4568     0.1166
  237.5000   -37.8704     7.6049     9.6716    11.8366     8.6005   131.1318     0.0000     2.4644     0.1139
  238.0000   -37.8571     7.5039     9.6756    11.8423     8.6021   129.5005     0.0032     2.4720     0.1123
  238.5000   -37.8438     7.4568     9.6796    11.7648     8.6034   127.7743     0.0064     2.4608     0.1165
  239.0000   -37.8305     7.4099     9.7508    11.6100     8.6199   130.8298     0.0080     2.4556     0.1177
  239.5000   -37.8172     7.4157     9.7548    11.4558     8.6215   134.8502     0.0082     2.4640     0.1149
  240.0000   -37.8039     7.4203     9.8266    11.0713     8.6232   136.3582     0.0099     2.4726     0.1128
  240.5000   -37.9390     7.4249     9.8307    10.8487     8.6250   136.8293     0.0115     2.4807     0.1104
  241.0000   -38.0741     7.3771     9.8348    11.0055     8.6266   131.0403     0.0147     2.4891     0.1082
  241.5000   -38.2092     7.3828     9.9072    11.4779     8.6283   126.7374     0.0179     2.4969     0.1052
  242.0000   -38.1958     7.3353     9.9801    11.9706     8.6299   128.1062     0.0180     2.5038     0.1034
  242.5000   -38.1815     7.3410     9.9842    11.7302     8.6316   132.4600     0.0152     2.5014     0.1072
  243.0000   -38.3177     7.3456     9.7156    11.4944     8.6332   136.9631     0.0077     2.4690     0.1133
  243.5000   -38.4517     7.3501     9.5190    11.5800     8.6349   139.6751     0.0034     2.4501     0.1219
  244.0000   -38.6014     7.3547     9.2639    11.6661     8.6365   141.3075     0.0050     2.4468     0.1222
  244.5000   -38.7394     7.3074     8.8908    11.3497     8.6381   144.1861     0.0082     2.4469     0.1218
  245.0000   -39.0257     7.2125     8.5920    11.3584     8.6398   146.2388     0.0099     2.4478     0.1209
  245.5000   -39.2898     7.0687     8.3609    11.4428     8.6414   147.7269     0.0085     2.4509     0.1203
  246.0000   -39.5733     6.8326     8.1359    11.0992     8.6428   149.2199     0.0041     2.4468     0.1262
  246.5000   -39.8567     6.6502     7.9722     8.0457     8.6444   149.6906    -0.0033     2.4223     0.1406
  247.0000   -39.9918     6.4726     7.9204     9.4254     8.6460   149.5194    -0.0092     2.4158     0.1418
  247.5000   -40.2719     6.2564     7.8690    10.4054     8.6479   147.6716    -0.0106     2.4167     0.1393
