~VERSION INFORMATION
 VERS.                2.0:   CWLS LOG ASCII STANDARD - VERSION 2.0
 WRAP.                 NO:   ONE LINE PER DEPTH STEP
~WELL INFORMATION
#MNEM.UNIT      DATA TYPE    INFORMATION
#----------   ------------   ------------------------------
 STRT.F           35.0000:   START DEPTH
 STOP.F          474.0000:   STOP DEPTH
 STEP.F            0.5000:   STEP LENGTH
 NULL.          -999.2500:   NO VALUE
 COMP.    FENIX & SCISSON:   COMPANY
 WELL.        NPR #53-S-3:   WELL
 FLD .             TEAPOT:   FIELD
 LOC .       S3 T38N R78W:   LOCATION
 CNTY.            NATRONA:   COUNTY
 STAT.            WYOMING:   STATE
 CTRY. UNITED STATES OF AMERICA:   COUNTRY
 SRVC.       Schlumberger:   SERVICE COMPANY
 DATE.        21-FEB-1977:   LOGDATE
 API .       490251027800:   API NUMBER
~CURVE INFORMATION
#MNEM.UNIT       API CODE    CURVE DESCRIPTION
#----------   ------------   ------------------------------
 DEPT.F                  :   
 SPR .MV     07 010 01 00:   SPONTANEOUS POTENTIAL
 ILD .OHMM   07 120 46 00:   INDUCTION LOG DEEP
 ILM .OHMM   07 120 44 00:   INDUCTION LOG MEDIUM
 LL8 .OHMM   07 220 08 00:   LATEROLOG-8 RES.
 CALD.IN     45 280 60 00:   CALIPER FROM DENSITY LOG
 CORR.G/C3   45 356 01 00:   DENSITY CORRECTION
 RHOB.G/C3   45 350 01 00:   BULK DENSITY
 DPHI.DEC    45 890 12 00:   DENSITY POROSITY SANDSTONE
 GRD .GAPI   45 310 01 00:   GAMMA RAY FROM DENSITY LOG
~PARAMETER INFORMATION
#MNEM.UNIT          VALUE    DESCRIPTION
#----------   ------------   ------------------------------
 PD  .                 GL:   PERMANENT DATUM
 EPD .F              5163:   ELEVATION PERMANENT DATUM
 LMF .                 GL:   LOG MEASURED FROM
 DMF .                 KB:   DRILLING MEASURED FROM
 EKB .F              5167:   KELLING BUSHING
 EGL .F              5163:   GROUND LEVEL
 DATE.        21-FEB-1977:   RUN DATE
 RUN .                  1:   RUN NUMBER
 DD  .F               480:   DEPTH DRILLER
 DL  .F               475:   DEPTH LOGGER
 BLI .F               474:   BOTTOM LOG INTERVAL
 TLI .F                39:   TOP LOG INTERVAL
 CS  .IN            8.625:   CASING SIZE
 CBD .F                40:   CASING BOTTOM DRILLER
 CBL .F                39:   CASING BOTTOM LOGGER
 BS  .IN            7.875:   BIT SIZE
 BSD .F               480:   BIT SIZE AT DEPTH
 DFT .            KCL MUD:   DRILLING FLUID TYPE
 DFD .                8.6:   DRILLING FLUID DENSITY
 DFV .                 35:   DRILLING FLUID VISCOSITY
 DFPH.                8.0:   DRILLING FLUID PH
 DFL .                6.8:   DRILLING FLUID LOSS
 MSS .           FLOWLINE:   MUD SAMPLE SOURCE
 RMS .OHMM            .41:   RESISTIVITY MUD SAMPLE
 MST .F                70:   MUD SAMPLE TEMPERATURE
 RMF .OHMM            .46:   RESISTIVITY MUD FILTRATE SAMPLE
 MFST.F                70:   MUD FILTRATE SAMPLE TEMPERATURE
 MFSS.               MEAS:   MUD FILTRATE SAMPLE SOURCE
 TCS .HRS               1:   TIME CURCULATED STOPPED
 LUN .               7680:   LOGGING UNIT NUMBER
 LUL .               CSPR:   LOGGING UNIT LOCATION
 ENGI.             TAYLOR:   RECORDING ENGINEER
 WITN.               JAPP:   WITNESSED BY
 CLNT.            A2DTECH:   CLIENT CODE
 ORIG.           5" PRINT:   ORIGIN OF DATA
 UWI .       490251027800:   UNIQUE WELL ID
 DICO. A2D Technologies, Inc.:   DIGITIZING COMPANY
~OTHER INFORMATION
~A   DEPT      SPR        ILD        ILM        LL8       CALD       CORR       RHOB       DPHI         GRD  
# ...
  327.0000   -44.0250    23.2480    31.2752    30.7950     8.2598     0.0324     2.3681     0.1710    68.9021
  327.5000   -44.0058    22.4666    30.2264    32.3362     8.2614     0.0309     2.3591     0.1705    69.8292
  328.0000   -43.8373    22.3186    29.0111    31.8330     8.2630     0.0377     2.3689     0.1733    70.5205
  328.5000   -43.6688    22.3300    28.2329    30.6115     8.2796     0.0235     2.3569     0.1781    66.5001
  329.0000   -43.6495    22.8078    27.6631    30.6324     8.2812     0.0183     2.3510     0.1814    64.7231
  329.5000   -43.6302    22.9756    27.6808    30.6491     8.2978     0.0145     2.3533     0.1805    64.5187
  330.0000   -43.4617    23.4672    28.4729    29.8293     8.2995     0.0123     2.3608     0.1790    65.4423
  330.5000   -43.4425    23.6398    30.1103    29.2289     8.3011     0.0394     2.3767     0.1651    65.4640
  331.0000   -43.4232    23.8137    32.9637    32.4454     8.3027     0.0432     2.3745     0.1672    63.4676
  331.5000   -43.2547    23.6591    35.8384    32.4632     8.3043     0.0492     2.3715     0.1681    58.5422
  332.0000   -43.2354    23.6689    36.6769    29.6886     8.3060     0.0672     2.3859     0.1596    61.4878
  332.5000   -43.2162    23.3532    31.8909    28.4976     8.2926     0.0455     2.3958     0.1535    63.7588
  333.0000   -43.1969    23.0417    28.5607    27.5442     8.2946     0.0350     2.4079     0.1514    65.1302
  333.5000   -43.1776    22.5775    25.3901    25.8965     8.2962     0.0373     2.3838     0.1556    66.7265
  334.0000   -43.0090    22.2501    23.2163    24.1796     8.2978     0.0231     2.3703     0.1655    72.1458
  334.5000   -42.9896    21.6793    22.7429    24.3606     8.2995     0.0156     2.3673     0.1700    74.6417
  335.0000   -42.9701    21.0961    22.2792    25.2314     8.2857     0.0134     2.3749     0.1657    75.1135
  335.5000   -42.9507    20.6691    21.7089    26.1332     8.2877     0.0202     2.3720     0.1679    73.3365
  336.0000   -42.9313    20.1151    21.2734    26.5116     8.2893     0.0232     2.3735     0.1775    72.4588
  336.5000   -42.7627    19.9826    20.9916    24.9257     8.2756     0.0210     2.3608     0.1826    72.4857
  337.0000   -42.7395    19.7180    20.8548    23.4239     8.2477     0.0172     2.3547     0.1757    74.1410
  337.5000   -42.7203    19.5881    20.8681    22.4945     8.2343     0.0263     2.3684     0.1657    76.6492
  338.0000   -42.7010    19.5981    20.8788    22.8417     8.1910     0.0406     2.3899     0.1542    76.3760
  338.5000   -42.8358    19.4690    21.0347    23.6665     8.1178     0.0474     2.3971     0.1515    74.8239
  339.0000   -42.8117    19.4790    21.1918    24.4841     8.0595     0.0286     2.3708     0.1707    73.7215
  339.5000   -42.9466    19.4870    21.3500    24.8386     8.0462     0.0249     2.3656     0.1774    72.6192
  340.0000   -42.9225    19.4950    21.5094    24.8521     8.0328     0.0369     2.3709     0.1719    70.3924
  340.5000   -43.0573    19.6384    21.5204    24.8657     8.0648     0.0482     2.3748     0.1647    67.9407
  341.0000   -43.1873    19.9202    21.8317    24.7045     8.1263     0.0438     2.3688     0.1698    68.4126
  341.5000   -43.4617    20.4877    22.1476    24.7214     8.1878     0.0333     2.3636     0.1713    70.2337
  342.0000   -43.4425    21.5134    22.6241    24.9065     8.2343     0.0311     2.3794     0.1649    72.7296
  342.5000   -43.5773    22.4346    23.4332    25.0930     8.2808     0.0288     2.3832     0.1612    73.2014
  343.0000   -43.5532    22.7587    25.1264    25.6330     8.3274     0.0419     2.3938     0.1515    72.9985
  343.5000   -43.5339    23.2436    26.5776    29.0463     8.3440     0.0585     2.4180     0.1393    71.8861
  344.0000   -43.5147    23.4148    28.3211    36.5113     8.3306     0.0372     2.4346     0.1256    69.1126
  344.5000   -43.4954    23.5871    29.5345    39.1466     8.3172     0.0222     2.4685     0.1180    64.9745
  345.0000   -43.4762    23.4361    29.7311    35.3091     8.3189     0.0207     2.4965     0.1023    65.4463
  345.5000   -43.4569    23.2841    29.3365    29.3118     8.3205     0.0232     2.4980     0.0954    69.2915
  346.0000   -43.2884    23.1306    28.5534    25.1892     8.3071     0.0346     2.4389     0.1210    72.9118
  346.5000   -43.2691    22.5107    27.7875    23.8466     8.3088     0.0283     2.3867     0.1345    73.3836
  347.0000   -43.1006    21.7541    26.3034    24.1976     8.3104     0.0103     2.3393     0.1758    73.4057
  347.5000   -43.0814    20.8780    25.6751    25.0714     8.2970     0.0231     2.3582     0.1825    72.9780
  348.0000   -43.0621    20.3142    25.3087    25.2448     8.2991     0.0427     2.3703     0.1707    72.5503
  348.5000   -42.8936    19.6335    24.4913    24.7089     8.3007     0.0269     2.3508     0.1770    71.4480
  349.0000   -42.8743    19.1053    23.8324    23.2596     8.3023     0.0195     2.3493     0.1812    71.6950
  349.5000   -42.8551    18.7185    23.6811    22.9527     8.3039     0.0255     2.3569     0.1775    72.6166
  350.0000   -42.6866    18.4320    23.6940    23.2850     8.2901     0.0311     2.3683     0.1697    72.4138
  350.5000   -42.6687    18.2085    23.4000    22.2414     8.2956     0.0331     2.3736     0.1670    73.3340
  351.0000   -42.6481    17.9849    22.9064    21.4481     8.3002     0.0376     2.3878     0.1630    74.4761
  351.5000   -42.6303    17.8594    21.9823    22.0610     8.3049     0.0339     2.3863     0.1603    75.6183
  352.0000   -42.6126    18.1161    21.3877    21.7669     8.3095     0.0212     2.3645     0.1757    75.4111
  352.5000   -42.5948    18.2481    21.2476    21.3289     8.3142     0.0137     2.3684     0.1666    74.7541
  353.0000   -42.5770    18.3812    21.2567    20.7556     8.3189     0.0281     2.3803     0.1696    73.6474
  353.5000   -42.5593    18.6437    21.5604    20.3375     8.3235     0.0228     2.3645     0.1729    70.9664
  354.0000   -42.5415    18.6502    22.0202    20.9168     8.3282     0.0161     2.3637     0.1741    70.6987
  354.5000   -42.5237    18.7861    22.8032    21.9632     8.3311     0.0094     2.3705     0.1711    71.9013
  355.0000   -42.5060    18.7926    23.4513    22.9031     8.3323     0.0162     2.3675     0.1695    71.9190
  355.5000   -42.3390    18.7990    23.7843    23.3928     8.3336     0.0155     2.3562     0.1740    70.1376
  356.0000   -42.1720    18.6757    23.4654    22.7640     8.3350     0.0133     2.3479     0.1809    71.5652
  356.5000   -41.8557    18.4254    23.3116    21.5478     8.3361     0.0291     2.3396     0.1867    72.2014
  357.0000   -41.6887    18.1785    22.9991    21.1141     8.3373     0.0224     2.3434     0.1846    71.9898
  357.5000   -41.6709    17.9348    22.5344    21.1229     8.3232     0.0149     2.3539     0.1773    71.3373
  358.0000   -41.6531    17.8124    22.0790    20.5495     8.3247     0.0293     2.3780     0.1719    69.7808
  358.5000   -41.6354    17.4572    21.6328    20.0026     8.3259     0.0315     2.3645     0.1755    70.9229
  359.0000   -41.7672    17.3325    21.4910    20.0111     8.3270     0.0166     2.3523     0.1821    72.5148
  359.5000   -41.7491    17.0975    21.2047    20.0191     8.3282     0.0166     2.3434     0.1836    73.8818
  360.0000   -42.0299    16.8809    20.7762    19.8894     8.3294     0.0084     2.3554     0.1775    74.7991
  360.5000   -42.0119    16.7524    20.3564    19.6243     8.3306     0.0168     2.3645     0.1739    74.8168
  361.0000   -41.9940    16.4314    20.0835    19.4971     8.3318     0.0232     2.3660     0.1723    74.8345
  361.5000   -42.1258    16.2125    19.8140    19.5072     8.3329     0.0288     2.3614     0.1745    75.7517
  362.0000   -42.1075    15.8849    19.9587    19.5152     8.3191     0.0228     2.3607     0.1732    77.1187
  362.5000   -42.0896    15.5639    19.9656    19.5233     8.3053     0.0266     2.3660     0.1707    78.4858
  363.0000   -42.0681    15.4605    19.9806    19.5313     8.3068     0.0214     2.3712     0.1677    77.1095
