~VERSION INFORMATION
 VERS.                2.0:   CWLS LOG ASCII STANDARD - VERSION 2.0
 WRAP.                 NO:   ONE LINE PER DEPTH STEP
~WELL INFORMATION
#MNEM.UNIT      DATA TYPE    INFORMATION
#----------   ------------   ------------------------------
 STRT.F          714.0000:   START DEPTH
 STOP.F         1640.0000:   STOP DEPTH
 STEP.F            0.5000:   STEP LENGTH
 NULL.          -999.2500:   NO VALUE
 COMP. BROWN JOHN E&C INC:   COMPANY
 WELL. NPR 3 STX-15 #83-15:   WELL
 FLD .             TEAPOT:   FIELD
 LOC .      S15 T38N R78W:   LOCATION
 CNTY.            NATRONA:   COUNTY
 STAT.            WYOMING:   STATE
 CTRY. UNITED STATES OF AMERICA:   COUNTRY
 SRVC.            Unknown:   SERVICE COMPANY
 DATE.        30-AUG-1991:   LOGDATE
 API .       490251111300:   API NUMBER
~CURVE INFORMATION
#MNEM.UNIT       API CODE    CURVE DESCRIPTION
#----------   ------------   ------------------------------
 DEPT.F                  :   
 TGAS.UNITS  91 830 01 00:   TOTAL GAS FROM HOTWIRE
 C1  .VF     91 831 01 00:   METHANE
 C2  .VF     91 832 01 00:   ETHANE
 C3  .VF     91 833 01 00:   PROPANE
 C4  .VF     91 834 01 00:   BUTANE
 ROP .MIN/FT 91 810 01 00:   RAT OF DRILLING PENETRATION
~PARAMETER INFORMATION
#MNEM.UNIT          VALUE    DESCRIPTION
#----------   ------------   ------------------------------
 EKB .F              5265:   KELLING BUSHING
 EGL .F              5255:   GROUND LEVEL
 DATE.            5-30-91:   RUN DATE
 DD  .F              1626:   DEPTH DRILLER
 TCS .HRS            1200:   TIME CURCULATED STOPPED
 TLAB.HRS            1815:   TIME LOGGER AT BOTTOM
 ENGI.               HUSK:   RECORDING ENGINEER
 WITN.              TOWER:   WITNESSED BY
 CLNT.            A2DTECH:   CLIENT CODE
 ORIG.           5" PRINT:   ORIGIN OF DATA
 UWI .       490251111300:   UNIQUE WELL ID
 DICO. A2D Technologies, Inc.:   DIGITIZING COMPANY
~OTHER INFORMATION
~A   DEPT     TGAS         C1         C2         C3         C4          ROP 
# ...
 1442.0000    61.0233     7.0404     4.2380     3.0485     7.0424     0.6668
 1442.5000    69.8390     9.8889     4.9206     3.6403     7.7179     0.6843
 1443.0000    78.6391    13.2439     5.6569     4.2810     8.3341     0.7019
 1443.5000    85.5824    16.9875     6.3939     4.9237     8.8913     0.7194
 1444.0000    89.7108    20.3424     7.1303     5.5646     9.4047     0.7369
 1444.5000    93.8566    21.2246     7.4988     5.9584     9.7587     0.7545
 1445.0000    98.1948    22.0128     7.4987     6.2642     9.8166     0.7720
 1445.5000    98.2523    22.8147     7.4988     6.5708     9.8646     0.7895
 1446.0000    98.2951    23.3616     7.4988     6.8769     9.9168     0.8070
 1446.5000    98.3549    23.3552     7.4987     7.1939     9.9654     0.8246
 1447.0000    98.3983    23.3381     7.4988     7.2309    10.0164     0.8421
 1447.5000    98.4573    23.3304     7.4988     7.2690    10.0656     0.8596
 1448.0000    98.5038    23.3145     7.4990     7.3075    10.1167     0.8771
 1448.5000    98.5629    23.3057     7.4857     7.3456    10.1666     0.8947
 1449.0000    98.6109    23.2911     7.4738     7.3844    10.2174     0.9122
 1449.5000    98.6683    23.2813     7.4617     7.4225    10.2675     0.9298
 1450.0000    98.7181    23.2682     7.4498     7.4612    10.3178     0.9473
 1450.5000    98.7739    23.2579     7.4378     7.4994    10.3680     0.9648
 1451.0000    98.8251    23.2457     7.4259     7.5379    10.4183     0.9781
 1451.5000    98.8789    23.2350     7.4139     7.5763    10.4685     0.9706
 1452.0000    98.9300    23.2229     7.4020     7.6146    10.5186     0.9604
 1452.5000    98.9831    23.2111     7.3899     7.6530    10.5688     0.9502
 1453.0000    99.0346    23.1991     7.3778     7.6825    10.6189     0.9400
 1453.5000    99.0859    23.1873     7.3657     7.6403    10.6691     0.9298
 1454.0000    99.1375    23.1752     7.3536     7.6057    10.7141     0.9196
 1454.5000    99.1888    23.1631     7.3415     7.5714    10.7142     0.9094
 1455.0000    99.2403    23.1510     7.3294     7.5367    10.7141     0.8991
 1455.5000    99.2916    23.1389     7.3173     7.5024    10.7142     0.8910
 1456.0000    99.3432    23.1269     7.3052     7.4677    10.7141     0.8909
 1456.5000    99.4047    23.1148     7.2931     7.4334    10.7142     0.8949
 1457.0000    99.4394    23.1027     7.2810     7.3988    10.7142     0.9006
 1457.5000    99.4824    23.0906     7.2689     7.3644    10.7142     0.9064
 1458.0000    99.5256    23.0786     7.2568     7.3298    10.7142     0.9120
 1458.5000    99.5686    23.0665     7.2447     7.2955    10.7142     0.9178
 1459.0000    99.6119    23.0544     7.2326     7.2608    10.7142     0.9235
 1459.5000    99.6549    23.0423     7.2205     7.2265    10.7142     0.9284
 1460.0000    99.6981    23.0303     7.2084     7.1918    10.7142     0.9408
 1460.5000    99.7412    23.0182     7.1963     7.1576    10.7143     0.9301
 1461.0000    99.7843    23.0061     7.1842     7.1227    10.7142     0.9208
 1461.5000    99.8274    22.9940     7.1721     7.0886    10.7142     0.9115
 1462.0000    99.8706    22.9820     7.1600     7.0536    10.7142     0.9022
 1462.5000    99.9137    22.9699     7.1479     7.0196    10.7142     0.8929
 1463.0000    99.9568    22.9578     7.1358     6.9845    10.7141     0.8836
 1463.5000    99.9996    22.9456     7.1237     6.9517    10.7142     0.8743
 1464.0000   100.0429    22.9335     7.1116     7.0505    10.7140     0.8650
 1464.5000   100.0855    22.9213     7.0995     7.1477    10.7141     0.8557
 1465.0000   100.1290    22.9067     7.0874     7.2435    10.7139     0.8464
 1465.5000   100.1714    22.9246     7.0753     7.3407    10.7141     0.8371
 1466.0000   100.2151    22.9471     7.0631     7.4386    10.7138     0.8287
 1466.5000   100.2572    22.9696     7.0511     7.4038    10.7141     0.8312
 1467.0000   100.3013    22.9921     7.0389     7.3672    10.7137     0.8356
 1467.5000   100.3429    23.0146     7.0268     7.3317    10.7140     0.8400
 1468.0000   100.3875    23.0371     7.0094     7.2952    10.7137     0.8444
 1468.5000   100.4287    23.0596     6.9905     7.2595    10.5721     0.8487
 1469.0000   100.4737    23.0821     6.9713     7.2231    10.4205     0.8531
 1469.5000   100.5146    23.1045     6.9525     7.1874    10.2698     0.8575
 1470.0000   100.5596    23.1271     6.9332     7.1511    10.1183     0.8619
 1470.5000   100.5919    22.9757     6.9145     7.1153     9.9677     0.8660
 1471.0000    99.8541    22.6469     6.8951     7.0791     9.8160     0.8537
 1471.5000    99.2333    22.3180     6.8765     7.0431     9.6655     0.8419
 1472.0000    98.6164    21.9892     6.8570     7.0070     9.5136     0.8301
 1472.5000    97.9959    21.6422     6.8386     6.9711     9.3633     0.8183
 1473.0000    97.3787    21.2420     6.8189     6.9140     9.2113     0.8065
 1473.5000    96.7587    20.8416     6.8005     6.8308     9.0612     0.7947
 1474.0000    96.1410    20.4414     6.7851     6.7476     8.9091     0.7829
 1474.5000    95.5214    20.0410     6.5697     6.6643     8.7592     0.7711
 1475.0000    94.9032    19.6918     6.3924     6.5810     8.6069     0.7593
 1475.5000    94.2842    19.3755     6.2162     6.4978     8.4571     0.7474
 1476.0000    93.6655    19.0594     6.0710     6.4145     8.3322     0.7452
 1476.5000    93.0469    18.7431     5.9662     6.3313     7.8379     0.7527
 1477.0000    92.4279    18.4270     5.8766     6.2480     7.4172     0.7603
 1477.5000    91.4509    18.1106     5.7878     6.1648     6.9992     0.7678
 1478.0000    90.3396    17.7946     5.6983     6.0815     6.5785     0.7754
 1478.5000    89.2291    17.4781     5.6095     5.9983     6.1604     0.7829
 1479.0000    88.1176    17.1621     5.5201     5.9113     5.7398     0.7905
 1479.5000    87.0070    16.8456     5.4312     5.8229     5.3216     0.7980
 1480.0000    85.8956    16.5296     5.3419     5.7345     4.9012     0.8055
 1480.5000    84.7851    16.2130     5.2529     5.6460     4.5247     0.8131
 1481.0000    83.6734    15.8970     5.1636     5.5576     4.3494     0.8206
 1481.5000    82.5629    15.5804     5.0611     5.4692     4.1911     0.8286
 1482.0000    81.4510    15.2329     4.9449     5.3808     4.0319     0.8282
 1482.5000    80.3408    14.9769     4.8288     5.2924     3.8733     0.8273
 1483.0000    79.2286    14.6933     4.7126     5.2040     3.7146     0.8263
 1483.5000    78.1189    14.4091     4.5964     5.1156     3.5558     0.8254
 1484.0000    77.0060    14.1255     4.4803     5.0272     3.3975     0.8244
 1484.5000    75.8970    13.8413     4.3641     4.9387     3.2380     0.8235
 1485.0000    74.7834    13.5576     4.2480     4.8503     3.0803     0.8225
 1485.5000    73.6752    13.2735     4.1497     4.7619     2.9202     0.8216
 1486.0000    72.5610    12.9897     4.0930     4.6735     2.7630     0.8206
 1486.5000    71.4534    12.7057     4.0362     4.5851     2.6024     0.8197
 1487.0000    70.3386    12.4218     3.9796     4.4967     2.4458     0.8187
 1487.5000    69.2316    12.1379     3.9228     4.4082     2.2847     0.8178
 1488.0000    68.4495    11.8539     3.8662     4.3199     2.1443     0.8168
 1488.5000    66.6431    11.5700     3.8094     4.2314     2.1416     0.8210
 1489.0000    64.9924    11.2860     3.7528     4.1431     1.6403     0.8342
 1489.5000    63.3502    11.0021     3.6903     4.0545     1.0775     0.8473
 1490.0000    61.6998    10.7181     3.5495     3.9661     0.5202     0.8604
 1490.5000    60.0573    10.4341     3.3928     3.8775  -999.2500     0.8735
 1491.0000    58.4073    10.2303     3.2362     3.7803  -999.2500     0.8867
 1491.5000    56.7642    10.0605     3.0796     3.7225  -999.2500     0.8998
 1492.0000    55.1148     9.8911     2.9230     3.6583  -999.2500     0.9129
 1492.5000    53.4712     9.7212     2.7664     3.5941  -999.2500     0.9283
 1493.0000    52.3965     9.5520     2.6098     3.5299  -999.2500     0.9346
 1493.5000    51.5715     9.3820     2.4769     3.4727  -999.2500     0.9422
