~VERSION INFORMATION
 VERS.                2.0:   CWLS LOG ASCII STANDARD - VERSION 2.0
 WRAP.                 NO:   ONE LINE PER DEPTH STEP
~WELL INFORMATION
#MNEM.UNIT      DATA TYPE    INFORMATION
#----------   ------------   ------------------------------
 STRT.F            8.0000:   START DEPTH
 STOP.F          500.0000:   STOP DEPTH
 STEP.F            0.5000:   STEP LENGTH
 NULL.          -999.2500:   NO VALUE
 COMP. FENIX & SCISSON INC:   COMPANY
 WELL. 65 12 SX 3FI #65-3:   WELL
 FLD .             TEAPOT:   FIELD
 LOC .       S3 T38N R78W:   LOCATION
 CNTY.            NATRONA:   COUNTY
 STAT.            WYOMING:   STATE
 CTRY. UNITED STATES OF AMERICA:   COUNTRY
 SRVC.              Welex:   SERVICE COMPANY
 DATE.        01-JUN-1980:   LOGDATE
 API .       490251082400:   API NUMBER
~CURVE INFORMATION
#MNEM.UNIT       API CODE    CURVE DESCRIPTION
#----------   ------------   ------------------------------
 DEPT.F                  :   
 GRD .GAPI   45 310 01 00:   GAMMA RAY FROM DENSITY LOG
 CALD.IN     45 280 60 00:   CALIPER
 RHOB.G/C3   45 350 01 00:   BULK DENSITY
 CORR.G/C3   45 356 01 00:   DENSITY CORRECTION
 DPHI.DEC    45 890 12 00:   DENSITY POROSITY SANDSTONE
 NPHI.DEC    42 890 03 00:   NEUTRON POROSITY SANDSTONE
 SPR .MV     07 010 01 00:   SPONTANEOUS POTENTIAL
 SGRD.OHMM   07 220 05 00:   SHALLOW GUARD RESISTIVITY
 ILD .OHMM   07 120 46 00:   INDUCTION LOG DEEP
 ILM .OHMM   07 120 44 00:   INDUCTION LOG MEDIUM
~PARAMETER INFORMATION
#MNEM.UNIT          VALUE    DESCRIPTION
#----------   ------------   ------------------------------
 PD  .                 GL:   PERMANENT DATUM
 EPD .F              5155:   ELEVATION PERMANENT DATUM
 LMF .                 KB:   LOG MEASURED FROM
 DAPD.F                 4:   FEET ABOVE PERMANENT DATUM
 DMF .                 KB:   DRILLING MEASURED FROM
 EKB .F              5159:   KELLING BUSHING
 EGL .F              5155:   GROUND LEVEL
 DATE.             6-1-80:   RUN DATE
 RUN .                  1:   RUN NUMBER
 DD  .F               505:   DEPTH DRILLER
 DL  .F               502:   DEPTH LOGGER
 BLI .F               500:   BOTTOM LOG INTERVAL
 TLI .F                20:   TOP LOG INTERVAL
 BS  .IN            9.875:   BIT SIZE
 BSD .F               505:   BIT SIZE AT DEPTH
 DFT .      OIL BASED MUD:   DRILLING FLUID TYPE
 MSS .            MUD PIT:   MUD SAMPLE SOURCE
 RMS .OHMM             .9:   RESISTIVITY MUD SAMPLE
 MST .F                65:   MUD SAMPLE TEMPERATURE
 RMF .OHMM            .72:   RESISTIVITY MUD FILTRATE SAMPLE
 MFST.F                65:   MUD FILTRATE SAMPLE TEMPERATURE
 RMC .OHMM           1.08:   RESISTIVITY MUD CAKE
 MCST.F                65:   MUD CAKE SAMPLE TEMPERATURE
 MFSS.           MEASURED:   MUD FILTRATE SAMPLE SOURCE
 MCSS.           MEASURED:   MUD CAKE SAMPLE SOURCE
 RMB .OHMM            .71:   RESISTIVITY MUD AT BHT
 BHT .F                76:   BOTTOM HOLE TEMPERATURE
 TCS .HRS               2:   TIME CURCULATED STOPPED
 MRT .F                76:   MAXIMUM RECORDED TEMPERATURE
 LUN .               9685:   LOGGING UNIT NUMBER
 LUL .             CASPER:   LOGGING UNIT LOCATION
 ENGI.               REIN:   RECORDING ENGINEER
 WITN.            RHOADES:   WITNESSED BY
 CLNT.            A2DTECH:   CLIENT CODE
 ORIG.        2" 5" PRINT:   ORIGIN OF DATA
 UWI .       490251082400:   UNIQUE WELL ID
 DICO. A2D Technologies, Inc.:   DIGITIZING COMPANY
~OTHER INFORMATION
~A    DEPT     GRD       CALD       RHOB       CORR       DPHI       NPHI        SPR        SGRD         ILD        ILM 
# ...
  410.0000    79.0104    10.1582     2.4189     0.0110     0.1502     0.2645    -3.4382    16.7493    13.6785    14.4451
  410.5000    79.4448    10.1546     2.4224     0.0101     0.1382     0.2588    -3.5034    16.5926    13.4439    14.2316
  411.0000    80.1259    10.1510     2.4426     0.0251     0.1308     0.2586    -3.5572    16.4374    13.2133    14.0215
  411.5000    80.8344    10.1474     2.4577     0.0360     0.1242     0.2667    -3.6122    16.2836    12.9866    13.8144
  412.0000    80.4802    10.1438     2.4672     0.0418     0.1235     0.2682    -3.6675    16.1313    12.7638    13.6103
  412.5000    79.6762    10.1402     2.4689     0.0413     0.1280     0.2665    -3.7229    15.9804    12.5448    13.4186
  413.0000    78.8557    10.1363     2.4622     0.0309     0.1337     0.2645    -3.7781    15.8308    12.3296    13.3146
  413.5000    78.0474    10.1424     2.4557     0.0193     0.1329     0.2604    -3.8332    15.6827    12.1181    13.2159
  414.0000    77.6597    10.1519     2.4512     0.0095     0.1392     0.2559    -3.9244    15.5360    11.9102    13.1179
  414.5000    78.8532    10.1614     2.4513     0.0117     0.1341     0.2534    -4.0256    15.3907    11.7059    13.0206
  415.0000    80.0352    10.1709     2.4471     0.0118     0.1412     0.2514    -4.1269    15.2581    11.5051    12.9239
  415.5000    81.2197    10.1804     2.4400     0.0016     0.1437     0.2534    -4.2283    15.2581    11.4814    12.8286
  416.0000    82.4227    10.1899     2.4357    -0.0051     0.1437     0.2558    -4.3296    15.2580    11.4814    12.7716
  416.5000    82.2856    10.1994     2.4440     0.0036     0.1361     0.2605    -4.4309    15.2581    11.4814    12.7208
  417.0000    81.8759    10.2088     2.4502     0.0111     0.1392     0.2637    -4.5321    15.2581    11.4814    12.6699
  417.5000    82.3188    10.2078     2.4499     0.0060     0.1290     0.2653    -4.6334    15.2581    11.4814    12.6192
  418.0000    82.8941    10.1934     2.4640     0.0220     0.1214     0.2682    -4.7347    15.2581    11.4814    12.5686
  418.5000    82.9125    10.1792     2.4726     0.0366     0.1264     0.2701    -4.8360    15.2581    11.4814    12.5183
  419.0000    82.3138    10.1651     2.4650     0.0235     0.1303     0.2669    -4.9373    15.2581    11.4814    12.4682
  419.5000    81.7110    10.1564     2.4581     0.0113     0.1332     0.2590    -5.0386    15.2581    11.4814    12.4182
  420.0000    82.3820    10.1612     2.4577     0.0092     0.1252     0.2562    -5.1399    15.2581    11.4814    12.3685
  420.5000    84.1191    10.1657     2.4716     0.0205     0.1219     0.2536    -5.2412    15.2581    11.4814    12.3173
  421.0000    84.4481    10.1703     2.4690     0.0204     0.1289     0.2517    -5.3425    15.2581    11.4813    12.2657
  421.5000    84.7040    10.1747     2.4613     0.0126     0.1260     0.2494    -5.4438    15.2585    11.4825    12.2144
  422.0000    84.9880    10.1740     2.4697     0.0105     0.1232     0.2501    -5.5451    15.2581    11.4453    12.1633
  422.5000    85.7961    10.1731     2.4745     0.0120     0.1392     0.2547    -5.6464    15.2251    11.3808    12.1124
  423.0000    86.6250    10.1722     2.4566     0.0130     0.1349     0.2594    -5.7477    15.0312    11.3168    12.0617
  423.5000    87.4521    10.1713     2.4462     0.0037     0.1403     0.2617    -5.8490    14.8399    11.2531    12.0091
  424.0000    88.2808    10.1704     2.4408    -0.0059     0.1432     0.2571    -5.9503    14.6507    11.1898    11.9477
  424.5000    89.1097    10.1695     2.4398    -0.0156     0.1356     0.2550    -6.0516    14.4642    11.1269    11.8866
  425.0000    89.6422    10.1686     2.4506    -0.0080     0.1273     0.2574    -6.1526    14.2799    11.0643    11.8018
  425.5000    88.5877    10.1677     2.4612     0.0016     0.1227     0.2604    -6.2371    14.0981    11.0021    11.8840
  426.0000    87.5766    10.1668     2.4711     0.0110     0.1215     0.2633    -6.2954    13.9206    10.9402    12.0219
  426.5000    88.0725    10.1659     2.4689     0.0152     0.1287     0.2611    -6.3540    13.9905    10.8787    12.1614
  427.0000    89.1368    10.1650     2.4634     0.0080     0.1337     0.2586    -6.4126    14.0768    10.8175    12.3026
  427.5000    90.1347    10.1641     2.4578     0.0011     0.1277     0.2562    -6.4712    14.1637    10.7567    12.4455
  428.0000    88.9506    10.1632     2.4600    -0.0037     0.1225     0.2526    -6.5298    14.2511    10.6962    12.5897
  428.5000    89.9567    10.1623     2.4722     0.0014     0.1277     0.2493    -6.5883    14.3390    10.6360    12.7004
  429.0000    90.9002    10.1614     2.4678    -0.0026     0.1163     0.2493    -6.6469    14.4410    10.5762    12.5903
  429.5000    88.9128    10.1605     2.4802    -0.0005     0.1074     0.2514    -6.7055    14.4045    10.5167    12.5023
  430.0000    86.9711    10.1596     2.4931     0.0088     0.1032     0.2562    -6.7641    14.3617    10.4575    12.4147
  430.5000    87.4753    10.1587     2.5049     0.0180     0.1070     0.2541    -6.8227    14.3190    10.3987    12.3278
  431.0000    86.8463    10.1578     2.5042     0.0272     0.1135     0.2521    -6.8813    14.2764    10.3743    12.2416
  431.5000    85.6296    10.1569     2.4815     0.0331     0.1191     0.2510    -6.9398    14.2344    10.3671    12.1559
  432.0000    84.3720    10.1560     2.4760     0.0129     0.1118     0.2534    -7.0009    14.1907    10.3597    12.0709
  432.5000    84.5443    10.1547     2.4910     0.0187     0.1039     0.2590    -7.0989    14.0725    10.3523    11.9864
  433.0000    85.9373    10.1510     2.5017     0.0254     0.0999     0.2544    -7.2019    13.9162    10.3450    11.9105
  433.5000    86.3595    10.1473     2.5088     0.0320     0.1008     0.2496    -7.3050    13.7629    10.3377    11.7775
  434.0000    86.0833    10.1436     2.5129     0.0356     0.1105     0.2496    -7.4080    13.6113    10.3303    11.6573
  434.5000    86.6240    10.1399     2.4900     0.0242     0.1119     0.2540    -7.5111    13.4614    10.3230    11.5384
  435.0000    88.3466    10.1362     2.4901     0.0144     0.1154     0.2622    -7.6141    13.3620    10.3157    11.4207
  435.5000    90.0596    10.1325     2.4870     0.0103     0.1222     0.2705    -7.7171    13.2827    10.3083    11.3042
  436.0000    91.7618    10.1288     2.4773     0.0061     0.1222     0.2713    -7.8202    13.2039    10.3008    11.2157
  436.5000    92.8664    10.1251     2.4735     0.0020     0.1132     0.2717    -7.9231    13.1255    10.2936    11.1378
  437.0000    91.9888    10.1214     2.4822     0.0006     0.1040     0.2669    -8.0262    13.0476    10.2875    11.0605
  437.5000    91.1531    10.1177     2.4967     0.0267     0.1086     0.2625    -8.1308    12.9701    10.1237    10.9837
  438.0000    90.3251    10.1178     2.5022     0.0377     0.1227     0.2614    -8.2891    12.8514     9.9118    10.9075
  438.5000    91.2282    10.1214     2.4727     0.0260     0.1366     0.2673    -8.5185    12.6164     9.7044    10.8318
  439.0000    92.2860    10.1251     2.4529     0.0144     0.1448     0.2728    -8.7466    12.3856     9.5013    10.7566
  439.5000    93.3397    10.1287     2.4352    -0.0209     0.1384     0.2752    -8.9753    12.1591     9.3025    10.6820
  440.0000    94.3904    10.1324     2.4385    -0.0266     0.1420     0.2788    -9.2039    11.9368     9.1078    10.6078
  440.5000    95.4412    10.1360     2.4419    -0.0210     0.1381     0.2840    -9.4325    11.7185     8.9172    10.5342
  441.0000    96.4918    10.1397     2.4453    -0.0160     0.1379     0.2852    -9.6611    11.5062     8.7306    10.4124
  441.5000    97.5430    10.1433     2.4480    -0.0084     0.1322     0.2836    -9.8897    11.1945     8.5479    10.0908
  442.0000    98.4069    10.1470     2.4507    -0.0020     0.1369     0.2862   -10.1183    10.8153     8.3282     9.7795
  442.5000    99.0070    10.1506     2.4479     0.0066     0.1443     0.2887   -10.3472    10.4474     7.7926     9.4777
  443.0000   100.0801    10.1543     2.4382     0.0034     0.1468     0.2883   -10.5759    10.0920     7.2934     9.1830
