~VERSION INFORMATION
 VERS.                2.0:   CWLS LOG ASCII STANDARD - VERSION 2.0
 WRAP.                 NO:   ONE LINE PER DEPTH STEP
~WELL INFORMATION
#MNEM.UNIT      DATA TYPE    INFORMATION
#----------   ------------   ------------------------------
 STRT.F           30.0000:   START DEPTH
 STOP.F         2423.0000:   STOP DEPTH
 STEP.F            0.5000:   STEP LENGTH
 NULL.          -999.2500:   NO VALUE
 COMP. DEPARTMENT OF ENERGY:   COMPANY
 WELL.   NPR-3 #35-1 X 10:   WELL
 FLD .        TEAPOT DOME:   FIELD
 LOC .      S10 T38N R78W:   LOCATION
 CNTY.            NATRONA:   COUNTY
 STAT.            WYOMING:   STATE
 CTRY. UNITED STATES OF AMERICA:   COUNTRY
 SRVC.       Schlumberger:   SERVICE COMPANY
 DATE.        15-JAN-1999:   LOGDATE
 API .       490252282200:   API NUMBER
~CURVE INFORMATION
#MNEM.UNIT       API CODE    CURVE DESCRIPTION
#----------   ------------   ------------------------------
 DEPT.F                  :   
 GRR .GAPI   06 310 01 00:   GAMMA RAY FROM RESISTIVITY
 SPR .MV     06 010 01 00:   SPONTANEOUS POTENTIAL FROM RES.
 HD  .IN     06 280 01 00:   HOLE DIAMETER
 AT90.OHMM   06 120 90 00:   90-IN. RESISTIVITY, 2-FT RESOLUTION
 AT30.OHMM   06 120 30 00:   30-IN. RESISTIVITY, 2-FT RESOLUTION
 AT10.OHMM   06 120 10 00:   10-IN. RESISTIVITY, 2-FT RESOLUTION
~PARAMETER INFORMATION
#MNEM.UNIT          VALUE    DESCRIPTION
#----------   ------------   ------------------------------
 PD  .                 GL:   PERMANENT DATUM
 EPD .F              5228:   ELEVATION PERMANENT DATUM
 LMF .                 KB:   LOG MEASURED FROM
 DAPD.F                10:   FEET ABOVE PERMANENT DATUM
 DMF .                 KB:   DRILLING MEASURED FROM
 EKB .F              5238:   KELLING BUSHING
 EDF .F              5237:   DRILLING FLOOR
 EGL .F              5228:   GROUND LEVEL
 DATE.        15-JAN-1999:   RUN DATE
 RUN .                  1:   RUN NUMBER
 DD  .F              2400:   DEPTH DRILLER
 DL  .F              2421:   DEPTH LOGGER
 BLI .F              2393:   BOTTOM LOG INTERVAL
 TLI .F                30:   TOP LOG INTERVAL
 CS  .IN            9.625:   CASING SIZE
 CBD .F               778:   CASING BOTTOM DRILLER
 CBL .F               773:   CASING BOTTOM LOGGER
 BS  .IN              8.5:   BIT SIZE
 BSD .F              2400:   BIT SIZE AT DEPTH
 DFT .            GEL/KCL:   DRILLING FLUID TYPE
 DFD .                8.9:   DRILLING FLUID DENSITY
 DFV .                 39:   DRILLING FLUID VISCOSITY
 DFPH.                  9:   DRILLING FLUID PH
 DFL .                8.8:   DRILLING FLUID LOSS
 MSS .            MUD PIT:   MUD SAMPLE SOURCE
 RMS .OHMM            .29:   RESISTIVITY MUD SAMPLE
 MST .F                65:   MUD SAMPLE TEMPERATURE
 RMF .OHMM            .22:   RESISTIVITY MUD FILTRATE SAMPLE
 MFST.F                65:   MUD FILTRATE SAMPLE TEMPERATURE
 RMC .OHMM            .43:   RESISTIVITY MUD CAKE
 MCST.F                65:   MUD CAKE SAMPLE TEMPERATURE
 MFSS.          MUD PRESS:   MUD FILTRATE SAMPLE SOURCE
 MCSS.         CALCULATED:   MUD CAKE SAMPLE SOURCE
 RMB .OHMM           .195:   RESISTIVITY MUD AT BHT
 BHT .F               100:   BOTTOM HOLE TEMPERATURE
 TCS .HRS            2015:   TIME CURCULATED STOPPED
 TLAB.HRS            2315:   TIME LOGGER AT BOTTOM
 MRT .F               100:   MAXIMUM RECORDED TEMPERATURE
 LUN .               2102:   LOGGING UNIT NUMBER
 LUL .             CASPER:   LOGGING UNIT LOCATION
 ENGI.    TISOVEC/PIERSON:   RECORDING ENGINEER
 WITN.           ESMERSON:   WITNESSED BY
 CLNT.            A2DTECH:   CLIENT CODE
 ORIG.       2", 5" PRINT:   ORIGIN OF DATA
 UWI .       490252282200:   UNIQUE WELL ID
 DICO. A2D Technologies, Inc.:   DIGITIZING COMPANY
~OTHER INFORMATION
~A   DEPT       GRR       SPR         HD       AT90       AT30       AT10   
# ...
 1070.0000   119.8008     5.5994     8.8587     8.0893     7.9452     7.2410
 1070.5000   114.9855     5.2471     8.8586     8.2060     8.0350     7.3025
 1071.0000   107.6700     5.1193     8.8586     8.3244     8.1258     7.3646
 1071.5000   104.6618     5.1701     8.8586     8.4446     8.2177     7.4151
 1072.0000   108.0455     5.1212     8.8586     8.7087     8.3106     7.6621
 1072.5000   113.6382     5.4077     8.8586     9.1895     8.3633     7.9106
 1073.0000   114.5273     5.8779     8.8586     9.6968     8.9757     8.3611
 1073.5000   112.0294     6.2436     8.8586    10.2322     9.5009     8.9211
 1074.0000   107.1587     6.7189     8.8586    10.7971    10.0569     9.4351
 1074.5000   102.9245     6.9681     8.8595    10.9837    10.5459     9.9750
 1075.0000    99.7605     6.6284     8.8606    11.0363    10.6822     9.9998
 1075.5000    98.9074     6.3526     8.8617    11.0891    10.8435    10.0316
 1076.0000   101.5583     5.9805     8.8628    11.1495    10.8366    10.0680
 1076.5000   107.5848     6.0107     8.8639    11.1297    10.8094     9.9376
 1077.0000   113.0595     6.3412     8.8650    11.1002    10.7823     9.7888
 1077.5000   114.6747     6.9282     8.8661    11.0707    10.7552     9.6423
 1078.0000   112.2543     7.4679     8.8672    11.0465    10.7434     9.5230
 1078.5000   103.5357     7.5954     8.8683    11.2705    10.9334     9.9479
 1079.0000    99.1190     7.7821     8.8694    11.6787    11.0979    10.1618
 1079.5000   100.1115     8.0325     8.8704    11.6623    11.2549    10.1772
 1080.0000   103.3123     8.0023     8.8716    11.6654    11.2532    10.1948
 1080.5000   104.6872     7.4202     8.8727    11.6481    11.2549    10.1939
 1081.0000   103.8218     6.8527     8.8738    11.6308    11.2542    10.2168
 1081.5000   102.2723     6.4608     8.8748    11.6139    11.2556    10.2319
 1082.0000   102.0056     6.2822     8.8761    11.5967    11.2562    10.2470
 1082.5000   101.3978     6.1667     8.8767    11.5784    11.2531    10.2415
 1083.0000   100.1084     6.2713     8.8789    11.5862    11.1146     9.9917
 1083.5000    98.9269     6.3352     8.8727    11.1613    10.7434     9.5942
 1084.0000    97.7927     6.4216     8.8549    11.2098    10.8636     9.3347
 1084.5000    98.3590     6.4969     8.8393    11.4372    11.1495    10.3688
 1085.0000   101.2366     6.5780     8.8417    11.6713    10.9518    10.3379
 1085.5000   106.9925     6.6561     8.8484    11.2377    10.6206     9.5196
 1086.0000   112.4418     6.7351     8.8549    10.8440    10.2565     8.9220
 1086.5000   114.3219     6.8136     8.8590    11.0735    10.5323     9.5814
 1087.0000   111.9993     6.8930     8.8584    11.3428    10.8607    10.1663
 1087.5000   105.7403     6.9642     8.8587    11.4695    11.1510    10.1412
 1088.0000   101.9966     6.9443     8.8585    11.4608    11.1329    10.1183
 1088.5000   102.8255     6.9065     8.8586    11.4626    11.1109    10.0963
 1089.0000   104.6817     6.8724     8.8586    11.4640    11.0902    10.0764
 1089.5000   105.4852     6.8335     8.8585    11.4638    11.0697    10.0571
 1090.0000   107.5828     6.8061     8.8586    11.4659    11.0471    10.0370
 1090.5000   110.0830     6.7270     8.8587    11.3012    10.9521    10.0154
 1091.0000   110.6524     6.3283     8.8635    11.1232    10.8479     9.9942
 1091.5000   108.4783     5.9530     8.8701    10.9445    10.7444     9.9750
 1092.0000   104.5404     5.5662     8.8766    10.9445    10.6422     9.8190
 1092.5000    99.9337     5.1968     8.8790    10.9445    10.5459     9.7013
 1093.0000    98.5242     5.0616     8.8787    10.9445    10.5459     9.6630
 1093.5000    98.5805     4.9150     8.8789    10.9445    10.5459     9.6323
 1094.0000   102.8267     4.7900     8.8788    10.9445    10.5459     9.5645
 1094.5000   109.4303     4.6283     8.8788    10.8656    10.5459     9.4228
 1095.0000   112.0894     4.6562     8.8788    10.7966    10.4757     9.2832
 1095.5000   112.5086     5.6512     8.8788    10.7281    10.4158     9.1762
 1096.0000   109.4958     6.0662     8.8788    10.6600    10.3563     9.2154
 1096.5000   107.1981     6.1936     8.8788    10.5923    10.2971     9.3039
 1097.0000   107.4089     6.3436     8.8788    10.5459    10.2565     9.4351
 1097.5000   109.4479     6.4845     8.8788    10.6590    10.2565     9.3842
 1098.0000   113.0085     6.6312     8.8788    10.7434    10.2565     9.2359
 1098.5000   114.9703     6.7563     8.8788    10.6374    10.2565     9.0900
 1099.0000   113.3198     6.6769     8.8788    10.5481    10.2565     9.0075
 1099.5000   108.7914     6.5513     8.8787    10.4595    10.1576     9.0441
 1100.0000   105.1097     6.4341     8.8792    10.3716    10.0416     9.0900
 1100.5000   104.6516     6.3132     8.8835    10.2845     9.9270     9.0589
 1101.0000   105.4472     6.1952     8.8880    10.1981     9.8137     9.0117
 1101.5000   106.3962     6.0737     8.8922    10.1618     9.7013     8.9640
 1102.0000   108.2229     5.9560     8.8969    10.1618     9.7725     8.9260
 1102.5000   108.9377     5.7340     8.8987    10.1618     9.8620     9.0796
 1103.0000   107.0797     5.4483     8.8972    10.2627     9.9523     9.2078
 1103.5000   102.8213     5.1877     8.8962    10.4149    10.0680     9.3480
 1104.0000   102.5341     4.8885     8.8949    10.5459     9.9600     9.1430
 1104.5000   104.4579     4.7295     8.8938    10.2594     9.8144     8.9268
 1105.0000   105.2964     4.7538     8.8926    10.0680     9.7013     8.6795
 1105.5000   105.0164     4.7351     8.8914    10.1045     9.7292     8.7342
 1106.0000   105.7328     4.8115     8.8902    10.1403     9.7566     8.8605
 1106.5000   105.6455     5.0155     8.8890    10.1763     9.7841     8.9341
 1107.0000   102.9731     5.2140     8.8879    10.2125     9.8117     8.9535
 1107.5000   100.5268     5.4246     8.8867    10.2565     9.8394     8.9730
 1108.0000    99.2617     5.6159     8.8855    10.2316     9.8830     8.9926
 1108.5000    97.3213     5.8469     8.8843    10.1897     9.8633     9.0075
 1109.0000    94.9375     5.9448     8.8832    10.1480     9.8177     8.9743
 1109.5000    94.2881     5.8418     8.8820    10.1064     9.7723     8.9475
 1110.0000    95.9262     5.7665     8.8808    10.0651     9.7272     8.9243
 1110.5000    99.9132     5.6761     8.8795    10.0239     9.6822     8.8439
 1111.0000   104.3424     5.5940     8.8787     9.9750     9.6117     8.7603
 1111.5000   105.9021     5.5079     8.8788    10.1531     9.6605     8.7773
 1112.0000   107.3079     5.4230     8.8788    10.5459     9.7767     8.7984
 1112.5000   110.0780     5.3489     8.8788    10.3496     9.8830     8.8194
 1113.0000   112.4485     5.2814     8.8788    10.0667     9.6464     8.8420
 1113.5000   109.4683     5.2200     8.8788     9.7916     9.4356     8.6795
 1114.0000   104.2392     5.1410     8.8788     9.5230     9.2295     8.4468
 1114.5000   101.1354     4.8569     8.8788     9.3480     9.0279     8.2123
 1115.0000   102.6608     4.5250     8.8788     9.4045     8.8420     7.9106
 1115.5000   105.9633     4.1762     8.8788     9.6323     8.9434     8.1522
 1116.0000   107.8301     4.0200     8.8788     9.8656     9.1600     8.5264
 1116.5000   107.8298     3.8882     8.8788     9.9750     9.3819     8.9176
 1117.0000   105.7490     3.7429     8.8788     9.9482     9.5230     9.0914
 1117.5000   103.9309     3.7857     8.8788     9.9202     9.5230     8.7760
 1118.0000   101.9300     3.8820     8.8788     9.8924     9.2201     8.3945
 1118.5000   103.1387     3.9606     8.8788     9.4880     8.7603     8.0616
 1119.0000   107.1066     4.0453     8.8788     9.0914     8.8346     8.3326
 1119.5000   109.1604     4.1290     8.8788     9.2394     8.9851     8.5990
 1120.0000   109.1802     4.2091     8.8788     9.6923     9.1382     8.5495
 1120.5000   107.4705     4.2998     8.8788     9.9750     9.2617     8.5149
 1121.0000   108.2128     4.3485     8.8788     9.6218     9.0853     8.3389
 1121.5000   109.3754     4.3425     8.8788     9.3382     8.9415     8.1698
