~VERSION INFORMATION
 VERS.                2.0:   CWLS LOG ASCII STANDARD - VERSION 2.0
 WRAP.                 NO:   ONE LINE PER DEPTH STEP
~WELL INFORMATION
#MNEM.UNIT      DATA TYPE    INFORMATION
#----------   ------------   ------------------------------
 STRT.F           31.0000:   START DEPTH
 STOP.F          662.0000:   STOP DEPTH
 STEP.F            0.5000:   STEP LENGTH
 NULL.          -999.2500:   NO VALUE
 COMP. FENIX & SCISSON INC:   COMPANY
 WELL.   NPR-3 #83SX15-15:   WELL
 FLD .             TEAPOT:   FIELD
 LOC .      S15 T38N R78W:   LOCATION
 CNTY.            NATRONA:   COUNTY
 STAT.            WYOMING:   STATE
 CTRY. UNITED STATES OF AMERICA:   COUNTRY
 SRVC.            Unknown:   SERVICE COMPANY
 DATE.        17-MAY-1978:   LOGDATE
 API .       490251062500:   API NUMBER
~CURVE INFORMATION
#MNEM.UNIT       API CODE    CURVE DESCRIPTION
#----------   ------------   ------------------------------
 DEPT.F                  :   
 SN  .OHMM   07 040 16 00:   SHORT NORMAL 16'
 ILD .OHMM   07 120 46 00:   INDUCTION LOG DEEP
 CALD.IN     45 280 60 00:   CALIPER
 GRD .GAPI   45 310 01 00:   GAMMA RAY FROM DENSITY LOG
 RHOB.G/C3   45 350 01 00:   BULK DENSITY
 DPHI.DEC    45 890 10 00:   DENSITY POROSITY SANDSTONE
 CORR.G/C3   45 356 01 00:   DENSITY CORRECTION
~PARAMETER INFORMATION
#MNEM.UNIT          VALUE    DESCRIPTION
#----------   ------------   ------------------------------
 PD  .                 GL:   PERMANENT DATUM
 EPD .F              5265:   ELEVATION PERMANENT DATUM
 LMF .                 KB:   LOG MEASURED FROM
 DMF .                 KB:   DRILLING MEASURED FROM
 EKB .F              5269:   KELLING BUSHING
 EGL .F              5265:   GROUND LEVEL
 DATE.          5-17-1978:   RUN DATE
 RUN .                  1:   RUN NUMBER
 DD  .F               670:   DEPTH DRILLER
 DL  .F               668:   DEPTH LOGGER
 BLI .F               662:   BOTTOM LOG INTERVAL
 TLI .F                40:   TOP LOG INTERVAL
 CS  .IN            8.625:   CASING SIZE
 CBD .F                40:   CASING BOTTOM DRILLER
 BS  .IN            7.875:   BIT SIZE
 BSD .F               670:   BIT SIZE AT DEPTH
 DFT .                KCL:   DRILLING FLUID TYPE
 DFD .                8.6:   DRILLING FLUID DENSITY
 DFV .                 31:   DRILLING FLUID VISCOSITY
 DFPH.                 10:   DRILLING FLUID PH
 BHT .F                75:   BOTTOM HOLE TEMPERATURE
 TCS .HRS               2:   TIME CURCULATED STOPPED
 MRT .F                75:   MAXIMUM RECORDED TEMPERATURE
 LUN .               3006:   LOGGING UNIT NUMBER
 LUL .                CPR:   LOGGING UNIT LOCATION
 ENGI.             MILLER:   RECORDING ENGINEER
 WITN.           MCGINLEY:   WITNESSED BY
 CLNT.            A2DTECH:   CLIENT CODE
 ORIG.      2" & 5" PRINT:   ORIGIN OF DATA
 UWI .       490251062500:   UNIQUE WELL ID
 DICO. A2D Technologies, Inc.:   DIGITIZING COMPANY
~OTHER INFORMATION
~A   DEPT       SN        ILD       CALD         GRD      RHOB       DPHI       CORR   
# ...
   76.5000     4.9931     5.1884     7.4298    75.3101     2.4563     0.1314     0.0489
   77.0000     4.9868     5.1877     7.3915    73.8044     2.4534     0.1401     0.0518
   77.5000     4.9805     5.2147     7.3637    73.3035     2.4514     0.1434     0.0555
   78.0000     4.9742     5.2556     7.3351    73.1417     2.4549     0.1362     0.0559
   78.5000     4.9679     5.2968     7.3061    73.8526     2.4570     0.1326     0.0542
   79.0000     4.9615     5.3382     7.2772    75.2361     2.4555     0.1387     0.0524
   79.5000     4.9551     5.3831     7.2485    76.6495     2.4466     0.1437     0.0514
   80.0000     4.9548     5.3389     7.2197    75.6932     2.4381     0.1474     0.0535
   80.5000     4.9548     5.2909     7.1754    73.5991     2.4389     0.1429     0.0545
   81.0000     4.9548     5.2435     7.1318    72.5090     2.4401     0.1462     0.0519
   81.5000     4.9548     5.1967     7.0884    74.2858     2.4340     0.1542     0.0495
   82.0000     4.9548     5.1502     7.0451    76.2455     2.4273     0.1520     0.0471
   82.5000     4.9549     5.1042     7.0015    78.2092     2.4205     0.1605     0.0449
   83.0000     4.9552     5.0586     6.9887    79.7411     2.4140     0.1670     0.0478
   83.5000     4.9541     5.0470     6.9998    79.6832     2.4193     0.1584     0.0529
   84.0000     5.0329     5.0937     7.0113    78.2255     2.4286     0.1542     0.0580
   84.5000     5.1132     5.0931     7.0229    76.5747     2.4307     0.1538     0.0590
   85.0000     5.1948     5.2530     7.0344    74.9187     2.4331     0.1493     0.0591
   85.5000     5.2777     5.3414     7.0459    74.1942     2.4444     0.1401     0.0590
   86.0000     5.3620     5.4316     7.0574    71.8701     2.4609     0.1323     0.0560
   86.5000     5.4475     5.5233     7.0688    72.1192     2.4539     0.1428     0.0414
   87.0000     5.5345     5.6166     7.0798    72.7120     2.4433     0.1442     0.0361
   87.5000     5.5851     5.6889     7.1011    73.1923     2.4391     0.1414     0.0346
   88.0000     5.5604     5.6889     7.1231    73.6781     2.4337     0.1509     0.0330
   88.5000     5.5431     5.6889     7.1452    73.6029     2.4232     0.1573     0.0277
   89.0000     5.5259     5.6889     7.1670    73.3702     2.4126     0.1598     0.0250
   89.5000     5.5087     5.6918     7.1837    72.4576     2.4080     0.1600     0.0250
   90.0000     5.4916     5.7049     7.1897    71.6395     2.4063     0.1611     0.0250
   90.5000     5.4746     5.7175     7.1962    71.5334     2.4029     0.1663     0.0250
   91.0000     5.4575     5.7300     7.2091    71.0553     2.3999     0.1725     0.0231
   91.5000     5.4406     5.7418     7.2515    67.9317     2.3826     0.1800     0.0199
   92.0000     5.3831     5.7434     7.2935    64.7354     2.3626     0.1960     0.0168
   92.5000     5.2364     5.6368     7.3358    64.5355     2.3425     0.2133     0.0153
   93.0000     5.0470     5.2848     7.3175    65.2908     2.3194     0.2307     0.0159
   93.5000     4.7764     4.5176     7.2902    65.9443     2.2836     0.2525     0.0164
   94.0000     4.1848     3.8758     7.2609    68.4274     2.2204     0.2781     0.0167
   94.5000     3.6664     3.3219     7.3278    69.9081     2.1454     0.3053     0.0294
   95.0000     3.2688     2.8475     7.4216    70.4954     2.1070     0.3403     0.0496
   95.5000     2.7912     2.4409     7.5158    73.3174     2.0696     0.3662     0.0701
   96.0000     2.3845     2.0924     7.6101    79.2873     2.0324     0.3845     0.1013
   96.5000     2.0655     1.7936     7.7042    84.8025     2.0167     0.3958     0.1604
   97.0000     2.0092     1.7180     7.7790    88.1283     2.0134     0.3830     0.1625
   97.5000     2.0092     1.7023     7.7716    88.2644     2.0717     0.3331     0.1142
   98.0000     2.0291     1.8040     7.6803    85.8928     2.0135     0.2577     0.2663
   98.5000     2.1033     2.0573     8.0396    83.5108     2.2030     0.1625     0.2781
   99.0000     2.2987     2.3445     7.5790    79.4657     2.3248     0.1488     0.0585
   99.5000     2.5737     2.8900     9.5116    73.2957     2.3865     0.1386     0.0541
  100.0000     3.1152     3.7407    10.4264    67.2135     2.4442     0.1388     0.0534
  100.5000     3.9259     4.8460     7.7948    63.4408     2.4470     0.1397     0.0542
  101.0000     4.9475     6.2780     7.6506    61.9697     2.4440     0.1420     0.0547
  101.5000     5.7580     8.1269     7.6380    60.5503     2.4406     0.1444     0.0553
  102.0000     6.9668    10.1881     7.5756    60.2424     2.4371     0.1442     0.0558
  102.5000     7.2340    10.1746     7.4508    59.9876     2.4365     0.1442     0.0564
  103.0000     7.4398     9.1730     7.3254    59.7262     2.4362     0.1454     0.0571
  103.5000     7.6464     8.6367     7.2001    59.4636     2.4337     0.1566     0.0498
  104.0000     7.6354     8.2230     7.0859    59.1986     2.4205     0.1735     0.0404
  104.5000     7.2756     7.9989     7.0248    59.0961     2.3726     0.1904     0.0377
  105.0000     6.9283     7.8529     7.0102    59.0802     2.3366     0.2074     0.0399
  105.5000     6.5969     7.7096     7.0606    59.3631     2.3250     0.2166     0.0640
  106.0000     6.3517     7.7096     7.1070    62.3415     2.3311     0.2098     0.0761
  106.5000     6.2927     7.7347     7.0847    65.6818     2.3372     0.2082     0.0537
  107.0000     6.2933     7.8225     6.8313    67.5448     2.3437     0.2032     0.0474
  107.5000     6.3538     7.9113     6.7672    63.6013     2.3605     0.1929     0.0483
  108.0000     6.7988     8.9125     6.8466    59.2866     2.3771     0.1826     0.0494
  108.5000     7.2614     9.7635     7.0285    58.4328     2.3780     0.1805     0.0505
  109.0000     7.7556    10.2301     7.2144    59.2849     2.3779     0.1818     0.0536
  109.5000     8.2834    10.7190     7.3195    60.5924     2.3779     0.1792     0.0584
  110.0000     8.8518    11.2313     7.4204    62.0427     2.3779     0.1832     0.0631
  110.5000     9.0120    11.6689     7.5263    63.4906     2.3782     0.1846     0.0690
  111.0000     9.0536    11.8858     7.6318    64.9532     2.3800     0.1826     0.0798
  111.5000     9.0885    11.8907     7.7377    65.5093     2.3818     0.1806     0.0906
  112.0000     9.1243    11.9064     7.8367    64.8905     2.3835     0.1774     0.1015
  112.5000     9.1606    11.9221     7.8380    64.1477     2.3854     0.1739     0.1013
  113.0000     9.1969    11.9379     7.8030    63.4265     2.3846     0.1749     0.0984
  113.5000     9.2335    11.9537     7.7584    62.2259     2.3814     0.1772     0.0829
  114.0000     9.2689    11.9694     7.7013    61.0728     2.3665     0.1949     0.0678
  114.5000     9.4413    11.9955     7.6427    60.6863     2.3636     0.1881     0.0554
  115.0000     9.6320    11.9867     7.5817    60.6984     2.3767     0.1838     0.0530
  115.5000     9.9050    12.2188     7.5051    60.7517     2.3875     0.1695     0.0557
  116.0000    10.1632    13.2104     7.4245    61.1612     2.4288     0.1455     0.0608
  116.5000    10.6098    14.5086     7.3437    61.5664     2.4630     0.1215     0.0652
  117.0000    11.0411    15.5307     7.2629    61.9457     2.4835     0.1103     0.0592
  117.5000    11.4900    16.1076     7.1821    59.3864     2.4936     0.1164     0.0530
  118.0000    11.9593    16.5588     7.1013    55.4396     2.4803     0.1314     0.0543
  118.5000    12.4515    16.8667     7.0205    51.4714     2.4665     0.1462     0.0571
  119.0000    12.4518    17.0228     6.9395    47.5394     2.4504     0.1526     0.0622
  119.5000    12.1857    17.0228     6.8584    45.4610     2.4246     0.1588     0.0649
  120.0000    11.7801    16.1652     6.7842    49.1358     2.4029     0.1833     0.0574
  120.5000    11.1975    15.2536     6.7875    54.2269     2.3369     0.2090     0.0447
  121.0000    10.6438    14.3826     6.7927    55.6656     2.3275     0.2115     0.0450
  121.5000    10.1174    13.8066     6.7978    58.1175     2.3259     0.2138     0.0450
