~VERSION INFORMATION
 VERS.                2.0:   CWLS LOG ASCII STANDARD - VERSION 2.0
 WRAP.                 NO:   ONE LINE PER DEPTH STEP
~WELL INFORMATION
#MNEM.UNIT      DATA TYPE    INFORMATION
#----------   ------------   ------------------------------
 STRT.F          160.0000:   START DEPTH
 STOP.F         1181.5000:   STOP DEPTH
 STEP.F            0.5000:   STEP LENGTH
 NULL.          -999.2500:   NO VALUE
 COMP.            US NAVY:   COMPANY
 WELL. RES 3 TEAPOT DOM #71-SX-14:   WELL
 FLD .             TEAPOT:   FIELD
 LOC .      S14 T38N R78W:   LOCATION
 CNTY.            NATRONA:   COUNTY
 STAT.            WYOMING:   STATE
 CTRY. UNITED STATES OF AMERICA:   COUNTRY
 SRVC.       Schlumberger:   SERVICE COMPANY
 DATE.        23-AUG-1959:   LOGDATE
 API .       490250632200:   API NUMBER
~CURVE INFORMATION
#MNEM.UNIT       API CODE    CURVE DESCRIPTION
#----------   ------------   ------------------------------
 DEPT.F                  :   
 SPR .MV     05 010 01 00:   SPONTANEOUS POTENTIAL FROM RES.
 IL  .OHMM   05 120 00 00:   INDUCTION LOG
 ASN .OHMM   05 041 16 00:   AMPLIFIED SHORT NORMAL 16"
 CIL .MMHO   05 110 00 00:   CONDUCTIVITY INDUCTION LOG
~PARAMETER INFORMATION
#MNEM.UNIT          VALUE    DESCRIPTION
#----------   ------------   ------------------------------
 PD  .                 GL:   PERMANENT DATUM
 EPD .F              5259:   ELEVATION PERMANENT DATUM
 LMF .                 KB:   LOG MEASURED FROM
 DAPD.F                 4:   FEET ABOVE PERMANENT DATUM
 DMF .                 KB:   DRILLING MEASURED FROM
 EKB .F              5263:   KELLING BUSHING
 EGL .F              5259:   GROUND LEVEL
 DATE.            8-23-59:   RUN DATE
 RUN .                  1:   RUN NUMBER
 DD  .F              1190:   DEPTH DRILLER
 DL  .F              1186:   DEPTH LOGGER
 BLI .F              1180:   BOTTOM LOG INTERVAL
 TLI .F               150:   TOP LOG INTERVAL
 CBD .F                17:   CASING BOTTOM DRILLER
 BS  .IN             6.75:   BIT SIZE
 BSD .F              1190:   BIT SIZE AT DEPTH
 DFT .                GEL:   DRILLING FLUID TYPE
 DFD .                9.5:   DRILLING FLUID DENSITY
 DFV .                 52:   DRILLING FLUID VISCOSITY
 MSS .           FLOWLINE:   MUD SAMPLE SOURCE
 RMS .OHMM            2.6:   RESISTIVITY MUD SAMPLE
 MST .F                62:   MUD SAMPLE TEMPERATURE
 MFSS.                  M:   MUD FILTRATE SAMPLE SOURCE
 MCSS.                  M:   MUD CAKE SAMPLE SOURCE
 RMB .OHMM            2.2:   RESISTIVITY MUD AT BHT
 BHT .F                80:   BOTTOM HOLE TEMPERATURE
 TCS .HRS               1:   TIME CURCULATED STOPPED
 MRT .F                80:   MAXIMUM RECORDED TEMPERATURE
 LUN .               2523:   LOGGING UNIT NUMBER
 LUL .               CSPR:   LOGGING UNIT LOCATION
 ENGI.             ATWOOD:   RECORDING ENGINEER
 WITN.             MARTIN:   WITNESSED BY
 CLNT.            A2DTECH:   CLIENT CODE
 ORIG.     1", 2.5" PRINT:   ORIGIN OF DATA
 UWI .       490250632200:   UNIQUE WELL ID
 DICO. A2D Technologies, Inc.:   DIGITIZING COMPANY
~OTHER INFORMATION
~A   DEPT      SPR           IL        ASN      CIL   
# ...
  963.0000   -30.8948     7.6042     7.9626   155.4200
  963.5000   -31.0492     7.5442     7.9042   155.9160
  964.0000   -31.2054     7.4869     7.8394   156.4137
  964.5000   -31.3592     7.4287     7.7807   156.9118
  965.0000   -31.4834     7.3704     7.7185   157.1907
  965.5000   -31.4790     7.3122     7.7404   157.1850
  966.0000   -31.4691     7.2551     7.7690   157.1850
  966.5000   -31.2842     7.1964     7.8019   157.1850
  967.0000   -31.1264     7.1805     7.8191   157.1850
  967.5000   -30.9694     7.1805     7.7777   157.1850
  968.0000   -30.7841     7.1808     7.7335   157.1850
  968.5000   -30.7733     7.1848     7.6872   158.2944
  969.0000   -30.7732     7.1262     7.5857   162.0721
  969.5000   -30.8500     6.9616     7.4549   165.8498
  970.0000   -30.9084     6.7987     7.3101   169.6275
  970.5000   -30.9740     6.6412     6.9850   173.4052
  971.0000   -31.0375     6.4809     6.6314   176.6732
  971.5000   -31.1008     6.4739     6.5462   180.5962
  972.0000   -31.1649     6.4701     6.4481   185.9111
  972.5000   -31.2289     6.4714     6.2710   191.2261
  973.0000   -31.2918     6.4747     6.2403   196.5411
  973.5000   -31.3554     6.4692     6.5147   201.8560
  974.0000   -31.4209     6.4571     6.4305   207.1710
  974.5000   -31.4759     6.1972     6.0906   212.4859
  975.0000   -31.4732     5.9303     5.7820   217.8009
  975.5000   -31.2577     5.6448     5.4313   220.9646
  976.0000   -30.9367     5.3866     5.3028   224.5300
  976.5000   -30.6500     5.0737     5.4802   232.9011
  977.0000   -30.4919     5.0596     5.5069   241.2722
  977.5000   -30.7857     5.0545     5.4563   249.3110
  978.0000   -31.1053     5.3861     5.9487   242.5965
  978.5000   -31.8039     5.7862     6.6649   222.5059
  979.0000   -31.6769     6.1917     6.7795   202.4153
  979.5000   -31.5277     6.6222     6.8749   183.7598
  980.0000   -31.3661     6.8440     6.9402   178.7549
  980.5000   -31.2111     6.8172     7.0079   169.5866
  981.0000   -31.0532     6.6305     7.0008   169.8907
  981.5000   -30.8948     6.3982     6.9973   176.9597
  982.0000   -30.7723     6.1587     6.7283   184.0285
  982.5000   -30.7716     5.9263     6.4063   191.0974
  983.0000   -30.7711     5.6916     6.0818   198.1663
  983.5000   -30.7619     5.4563     5.7397   204.4439
  984.0000   -30.8574     5.2187     5.5729   210.3347
  984.5000   -31.0303     5.0497     5.5627   220.1142
  985.0000   -31.1912     5.0571     5.4595   231.5945
  985.5000   -31.3533     5.0597     5.5175   236.9095
  986.0000   -31.5129     5.3022     5.9021   228.2187
  986.5000   -31.6773     5.5843     6.3094   214.4191
  987.0000   -31.8446     5.8704     6.6245   200.6195
  987.5000   -31.9801     6.1526     6.9732   186.8200
  988.0000   -32.2164     6.4370     7.3011   173.1299
  988.5000   -31.9036     6.7189     7.6392   164.7728
  989.0000   -31.8420     7.0051     8.0033   156.4796
  989.5000   -31.8277     7.2874     8.2517   149.4868
  990.0000   -31.8451     7.5273     8.2969   146.9196
  990.5000   -31.8357     7.5333     8.3717   144.3607
  991.0000   -31.8379     7.5389     8.4433   142.9673
  991.5000   -31.8385     7.5330     8.5104   142.9843
  992.0000   -31.8378     7.5627     8.5820   141.9065
  992.5000   -31.8384     7.6212     8.6505   140.6589
  993.0000   -31.8374     7.6804     8.7199   139.4685
  993.5000   -31.8403     7.7158     8.7900   139.4685
  994.0000   -31.8366     7.7114     8.8453   141.5192
  994.5000   -31.8294     7.7134     8.8437   142.0773
  995.0000   -31.6695     7.7136     8.7837   142.6353
  995.5000   -31.5068     7.7752     8.7177   143.0118
  996.0000   -31.3366     7.8603     8.6481   143.0118
  996.5000   -31.1721     7.9434     8.5857   141.9134
  997.0000   -31.0041     8.0287     8.5317   140.4252
  997.5000   -30.8361     8.1101     8.6866   138.9370
  998.0000   -30.7677     8.1944     8.8949   137.4488
  998.5000   -30.7595     8.2702     9.0915   135.9606
  999.0000   -30.8058     8.0295     9.3105   134.4724
  999.5000   -30.4699     7.5965     9.3366   134.1535
 1000.0000   -30.1922     7.1928     9.2490   145.6866
 1000.5000   -29.9655     6.7936     8.4714   157.3374
 1001.0000   -29.7544     6.3830     7.8233   168.9379
 1001.5000   -29.5263     6.3041     7.1337   180.5380
 1002.0000   -29.3076     6.0927     6.4479   192.0219
 1002.5000   -29.0791     5.6939     6.0933   203.4176
 1003.0000   -28.9860     5.2614     5.8390   214.8078
 1003.5000   -28.9818     5.0395     6.1534   226.2103
 1004.0000   -29.1058     5.1158     7.0716   231.4669
 1004.5000   -29.3403     5.9274     8.3337   206.9985
 1005.0000   -29.5626     6.6501     9.1595   185.3680
 1005.5000   -29.7799     7.4220     9.6054   163.7374
 1006.0000   -30.0037     8.1719    10.0140   142.1069
 1006.5000   -30.1227     8.9366    10.3836   118.2087
 1007.0000   -30.2007     9.4946    10.5585   115.8488
 1007.5000   -30.2799     9.3989    10.5472   112.8937
 1008.0000   -30.3688     9.2672    10.5447   114.6654
 1008.5000   -30.4200     9.1324    10.5494   115.2535
 1009.0000   -30.4124     9.0000    10.5488   116.1323
 1009.5000   -30.4219     8.9488    10.5518   117.0110
 1010.0000   -30.3425     8.9527    10.5349   117.8898
 1010.5000   -30.1882     8.9582    10.5864   118.2087
 1011.0000   -30.0554     8.9295    10.8220   118.2087
 1011.5000   -30.0617     9.1599    11.5459   118.2087
 1012.0000   -30.0553     9.5691    11.9838   113.9792
 1012.5000   -30.0194     9.9350    12.5820   108.7867
 1013.0000   -30.4753    10.5453    13.8282   103.5941
 1013.5000   -31.3223    11.2875    15.0758    98.4016
 1014.0000   -33.0614    12.6318    16.3256    91.2219
 1014.5000   -35.8287    14.1680    17.5765    80.7869
 1015.0000   -38.4446    15.7379    18.8274    70.3519
 1015.5000   -40.4498    16.8885    20.0773    61.5158
 1016.0000   -40.4995    17.7739    21.3503    59.7061
 1016.5000   -44.1574    18.0821    22.1977    58.1370
 1017.0000   -45.2667    18.3763    22.6808    56.5678
 1017.5000   -46.7729    18.6337    23.1095    54.9986
 1018.0000   -48.0400    18.9640    22.3479    53.4294
 1018.5000   -48.4170    18.7961    21.6835    52.6575
 1019.0000   -47.6102    18.1496    21.0043    54.8419
 1019.5000   -46.8031    17.5576    20.3121    56.8191
 1020.0000   -46.4115    16.9593    19.6221    58.7963
 1020.5000   -46.4212    16.3922    18.9358    60.7734
 1021.0000   -46.3670    15.9279    18.5486    62.7506
 1021.5000   -45.3394    15.5009    18.3091    64.7278
 1022.0000   -44.3397    15.1532    18.0716    66.7049
 1022.5000   -43.2814    14.8501    17.8338    68.6024
 1023.0000   -42.2499    14.5571    17.5953    70.1260
 1023.5000   -41.2645    14.2645    17.3346    71.5906
 1024.0000   -40.3514    13.9742    17.0432    73.0551
 1024.5000   -39.4691    13.6728    16.7523    74.5197
 1025.0000   -38.6491    13.5509    16.4664    75.6890
 1025.5000   -39.2623    13.6008    16.0776    75.6890
 1026.0000   -39.8743    13.7010    16.1950    75.4426
 1026.5000   -40.5492    13.7964    16.5164    75.0242
 1027.0000   -41.1903    13.8954    16.6948    74.6057
 1027.5000   -41.8452    13.9859    16.6093    74.1873
 1028.0000   -42.5171    14.0751    16.5064    73.7688
 1028.5000   -42.9246    14.1599    16.3829    73.3504
 1029.0000   -42.9391    14.2496    16.2666    72.9320
 1029.5000   -44.4222    14.1701    16.1482    72.5135
 1030.0000   -46.1571    14.0196    16.0539    72.1457
 1030.5000   -46.2293    13.8722    16.0443    72.5010
 1031.0000   -44.8390    13.7268    16.0252    73.6308
 1031.5000   -43.6432    13.5793    15.7314    74.7572
 1032.0000   -42.4401    13.4329    15.4602    75.8878
 1032.5000   -41.0966    13.2862    15.1791    77.0183
 1033.0000   -40.3029    13.1394    14.8952    78.1488
 1033.5000   -40.3931    12.9928    14.7960    79.2792
 1034.0000   -40.0339    12.8463    14.8146    80.4103
 1034.5000   -39.5437    12.6994    14.7080    81.5412
 1035.0000   -39.0667    12.5530    14.5206    82.6716
 1035.5000   -38.6098    12.4062    14.3571    83.7991
