~VERSION INFORMATION
 VERS.                2.0:   CWLS LOG ASCII STANDARD - VERSION 2.0
 WRAP.                 NO:   ONE LINE PER DEPTH STEP
~WELL INFORMATION
#MNEM.UNIT      DATA TYPE    INFORMATION
#----------   ------------   ------------------------------
 STRT.F            8.5000:   START DEPTH
 STOP.F         2140.0000:   STOP DEPTH
 STEP.F            0.5000:   STEP LENGTH
 NULL.          -999.2500:   NO VALUE
 COMP. LAWRENCE/ALLISON INC:   COMPANY
 WELL.   11-61 SHX #61-11:   WELL
 FLD .             TEAPOT:   FIELD
 LOC .      S11 T38N R78W:   LOCATION
 CNTY.            NATRONA:   COUNTY
 STAT.            WYOMING:   STATE
 CTRY. UNITED STATES OF AMERICA:   COUNTRY
 SRVC.      NL McCullough:   SERVICE COMPANY
 DATE.        04-MAY-1988:   LOGDATE
 API .       490251115600:   API NUMBER
~CURVE INFORMATION
#MNEM.UNIT       API CODE    CURVE DESCRIPTION
#----------   ------------   ------------------------------
 DEPT.F                  :   
 GRR .GAPI   81 310 01 00:   GAMMY RAY
 ROP .FT/HR  91 810 01 00:   RAT OF DRILLING PENETRATION
 TGAS.TC/CC  91 830 01 00:   TOTAL GAS UNIT
~PARAMETER INFORMATION
#MNEM.UNIT          VALUE    DESCRIPTION
#----------   ------------   ------------------------------
 PD  .                 GL:   PERMANENT DATUM
 EPD .F              5135:   ELEVATION PERMANENT DATUM
 LMF .                 KB:   LOG MEASURED FROM
 DAPD.F                 8:   FEET ABOVE PERMANENT DATUM
 DMF .                 KB:   DRILLING MEASURED FROM
 EKB .F              5143:   KELLING BUSHING
 EGL .F              5135:   GROUND LEVEL
 DATE.        04-MAY-1988:   RUN DATE
 RUN .                  1:   RUN NUMBER
 DD  .F              2140:   DEPTH DRILLER
 DL  .F               572:   DEPTH LOGGER
 BLI .F               568:   BOTTOM LOG INTERVAL
 CS  .IN              5.5:   CASING SIZE
 CBD .F               622:   CASING BOTTOM DRILLER
 BSD .F              2140:   BIT SIZE AT DEPTH
 DFT .         KCL/ WATER:   DRILLING FLUID TYPE
 TCS .HRS               1:   TIME CURCULATED STOPPED
 ENGI.               DALY:   RECORDING ENGINEER
 WITN.           MR. LOWL:   WITNESSED BY
 CLNT.            A2DTECH:   CLIENT CODE
 ORIG.           5" PRINT:   ORIGIN OF DATA
 UWI .       490251115600:   UNIQUE WELL ID
 DICO. A2D Technologies, Inc.:   DIGITIZING COMPANY
~OTHER INFORMATION
~A    DEPT      GRR       ROP       TGAS   
# ...
  918.5000  -999.2500     0.2747     1.6075
  919.0000  -999.2500     0.2744     1.6000
  919.5000  -999.2500     0.2742     1.5925
  920.0000  -999.2500     0.2739     1.5849
  920.5000  -999.2500     0.2736     1.5774
  921.0000  -999.2500     0.3019     1.5684
  921.5000  -999.2500     0.3774     1.5609
  922.0000  -999.2500     0.3962     1.5547
  922.5000  -999.2500     0.4057     1.5467
  923.0000  -999.2500     0.4057     1.6881
  923.5000  -999.2500     0.4057     1.9094
  924.0000  -999.2500     0.4057     2.2803
  924.5000  -999.2500     0.4057     2.6477
  925.0000  -999.2500     0.4057     2.6415
  925.5000  -999.2500     0.4057     2.6334
  926.0000  -999.2500     0.4057     2.2491
  926.5000  -999.2500     0.3962     2.0856
  927.0000  -999.2500     0.3962     1.8564
  927.5000  -999.2500     0.3962     1.8489
  928.0000  -999.2500     0.3962     1.8415
  928.5000  -999.2500     0.3962     1.8340
  929.0000  -999.2500     0.3962     1.8264
  929.5000  -999.2500     0.3962     1.8189
  930.0000  -999.2500     0.3962     1.8113
  930.5000  -999.2500     0.3962     1.8036
  931.0000  -999.2500     0.3962     1.6126
  931.5000  -999.2500     0.3962     1.4113
  932.0000  -999.2500     0.3962     1.4038
  932.5000  -999.2500     0.3868     1.3962
  933.0000  -999.2500     0.3868     1.3884
  933.5000  -999.2500     0.3868     1.3811
  934.0000  -999.2500     0.3868     1.3735
  934.5000  -999.2500     0.3868     1.3648
  935.0000  -999.2500     0.3868     1.3585
  935.5000  -999.2500     0.3868     1.3505
  936.0000  -999.2500     0.3868     1.3434
  936.5000  -999.2500     0.3868     1.3358
  937.0000  -999.2500     0.3868     1.3282
  937.5000  -999.2500     0.3868     1.3208
  938.0000  -999.2500     0.3868     1.3132
  938.5000  -999.2500     0.3868     1.3057
  939.0000  -999.2500     0.3868     1.2981
  939.5000  -999.2500     0.3868     1.2891
  940.0000  -999.2500     0.3868     1.2817
  940.5000  -999.2500     0.3679     1.2453
  941.0000  -999.2500     0.3208     0.8906
  941.5000  -999.2500     0.3019     0.8830
  942.0000  -999.2500     0.2925     0.8745
  942.5000  -999.2500     0.2830     0.8679
  943.0000  -999.2500     0.2830     0.8596
  943.5000  -999.2500     0.2830     0.8522
  944.0000  -999.2500     0.2830     0.8453
  944.5000  -999.2500     0.2830     0.8377
  945.0000  -999.2500     0.2830     0.8298
  945.5000  -999.2500     0.2830     0.8217
  946.0000  -999.2500     0.2830     0.9292
  946.5000  -999.2500     0.2830     1.1849
  947.0000  -999.2500     0.2830     1.1774
  947.5000  -999.2500     0.2830     1.1446
  948.0000  -999.2500     0.2830     0.7849
  948.5000  -999.2500     0.2830     0.7774
  949.0000  -999.2500     0.2830     0.7684
  949.5000  -999.2500     0.2830     0.7609
  950.0000  -999.2500     0.2830     0.7535
  950.5000  -999.2500     0.2830     0.7460
  951.0000  -999.2500     0.2830     0.3612
  951.5000  -999.2500     0.2830     0.3538
  952.0000  -999.2500     0.2830     0.3463
  952.5000  -999.2500     0.2830     0.4151
  953.0000  -999.2500     0.2830     0.7094
  953.5000  -999.2500     0.2830     1.0792
  954.0000  -999.2500     0.2830     1.4505
  954.5000  -999.2500     0.2830     1.4412
  955.0000  -999.2500     0.2736     1.4340
  955.5000  -999.2500     0.2736     1.4264
  956.0000  -999.2500     0.2736     1.4188
  956.5000  -999.2500     0.2736     1.4113
  957.0000  -999.2500     0.2736     1.4038
  957.5000  -999.2500     0.2736     1.3962
  958.0000  -999.2500     0.2736     1.3887
  958.5000  -999.2500     0.2736     1.3811
  959.0000  -999.2500     0.2736     1.3723
  959.5000  -999.2500     0.2736     1.3648
  960.0000  -999.2500     0.2736     1.3574
  960.5000  -999.2500     0.2473     1.3499
  961.0000  -999.2500     0.2285     1.3443
  961.5000  -999.2500     0.1909     1.3693
  962.0000  -999.2500     0.1909     1.3915
  962.5000  -999.2500     0.1910     1.4137
  963.0000  -999.2500     0.1911     1.4359
  963.5000  -999.2500     0.1912     1.4580
  964.0000  -999.2500     0.1913     1.4802
  964.5000  -999.2500     0.1914     1.5024
  965.0000  -999.2500     0.1915     1.5246
  965.5000  -999.2500     0.1916     1.5468
  966.0000  -999.2500     0.1917     1.5690
  966.5000  -999.2500     0.1918     1.5911
  967.0000  -999.2500     0.1919     1.6133
  967.5000  -999.2500     0.1920     1.6355
  968.0000  -999.2500     0.1921     1.6577
  968.5000  -999.2500     0.1922     1.6799
  969.0000  -999.2500     0.1923     1.7021
  969.5000  -999.2500     0.1924     1.7243
  970.0000  -999.2500     0.1925     0.9808
  970.5000  -999.2500     0.1926     0.9771
  971.0000  -999.2500     0.1926     0.9736
  971.5000  -999.2500     0.1927     0.9697
  972.0000  -999.2500     0.1928     0.7774
  972.5000  -999.2500     0.1929     0.5849
  973.0000  -999.2500     0.1930     0.5811
  973.5000  -999.2500     0.1931     0.9540
  974.0000  -999.2500     0.1932     0.9509
  974.5000  -999.2500     0.1933     0.9472
  975.0000  -999.2500     0.1934     0.9429
  975.5000  -999.2500     0.1935     1.3166
  976.0000  -999.2500     0.1936     1.3129
  976.5000  -999.2500     0.1937     1.6875
  977.0000  -999.2500     0.1938     1.3055
  977.5000  -999.2500     0.1939     1.3019
  978.0000  -999.2500     0.1940     1.4868
  978.5000  -999.2500     0.1941     2.0491
  979.0000  -999.2500     0.1993     2.0453
  979.5000  -999.2500     0.2037     2.0415
  980.0000  -999.2500     0.2038     2.0377
  980.5000  -999.2500     0.2039     2.0334
  981.0000  -999.2500     0.2040     2.0297
  981.5000  -999.2500     0.2135     2.0260
  982.0000  -999.2500     0.2136     2.0223
  982.5000  -999.2500     0.2137     2.0186
  983.0000  -999.2500     0.2138     2.3925
  983.5000  -999.2500     0.2156     2.3886
  984.0000  -999.2500     0.2234     2.3849
  984.5000  -999.2500     0.2329     1.9724
  985.0000  -999.2500     0.2330     0.4906
  985.5000  -999.2500     0.2426     0.1087
  986.0000  -999.2500     0.2426    -0.2723
  986.5000  -999.2500     0.2427    -0.2760
  987.0000  -999.2500     0.2428    -0.6571
  987.5000  -999.2500     0.2429    -0.6608
  988.0000  -999.2500     0.2525    -1.0418
  988.5000  -999.2500     0.2525    -0.6672
  989.0000  -999.2500     0.2527    -1.0492
  989.5000  -999.2500     0.2528    -1.0529
  990.0000  -999.2500     0.2528    -0.6792
  990.5000  -999.2500     0.2529    -0.6830
  991.0000  -999.2500     0.2530    -0.6868
  991.5000  -999.2500     0.2531    -0.6906
  992.0000  -999.2500     0.2532    -0.3167
  992.5000  -999.2500     0.2533     0.3239
  993.0000  -999.2500     0.2628     0.8080
  993.5000  -999.2500     0.2629     1.1807
  994.0000  -999.2500     0.2630     1.9318
  994.5000  -999.2500     0.2631     1.9283
  995.0000  -999.2500     0.2632     2.3019
  995.5000  -999.2500     0.2633     2.2980
  996.0000  -999.2500     0.2634     2.2943
  996.5000  -999.2500     0.2635     1.9132
  997.0000  -999.2500     0.2636     1.9094
  997.5000  -999.2500     0.2637     1.5276
  998.0000  -999.2500     0.2638     1.1466
  998.5000  -999.2500     0.2639     1.1429
  999.0000  -999.2500     0.2734     1.1396
  999.5000  -999.2500     0.2735     1.1355
 1000.0000  -999.2500     0.2736     1.1318
 1000.5000  -999.2500     0.2737     1.1283
 1001.0000  -999.2500     0.2549     1.5023
 1001.5000  -999.2500     0.2361     1.8754
 1002.0000  -999.2500     0.1985     2.2491
 1002.5000  -999.2500     0.1984     2.2453
 1003.0000  -999.2500     0.1981     2.2415
 1003.5000  -999.2500     0.1978     2.2370
 1004.0000  -999.2500     0.1975     2.1917
 1004.5000  -999.2500     0.1973     2.1140
 1005.0000  -999.2500     0.1970     2.0363
 1005.5000  -999.2500     0.1967     1.9586
 1006.0000  -999.2500     0.1964     1.8809
 1006.5000  -999.2500     0.1961     1.8032
 1007.0000  -999.2500     0.1959     1.7256
 1007.5000  -999.2500     0.1956     1.6479
 1008.0000  -999.2500     0.1953     1.5702
 1008.5000  -999.2500     0.1950     1.4925
 1009.0000  -999.2500     0.1948     1.4148
