~VERSION INFORMATION
 VERS.                2.0:   CWLS LOG ASCII STANDARD - VERSION 2.0
 WRAP.                 NO:   ONE LINE PER DEPTH STEP
~WELL INFORMATION
#MNEM.UNIT      DATA TYPE    INFORMATION
#----------   ------------   ------------------------------
 STRT.F            0.0000:   START DEPTH
 STOP.F          978.0000:   STOP DEPTH
 STEP.F            0.5000:   STEP LENGTH
 NULL.          -999.2500:   NO VALUE
 COMP. FENIX & SCISSON INC:   COMPANY
 WELL. N.P.R #3 SX-14 #53:   WELL
 FLD .             TEAPOT:   FIELD
 LOC .      S14 T38N R78W:   LOCATION
 CNTY.            NATRONA:   COUNTY
 STAT.            WYOMING:   STATE
 CTRY. UNITED STATES OF AMERICA:   COUNTRY
 SRVC.              Welex:   SERVICE COMPANY
 DATE.        06-MAR-1977:   LOGDATE
 API .       490251029800:   API NUMBER
~CURVE INFORMATION
#MNEM.UNIT       API CODE    CURVE DESCRIPTION
#----------   ------------   ------------------------------
 DEPT.F                  :   
 SPR .MV     07 010 01 00:   SPONTANEOUS POTENTIAL
 SGRD.OHMM   07 220 05 00:   SHALLOW RESISTIVITY
 ILD .OHMM   07 120 46 00:   INDUCTION LOG DEEP
 ILM .OHMM   07 120 44 00:   INDUCTION LOG MEDIUM
 GRD .GAPI   45 310 01 00:   GAMMA RAY FROM DENSITY LOG
 CALD.IN     45 280 60 00:   CALIPER
 RHOB.G/C3   45 350 01 00:   BULK DENSITY
 DPHI.DEC    45 890 12 00:   DENSITY POROSITY SANDSTONE
 CORR.G/C3   45 356 01 00:   DENSITY CORRECTION
~PARAMETER INFORMATION
#MNEM.UNIT          VALUE    DESCRIPTION
#----------   ------------   ------------------------------
 PD  .                 GL:   PERMANENT DATUM
 EPD .F              5230:   ELEVATION PERMANENT DATUM
 LMF .                 GL:   LOG MEASURED FROM
 DMF .                 GL:   DRILLING MEASURED FROM
 EGL .F              5230:   GROUND LEVEL
 DATE.             3-6-77:   RUN DATE
 RUN .                  1:   RUN NUMBER
 DD  .F               989:   DEPTH DRILLER
 DL  .F               980:   DEPTH LOGGER
 BLI .F               978:   BOTTOM LOG INTERVAL
 TLI .F                50:   TOP LOG INTERVAL
 CS  .IN            8.625:   CASING SIZE
 CBD .F                42:   CASING BOTTOM DRILLER
 CBL .F                42:   CASING BOTTOM LOGGER
 BS  .IN            7.875:   BIT SIZE
 BSD .F               989:   BIT SIZE AT DEPTH
 DFT .            KCL MUD:   DRILLING FLUID TYPE
 DFD .                8.4:   DRILLING FLUID DENSITY
 DFV .                 30:   DRILLING FLUID VISCOSITY
 DFPH.                7.2:   DRILLING FLUID PH
 DFL .               14.4:   DRILLING FLUID LOSS
 MSS .            MUD PIT:   MUD SAMPLE SOURCE
 RMS .OHMM            .41:   RESISTIVITY MUD SAMPLE
 MST .F                48:   MUD SAMPLE TEMPERATURE
 RMF .OHMM            .39:   RESISTIVITY MUD FILTRATE SAMPLE
 MFST.F                48:   MUD FILTRATE SAMPLE TEMPERATURE
 RMC .OHMM            .55:   RESISTIVITY MUD CAKE
 MCST.F                48:   MUD CAKE SAMPLE TEMPERATURE
 MFSS.           FANN KIT:   MUD FILTRATE SAMPLE SOURCE
 MCSS.           FANN KIT:   MUD CAKE SAMPLE SOURCE
 RMB .OHMM            .34:   RESISTIVITY MUD AT BHT
 BHT .F                58:   BOTTOM HOLE TEMPERATURE
 TCS .HRS               2:   TIME CURCULATED STOPPED
 MRT .F                58:   MAXIMUM RECORDED TEMPERATURE
 LUN .               8611:   LOGGING UNIT NUMBER
 LUL .           GILLETTE:   LOGGING UNIT LOCATION
 ENGI.            C. DOAK:   RECORDING ENGINEER
 WITN.           S. BURKE:   WITNESSED BY
 CLNT.            A2DTECH:   CLIENT CODE
 ORIG.        2" 5" PRINT:   ORIGIN OF DATA
 UWI .       490251029800:   UNIQUE WELL ID
 DICO. A2D Technologies, Inc.:   DIGITIZING COMPANY
~OTHER INFORMATION
~A    DEPT     SPR       SGRD        ILD        ILM        GRD       CALD       RHOB       DPHI       CORR   
# ...
  876.0000   -39.6950    14.5290     9.9806    12.8017    97.1206     7.8182     2.4685     0.1147     0.0520
  876.5000   -39.6772    14.4424     9.9182    12.6403    98.0683     7.8175     2.4547     0.1194     0.0491
  877.0000   -39.6595    14.3563     9.8562    12.4800    98.3733     7.8167     2.4410     0.1240     0.0461
  877.5000   -39.6418    14.2707     9.7715    12.2932    98.6423     7.8160     2.4271     0.1287     0.0445
  878.0000   -39.6240    14.1856     9.7898    12.3649    99.6878     7.8153     2.4264     0.1275     0.0449
  878.5000   -39.6063    14.1086     9.8192    12.4805   100.4491     7.8146     2.4327     0.1250     0.0452
  879.0000   -39.5886    14.1193     9.8485    12.5971   100.2490     7.8139     2.4391     0.1225     0.0456
  879.5000   -39.5708    14.1291     9.8781    12.7149   100.2236     7.8132     2.4455     0.1199     0.0459
  880.0000   -39.5531    14.1389     9.9076    12.8337   101.0174     7.8125     2.4531     0.1168     0.0462
  880.5000   -39.5354    14.1487     9.9373    12.9537   101.0516     7.8117     2.4615     0.1113     0.0485
  881.0000   -39.5176    14.1585     9.9671    13.1093   100.6882     7.8110     2.4698     0.1059     0.0515
  881.5000   -39.4999    14.1683     9.9969    12.9471   100.8304     7.8103     2.4782     0.1004     0.0563
  882.0000   -39.4822    14.1782    10.0268    12.7238   101.4528     7.8096     2.4860     0.0948     0.0600
  882.5000   -39.4644    14.1880    10.0569    12.5043   100.5294     7.8089     2.4854     0.0954     0.0632
  883.0000   -39.4467    14.1978    10.0870    12.2887    99.4923     7.8082     2.4846     0.0960     0.0625
  883.5000   -39.4290    14.2077    10.1172    12.1808    98.3935     7.8075     2.4824     0.0974     0.0597
  884.0000   -39.4112    14.2176    10.1475    12.2759    96.9368     7.8067     2.4755     0.1008     0.0569
  884.5000   -39.3935    14.2273    10.1779    12.3509    96.5145     7.8060     2.4700     0.1042     0.0540
  885.0000   -39.3758    14.2377    10.2085    12.4092    96.6770     7.8053     2.4736     0.1042     0.0519
  885.5000   -39.3580    14.2124    10.2306    12.1022    98.3641     7.8046     2.4773     0.1019     0.0507
  886.0000   -39.3403    14.1808    10.2306    11.8161   100.3039     7.8039     2.4811     0.0995     0.0517
  886.5000   -39.3225    14.1496    10.1123    11.4225   102.2491     7.8032     2.4850     0.0972     0.0536
  887.0000   -39.3048    14.1184     9.9580    11.4789   104.1864     7.8037     2.4892     0.0948     0.0556
  887.5000   -39.2871    14.0872     9.8061    11.5762   106.1308     7.8057     2.4934     0.0925     0.0545
  888.0000   -39.2693    14.0561     9.6564    11.6743   107.2671     7.8077     2.4903     0.0933     0.0515
  888.5000   -39.2516    14.0251     9.5091    11.7733   107.4782     7.8097     2.4845     0.0971     0.0485
  889.0000   -39.2339    13.9942     9.3330    11.8731   106.4032     7.8117     2.4786     0.1008     0.0470
  889.5000   -39.2161    13.9633     9.3397    11.9738   104.5589     7.8137     2.4727     0.1046     0.0492
  890.0000   -39.1984    13.9326     9.3479    12.0753   102.6862     7.8157     2.4674     0.1070     0.0514
  890.5000   -39.1807    13.9020     9.3565    12.1777   105.3743     7.8177     2.4723     0.1042     0.0535
  891.0000   -39.1629    13.8722     9.3650    12.2810   109.0508     7.8197     2.4775     0.1014     0.0556
  891.5000   -39.1452    13.7578     9.3734    12.4066   112.6426     7.8217     2.4828     0.0986     0.0579
  892.0000   -39.1275    13.5069     9.3819    12.3255   114.6187     7.8236     2.4881     0.0966     0.0584
  892.5000   -39.1097    13.2303     9.3904    12.1923   110.5908     7.8257     2.4902     0.0960     0.0582
  893.0000   -39.0920    13.3136     9.3989    12.0604   107.1908     7.8276     2.4896     0.0976     0.0556
  893.5000   -39.0743    13.4095     9.4073    11.9300   105.0268     7.8296     2.4781     0.1021     0.0503
  894.0000   -39.0565    13.5061     9.4185    11.8498   104.7878     7.8316     2.4666     0.1068     0.0441
  894.5000   -39.0388    13.5997     9.3959    12.0692   105.1993     7.8336     2.4676     0.1059     0.0435
  895.0000   -39.0210    13.5778     9.3582    12.2306   105.2966     7.8356     2.4695     0.1048     0.0429
  895.5000   -39.0032    13.5558     9.3206    12.4066   104.5614     7.8376     2.4709     0.1053     0.0422
  896.0000   -38.9877    13.5341     9.2831    12.2490   102.8921     7.8396     2.4682     0.1067     0.0416
  896.5000   -38.9880    13.5125     9.2458    11.9580   101.7807     7.8415     2.4654     0.1082     0.0409
  897.0000   -38.9881    13.4908     9.2087    11.6751   104.9358     7.8373     2.4631     0.1096     0.0409
  897.5000   -38.9881    13.4560     9.1717    11.3989   108.2102     7.8265     2.4685     0.1097     0.0450
  898.0000   -38.9881    13.3830     9.1348    11.1780   110.5760     7.8157     2.4742     0.1035     0.0490
  898.5000   -38.9881    13.3114     9.0981    11.0640   111.2704     7.8048     2.4799     0.0974     0.0530
  899.0000   -38.9881    13.2400     9.0616    10.9110   110.2244     7.7940     2.4830     0.0972     0.0535
  899.5000   -38.9881    13.1690     9.0251    11.0938   109.5878     7.7831     2.4776     0.1003     0.0524
  900.0000   -38.9881    13.0983     8.9889    11.3988   109.4126     7.7723     2.4748     0.1032     0.0512
  900.5000   -38.9881    13.0281     8.9528    11.8498   108.9150     7.7646     2.4775     0.1026     0.0499
  901.0000   -38.9881    12.9582     8.9168    11.7787   106.7001     7.7803     2.4799     0.1008     0.0487
  901.5000   -38.9881    12.8887     8.8809    11.6504   107.2575     7.7958     2.4754     0.1028     0.0475
  902.0000   -38.9881    12.8195     8.8453    11.5278   107.2762     7.8112     2.4706     0.1084     0.0463
  902.5000   -38.9881    12.7508     8.8328    11.5612   105.9489     7.8230     2.4661     0.1092     0.0451
  903.0000   -38.9881    12.6824     8.8328    11.5935   107.4132     7.8227     2.4683     0.1076     0.0439
  903.5000   -38.9881    12.6098     8.8326    11.6342   108.8039     7.8227     2.4709     0.1062     0.0426
  904.0000   -38.9881    12.5285     8.8327    11.3178   110.1802     7.8227     2.4696     0.1060     0.0441
  904.5000   -38.9881    12.4476     8.8327    10.9075   111.0622     7.8227     2.4679     0.1083     0.0465
  905.0000   -38.9881    12.3673     8.7344    10.5121   111.0394     7.8227     2.4663     0.1107     0.0489
  905.5000   -38.9881    12.2917     8.6148    10.2306   111.1370     7.8227     2.4646     0.1107     0.0513
  906.0000   -38.9881    12.0422     8.4969    10.2306   113.5023     7.8227     2.4630     0.1092     0.0537
  906.5000   -38.9881    11.8105     8.3806    10.2306   117.1893     7.8227     2.4668     0.1077     0.0562
  907.0000   -38.9881    11.5841     8.2659    10.2306   119.1425     7.8227     2.4692     0.1078     0.0536
  907.5000   -38.9881    11.3622     8.1527    10.2306   118.3788     7.8227     2.4705     0.1084     0.0505
  908.0000   -38.9881    11.1446     7.7378     9.8863   117.9114     7.8227     2.4824     0.0991     0.0532
  908.5000   -38.9881    10.8713     7.2807     9.3575   119.3589     7.8227     2.4975     0.0893     0.0563
  909.0000   -38.9881    10.5141     6.8506     8.8570   118.6019     7.8227     2.5106     0.0817     0.0562
  909.5000   -38.9881    10.1687     6.4459     8.3592   117.8268     7.8227     2.5039     0.0872     0.0511
  910.0000   -38.9881     9.8360     6.0651     7.8137   119.1124     7.8227     2.4958     0.0918     0.0459
  910.5000   -38.9881     9.5272     5.7068     7.2766   124.2652     7.8227     2.4878     0.0963     0.0406
  911.0000   -38.9881     8.5743     5.3697     6.7764   125.1071     7.8227     2.4849     0.0970     0.0414
  911.5000   -38.9881     6.8120     5.0525     6.3106   122.1059     7.8227     2.4875     0.0961     0.0427
  912.0000   -38.9881     4.6873     4.7305     5.8430   117.5635     7.8227     2.4865     0.0952     0.0439
