~VERSION INFORMATION
 VERS.                2.0:   CWLS LOG ASCII STANDARD - VERSION 2.0
 WRAP.                 NO:   ONE LINE PER DEPTH STEP
~WELL INFORMATION
#MNEM.UNIT      DATA TYPE    INFORMATION
#----------   ------------   ------------------------------
 STRT.F            0.0000:   START DEPTH
 STOP.F          489.0000:   STOP DEPTH
 STEP.F            0.5000:   STEP LENGTH
 NULL.          -999.2500:   NO VALUE
 COMP.   FLUOR DANIEL INC:   COMPANY
 WELL. NAVAL PETROLEUM RES 3 SX-3 44 #1-3:   WELL
 FLD .             TEAPOT:   FIELD
 LOC .       S3 T38N R78W:   LOCATION
 CNTY.            NATRONA:   COUNTY
 STAT.            WYOMING:   STATE
 CTRY. UNITED STATES OF AMERICA:   COUNTRY
 SRVC.      Western Atlas:   SERVICE COMPANY
 DATE.        10-JUL-1995:   LOGDATE
 API .       490252273800:   API NUMBER
~CURVE INFORMATION
#MNEM.UNIT       API CODE    CURVE DESCRIPTION
#----------   ------------   ------------------------------
 DEPT.F                  :   
 RILD.OHMM   07 120 46 00:   INDUCTION LOG DEEP RESISTIVITY
 RILM.OHMM   07 120 44 00:   INDUCTION LOG MEDIUM RESISTIVITY
 GRR .GAPI   07 310 01 00:   GAMMA RAY FROM RES. LOG.
~PARAMETER INFORMATION
#MNEM.UNIT          VALUE    DESCRIPTION
#----------   ------------   ------------------------------
 PD  .                 GL:   PERMANENT DATUM
 EPD .F              5164:   ELEVATION PERMANENT DATUM
 LMF .                 KB:   LOG MEASURED FROM
 DAPD.F                10:   FEET ABOVE PERMANENT DATUM
 DMF .                 KB:   DRILLING MEASURED FROM
 EKB .F              5174:   KELLING BUSHING
 EDF .F              5173:   DRILLING FLOOR
 EGL .F              5164:   GROUND LEVEL
 DATE.            7-10-95:   RUN DATE
 RUN .                  1:   RUN NUMBER
 DD  .F               500:   DEPTH DRILLER
 DL  .F               500:   DEPTH LOGGER
 BLI .F               494:   BOTTOM LOG INTERVAL
 TLI .F                53:   TOP LOG INTERVAL
 CS  .IN            9.625:   CASING SIZE
 CBD .F                53:   CASING BOTTOM DRILLER
 CBL .F                53:   CASING BOTTOM LOGGER
 BS  .IN             8.75:   BIT SIZE
 BSD .F               500:   BIT SIZE AT DEPTH
 DFT .                AIR:   DRILLING FLUID TYPE
 BHT .F                92:   BOTTOM HOLE TEMPERATURE
 MRT .F                92:   MAXIMUM RECORDED TEMPERATURE
 LUN .            HL 6530:   LOGGING UNIT NUMBER
 LUL .             CASPER:   LOGGING UNIT LOCATION
 ENGI.          RASMUSEEN:   RECORDING ENGINEER
 WITN.             STRONG:   WITNESSED BY
 CLNT.            A2DTECH:   CLIENT CODE
 ORIG.       2", 5" PRINT:   ORIGIN OF DATA
 UWI .       490252273800:   UNIQUE WELL ID
 DICO. A2D Technologies, Inc.:   DIGITIZING COMPANY
~OTHER INFORMATION
~A    DEPT    RILD       RILM          GRR 
# ...
  273.0000     5.5720     5.7776   119.4506
  273.5000     5.3196     4.9844   121.2619
  274.0000     5.1696     5.0306   123.9022
  274.5000     5.0797     5.1332   125.8377
  275.0000     5.0922     5.2781   125.2496
  275.5000     5.1086     5.4187   124.6798
  276.0000     5.1209     5.7372   126.7289
  276.5000     5.4636     6.1367   128.1210
  277.0000     5.8644     6.5640   125.7942
  277.5000     6.2980     7.0165   122.5981
  278.0000     6.7622     7.3619   121.0690
  278.5000     7.2669     7.7662   121.1988
  279.0000     7.6949     7.9564   121.3094
  279.5000     7.9299     8.1349   121.4068
  280.0000     7.9842     8.2084   121.9371
  280.5000     8.0144     8.2335   125.3179
  281.0000     8.0441     8.2640   127.7619
  281.5000     8.0582     8.2882   128.6880
  282.0000     8.0582     8.3148   125.7496
  282.5000     8.0582     8.3415   123.4009
  283.0000     8.0582     8.3683   125.2517
  283.5000     8.0582     8.3952   126.6630
  284.0000     8.0582     8.4222   120.8254
  284.5000     8.0582     8.4383   115.3696
  285.0000     8.0581     8.4181   110.2388
  285.5000     8.0589     8.3841   110.2023
  286.0000     8.0773     8.3607   114.6669
  286.5000     8.0948     8.3614   119.0905
  287.0000     8.1126     8.3617   121.5646
  287.5000     8.1304     8.3588   123.5498
  288.0000     8.2777     8.4765   125.4117
  288.5000     8.4500     8.6530   123.4345
  289.0000     8.6757     8.8373   118.3587
  289.5000     8.5834     9.1773   113.9915
  290.0000     8.4353     9.2547   110.0169
  290.5000     7.6652     8.7150   106.8553
  291.0000     6.9923     8.1391   107.4288
  291.5000     6.3822     6.6827   109.6149
  292.0000     5.9426     5.5195   114.1797
  292.5000     5.8550     5.2131   118.9907
  293.0000     5.8040     5.1268   124.2609
  293.5000     5.7803     5.6747   127.8965
  294.0000     5.8742     6.1358   126.0553
  294.5000     5.9426     6.6456   122.9593
  295.0000     6.1706     7.2387   119.4928
  295.5000     6.5371     7.7964   116.2404
  296.0000     7.3085     8.6352   114.5782
  296.5000     8.3292     9.3637   114.2121
  297.0000     9.2175    10.0562   114.8424
  297.5000     9.8763    10.1525   114.0009
  298.0000     9.8925    10.1664   110.7369
  298.5000     9.9152    10.1884   108.7266
  299.0000     9.9379    10.2124   111.6465
  299.5000     9.9607    10.2358   113.7196
  300.0000    10.1494    10.7906   112.3787
  300.5000    11.1773    11.5941   109.5380
  301.0000    11.9297    12.4678   104.0841
  301.5000    12.6271    13.8890    96.7487
  302.0000    13.9078    15.4721    84.8953
  302.5000    15.4878    17.2357    70.2627
  303.0000    17.0657    19.2003    60.1756
  303.5000    18.6923    20.7610    59.7657
  304.0000    20.4195    22.2394    60.7020
  304.5000    21.5893    22.9535    59.6606
  305.0000    22.8485    23.7644    59.2625
  305.5000    23.9434    24.6156    59.7239
  306.0000    24.1654    24.8438    59.8734
  306.5000    24.1654    24.6156    56.1028
  307.0000    24.1654    24.6156    53.9895
  307.5000    24.1654    24.6156    54.6129
  308.0000    24.0437    24.6156    56.2864
  308.5000    23.8034    24.4476    58.2170
  309.0000    23.5656    24.2172    59.9936
  309.5000    23.3301    23.9890    59.7384
  310.0000    23.0970    23.7627    59.4452
  310.5000    22.8662    23.5385    60.0229
  311.0000    22.6537    23.3138    63.8891
  311.5000    22.8368    23.2896    68.7831
  312.0000    23.0733    23.7235    73.7606
  312.5000    23.3841    23.9562    73.5990
  313.0000    23.8139    24.3945    70.2547
  313.5000    24.1654    24.8484    66.9052
  314.0000    24.6988    25.8209    63.6396
  314.5000    25.3761    26.7475    61.5375
  315.0000    26.0171    26.7475    61.2620
  315.5000    26.0847    26.7003    60.9727
  316.0000    26.2222    26.5428    62.0085
  316.5000    26.2583    26.2983    66.0621
  317.0000    25.5070    26.0170    68.7141
  317.5000    24.9640    25.4572    67.1880
  318.0000    24.4290    24.8982    68.4080
  318.5000    23.9453    24.3819    71.6753
  319.0000    24.3427    24.7440    73.0141
  319.5000    24.8474    25.2822    73.4335
  320.0000    24.8405    25.5413    76.4412
  320.5000    25.1130    25.8275    79.0298
  321.0000    25.3515    26.1350    77.7004
  321.5000    25.5927    26.4462    75.0310
  322.0000    26.0171    26.7475    73.3019
  322.5000    25.8535    26.3618    71.9775
  323.0000    25.6126    25.9973    69.6387
  323.5000    25.0942    25.6378    68.9077
  324.0000    24.4658    24.9622    70.0723
  324.5000    23.8558    24.1844    72.9046
  325.0000    23.2896    23.4335    75.2854
  325.5000    22.7448    22.8240    76.7308
  326.0000    22.4455    22.6537    77.2076
  326.5000    22.1288    22.3730    78.5223
  327.0000    21.9965    22.0495    78.4707
  327.5000    21.8667    21.8326    77.8542
  328.0000    21.8326    21.8469    78.5921
  328.5000    21.8326    21.9412    80.9524
  329.0000    21.8329    22.0358    82.1257
  329.5000    21.8329    22.1308    81.2054
  330.0000    21.8288    22.2263    79.5101
  330.5000    22.0771    22.3963    77.6551
  331.0000    22.3106    22.6332    77.7107
  331.5000    22.5466    22.8726    77.4663
  332.0000    22.9008    23.2896    77.1017
  332.5000    23.1343    23.4723    77.6640
  333.0000    23.3702    23.7122    78.9173
  333.5000    23.5056    23.9435    77.8924
  334.0000    23.5740    23.9872    75.7541
  334.5000    23.6396    24.0538    76.9053
  335.0000    23.7066    24.1209    78.9220
  335.5000    23.7225    24.1654    80.2594
  336.0000    23.5984    24.1040    80.7978
  336.5000    23.4339    23.9356    77.4815
  337.0000    23.2700    23.7683    73.8266
  337.5000    23.1076    23.6025    72.3324
  338.0000    22.9457    23.4376    74.2505
  338.5000    22.7577    23.2452    76.1522
  339.0000    22.4014    22.7963    77.8507
  339.5000    22.0508    22.3557    78.7688
  340.0000    21.7054    21.9241    79.6732
  340.5000    21.3655    21.6098    81.1113
  341.0000    21.0310    21.3294    82.4806
  341.5000    20.7015    21.0526    82.5952
  342.0000    20.3764    20.7795    79.9869
  342.5000    20.0602    20.5098    76.8635
  343.0000    19.9052    20.2788    74.6162
  343.5000    19.9543    20.1739    74.5627
  344.0000    20.0043    20.0925    75.6149
  344.5000    20.0540    20.4229    76.9912
  345.0000    20.0933    20.6661    79.1273
  345.5000    20.0417    20.9138    80.0028
  346.0000    19.9622    21.0405    78.6464
  346.5000    19.8840    20.8474    76.3686
  347.0000    19.8090    20.8512    75.5448
  347.5000    19.7190    20.8515    75.3064
  348.0000    19.2512    20.1412    74.7140
  348.5000    18.8722    19.5540    74.0637
  349.0000    18.4976    19.0102    75.1941
  349.5000    18.1255    18.8086    78.5580
  350.0000    17.7608    18.6180    81.9239
  350.5000    17.6572    18.4911    81.6870
  351.0000    18.5563    19.3115    78.9550
  351.5000    19.3643    20.4585    77.2630
  352.0000    20.4483    22.7813    79.0496
  352.5000    21.5644    25.6226    78.7143
  353.0000    22.7414    28.8182    73.7403
  353.5000    23.5055    31.0035    68.1864
  354.0000    23.5055    30.2393    62.6600
  354.5000    23.5055    28.2104    59.9778
  355.0000    23.0102    25.7681    58.9447
  355.5000    21.7227    23.0173    58.7794
  356.0000    20.2456    21.2527    61.0999
  356.5000    18.8707    19.7899    66.0271
  357.0000    17.5938    18.4321    72.3130
  357.5000    16.3813    17.1675    76.1063
  358.0000    15.7403    16.2499    78.7211
  358.5000    15.3619    15.6609    79.2908
  359.0000    15.3004    15.7990    79.2047
  359.5000    15.2393    15.9528    79.1076
  360.0000    15.1783    15.8929    79.0214
  360.5000    15.1176    15.8082    78.9134
  361.0000    15.0572    15.7234    77.4515
  361.5000    14.9970    15.5788    76.0804
  362.0000    14.9448    15.2333    76.8462
  362.5000    14.8493    15.1632    78.7505
  363.0000    14.7544    15.0663    80.1475
  363.5000    14.6237    14.9700    80.1209
