~VERSION INFORMATION
 VERS.                2.0:   CWLS LOG ASCII STANDARD - VERSION 2.0
 WRAP.                 NO:   ONE LINE PER DEPTH STEP
~WELL INFORMATION
#MNEM.UNIT      DATA TYPE    INFORMATION
#----------   ------------   ------------------------------
 STRT.F           20.0000:   START DEPTH
 STOP.F          505.0000:   STOP DEPTH
 STEP.F            0.5000:   STEP LENGTH
 NULL.          -999.2500:   NO VALUE
 COMP.    FENIX & SCISSON:   COMPANY
 WELL.   NPR #3 #56-SX-10:   WELL
 FLD .             TEAPOT:   FIELD
 LOC .      S10 T38N R78W:   LOCATION
 CNTY.            NATRONA:   COUNTY
 STAT.            WYOMING:   STATE
 CTRY. UNITED STATES OF AMERICA:   COUNTRY
 SRVC.              Welex:   SERVICE COMPANY
 DATE.        01-MAY-1980:   LOGDATE
 API .       490251081300:   API NUMBER
~CURVE INFORMATION
#MNEM.UNIT       API CODE    CURVE DESCRIPTION
#----------   ------------   ------------------------------
 DEPT.F                  :   
 ILD .OHMM   07 120 46 00:   INDUCTION LOG DEEP
 ILM .OHMM   07 120 44 00:   INDUCTION LOG MEDIUM
 SGRD.OHMM   07 220 05 00:   SHALLOW GUARD RESISTIVITY
 SPR .MV     07 010 01 00:   SPONATANEOUS POTENTIAL FROM RES.
 CALD.IN     45 280 60 00:   CALIPER FROM DENSITY LOG
 DPHI.DEC    45 890 12 00:   DENSITY POROSITY SANDSTONE
 DRHO.G/C3   45 356 01 00:   DENSITY CORRECTION
 GRD .GAPI   45 310 01 00:   GAMMA RAY FROM DENSITY LOG
 RHOB.G/C3   45 350 01 00:   BULK DENSITY
~PARAMETER INFORMATION
#MNEM.UNIT          VALUE    DESCRIPTION
#----------   ------------   ------------------------------
 PD  .                 GL:   PERMANENT DATUM
 EPD .F              5180:   ELEVATION PERMANENT DATUM
 LMF .                 KB:   LOG MEASURED FROM
 DAPD.F                 4:   FEET ABOVE PERMANENT DATUM
 DMF .                 KB:   DRILLING MEASURED FROM
 EKB .F              5184:   KELLING BUSHING
 EGL .F              5180:   GROUND LEVEL
 DATE.        01-MAY-1980:   RUN DATE
 RUN .                  1:   RUN NUMBER
 DD  .F               489:   DEPTH DRILLER
 DL  .F               506:   DEPTH LOGGER
 BLI .F               504:   BOTTOM LOG INTERVAL
 TLI .F                30:   TOP LOG INTERVAL
 BS  .IN            7.875:   BIT SIZE
 BSD .F               489:   BIT SIZE AT DEPTH
 DFT .    WATER BASED MUD:   DRILLING FLUID TYPE
 DFD .                9.9:   DRILLING FLUID DENSITY
 DFV .                 46:   DRILLING FLUID VISCOSITY
 MSS .                PIT:   MUD SAMPLE SOURCE
 RMS .OHMM           0.99:   RESISTIVITY MUD SAMPLE
 MST .F                75:   MUD SAMPLE TEMPERATURE
 RMF .OHMM           0.78:   RESISTIVITY MUD FILTRATE SAMPLE
 MFST.F                75:   MUD FILTRATE SAMPLE TEMPERATURE
 RMC .OHMM           1.18:   RESISTIVITY MUD CAKE
 MCST.F                75:   MUD CAKE SAMPLE TEMPERATURE
 MFSS.               MEAS:   MUD FILTRATE SAMPLE SOURCE
 MCSS.               MEAS:   MUD CAKE SAMPLE SOURCE
 BHT .F               100:   BOTTOM HOLE TEMPERATURE
 TCS .HRS               1:   TIME CURCULATED STOPPED
 MRT .F               100:   MAXIMUM RECORDED TEMPERATURE
 LUN .               9685:   LOGGING UNIT NUMBER
 LUL .             CASPER:   LOGGING UNIT LOCATION
 ENGI.            TOTHILL:   RECORDING ENGINEER
 WITN.           DINSMORE:   WITNESSED BY
 CLNT.            A2DTECH:   CLIENT CODE
 ORIG.           5" PRINT:   ORIGIN OF DATA
 UWI .       490251081300:   UNIQUE WELL ID
 DICO. A2D Technologies, Inc.:   DIGITIZING COMPANY
~OTHER INFORMATION
~A   DEPT       ILD        ILM      SGRD        SPR       CALD       DPHI       DRHO        GRD       RHOB   
# ...
  348.5000    10.3283    13.2220    15.1302   -29.1569     8.2865     0.1520     0.0067    76.9884     2.4023
  349.0000    10.3283    13.1314    15.2168   -29.0483     8.3028     0.1343     0.0292    78.1332     2.4147
  349.5000    10.6181    13.1296    15.0076   -29.0009     8.3190     0.1223     0.0532    79.0522     2.4504
  350.0000    10.6919    13.0376    14.8013   -28.9980     8.3353     0.1142     0.0577    79.8429     2.4570
  350.5000     9.9776    13.0361    14.4972   -28.9791     8.3214     0.1109     0.0497    80.4705     2.4556
  351.0000    10.1175    13.0346    14.1994   -28.8427     8.2923     0.1157     0.0293    80.6753     2.4444
  351.5000    10.1885    13.0332    14.1015   -28.8398     8.2483     0.1193     0.0203    79.7850     2.4438
  352.0000    10.2599    13.0317    14.3973   -28.8371     8.3240     0.1184     0.0233    78.8948     2.4446
  352.5000    10.4036    13.0302    14.9084   -28.8341     8.3846     0.1298     0.0173    78.0008     2.4266
  353.0000    10.4766    12.9389    15.0076   -28.6816     8.2959     0.1336     0.0068    77.0949     2.4138
  353.5000    10.5502    12.8482    15.0076   -28.8185     8.2369     0.1399    -0.0036    76.1890     2.3914
  354.0000    10.6979    12.7582    14.9041   -28.9633     8.1928     0.1588    -0.0201    75.3336     2.3741
  354.5000    10.7729    12.7564    15.1118   -28.9581     8.1338     0.1624    -0.0276    74.6725     2.3779
  355.0000    10.9996    12.6670    15.4288   -28.9337     8.1347     0.1540    -0.0151    74.4566     2.3937
  355.5000    11.0768    12.7253    15.5360   -28.7989     8.1955     0.1384     0.0084    74.4733     2.4095
  356.0000    11.1544    12.8406    15.6438   -28.7945     8.1964     0.1297     0.0264    74.7125     2.4290
  356.5000    11.1552    12.7506    15.7525   -28.7554     8.1823     0.1237     0.0354    75.4035     2.4493
  357.0000    11.0744    12.6612    15.5360   -28.6368     8.1834     0.1180     0.0324    76.0946     2.4576
  357.5000    10.7031    12.4858    15.3028   -28.6320     8.1843     0.1227     0.0220    77.2374     2.4404
  358.0000    10.4116    12.4844    14.8684   -28.6278     8.1852     0.1251     0.0160    78.6061     2.4382
  358.5000    10.1281    12.4830    14.3973   -28.4738     8.2010     0.1299     0.0100    79.9749     2.4269
  359.0000     9.8522    12.4816    14.0042   -28.4694     8.2019     0.1320     0.0145    80.8918     2.4240
  359.5000     9.6503    12.5768    13.7165   -28.4649     8.2028     0.1306     0.0129    81.5828     2.4263
  360.0000     9.4528    12.6529    13.4347   -28.4596     8.2186     0.1338     0.0056    81.8223     2.4192
  360.5000     9.3883    12.7391    13.4347   -28.4552     8.2043     0.1391     0.0026    81.5791     2.4081
  361.0000     9.3889    12.8260    13.4347   -28.4509     8.2054     0.1436     0.0011    80.4966     2.4067
  361.5000     9.3896    13.0975    13.5280   -28.5971     8.1764     0.1436     0.0041    79.1545     2.4061
  362.0000     9.5212    13.4596    13.8213   -28.8917     8.0874     0.1451     0.0026    77.3606     2.3971
  362.5000     9.7891    13.8354    14.5979   -29.1852     8.2680     0.1520    -0.0064    76.2444     2.3791
  363.0000    10.1344    14.1244    15.8618   -29.6293     8.2516     0.1607    -0.0081    75.5800     2.3747
  363.5000    10.7863    14.5188    17.7189   -30.3901     8.2248     0.1642    -0.0018    74.6897     2.3687
  364.0000    12.2179    14.8217    21.8070   -31.2905     8.2107     0.1735    -0.0033    73.7961     2.3552
  364.5000    13.9356    15.0269    26.1055   -32.0078     8.2118     0.1858    -0.0138    72.9091     2.3275
  365.0000    15.0494    15.5538    28.5628   -32.6002     8.1678     0.1969    -0.0213    71.7929     2.3095
  365.5000    17.1533    15.7688    29.7737   -32.8948     8.1088     0.2085    -0.0063    69.5472     2.2967
  366.0000    19.5648    15.8765    29.1620   -33.1905     8.0199     0.2121     0.0042    67.0756     2.2930
  366.5000    21.7062    15.8747    27.7543   -33.1851     8.0357     0.2109     0.0042    63.0227     2.2923
  367.0000    23.4245    15.8725    25.9255   -33.3303     8.0663     0.2058     0.0088    61.9065     2.3028
  367.5000    24.7595    16.2036    27.5915   -33.6248     7.9776     0.2024     0.0103    62.1988     2.3074
  368.0000    25.6519    17.0059    29.3645   -33.7699     7.9336     0.2036     0.0072    63.9696     2.3074
  368.5000    26.5375    17.6026    30.3982   -33.7644     7.9195     0.2085     0.0009    65.1124     2.2992
  369.0000    26.7236    17.7233    30.8218   -33.9106     7.8605     0.2121    -0.0077    66.0294     2.2886
  369.5000    26.7254    17.9678    30.6093   -33.9052     7.7996     0.2204    -0.0077    66.2686     2.2804
  370.0000    26.7272    18.0910    29.7737   -34.0514     7.8024     0.2231    -0.0166    66.0527     2.2741
  370.5000    26.5442    17.9638    28.9609   -34.1965     7.7436     0.2273    -0.0256    65.6175     2.2673
  371.0000    26.1815    18.0865    28.3560   -34.1911     7.7143     0.2252    -0.0256    65.1790     2.2700
  371.5000    26.0028    18.2100    29.2589   -34.3363     7.8052     0.2237    -0.0301    65.1923     2.2716
  372.0000    26.0046    18.4612    30.8218   -34.3318     7.9109     0.2294    -0.0361    64.9764     2.2633
  372.5000    26.0067    18.7169    31.6869   -34.3274     7.8369     0.2216    -0.0316    64.9002     2.2784
  373.0000    25.8291    18.7143    31.0359   -34.4723     7.8077     0.2165    -0.0255    64.3287     2.2829
  373.5000    26.0102    18.7121    29.9804   -34.4671     7.8686     0.2154    -0.0270    63.7820     2.2859
  374.0000    26.1926    18.7100    28.9609   -34.7617     7.9144     0.2159    -0.0300    63.2229     2.2927
  374.5000    26.5594    18.7079    29.9804   -34.9079     7.7956     0.2047    -0.0150    62.5399     2.3070
  375.0000    26.7456    18.7058    31.0359   -34.9025     7.7515     0.1975    -0.0090    61.8599     2.3146
  375.5000    26.1978    18.8336    30.8165   -35.0487     7.7524     0.1990    -0.0074    60.7842     2.3108
  376.0000    26.1996    18.8315    28.9078   -35.3422     7.7533     0.1938     0.0002    60.3457     2.3221
  376.5000    26.0207    18.6995    27.7830   -35.4873     7.8453     0.2000    -0.0164    60.1298     2.3132
  377.0000    25.6648    18.4399    28.3658   -35.4828     7.9347     0.2074    -0.0314    60.5982     2.2982
  377.5000    25.4895    18.0590    30.8218   -35.4775     7.9329     0.2095    -0.0314    61.5152     2.2989
  378.0000    24.9679    17.6860    32.5762   -35.1742     7.9065     0.1942     0.0181    62.6580     2.3245
  378.5000    24.6264    17.6840    30.6093   -35.0203     7.9525     0.1762     0.0226    63.8008     2.3479
  379.0000    24.1220    17.5601    28.7611   -34.8665     7.9085     0.1735     0.0226    64.2660     2.3531
  379.5000    23.7921    16.7279    26.2868   -34.8621     7.8196     0.1714     0.0331    64.5052     2.3602
  380.0000    23.3048    16.3824    24.6996   -34.8578     7.8504     0.1674     0.0406    64.7444     2.3659
  380.5000    22.8279    16.3805    24.7182   -34.8534     7.8812     0.1665     0.0302    65.4355     2.3622
  381.0000    22.3604    16.3787    25.3928   -34.8490     7.8222     0.1716     0.0242    66.8057     2.3570
  381.5000    22.0542    16.3768    25.5692   -34.8445     7.8830     0.1830     0.0107    67.9819     2.3382
  382.0000    21.7525    16.2616    25.0438   -34.6898     7.9438     0.1806    -0.0013    69.1235     2.3323
  382.5000    21.9052    16.2598    24.6996   -34.6861     7.9446     0.1893    -0.0073    70.0101     2.3308
  383.0000    21.6055    16.1459    24.1922   -34.6810     7.9305     0.1877    -0.0088    70.7012     2.3316
  383.5000    21.1634    15.7033    23.8597   -34.6767     7.9015     0.1856    -0.0025    71.3922     2.3346
  384.0000    21.0185    15.3789    24.3601   -34.6723     7.9637     0.1837     0.0078    71.8573     2.3421
  384.5000    20.4464    15.3772    24.8675   -34.3690     7.9458     0.1811     0.0003    71.8707     2.3444
