~VERSION INFORMATION
 VERS.                2.0:   CWLS LOG ASCII STANDARD - VERSION 2.0
 WRAP.                 NO:   ONE LINE PER DEPTH STEP
~WELL INFORMATION
#MNEM.UNIT      DATA TYPE    INFORMATION
#----------   ------------   ------------------------------
 STRT.F          283.5000:   START DEPTH
 STOP.F         3026.0000:   STOP DEPTH
 STEP.F            0.5000:   STEP LENGTH
 NULL.          -999.2500:   NO VALUE
 COMP. DEPARTMENT OF ENERGY:   COMPANY
 WELL. RES 3 TEAPOT DOM "AX" #62-29:   WELL
 FLD .        TEAPOT DOME:   FIELD
 LOC .      S29 T39N R78W:   LOCATION
 CNTY.            NATRONA:   COUNTY
 STAT.            WYOMING:   STATE
 CTRY. UNITED STATES OF AMERICA:   COUNTRY
 SRVC.       Schlumberger:   SERVICE COMPANY
 DATE.        27-JUL-1971:   LOGDATE
 API .       490250659800:   API NUMBER
~CURVE INFORMATION
#MNEM.UNIT       API CODE    CURVE DESCRIPTION
#----------   ------------   ------------------------------
 DEPT.F                  :   
 GRD .GAPI   45 310 01 00:   GAMMA RAY FROM DENSITY LOG
 CALD.IN     45 280 60 00:   CALIPER FROM DENSITY LOG
 RHOB.G/C3   45 350 01 00:   BULK DENSITY
 DPHI.DEC    45 890 12 00:   DENSITY POROSITY SANDSTONE
 CORR.G/C3   45 356 01 00:   DENSITY CORRECTION
 SPR .MV     05 010 01 00:   SPONTANEOUS POTENTIAL FROM RES.
 ASN .OHMM   05 041 16 00:   AMPLIFIED SHORT NORMAL 16"
 ILD .OHMM   05 120 46 00:   INDUCTION LOG DEEP
 CILD.MMHO   05 110 46 00:   CONDUCTIVITY INDUCTION LOG DEEP
~PARAMETER INFORMATION
#MNEM.UNIT          VALUE    DESCRIPTION
#----------   ------------   ------------------------------
 PD  .                 GL:   PERMANENT DATUM
 EPD .F              4998:   ELEVATION PERMANENT DATUM
 LMF .                 KB:   LOG MEASURED FROM
 DAPD.F                11:   FEET ABOVE PERMANENT DATUM
 DMF .                 KB:   DRILLING MEASURED FROM
 EKB .F              5009:   KELLING BUSHING
 EGL .F              4998:   GROUND LEVEL
 DATE.            7-27-71:   RUN DATE
 RUN .                  1:   RUN NUMBER
 DD  .F              3023:   DEPTH DRILLER
 DL  .F              3024:   DEPTH LOGGER
 BLI .F              3023:   BOTTOM LOG INTERVAL
 TLI .F               286:   TOP LOG INTERVAL
 CS  .IN            10.75:   CASING SIZE
 CBD .F               287:   CASING BOTTOM DRILLER
 CBL .F               286:   CASING BOTTOM LOGGER
 BS  .IN                9:   BIT SIZE
 BSD .F              3023:   BIT SIZE AT DEPTH
 DFT .      FRESH GEL MUD:   DRILLING FLUID TYPE
 DFD .                 10:   DRILLING FLUID DENSITY
 DFV .                 90:   DRILLING FLUID VISCOSITY
 DFPH.                7.6:   DRILLING FLUID PH
 DFL .                5.8:   DRILLING FLUID LOSS
 MSS .          FLOW LINE:   MUD SAMPLE SOURCE
 RMS .OHMM           1.74:   RESISTIVITY MUD SAMPLE
 MST .F                75:   MUD SAMPLE TEMPERATURE
 RMF .OHMM            1.5:   RESISTIVITY MUD FILTRATE SAMPLE
 MFST.F                75:   MUD FILTRATE SAMPLE TEMPERATURE
 MFSS.                  C:   MUD FILTRATE SAMPLE SOURCE
 RMB .OHMM           1.12:   RESISTIVITY MUD AT BHT
 BHT .F               116:   BOTTOM HOLE TEMPERATURE
 TCS .HRS               5:   TIME CURCULATED STOPPED
 MRT .F               116:   MAXIMUM RECORDED TEMPERATURE
 LUN .               7041:   LOGGING UNIT NUMBER
 LUL .               CSPR:   LOGGING UNIT LOCATION
 ENGI.             KNOBEL:   RECORDING ENGINEER
 WITN.                MAY:   WITNESSED BY
 CLNT.            A2DTECH:   CLIENT CODE
 ORIG.     1", 2.5" PRINT:   ORIGIN OF DATA
 UWI .       490250659800:   UNIQUE WELL ID
 DICO. A2D Technologies, Inc.:   DIGITIZING COMPANY
~OTHER INFORMATION
~A   DEPT      GRD       CALD       RHOB       DPHI       CORR        SPR        ASN        ILD       CILD   
# ...
 2583.0000   114.8933     9.9495     2.5955     0.0295     0.0612   -27.5647     9.0002     6.9062   138.4210
 2583.5000   116.2054     9.9593     2.5729     0.0427     0.0497   -27.4994     8.4154     6.2342   150.5915
 2584.0000   119.4926     9.9690     2.5587     0.0493     0.0604   -27.3936     7.8365     5.6943   162.7619
 2584.5000   125.8167     9.9789     2.5453     0.0658     0.0555   -27.2854     7.1932     5.3432   174.9324
 2585.0000   138.9373     9.9887     2.5496     0.0609     0.0523   -27.2086     6.6546     5.0994   187.1029
 2585.5000   155.1494     9.9960     2.5850     0.0431     0.1014   -27.1656     6.3336     4.8144   199.2733
 2586.0000   152.9331     9.9960     2.5762     0.0470     0.0915   -27.1342     6.0913     4.4284   211.4438
 2586.5000   145.3143     9.9961     2.5286     0.0571     0.0431   -27.0952     5.7725     4.0202   223.6143
 2587.0000   138.4138     9.9960     2.5370     0.0672     0.0475   -27.0487     5.4418     3.6801   240.5941
 2587.5000   141.9379     9.9961     2.5327     0.0734     0.0503   -27.0058     5.1623     3.3866   249.5049
 2588.0000   146.0273     9.9960     2.5057     0.0809     0.0444   -26.9691     4.8435     3.0397   258.4158
 2588.5000   149.8206     9.9961     2.4860     0.0921     0.0366   -26.9301     4.5271     2.5900   336.5228
 2589.0000   154.8959     9.9964     2.4753     0.1072     0.0351   -26.8836     4.1910     2.1157   392.5069
 2589.5000   154.6198    10.0025     2.4540     0.1200     0.0363   -26.8375     3.8048     1.7701   448.4911
 2590.0000   162.1655    10.0089     2.4303     0.1328     0.0452   -26.8014     3.3182     1.6370   497.0297
 2590.5000   176.8225    10.0154     2.4184     0.1427     0.0722   -26.7712     2.8718     1.6546   540.5941
 2591.0000   192.1875    10.0220     2.4161     0.1411     0.1178   -26.7332     2.6681     1.6981   552.5643
 2591.5000   199.1276    10.0284     2.4048     0.1396     0.1566   -26.6819     2.5842     1.6977   566.3366
 2592.0000   197.6879    10.0350     2.3354     0.1552     0.2026   -26.6278     2.5299     1.6622   564.3564
 2592.5000   169.9749    10.0351     2.2660     0.1673     0.1632   -26.5802     2.5595     1.6464   542.3020
 2593.0000   150.9551    10.0307     2.3398     0.1343     0.0670   -26.5342     2.9804     1.7288   525.7277
 2593.5000   139.8258    10.0265     2.4791     0.1079     0.0827   -26.4817     3.7176     1.9578   510.8911
 2594.0000   118.6744    10.0222     2.4622     0.1135     0.0025   -26.4294     3.9704     2.2934   450.4951
 2594.5000   124.7029    10.0180     2.4799     0.1032     0.0142   -26.3949     4.1259     2.6420   357.4020
 2595.0000   137.6692    10.0137     2.5069     0.0918     0.0466   -26.3847     4.5861     2.9609   305.9406
 2595.5000   128.4732    10.0095     2.5020     0.0865     0.0625   -26.3874     4.4202     3.2818   278.2337
 2596.0000   118.0246    10.0051     2.4820     0.1071     0.0443   -26.3897     4.8165     3.6202   256.6257
 2596.5000   107.5162    10.0011     2.5224     0.0949     0.0302   -26.3890     5.8163     3.9460   235.0178
 2597.0000   114.8175     9.9964     2.5206     0.0807     0.0321   -26.3883     6.5811     4.2559   218.8119
 2597.5000   114.4234     9.9961     2.5279     0.0728     0.0404   -26.3876     6.6754     4.5938   201.6238
 2598.0000   114.2017     9.9961     2.5253     0.0736     0.0292   -26.3871     6.6799     4.9546   187.8733
 2598.5000   113.5534     9.9960     2.5361     0.0684     0.0367   -26.3922     6.9346     5.2393   174.1228
 2599.0000   113.2660     9.9959     2.5288     0.0703     0.0429   -26.4076     7.1909     5.3913   163.3663
 2599.5000   110.6672     9.9900     2.5334     0.0739     0.0421   -26.4303     7.4191     5.5318   157.3861
 2600.0000   105.9681     9.9825     2.5350     0.0701     0.0363   -26.4529     7.8063     5.8343   152.4753
 2600.5000   101.3594     9.9749     2.5527     0.0626     0.0335   -26.4732     8.3087     6.2695   147.5644
 2601.0000    99.4532     9.9674     2.5481     0.0649     0.0294   -26.4938     8.8189     6.6286   142.6535
 2601.5000   102.8541     9.9599     2.5414     0.0669     0.0346   -26.5154     9.2996     6.8609   137.6238
 2602.0000   107.3235     9.9524     2.5319     0.0788     0.0240   -26.5364     9.7067     7.2182   129.3007
 2602.5000   107.2664     9.9448     2.5429     0.0714     0.0291   -26.5570    10.1609     7.9269   120.7712
 2603.0000   105.7368     9.9374     2.5612     0.0560     0.0490   -26.5792    10.8969     8.8552   112.2418
 2603.5000    99.8997     9.9299     2.5878     0.0401     0.0553   -26.6012    11.9802     9.7147   103.7123
 2604.0000    92.2727     9.9218     2.5831     0.0398     0.0632   -26.6198    12.6556    10.4941    95.1829
 2604.5000    84.7916     9.9167     2.5679     0.0474     0.0438   -26.6387    13.9057    11.3851    86.6535
 2605.0000    78.4537     9.9177     2.5600     0.0539     0.0280   -26.6642    15.1557    12.2781    78.1240
 2605.5000    78.3128     9.9171     2.5536     0.0580     0.0104   -26.6893    16.4058    12.6698    72.2772
 2606.0000    78.1937     9.9168     2.5653     0.0536     0.0104   -26.7021    17.5247    12.2211    74.4290
 2606.5000    78.4859     9.9190     2.5773     0.0455     0.0223   -26.7150    17.1802    11.1488    76.2376
 2607.0000    83.4803     9.9133     2.5906     0.0375     0.0309   -26.7523    16.9307     9.9096    78.2178
 2607.5000    92.9263     9.9488     2.5961     0.0294     0.0424   -26.7901    13.9084     8.7422    99.0412
 2608.0000   101.6051     9.9569     2.6218     0.0213     0.0663   -26.7475    11.8827     7.6972   112.9984
 2608.5000   111.3279     9.9586     2.6158     0.0232     0.0759   -26.5765    10.3960     6.8584   126.9557
 2609.0000   117.2284     9.9874     2.6029     0.0328     0.0620   -26.3322    10.0000     6.2719   140.9130
 2609.5000   124.1647    10.0247     2.5891     0.0432     0.0608   -26.1048     8.7097     5.8094   154.8702
 2610.0000   127.5085    10.0621     2.5678     0.0553     0.0651   -25.9046     7.8614     5.3413   168.8275
 2610.5000   127.2456    10.0977     2.5646     0.0525     0.0586   -25.6786     7.5549     4.9523   185.1485
 2611.0000   127.2939    10.1342     2.5669     0.0477     0.0532   -25.4288     7.3069     4.7935   188.2079
 2611.5000   128.9561    10.1750     2.5517     0.0631     0.0402   -25.2410     7.1536     4.8289   191.0891
 2612.0000   130.7561    10.1909     2.5411     0.0691     0.0303   -25.1749     7.0704     4.8864   191.4213
 2612.5000   133.0853    10.2254     2.5518     0.0608     0.0423   -25.1901     6.9710     4.8875   191.6942
 2613.0000   135.2334    10.2475     2.5608     0.0541     0.0580   -25.2083     6.8836     4.8816   191.9670
 2613.5000   135.9917    10.2600     2.5600     0.0533     0.0538   -25.2026     6.8373     4.9064   192.2398
 2614.0000   133.1463    10.2702     2.5502     0.0603     0.0438   -25.1906     6.7576     4.9360   192.5126
 2614.5000   130.7936    10.2719     2.5402     0.0682     0.0348   -25.1800     6.6845     4.9490   192.7855
 2615.0000   129.1083    10.2672     2.5328     0.0755     0.0262   -25.1600     6.6435     4.9597   193.0693
 2615.5000   128.4032    10.2608     2.5314     0.0730     0.0240   -25.1296     6.6061     4.9808   190.9747
 2616.0000   127.0988    10.2548     2.5606     0.0566     0.0418   -25.1005     6.6061     5.0028   188.7921
 2616.5000   125.7921    10.2487     2.5785     0.0451     0.0648   -25.0758     6.6596     5.0161   186.6095
 2617.0000   125.4040    10.2427     2.5633     0.0531     0.0640   -25.0496     6.7324     5.0290   185.1485
 2617.5000   124.3532    10.2359     2.5492     0.0612     0.0369   -25.0219     6.7915     5.0502   186.6007
 2618.0000   122.4275    10.2319     2.5579     0.0648     0.0418   -24.9973     6.7871     5.0623   187.6920
 2618.5000   120.4985    10.2327     2.5709     0.0396     0.0591   -24.9725     6.7244     5.0303   189.1089
 2619.0000   122.8657    10.2381     2.5832     0.0397     0.0729   -24.9417     6.6607     4.9477   192.9373
