~VERSION INFORMATION
 VERS.                2.0:   CWLS LOG ASCII STANDARD - VERSION 2.0
 WRAP.                 NO:   ONE LINE PER DEPTH STEP
~WELL INFORMATION
#MNEM.UNIT      DATA TYPE    INFORMATION
#----------   ------------   ------------------------------
 STRT.F           36.0000:   START DEPTH
 STOP.F          493.0000:   STOP DEPTH
 STEP.F            0.5000:   STEP LENGTH
 NULL.          -999.2500:   NO VALUE
 COMP.    FENIX & SCISSON:   COMPANY
 WELL.       NPR #68-S-10:   WELL
 FLD .             TEAPOT:   FIELD
 LOC .      S10 T38N R78W:   LOCATION
 CNTY.            NATRONA:   COUNTY
 STAT.            WYOMING:   STATE
 CTRY. UNITED STATES OF AMERICA:   COUNTRY
 SRVC.              Welex:   SERVICE COMPANY
 DATE.        18-APR-1977:   LOGDATE
 API .       490251033500:   API NUMBER
~CURVE INFORMATION
#MNEM.UNIT       API CODE    CURVE DESCRIPTION
#----------   ------------   ------------------------------
 DEPT.F                  :   
 SPR .MV     07 010 01 00:   SPONTANEOUS POTENTIAL
 ILD .OHMM   07 120 46 00:   INDUCTION LOG DEEP
 ILM .OHMM   07 120 44 00:   INDUCTION LOG MEDIUM
 SGRD.OHMM   07 221 05 00:   SHALLOW SHORT GUARD RESISTIVITY
 CALD.IN     45 280 60 00:   CALIPER FROM DENSITY LOG
 GRD .GAPI   45 310 01 00:   GAMMA RAY FROM DENSITY LOG
 CORR.G/C3   45 356 01 00:   DENSITY CORRECTION
 RHOB.G/C3   45 350 01 00:   BULK DENSITY
 DPHI.DEC    45 890 12 00:   DENSITY POROSITY SANDSTONE
~PARAMETER INFORMATION
#MNEM.UNIT          VALUE    DESCRIPTION
#----------   ------------   ------------------------------
 PD  .                 GL:   PERMANENT DATUM
 EPD .F              5198:   ELEVATION PERMANENT DATUM
 LMF .                 GL:   LOG MEASURED FROM
 DMF .                 GL:   DRILLING MEASURED FROM
 EGL .F              5198:   GROUND LEVEL
 DATE.        18-APR-1977:   RUN DATE
 RUN .                  1:   RUN NUMBER
 DD  .F               505:   DEPTH DRILLER
 DL  .F               492:   DEPTH LOGGER
 BLI .F               490:   BOTTOM LOG INTERVAL
 TLI .F                32:   TOP LOG INTERVAL
 CS  .IN            8.625:   CASING SIZE
 CBD .F                40:   CASING BOTTOM DRILLER
 CBL .F                42:   CASING BOTTOM LOGGER
 BS  .IN            7.875:   BIT SIZE
 BSD .F               505:   BIT SIZE AT DEPTH
 DFT .            KCL MUD:   DRILLING FLUID TYPE
 DFV .                 36:   DRILLING FLUID VISCOSITY
 MSS .           FLOWLINE:   MUD SAMPLE SOURCE
 RMS .OHMM           2.46:   RESISTIVITY MUD SAMPLE
 MST .F                52:   MUD SAMPLE TEMPERATURE
 RMF .OHMM           2.30:   RESISTIVITY MUD FILTRATE SAMPLE
 MFST.F                52:   MUD FILTRATE SAMPLE TEMPERATURE
 RMC .OHMM           2.66:   RESISTIVITY MUD CAKE
 MCST.F                52:   MUD CAKE SAMPLE TEMPERATURE
 MFSS.               MEAS:   MUD FILTRATE SAMPLE SOURCE
 MCSS.               MEAS:   MUD CAKE SAMPLE SOURCE
 RMB .OHMM           1.97:   RESISTIVITY MUD AT BHT
 BHT .F                65:   BOTTOM HOLE TEMPERATURE
 TCS .HRS            0400:   TIME CURCULATED STOPPED
 MRT .F                65:   MAXIMUM RECORDED TEMPERATURE
 LUN .               8611:   LOGGING UNIT NUMBER
 LUL .             CASPER:   LOGGING UNIT LOCATION
 ENGI.               DOAK:   RECORDING ENGINEER
 WITN.            R. LYON:   WITNESSED BY
 CLNT.            A2DTECH:   CLIENT CODE
 ORIG.           5" PRINT:   ORIGIN OF DATA
 UWI .       490251033500:   UNIQUE WELL ID
 DICO. A2D Technologies, Inc.:   DIGITIZING COMPANY
~OTHER INFORMATION
~A   DEPT      SPR        ILD        ILM       SGRD         CALD       GRD      CORR       RHOB       DPHI   
# ...
  328.0000   -40.6737    20.5590    27.0875    31.1473     7.9017    80.0821     0.0310     2.3740     0.1650
  328.5000   -40.6603    20.5408    28.5030    31.8234     7.9106    80.6936     0.0281     2.3688     0.1665
  329.0000   -40.6469    20.4375    28.2778    33.4247     7.9195    82.0492     0.0283     2.3682     0.1659
  329.5000   -40.7804    20.5908    26.7869    34.3868     7.9359    81.7678     0.0284     2.3714     0.1638
  330.0000   -40.7681    20.6212    25.7243    32.5638     7.9376    80.5936     0.0285     2.3806     0.1580
  330.5000   -40.7547    20.7726    27.9688    30.8374     7.9390    79.4214     0.0317     2.3864     0.1549
  331.0000   -40.7414    21.0699    29.3730    33.5267     7.9405    81.3723     0.0334     2.3886     0.1540
  331.5000   -40.7269    21.3824    30.4250    33.7847     7.9420    82.6534     0.0335     2.3902     0.1505
  332.0000   -40.8639    21.9868    31.2980    32.8895     7.9286    83.2649     0.0336     2.3992     0.1439
  332.5000   -40.8481    22.5977    31.9747    31.7977     7.9152    85.9597     0.0338     2.4068     0.1412
  333.0000   -40.8358    22.7667    31.3414    32.7130     7.9166    88.2825     0.0339     2.4046     0.1441
  333.5000   -40.8225    22.6226    30.2997    33.1868     7.9032    89.7126     0.0296     2.3957     0.1474
  334.0000   -40.8091    22.4796    29.0912    31.2171     7.9047    88.9848     0.0267     2.3868     0.1547
  334.5000   -40.7957    22.4921    28.5150    29.1567     7.9062    88.1846     0.0238     2.3771     0.1611
  335.0000   -40.7824    21.8920    28.7323    27.8023     7.9226    88.4985     0.0195     2.3705     0.1644
  335.5000   -40.7690    21.4554    29.3535    27.8235     7.9240    88.2172     0.0152     2.3645     0.1674
  336.0000   -40.7556    20.8830    29.9882    28.6244     7.9255    87.6382     0.0108     2.3631     0.1691
  336.5000   -40.7422    20.4666    30.4259    29.6524     7.9121    86.6128     0.0095     2.3647     0.1700
  337.0000   -40.8801    20.1969    29.6183    30.7173     7.9136    85.7362     0.0096     2.3603     0.1730
  337.5000   -40.8634    20.0691    28.0473    31.1682     7.9300    84.8596     0.0098     2.3521     0.1775
  338.0000   -40.8501    20.0807    25.8366    30.7642     7.9314    85.1735     0.0114     2.3484     0.1783
  338.5000   -40.8367    19.9537    23.8003    30.5700     7.9329    84.7434     0.0131     2.3530     0.1759
  339.0000   -40.8233    19.6912    22.5379    30.3828     7.9344    83.7180     0.0132     2.3568     0.1741
  339.5000   -40.9612    18.7732    21.9358    29.5833     7.9359    82.2462     0.0134     2.3606     0.1714
  340.0000   -41.0958    18.0220    22.4139    28.7994     7.9374    80.9232     0.0150     2.3681     0.1677
  340.5000   -41.2304    17.6602    22.7411    28.6176     7.9388    83.1716     0.0182     2.3727     0.1641
  341.0000   -41.0657    17.7948    22.7569    29.8565     7.9403    84.8248     0.0200     2.3735     0.1638
  341.5000   -40.9044    18.3028    22.7726    30.7159     7.9418    85.5851     0.0217     2.3751     0.1614
  342.0000   -40.8910    18.6959    23.2650    31.1667     7.9433    86.7918     0.0216     2.3804     0.1596
  342.5000   -40.8777    18.9662    23.2811    30.7627     7.9448    87.2545     0.0218     2.3797     0.1598
  343.0000   -40.8643    19.1081    22.0463    30.3582     7.9313    85.7827     0.0219     2.3775     0.1601
  343.5000   -40.8509    18.7245    20.7333    29.9647     7.9328    84.6085     0.0221     2.3761     0.1610
  344.0000   -40.8402    18.3511    20.2920    29.7812     7.9343    82.0950     0.0222     2.3799     0.1592
  344.5000   -40.8269    17.9877    20.3597    28.9921     7.9358    80.0280     0.0239     2.3889     0.1543
  345.0000   -40.8136    17.7485    21.1109    28.0350     7.9373    78.7049     0.0271     2.3943     0.1507
  345.5000   -40.8003    17.3970    21.9902    27.1044     7.9538    77.3819     0.0287     2.3966     0.1492
  346.0000   -40.7870    17.2846    22.4423    26.5690     7.9553    79.4815     0.0273     2.3982     0.1459
  346.5000   -40.7729    16.9399    22.2855    26.7734     7.9494    81.8788     0.0260     2.4068     0.1423
  347.0000   -40.7604    16.4903    21.6964    26.7938     7.9434    83.3831     0.0246     2.4133     0.1395
  347.5000   -40.7470    16.3837    21.2690    27.0000     7.9448    82.6554     0.0248     2.4148     0.1380
  348.0000   -40.7338    16.3951    21.1398    27.3963     7.9463    81.7788     0.0264     2.4141     0.1371
  348.5000   -40.7204    16.4042    21.1862    27.0412     7.9478    83.1343     0.0296     2.4119     0.1395
  349.0000   -40.8551    16.3004    21.9271    25.6076     7.9495    84.3411     0.0312     2.4112     0.1395
  349.5000   -40.8417    16.0860    22.2419    23.5895     7.9510    83.7621     0.0344     2.4128     0.1382
  350.0000   -40.8284    15.9828    21.8026    23.6057     7.9504    81.5463     0.0347     2.4170     0.1355
  350.5000   -40.5152    15.7656    21.0780    24.6195     7.9419    76.8007     0.0362     2.4182     0.1328
  351.0000   -40.7961    16.1136    20.6607    25.5003     7.9335    74.8826     0.0364     2.4182     0.1334
  351.5000   -40.9329    16.1237    20.3882    25.8711     7.9271    73.2621     0.0350     2.4131     0.1360
  352.0000   -41.2101    16.2455    20.8327    26.2472     7.9286    71.7904     0.0292     2.4079     0.1399
  352.5000   -41.4948    16.2557    20.9916    25.7253     7.9301    72.4020     0.0248     2.4050     0.1432
  353.0000   -41.4793    16.3785    21.0062    25.5603     7.9316    73.7576     0.0234     2.4051     0.1449
  353.5000   -41.6129    16.7315    21.0209    25.7576     7.9182    75.4109     0.0236     2.4067     0.1452
  354.0000   -41.5980    16.8579    20.8873    26.3132     7.9048    78.8499     0.0222     2.4090     0.1425
  354.5000   -41.7310    16.5229    20.4737    25.7899     7.8914    82.1401     0.0224     2.4128     0.1386
  355.0000   -41.7160    15.9727    19.9338    25.4522     7.8926    83.9422     0.0240     2.4159     0.1364
  355.5000   -41.8491    15.6553    19.9976    24.7744     7.8941    83.8098     0.0272     2.4167     0.1367
  356.0000   -41.8342    15.6651    20.3755    23.6204     7.8956    81.2964     0.0273     2.4183     0.1355
  356.5000   -41.8193    15.5647    19.4150    23.3074     7.9121    77.8902     0.0290     2.4228     0.1325
  357.0000   -41.9526    14.8425    18.9128    23.4836     7.9284    78.2042     0.0291     2.4311     0.1288
  357.5000   -41.9374    14.4475    19.3218    22.6832     7.9299    79.7087     0.0308     2.4424     0.1249
  358.0000   -42.0710    14.3550    19.6039    23.8669     7.9314    82.1060     0.0340     2.4537     0.1204
  358.5000   -42.0556    14.3662    19.2157    24.5231     7.9329    84.5033     0.0371     2.4687     0.1159
  359.0000   -42.0407    14.3752    18.3226    23.7035     7.9344    85.1150     0.0403     2.4720     0.1137
  359.5000   -42.0257    14.1871    17.8363    23.0743     7.9508    87.6611     0.0404     2.4614     0.1185
  360.0000   -42.0108    14.0962    17.4825    23.0889     7.9374    90.0584     0.0361     2.4503     0.1203
  360.5000   -42.1476    14.0080    17.3720    23.1034     7.9389    90.3724     0.0317     2.4511     0.1170
  361.0000   -42.1290    14.5092    17.5075    22.4882     7.9404    87.7102     0.0288     2.4489     0.1196
  361.5000   -42.2657    14.5340    17.7631    22.0404     7.9345    88.0242     0.0260     2.4400     0.1259
  362.0000   -42.2471    14.7413    18.3994    23.6313     7.9284    89.3799     0.0186     2.4221     0.1316
  362.5000   -42.2322    14.9430    18.9274    23.8100     7.9299    87.0153     0.0188     2.4327     0.1255
  363.0000   -42.0693    15.2650    19.3367    24.3236     7.9314    85.0972     0.0219     2.4455     0.1207
  363.5000   -41.9065    15.4878    18.9538    26.6244     7.9330    84.0719     0.0266     2.4575     0.1177
  364.0000   -41.8916    15.8205    17.8252    27.1944     7.9344    83.0466     0.0312     2.4636     0.1132
