~VERSION INFORMATION
 VERS.                2.0:   CWLS LOG ASCII STANDARD - VERSION 2.0
 WRAP.                 NO:   ONE LINE PER DEPTH STEP
~WELL INFORMATION
#MNEM.UNIT      DATA TYPE    INFORMATION
#----------   ------------   ------------------------------
 STRT.F            0.0000:   START DEPTH
 STOP.F          984.0000:   STOP DEPTH
 STEP.F            0.5000:   STEP LENGTH
 NULL.          -999.2500:   NO VALUE
 COMP. LAWRENCE/ALLISON INC:   COMPANY
 WELL.     NPR 3 #51-X-11:   WELL
 FLD .             TEAPOT:   FIELD
 LOC .      S11 T38N R78W:   LOCATION
 CNTY.            NATRONA:   COUNTY
 STAT.            WYOMING:   STATE
 CTRY. UNITED STATES OF AMERICA:   COUNTRY
 SRVC.           Gearhart:   SERVICE COMPANY
 DATE.        22-AUG-1988:   LOGDATE
 API .       490251125400:   API NUMBER
~CURVE INFORMATION
#MNEM.UNIT       API CODE    CURVE DESCRIPTION
#----------   ------------   ------------------------------
 DEPT.F                  :   
 GRR .GAPI   07 310 01 00:   GAMMA RAY FROM RES. LOG.
 ILM .OHMM   07 120 44 00:   INDUCTION LOG MEDIUM
 ILD .OHMM   07 120 46 00:   INDUCTION LOG DEEP
~PARAMETER INFORMATION
#MNEM.UNIT          VALUE    DESCRIPTION
#----------   ------------   ------------------------------
 PD  .                 GL:   PERMANENT DATUM
 EPD .F              5187:   ELEVATION PERMANENT DATUM
 LMF .                 KB:   LOG MEASURED FROM
 DAPD.F                10:   FEET ABOVE PERMANENT DATUM
 DMF .                 KB:   DRILLING MEASURED FROM
 EKB .F              5197:   KELLING BUSHING
 EGL .F              5187:   GROUND LEVEL
 DATE.            8-22-88:   RUN DATE
 RUN .                  1:   RUN NUMBER
 DD  .F              1000:   DEPTH DRILLER
 DL  .F               992:   DEPTH LOGGER
 BLI .F             983.5:   BOTTOM LOG INTERVAL
 CS  .IN            9.625:   CASING SIZE
 CBD .F                49:   CASING BOTTOM DRILLER
 CBL .F                49:   CASING BOTTOM LOGGER
 BS  .IN             8.75:   BIT SIZE
 BSD .F              1000:   BIT SIZE AT DEPTH
 DFT .                AIR:   DRILLING FLUID TYPE
 BHT .F                70:   BOTTOM HOLE TEMPERATURE
 TLAB.HRS            0300:   TIME LOGGER AT BOTTOM
 MRT .F                70:   MAXIMUM RECORDED TEMPERATURE
 LUN .               7609:   LOGGING UNIT NUMBER
 LUL .           GILLETTE:   LOGGING UNIT LOCATION
 ENGI.          HUCKFELDT:   RECORDING ENGINEER
 WITN.             STRONG:   WITNESSED BY
 CLNT.            A2DTECH:   CLIENT CODE
 ORIG.      1" 2.5" PRINT:   ORIGIN OF DATA
 UWI .       490251125400:   UNIQUE WELL ID
 DICO. A2D Technologies, Inc.:   DIGITIZING COMPANY
~OTHER INFORMATION
~A    DEPT      GRR       ILM        ILD   
    0.0000    17.4797  -999.2500  -999.2500
    0.5000    15.6065  -999.2500  -999.2500
    1.0000    11.9187  -999.2500  -999.2500
    1.5000    10.1626  -999.2500  -999.2500
    2.0000    10.1626  -999.2500  -999.2500
    2.5000    11.7236  -999.2500  -999.2500
    3.0000    14.6160  -999.2500  -999.2500
    3.5000    16.0373  -999.2500  -999.2500
    4.0000    18.9617  -999.2500  -999.2500
    4.5000    21.8362  -999.2500  -999.2500
    5.0000    24.7318  -999.2500  -999.2500
    5.5000    27.6900  -999.2500  -999.2500
    6.0000    29.7269  -999.2500  -999.2500
    6.5000    29.9137  -999.2500  -999.2500
    7.0000    30.1746  -999.2500  -999.2500
    7.5000    30.2294  -999.2500  -999.2500
    8.0000    31.2160  -999.2500  -999.2500
    8.5000    33.3195  -999.2500  -999.2500
    9.0000    39.3671  -999.2500  -999.2500
    9.5000    44.6909  -999.2500  -999.2500
   10.0000    50.4375  -999.2500  -999.2500
   10.5000    55.7364  -999.2500  -999.2500
   11.0000    61.0871  -999.2500  -999.2500
   11.5000    61.3583  -999.2500  -999.2500
   12.0000    61.4536  -999.2500  -999.2500
   12.5000    61.3563  -999.2500  -999.2500
   13.0000    59.9852  -999.2500  -999.2500
   13.5000    58.1689  -999.2500  -999.2500
   14.0000    56.3923  -999.2500  -999.2500
   14.5000    55.4378  -999.2500  -999.2500
   15.0000    57.4990  -999.2500  -999.2500
   15.5000    58.1242  -999.2500  -999.2500
   16.0000    57.9389  -999.2500  -999.2500
   16.5000    55.0618  -999.2500  -999.2500
   17.0000    52.5393  -999.2500  -999.2500
   17.5000    52.8313  -999.2500  -999.2500
   18.0000    53.3565  -999.2500  -999.2500
   18.5000    53.9871  -999.2500  -999.2500
   19.0000    52.9857  -999.2500  -999.2500
   19.5000    51.6249  -999.2500  -999.2500
   20.0000    52.6121  -999.2500  -999.2500
   20.5000    54.7386  -999.2500  -999.2500
   21.0000    56.4723  -999.2500  -999.2500
   21.5000    56.4658  -999.2500  -999.2500
   22.0000    56.5560  -999.2500  -999.2500
   22.5000    56.4786  -999.2500  -999.2500
   23.0000    56.3927  -999.2500  -999.2500
   23.5000    54.7680  -999.2500  -999.2500
   24.0000    53.3028  -999.2500  -999.2500
   24.5000    52.0792  -999.2500  -999.2500
   25.0000    51.6466  -999.2500  -999.2500
   25.5000    51.6996  -999.2500  -999.2500
   26.0000    51.4183  -999.2500  -999.2500
   26.5000    53.0417  -999.2500  -999.2500
   27.0000    52.3238  -999.2500  -999.2500
   27.5000    50.5894  -999.2500  -999.2500
   28.0000    49.8634  -999.2500  -999.2500
   28.5000    49.7643  -999.2500  -999.2500
   29.0000    49.5098  -999.2500  -999.2500
   29.5000    49.3583  -999.2500  -999.2500
   30.0000    49.2576  -999.2500  -999.2500
   30.5000    51.5703  -999.2500  -999.2500
   31.0000    54.4057  -999.2500  -999.2500
   31.5000    55.9304  -999.2500  -999.2500
   32.0000    56.0568  -999.2500  -999.2500
   32.5000    56.3456  -999.2500  -999.2500
   33.0000    56.5356  -999.2500  -999.2500
   33.5000    56.5006  -999.2500  -999.2500
   34.0000    56.5068  -999.2500  -999.2500
   34.5000    56.5128  -999.2500  -999.2500
   35.0000    56.5050  -999.2500  -999.2500
   35.5000    56.4834  -999.2500  -999.2500
   36.0000    56.7593  -999.2500  -999.2500
   36.5000    57.4394  -999.2500  -999.2500
   37.0000    58.0735  -999.2500  -999.2500
   37.5000    57.5681  -999.2500  -999.2500
   38.0000    57.3241  -999.2500  -999.2500
   38.5000    57.2977  -999.2500  -999.2500
   39.0000    57.2397  -999.2500  -999.2500
   39.5000    56.0756  -999.2500  -999.2500
   40.0000    54.8628  -999.2500  -999.2500
   40.5000    55.7916  -999.2500  -999.2500
   41.0000    57.5391  -999.2500  -999.2500
   41.5000    59.0732  -999.2500  -999.2500
   42.0000    60.3739  -999.2500  -999.2500
   42.5000    58.3092  -999.2500  -999.2500
   43.0000    56.3581  -999.2500  -999.2500
   43.5000    54.2933  -999.2500  -999.2500
   44.0000    52.1518  -999.2500  -999.2500
   44.5000    51.6133  -999.2500  -999.2500
   45.0000    51.8441  -999.2500  -999.2500
   45.5000    55.7154  -999.2500  -999.2500
   46.0000    58.2447  -999.2500  -999.2500
   46.5000    59.9914  -999.2500  -999.2500
   47.0000    61.4801  -999.2500  -999.2500
   47.5000    65.5254  -999.2500    37.6915
   48.0000    75.3997   226.8803    45.5017
   48.5000    84.8637    61.5265     5.3005
   49.0000    92.5286    15.7345     2.7216
   49.5000    95.5757     6.1642     2.1212
   50.0000    97.5809     2.8073     1.9357
   50.5000    98.4116     2.2901     3.3060
   51.0000    98.9282     2.4587     4.3994
   51.5000    99.4862     2.7137     7.5271
   52.0000    99.1220     3.3059     9.1734
   52.5000    98.0885     4.0273     6.9391
   53.0000    97.0841     4.7313     4.8148
   53.5000    96.5049     5.1137     4.7306
   54.0000   100.0445     5.3084     4.7361
   54.5000   101.1735     4.9313     4.9445
   55.0000    99.9970     4.5886     5.1576
   55.5000    98.8286     4.4869     5.3743
   56.0000    99.5178     4.4869     5.6001
   56.5000   101.2996     4.6736     5.9381
   57.0000   103.1439     4.9372     5.8162
   57.5000   103.6799     5.2102     5.6144
   58.0000   103.5885     5.3720     5.6144
   58.5000   102.4475     5.5357     5.7071
   59.0000   101.5109     5.7203     5.8177
   59.5000   100.4166     5.8280     5.9306
   60.0000    99.3873     5.9492     6.0501
   60.5000    99.5340     6.0501     6.0968
   61.0000   101.7347     5.9742     6.1642
   61.5000   103.7488     5.9108     6.1149
   62.0000   106.0364     5.8481     6.0371
   62.5000   105.8038     5.7860     5.9603
   63.0000   102.9068     5.7246     5.8845
   63.5000   100.2652     5.6638     5.8096
   64.0000    98.8634     5.6144     5.7357
   64.5000    98.8240     5.3054     5.6484
   65.0000    99.5800     5.0191     5.5588
   65.5000    99.6485     5.0191     5.5105
   66.0000    99.4536     5.1304     5.5105
   66.5000   100.9562     5.2371     5.5105
   67.0000   103.8114     5.3460     5.7075
   67.5000   104.3443     5.4571     5.8282
   68.0000   101.3352     5.5705     5.8282
   68.5000    88.7468     5.6864     5.9330
   69.0000    82.4267     5.8046     6.1064
   69.5000    81.0474     5.9381     6.1642
   70.0000    87.7165     5.9381     6.1642
   70.5000    94.5748     5.8121     6.0438
   71.0000    97.7329     5.7015     5.8805
   71.5000    98.2385     5.5931     5.7189
   72.0000    99.1581     5.4867     5.7272
   72.5000   100.5376     5.3823     5.7516
   73.0000   101.9137     5.3084     5.7761
   73.5000   101.2978     5.3084     5.8009
   74.0000   100.4209     5.3440     5.8275
   74.5000   101.3262     5.3762     5.7233
   75.0000   103.2065     5.4079     5.6144
   75.5000   105.2602     5.3287     5.5076
   76.0000   105.9566     5.2508     5.4085
   76.5000   102.3438     5.1742     5.4085
   77.0000    98.8653     5.0985     5.4085
   77.5000    95.5902     5.0195     5.4085
   78.0000    92.9427     5.0194     5.4083
   78.5000    92.9887     5.0191     5.4081
   79.0000    95.3309     5.0191     5.4080
   79.5000    97.8918     5.0191     5.4081
   80.0000    98.4034     5.0704     5.4481
   80.5000    97.4472     5.2633     5.5975
   81.0000    97.1122     5.4636     5.7510
   81.5000    97.1587     5.6715     5.9088
   82.0000    97.2492     5.8873     6.0700
   82.5000    96.1904     6.1103     6.2362
   83.0000    94.0769     6.3428     6.3988
   83.5000    92.1053     6.6454     6.2862
   84.0000    92.8392     6.5065     6.1187
   84.5000    94.3179     6.2390     5.9557
   85.0000    94.5721     5.9824     5.7970
   85.5000    94.2868     5.7363     5.6425
   86.0000    94.0275     5.5003     5.4921
   86.5000    94.8487     5.2742     5.4085
   87.0000    98.3718     5.1137     5.4894
   87.5000   101.0138     5.1137     5.5680
   88.0000   102.1854     5.1137     5.6478
   88.5000   101.2521     5.1137     5.7287
   89.0000    98.8800     5.2988     5.8108
   89.5000    96.4652     5.4649     5.8940
   90.0000    95.2896     5.6362     5.9785
   90.5000    94.6495     5.8129     6.0641
