~VERSION INFORMATION
 VERS.                2.0:   CWLS LOG ASCII STANDARD - VERSION 2.0
 WRAP.                 NO:   ONE LINE PER DEPTH STEP
~WELL INFORMATION
#MNEM.UNIT      DATA TYPE    INFORMATION
#----------   ------------   ------------------------------
 STRT.F            6.0000:   START DEPTH
 STOP.F          606.0000:   STOP DEPTH
 STEP.F            0.5000:   STEP LENGTH
 NULL.          -999.2500:   NO VALUE
 COMP. LAWRENCE/ALLISON INC:   COMPANY
 WELL.       61 STX #15-3:   WELL
 FLD .             TEAPOT:   FIELD
 LOC .       S3 T38N R78W:   LOCATION
 CNTY.            NATRONA:   COUNTY
 STAT.            WYOMING:   STATE
 CTRY. UNITED STATES OF AMERICA:   COUNTRY
 SRVC.      Dresser Atlas:   SERVICE COMPANY
 DATE.        23-SEP-1987:   LOGDATE
 API .       490251115900:   API NUMBER
~CURVE INFORMATION
#MNEM.UNIT       API CODE    CURVE DESCRIPTION
#----------   ------------   ------------------------------
 DEPT.F                  :   
 GRR .GAPI   07 310 01 00:   GAMMA RAY
 RILD.OHMM   07 120 46 00:   INDUCTION LOG DEEP RESISTIVITY
 RILM.OHMM   07 120 44 00:   INDUCTION LOG MEDIUM RESISTIVITY
~PARAMETER INFORMATION
#MNEM.UNIT          VALUE    DESCRIPTION
#----------   ------------   ------------------------------
 PD  .                 GL:   PERMANENT DATUM
 EPD .F              5230:   ELEVATION PERMANENT DATUM
 LMF .                 KB:   LOG MEASURED FROM
 DAPD.F                 8:   FEET ABOVE PERMANENT DATUM
 DMF .                 KB:   DRILLING MEASURED FROM
 EKB .F              5238:   KELLING BUSHING
 EGL .F              5230:   GROUND LEVEL
 DATE.        23-SEP-1987:   RUN DATE
 RUN .                  1:   RUN NUMBER
 DD  .F               618:   DEPTH DRILLER
 DL  .F               614:   DEPTH LOGGER
 BLI .F               612:   BOTTOM LOG INTERVAL
 TLI .F                 8:   TOP LOG INTERVAL
 CS  .IN            9.625:   CASING SIZE
 CBD .F                50:   CASING BOTTOM DRILLER
 CBL .F                49:   CASING BOTTOM LOGGER
 BS  .IN             8.75:   BIT SIZE
 BSD .F               618:   BIT SIZE AT DEPTH
 DFT .                AIR:   DRILLING FLUID TYPE
 TCS .HRS               1:   TIME CURCULATED STOPPED
 LUN .            HL-6274:   LOGGING UNIT NUMBER
 LUL .           GILLETTE:   LOGGING UNIT LOCATION
 ENGI.            PANASUK:   RECORDING ENGINEER
 WITN.             STRONG:   WITNESSED BY
 CLNT.            A2DTECH:   CLIENT CODE
 ORIG.       2", 5" PRINT:   ORIGIN OF DATA
 UWI .       490251115900:   UNIQUE WELL ID
 DICO. A2D Technologies, Inc.:   DIGITIZING COMPANY
~OTHER INFORMATION
~A    DEPT      GRR      RILD       RILM   
# ...
  279.0000   117.8756     8.7964     9.1533
  279.5000   118.9973     8.6228     8.9037
  280.0000   119.2371     8.4512     8.6163
  280.5000   116.7746     8.3405     8.5030
  281.0000   118.5923     8.1181     8.3350
  281.5000   119.7354     7.8942     8.1719
  282.0000   119.9752     7.5342     8.0660
  282.5000   116.8417     7.3321     7.9082
  283.0000   114.6072     7.1378     7.8057
  283.5000   116.0053     7.0443     7.4428
  284.0000   118.4644     6.9041     7.0935
  284.5000   120.0535     6.8148     6.9564
  285.0000   118.9440     6.8666     7.0116
  285.5000   118.2841     6.8711     7.1148
  286.0000   120.1020     6.9754     7.3201
  286.5000   123.9400     7.1730     7.5919
  287.0000   122.6056     7.3283     7.8581
  287.5000   117.2233     7.4353     8.0849
  288.0000   116.7884     7.5962     8.3181
  288.5000   118.3813     7.7619     8.4406
  289.0000   119.2957     7.8209     8.5666
  289.5000   119.7604     7.8260     8.6328
  290.0000   121.1247     7.8856     8.6396
  290.5000   123.1987     7.8908     8.6962
  291.0000   124.7565     7.8972     8.6811
  291.5000   125.2212     7.8466     8.6660
  292.0000   121.8628     7.8530     8.6691
  292.5000   119.1716     7.8582     8.5568
  293.0000   118.9691     7.7552     8.4459
  293.5000   119.6624     7.6021     8.2220
  294.0000   118.3280     7.3994     8.0040
  294.5000   118.0982     7.1032     7.7396
  295.0000   121.6267     6.7113     7.2282
  295.5000   123.7738     6.1515     6.7974
  296.0000   122.8891     5.8240     6.3923
  296.5000   116.8321     5.6688     6.1738
  297.0000   115.7197     5.6334     6.0173
  297.5000   114.6168     5.6380     5.9382
  298.0000   111.0335     5.6417     5.9440
  298.5000   110.3700     5.7240     6.0748
  299.0000   112.6376     5.8479     6.4697
  299.5000   116.1537     6.0672     6.8431
  300.0000   121.6667     6.4971     7.5446
  300.5000   120.1074     6.8715     8.3180
  301.0000   118.5481     7.3178     8.8105
  301.5000   117.6619     7.7935     9.3076
  302.0000   119.4812     8.4164     9.4446
  302.5000   120.1708     8.8399     9.5837
  303.0000   116.8124     9.0313     9.5912
  303.5000   114.1287     9.2268     9.6673
  304.0000   111.2200     9.2971     9.7420
  304.5000   113.4876     9.3692     9.8855
  305.0000   116.8758     9.3607     9.9619
  305.5000   122.9649     9.4328    10.1122
  306.0000   123.4296     9.5696    10.1963
  306.5000   122.5412     9.6411    10.2163
  307.0000   123.0096     9.7806    10.2254
  307.5000   124.3741     9.9221    10.3736
  308.0000   125.0671     9.9992    10.5229
  308.5000   125.3069    10.0816    10.6743
  309.0000   123.5227    10.2180    10.9031
  309.5000   120.1643    10.2234    11.1380
  310.0000   120.1829    10.2288    11.2983
  310.5000   122.4467    10.3052    11.3819
  311.0000   124.0358    10.2395    11.3871
  311.5000   124.5005    10.0358    11.1539
  312.0000   124.5397     9.8334    10.5640
  312.5000   127.2326     9.5053    10.0001
  313.0000   127.9222     9.0618     9.4663
  313.5000   127.9371     8.7582     9.1488
  314.0000   128.6297     8.4648     8.8430
  314.5000   130.4444     8.3527     8.7850
  315.0000   132.9330     8.1855     8.7295
  315.5000   134.2972     8.0773     8.7335
  316.0000   134.5370     8.0258     8.7375
  316.5000   136.6754     7.9746     8.6813
  317.0000   140.1927     7.9799     8.6254
  317.5000   141.3321     8.0397     8.6304
  318.0000   141.7968     8.0448     8.6343
  318.5000   139.7278     8.0490     8.6384
  319.0000   136.2081     8.0533     8.6426
  319.5000   134.6488     8.0019     8.6472
  320.0000   133.7604     8.0072     8.6512
  320.5000   133.7790     8.0114     8.5955
  321.0000   135.5967     7.9593     8.6005
  321.5000   137.8605     7.9413     8.5441
  322.0000   140.1243     7.9137     8.4891
  322.5000   141.4885     7.8643     8.4355
  323.0000   141.0120     7.8685     8.4395
  323.5000   138.3736     7.8726     8.4442
  324.0000   137.4852     7.8817     8.4481
  324.5000   139.0780     7.8843     8.4519
  325.0000   140.8921     7.8854     8.4558
  325.5000   141.5853     7.8902     8.4014
  326.0000   140.2509     7.8944     8.2908
  326.5000   138.2418     7.8985     8.1807
  327.0000   136.4576     7.7951     7.9612
  327.5000   135.5730     7.6910     7.6889
  328.0000   139.4147     7.5369     7.4885
  328.5000   143.7024     7.3360     7.3382
  329.0000   146.1911     7.0375     7.1908
  329.5000   146.8808     6.5749     7.0464
  330.0000   144.2006     6.3108     6.8581
  330.5000   140.3924     6.0155     6.6741
  331.0000   139.2792     5.8140     6.3178
  331.5000   139.7476     5.6583     6.1483
  332.0000   140.6657     5.5457     5.9833
  332.5000   140.6806     5.5096     5.9038
  333.0000   142.9444     5.5132     5.8659
  333.5000   144.9833     5.5930     5.9510
  334.0000   146.1226     5.7141     6.2489
  334.5000   138.7200     5.8775     6.6081
  335.0000   137.1607     6.0876     6.7498
  335.5000   137.4005     6.3490     6.8944
  336.0000   139.2144     6.5773     7.0910
  336.5000   142.1566     6.8593     7.2963
  337.0000   142.8424     7.0555     7.5541
  337.5000   139.2629     7.2073     7.7160
  338.0000   136.5791     7.3116     7.7731
  338.5000   135.9193     7.2604     7.6698
  339.0000   138.6366     6.7936     7.1615
  339.5000   140.4506     5.6697     6.5489
  340.0000   138.8913     5.2934     5.9064
  340.5000   138.0066     5.0808     5.5525
  341.0000   140.2742     4.9453     5.4021
  341.5000   141.6384     4.9132     5.3688
  342.0000   139.6293     4.8819     5.4467
  342.5000   136.0460     4.9531     5.5634
  343.0000   135.1613     5.1307     5.7617
  343.5000   137.4288     5.5014     6.0145
  344.0000   138.5682     5.8176     6.2667
  344.5000   136.5591     6.1095     6.6261
  345.0000   133.6357     6.4607     7.0062
  345.5000   132.9907     6.8397     7.4092
  346.0000   135.2581     7.3263     7.7800
  346.5000   136.3975     7.6281     8.0573
  347.0000   136.6373     7.9691     8.2871
  347.5000   132.8328     8.0286     8.4647
  348.0000   129.2495     8.0888     8.5938
  348.5000   129.0358     8.0939     8.7111
  349.0000   129.5042     8.0982     8.7151
  349.5000   131.3665     8.1024     8.7191
  350.0000   132.4575     8.0508     8.7231
  350.5000   130.2273     8.0561     8.7281
  351.0000   129.7887     8.0603     8.7321
  351.5000   130.0352     8.0634     8.7361
  352.0000   131.4001     8.0669     8.6822
  352.5000   130.7404     8.0705     8.6297
  353.0000   129.8557     8.0746     8.6360
  353.5000   129.2137     8.0224     8.6411
  354.0000   128.3310     8.0263     8.6462
  354.5000   128.1230     8.0307     8.6516
  355.0000   129.0437     8.0344     8.6575
  355.5000   132.2091     8.0939     8.7227
  356.0000   134.4748     8.1547     8.7352
  356.5000   135.3913     8.2150     8.9172
  357.0000   132.4889     8.4494     9.1726
  357.5000   128.2329     8.6306     9.4354
  358.0000   122.4028     8.7558     9.8423
  358.5000   119.2445     8.8197     9.9852
  359.0000   118.3886     8.0655     9.7184
  359.5000   120.4337     6.8725     8.7057
  360.0000   122.2497     6.3371     6.8393
  360.5000   124.1042     5.9985     6.4751
  361.0000   127.6851     5.8779     6.1727
  361.5000   133.9988     5.8401     6.0915
  362.0000   142.1117     5.8434     6.2237
  362.5000   146.4768     5.9687     6.7661
  363.0000   147.9926     6.1816     7.3051
  363.5000   132.7213     6.6743     8.1117
  364.0000   123.2930     7.3566     9.0634
  364.5000   116.2150     8.6896     9.7854
  365.0000   117.4839     9.6444    10.4921
  365.5000   121.5488    10.0590    10.9476
  366.0000   123.8411    10.0635    11.1018
  366.5000   120.0084    10.0681    10.5120
  367.0000   121.1540    10.2131    10.4442
  367.5000   122.5202    10.4332    10.6123
  368.0000   122.3122    10.8054    11.1310
  368.5000   119.4098    11.4257    11.9349
  369.0000   116.7281    12.2843    12.7969
  369.5000   113.5966    13.7869    14.1616
