~VERSION INFORMATION
 VERS.                2.0:   CWLS LOG ASCII STANDARD - VERSION 2.0
 WRAP.                 NO:   ONE LINE PER DEPTH STEP
~WELL INFORMATION
#MNEM.UNIT      DATA TYPE    INFORMATION
#----------   ------------   ------------------------------
 STRT.F           80.0000:   START DEPTH
 STOP.F          480.0000:   STOP DEPTH
 STEP.F            0.5000:   STEP LENGTH
 NULL.          -999.2500:   NO VALUE
 COMP. BROWN JOHN E&C INC:   COMPANY
 WELL.         SX 57 #2-3:   WELL
 FLD .        TEAPOT DOME:   FIELD
 LOC .       S3 T38N R78W:   LOCATION
 CNTY.            NATRONA:   COUNTY
 STAT.            WYOMING:   STATE
 CTRY. UNITED STATES OF AMERICA:   COUNTRY
 SRVC.       Schlumberger:   SERVICE COMPANY
 DATE.        05-OCT-1990:   LOGDATE
 API .       490251132700:   API NUMBER
~CURVE INFORMATION
#MNEM.UNIT       API CODE    CURVE DESCRIPTION
#----------   ------------   ------------------------------
 DEPT.F                  :   
 GRR .GAPI   07 310 01 00:   GAMMA RAY FROM RES. LOG.
 SFLU.OHMM   07 220 01 00:   SPHERICALLY FOCUSED LOG UNAVERAGED RESISTIVITY
 ILD .OHMM   07 120 46 00:   INDUCTION LOG DEEP
 ILM .OHMM   07 120 44 00:   INDUCTION LOG MEDIUM
 CNC .DEC    42 890 01 00:   NEUTRON POROSITY LIMESTONE
~PARAMETER INFORMATION
#MNEM.UNIT          VALUE    DESCRIPTION
#----------   ------------   ------------------------------
 PD  .                 GL:   PERMANENT DATUM
 EPD .F              5148:   ELEVATION PERMANENT DATUM
 LMF .                 KB:   LOG MEASURED FROM
 DAPD.F                10:   FEET ABOVE PERMANENT DATUM
 DMF .                 KB:   DRILLING MEASURED FROM
 EKB .F              5158:   KELLING BUSHING
 EDF .F              5157:   DRILLING FLOOR
 EGL .F              5148:   GROUND LEVEL
 DATE.            10-5-90:   RUN DATE
 RUN .                  1:   RUN NUMBER
 DD  .F               485:   DEPTH DRILLER
 DL  .F               484:   DEPTH LOGGER
 BLI .F               481:   BOTTOM LOG INTERVAL
 TLI .F                48:   TOP LOG INTERVAL
 CS  .IN            8.625:   CASING SIZE
 CBD .F                53:   CASING BOTTOM DRILLER
 CBL .F                53:   CASING BOTTOM LOGGER
 BS  .IN            7.875:   BIT SIZE
 BSD .F               485:   BIT SIZE AT DEPTH
 DFT .           WTD DISP:   DRILLING FLUID TYPE
 DFD .               14.3:   DRILLING FLUID DENSITY
 DFV .                 67:   DRILLING FLUID VISCOSITY
 DFPH.                9.5:   DRILLING FLUID PH
 DFL .               12.8:   DRILLING FLUID LOSS
 MSS .           FLOWLINE:   MUD SAMPLE SOURCE
 RMS .OHMM            9.3:   RESISTIVITY MUD SAMPLE
 MST .F                74:   MUD SAMPLE TEMPERATURE
 RMF .OHMM            6.9:   RESISTIVITY MUD FILTRATE SAMPLE
 MFST.F                74:   MUD FILTRATE SAMPLE TEMPERATURE
 RMC .OHMM           13.9:   RESISTIVITY MUD CAKE
 MCST.F                74:   MUD CAKE SAMPLE TEMPERATURE
 MFSS.               CALC:   MUD FILTRATE SAMPLE SOURCE
 MCSS.               CALC:   MUD CAKE SAMPLE SOURCE
 RMB .OHMM          6.438:   RESISTIVITY MUD AT BHT
 BHT .F               110:   BOTTOM HOLE TEMPERATURE
 TCS .HRS            1600:   TIME CURCULATED STOPPED
 MRT .F               110:   MAXIMUM RECORDED TEMPERATURE
 LUN .               5887:   LOGGING UNIT NUMBER
 LUL .               CODY:   LOGGING UNIT LOCATION
 ENGI.        MIKE FISHER:   RECORDING ENGINEER
 WITN.        GARY STRONG:   WITNESSED BY
 CLNT.            A2DTECH:   CLIENT CODE
 ORIG.        2" 5" PRINT:   ORIGIN OF DATA
 UWI .       490251132700:   UNIQUE WELL ID
 DICO. A2D Technologies, Inc.:   DIGITIZING COMPANY
~OTHER INFORMATION
~A   DEPT       GRR        SFLU      ILD        ILM        CNC   
# ...
  141.0000    79.8981     1.9652     1.8700     1.5301     0.2769
  141.5000    80.5254     1.9460     1.9607     1.5178     0.2737
  142.0000    81.1523     1.9269     1.9369     1.5017     0.2703
  142.5000    81.3792     1.9081     1.9018     1.5201     0.2722
  143.0000    81.5882     1.8894     1.8674     1.5056     0.2762
  143.5000    81.7998     1.8710     1.8207     1.4961     0.2803
  144.0000    82.0120     1.8526     1.6641     1.4865     0.2810
  144.5000    82.2245     1.8231     1.6178     1.4771     0.2799
  145.0000    82.4382     1.8448     1.5961     1.4677     0.2806
  145.5000    82.6484     1.8665     1.5750     1.4584     0.2840
  146.0000    82.7238     1.8907     1.5542     1.4481     0.2861
  146.5000    82.1190     1.8861     1.5336     1.4658     0.2846
  147.0000    81.5129     1.8798     1.5010     1.3997     0.2824
  147.5000    80.9083     1.8730     1.4455     1.3512     0.2836
  148.0000    80.3169     1.8467     1.3920     1.3044     0.2840
  148.5000    80.2720     1.7346     1.3405     1.2592     0.2816
  149.0000    80.9473     1.6300     1.2910     1.2163     0.2959
  149.5000    82.8734     1.4923     1.2432     1.1775     0.3011
  150.0000    84.5582     1.3478     1.1972     1.1260     0.3042
  150.5000    86.0836     1.2074     1.1928     1.0839     0.2901
  151.0000    86.0984     1.2074     1.1928     1.0567     0.2855
  151.5000    83.3112     1.2861     1.1928     1.0985     0.2812
  152.0000    79.7251     1.4389     1.1984     1.1311     0.2769
  152.5000    77.5174     1.5958     1.2317     1.1646     0.2727
  153.0000    78.1514     1.5956     1.2658     1.1992     0.2695
  153.5000    79.6313     1.6141     1.3013     1.2347     0.2713
  154.0000    81.1367     1.6274     1.3469     1.2715     0.2759
  154.5000    81.0594     1.6347     1.4006     1.3084     0.2805
  155.0000    80.3197     1.6746     1.4563     1.3863     0.2812
  155.5000    79.6173     1.7131     1.5187     1.4763     0.2812
  156.0000    81.8040     1.7525     1.5076     1.5201     0.2779
  156.5000    85.4905     1.8012     1.4936     1.4627     0.2700
  157.0000    85.2417     1.7769     1.4798     1.4130     0.2635
  157.5000    83.0729     1.7513     1.4662     1.3650     0.2764
  158.0000    80.2634     1.7261     1.4527     1.3187     0.2921
  158.5000    78.7293     1.7122     1.4393     1.2790     0.2950
  159.0000    79.0004     1.7061     1.4263     1.2615     0.2966
  159.5000    80.4741     1.6999     1.4132     1.2440     0.2978
  160.0000    83.0977     1.6953     1.3544     1.2269     0.3014
  160.5000    85.7386     1.6811     1.2996     1.2098     0.3059
  161.0000    86.7909     1.6300     1.2472     1.1931     0.3077
  161.5000    84.9539     1.5805     1.1928     1.1650     0.3075
  162.0000    81.1194     1.5325     1.1013     1.0511     0.3125
  162.5000    77.5866     1.3502     1.0274     0.9484     0.3191
  163.0000    77.3502     1.1490     0.9708     0.8557     0.3260
  163.5000    77.2320     0.9782     0.9678     0.7710     0.3244
  164.0000    77.3803     0.8599     0.9653     0.7436     0.3009
  164.5000    80.0144     0.8599     0.9626     0.8550     0.2873
  165.0000    82.3139     1.0436     0.9584     0.9143     0.2833
  165.5000    83.5646     1.2615     0.9885     0.9706     0.2770
  166.0000    83.0018     1.4583     1.0558     1.0303     0.2701
  166.5000    80.3561     1.4933     1.1233     1.0937     0.2667
  167.0000    79.7673     1.5292     1.2602     1.1609     0.2707
  167.5000    80.2133     1.5764     1.3512     1.2331     0.2747
  168.0000    83.2867     1.5705     1.4283     1.2690     0.2778
  168.5000    86.2884     1.5574     1.4481     1.2929     0.2796
  169.0000    85.6848     1.5924     1.4481     1.3171     0.2824
  169.5000    84.8125     1.6392     1.4481     1.3417     0.2785
  170.0000    83.9444     1.6873     1.5197     1.3668     0.2739
  170.5000    83.9993     1.7368     1.4973     1.3923     0.2695
  171.0000    84.6479     1.7878     1.4831     1.4183     0.2707
  171.5000    85.3108     1.8402     1.5241     1.4448     0.2811
  172.0000    85.9666     1.8679     1.5571     1.4718     0.2910
  172.5000    86.2238     1.8679     1.5908     1.5017     0.2984
  173.0000    85.2700     1.8679     1.6345     1.5268     0.3015
  173.5000    82.4297     1.8679     1.6293     1.5548     0.3073
  174.0000    79.6698     1.8679     1.6223     1.5956     0.3107
  174.5000    79.5563     1.8824     1.6151     1.5893     0.3064
  175.0000    81.8491     1.9214     1.6276     1.5785     0.3026
  175.5000    83.2164     1.9614     1.6407     1.5677     0.2979
  176.0000    83.1620     2.0022     1.6538     1.5574     0.2931
  176.5000    84.7854     2.0438     1.6671     1.5944     0.2746
  177.0000    86.3935     2.0581     1.6804     1.6398     0.2523
  177.5000    85.2259     2.0581     1.6953     1.6547     0.2560
  178.0000    82.4700     2.0581     1.6793     1.6247     0.2629
  178.5000    79.5697     2.0580     1.6615     1.6048     0.2675
  179.0000    78.7974     2.0582     1.6439     1.5887     0.2675
  179.5000    81.0285     2.0371     1.6265     1.5684     0.2663
  180.0000    83.5678     2.0150     1.6093     1.5483     0.2649
  180.5000    84.3392     1.9932     1.5956     1.5286     0.2634
  181.0000    82.4520     1.9846     1.5386     1.5091     0.2631
  181.5000    80.5061     1.9726     1.5386     1.4898     0.2655
  182.0000    80.3359     1.9447     1.5386     1.4707     0.2710
  182.5000    83.7596     1.9172     1.5386     1.4520     0.2770
  183.0000    87.3196     1.8901     1.5386     1.4334     0.2809
  183.5000    88.4566     1.8634     1.4879     1.4134     0.2825
  184.0000    87.5525     1.8454     1.4427     1.3327     0.2900
  184.5000    86.5929     1.7340     1.4004     1.2491     0.2960
  185.0000    86.9664     1.6211     1.3104     1.1708     0.2998
  185.5000    88.7736     1.5156     1.2261     1.0958     0.3072
  186.0000    89.4869     1.4169     1.1040     1.0047     0.3151
  186.5000    89.1405     1.3245     0.9672     0.9194     0.3231
  187.0000    87.9884     1.1981     0.8475     0.8414     0.3310
  187.5000    84.3108     1.0631     0.7191     0.6937     0.3386
  188.0000    80.6398     0.8738     0.6063     0.5603     0.3647
  188.5000    78.4713     0.7094     0.5112     0.4562     0.3897
  189.0000    78.9054     0.5760     0.4549     0.3791     0.4098
  189.5000    78.7235     0.4665     0.4104     0.3312     0.4140
  190.0000    76.7335     0.3984     0.3703     0.3222     0.4140
  190.5000    74.3023     0.3593     0.3464     0.3182     0.3814
  191.0000    71.8191     0.3643     0.3464     0.3417     0.3585
  191.5000    70.6932     0.3915     0.3548     0.3548     0.3459
  192.0000    73.9950     0.4424     0.3771     0.3771     0.3402
  192.5000    80.1967     0.5130     0.4378     0.3885     0.3240
  193.0000    86.2895     0.5590     0.5075     0.4610     0.3053
  193.5000    87.8831     0.6696     0.5883     0.5610     0.2957
  194.0000    87.9589     0.8949     0.6822     0.6830     0.2939
  194.5000    86.4539     1.1751     0.8479     0.8810     0.2927
  195.0000    87.4744     1.2999     0.8410     0.8495     0.2947
  195.5000    89.6682     1.2984     0.9929     0.9614     0.2986
  196.0000    91.8574     1.3305     1.1301     1.0274     0.2982
  196.5000    93.5608     1.3198     1.1839     1.0520     0.2909
  197.0000    91.8974     1.3143     1.2103     1.0665     0.2881
  197.5000    90.2786     1.3850     1.2370     1.0784     0.2851
  198.0000    88.6553     1.4744     1.1827     1.1008     0.2811
  198.5000    87.9997     1.5763     1.1299     1.1237     0.2800
  199.0000    87.8862     1.7160     1.0869     1.1364     0.2925
  199.5000    87.7837     1.6849     1.0333     0.9781     0.3022
  200.0000    87.6645     1.5570     0.9828     0.8824     0.3205
  200.5000    88.3152     1.2542     0.9398     0.7899     0.3369
  201.0000    89.2547     1.0267     0.9034     0.7808     0.3312
  201.5000    90.1709     0.9268     0.8684     0.7652     0.3260
