~VERSION INFORMATION
 VERS.                2.0:   CWLS LOG ASCII STANDARD - VERSION 2.0
 WRAP.                 NO:   ONE LINE PER DEPTH STEP
~WELL INFORMATION
#MNEM.UNIT      DATA TYPE    INFORMATION
#----------   ------------   ------------------------------
 STRT.F          700.0000:   START DEPTH
 STOP.F         2111.0000:   STOP DEPTH
 STEP.F            0.5000:   STEP LENGTH
 NULL.          -999.2500:   NO VALUE
 COMP. FENIX & SCISSON INC:   COMPANY
 WELL.    35 SAX 34 #3-34:   WELL
 FLD .             TEAPOT:   FIELD
 LOC .      S34 T39N R78W:   LOCATION
 CNTY.            NATRONA:   COUNTY
 STAT.            WYOMING:   STATE
 CTRY. UNITED STATES OF AMERICA:   COUNTRY
 SRVC.            Unknown:   SERVICE COMPANY
 DATE.        29-MAY-1978:   LOGDATE
 API .       490251061700:   API NUMBER
~CURVE INFORMATION
#MNEM.UNIT       API CODE    CURVE DESCRIPTION
#----------   ------------   ------------------------------
 DEPT.F                  :   
 CALD.IN     45 280 60 00:   CALIPER FROM DENSITY LOG
 GRD .GAPI   45 310 01 00:   GAMMA RAY FROM DENSITY LOG
 RHOB.G/C3   45 350 01 00:   BULK DENSITY
 DPHI.DEC    45 890 00 00:   DENSITY POROSITY
 CORR.G/C3   45 356 01 00:   DENSITY CORRECTION
~PARAMETER INFORMATION
#MNEM.UNIT          VALUE    DESCRIPTION
#----------   ------------   ------------------------------
 PD  .                 GL:   PERMANENT DATUM
 EPD .F              5105:   ELEVATION PERMANENT DATUM
 LMF .                 KB:   LOG MEASURED FROM
 DAPD.F                10:   FEET ABOVE PERMANENT DATUM
 DMF .                 KB:   DRILLING MEASURED FROM
 EKB .F              5115:   KELLING BUSHING
 EGL .F              5105:   GROUND LEVEL
 DATE.          5-29-1978:   RUN DATE
 RUN .                  1:   RUN NUMBER
 DD  .F              2111:   DEPTH DRILLER
 DL  .F              2118:   DEPTH LOGGER
 BLI .F              2110:   BOTTOM LOG INTERVAL
 TLI .F               720:   TOP LOG INTERVAL
 CS  .IN            9.625:   CASING SIZE
 CBD .F               711:   CASING BOTTOM DRILLER
 CBL .F               721:   CASING BOTTOM LOGGER
 BS  .IN             8.75:   BIT SIZE
 BSD .F              2111:   BIT SIZE AT DEPTH
 DFT .                OIL:   DRILLING FLUID TYPE
 TCS .HRS               1:   TIME CURCULATED STOPPED
 LUN .               2958:   LOGGING UNIT NUMBER
 LUL .               CASP:   LOGGING UNIT LOCATION
 ENGI.             MILLER:   RECORDING ENGINEER
 WITN.           MCGINLEY:   WITNESSED BY
 CLNT.            A2DTECH:   CLIENT CODE
 ORIG.           5" PRINT:   ORIGIN OF DATA
 UWI .       490251061700:   UNIQUE WELL ID
 DICO. A2D Technologies, Inc.:   DIGITIZING COMPANY
~OTHER INFORMATION
~A   DEPT     CALD         GRD      RHOB       DPHI       CORR   
# ...
 1859.0000     8.9612    98.3453     2.3700     0.1093     0.2021
 1859.5000     8.9349    98.5826     2.3771     0.1048     0.2157
 1860.0000     8.9442    98.8189     2.3814     0.1002     0.2291
 1860.5000     8.9670    99.0623     2.3876     0.0974     0.2390
 1861.0000     8.9895    99.3042     2.3938     0.0923     0.2350
 1861.5000     9.0122    97.2053     2.3959     0.0867     0.2312
 1862.0000     9.0348    92.9141     2.4034     0.0812     0.2274
 1862.5000     9.0472    88.6673     2.4129     0.0794     0.2206
 1863.0000     8.9957    88.3032     2.4195     0.0926     0.2104
 1863.5000     8.9432    89.2801     2.4174     0.0926     0.2002
 1864.0000     8.9550    89.8207     2.4079     0.0897     0.1941
 1864.5000     8.9811    89.5554     2.4046     0.0890     0.1984
 1865.0000     9.0076    89.0236     2.4058     0.0962     0.2038
 1865.5000     9.0339    87.6203     2.4047     0.1035     0.2041
 1866.0000     9.0600    86.1318     2.3975     0.1108     0.2045
 1866.5000     9.0666    85.5189     2.3870     0.1181     0.2050
 1867.0000     9.0516    85.3220     2.3767     0.1221     0.2053
 1867.5000     9.0369    85.3654     2.3663     0.1054     0.2066
 1868.0000     9.0220    86.7666     2.3635     0.0968     0.2311
 1868.5000     9.0071    88.9330     2.3915     0.0910     0.2409
 1869.0000     8.9923    90.0469     2.3983     0.0898     0.2433
 1869.5000     8.9774    91.7653     2.4034     0.0898     0.2454
 1870.0000     8.9627    93.6130     2.4047     0.0922     0.2387
 1870.5000     8.9543    94.5729     2.4029     0.0955     0.2312
 1871.0000     8.9642    93.3924     2.4003     0.0988     0.2238
 1871.5000     8.9868    92.7637     2.3963     0.1006     0.2223
 1872.0000     9.0095    92.7612     2.3925     0.1014     0.2226
 1872.5000     9.0328    92.4001     2.3906     0.0978     0.2253
 1873.0000     9.0342    93.5336     2.3909     0.0910     0.2279
 1873.5000     9.0259    94.6650     2.3951     0.0959     0.2307
 1874.0000     9.0151    95.8045     2.3994     0.1006     0.2248
 1874.5000     9.0042    95.8659     2.3960     0.1003     0.2155
 1875.0000     8.9933    94.3004     2.3891     0.0994     0.2107
 1875.5000     8.9824    91.2286     2.3883     0.1020     0.2103
 1876.0000     8.9744    88.1398     2.3880     0.1044     0.2113
 1876.5000     8.9878    88.6696     2.3876     0.1037     0.2123
 1877.0000     9.0012    89.2954     2.3872     0.1032     0.2135
 1877.5000     9.0146    89.3016     2.3868     0.1036     0.2089
 1878.0000     9.0279    89.3036     2.3871     0.1032     0.2027
 1878.5000     9.0413    89.3045     2.3875     0.1021     0.2013
 1879.0000     9.0546    89.3103     2.3880     0.1010     0.2008
 1879.5000     9.0680    89.2426     2.3884     0.1063     0.2005
 1880.0000     9.0736    88.7065     2.3871     0.1060     0.2000
 1880.5000     9.0737    86.5152     2.3810     0.1046     0.1995
 1881.0000     9.0737    84.1529     2.3807     0.1063     0.2040
 1881.5000     9.0737    86.3448     2.3832     0.1082     0.2082
 1882.0000     9.0737    89.0823     2.3813     0.1090     0.2100
 1882.5000     9.0737    91.5529     2.3779     0.1070     0.2118
 1883.0000     9.0736    93.3781     2.3783     0.1016     0.2137
 1883.5000     9.0761    94.1706     2.3814     0.0961     0.2154
 1884.0000     9.0985    92.8148     2.3890     0.0907     0.2116
 1884.5000     9.1211    91.1650     2.3964     0.0881     0.2074
 1885.0000     9.1439    90.5248     2.4040     0.0913     0.2032
 1885.5000     9.1547    89.8707     2.4052     0.0946     0.1990
 1886.0000     9.0913    88.1115     2.4029     0.0958     0.1988
 1886.5000     9.0162    86.0714     2.4008     0.0945     0.2007
 1887.0000     9.0131    84.9416     2.4014     0.0933     0.2073
 1887.5000     9.0513    85.0826     2.4021     0.0921     0.2192
 1888.0000     9.0908    85.8995     2.4027     0.0910     0.2281
 1888.5000     9.0734    85.8357     2.4034     0.0915     0.2294
 1889.0000     9.0575    84.0033     2.4037     0.0954     0.2309
 1889.5000     9.0415    83.2778     2.4016     0.0993     0.2323
 1890.0000     9.0341    86.1037     2.3949     0.1032     0.2338
 1890.5000     9.0262    88.5953     2.3888     0.1071     0.2352
 1891.0000     8.9753    88.7112     2.3850     0.1106     0.2367
 1891.5000     8.9430    88.8860     2.3834     0.1051     0.2394
 1892.0000     9.0020    88.4555     2.3778     0.0920     0.2439
 1892.5000     9.0595    87.8898     2.3781     0.0874     0.2483
 1893.0000     9.1124    87.3350     2.3871     0.0914     0.2506
 1893.5000     9.1088    86.9584     2.4029     0.1017     0.2423
 1894.0000     9.1037    88.9871     2.4087     0.1119     0.2201
 1894.5000     9.0985    91.0563     2.3971     0.1230     0.1982
 1895.0000     9.0944    89.2147     2.3785     0.1230     0.1933
 1895.5000     9.1400    85.0400     2.3631     0.1070     0.1967
 1896.0000     9.1913    81.2868     2.3686     0.1106     0.2185
 1896.5000     9.1936    81.3278     2.3738     0.1135     0.2237
 1897.0000     9.1603    80.8523     2.3744     0.1097     0.2178
 1897.5000     9.1264    80.2390     2.3737     0.1070     0.2176
 1898.0000     9.0947    80.7636     2.3762     0.1062     0.2132
 1898.5000     9.0814    83.9333     2.3785     0.1078     0.2063
 1899.0000     9.0669    87.0709     2.3797     0.1172     0.1993
 1899.5000     9.0546    88.8638     2.3753     0.1253     0.1922
 1900.0000     9.0679    87.9719     2.3658     0.1184     0.1973
 1900.5000     9.0814    87.1024     2.3574     0.1122     0.2038
 1901.0000     9.0946    86.4838     2.3651     0.1117     0.2183
 1901.5000     9.1079    87.5943     2.3720     0.1122     0.2191
 1902.0000     9.1177    88.2688     2.3726     0.1178     0.2204
 1902.5000     9.1250    86.9532     2.3690     0.1193     0.2218
 1903.0000     9.1323    85.0842     2.3651     0.1156     0.2230
 1903.5000     9.1396    86.2398     2.3636     0.1077     0.2297
 1904.0000     9.1471    90.5203     2.3706     0.1055     0.2390
 1904.5000     9.1518    93.4927     2.3793     0.0993     0.2474
 1905.0000     9.1209    92.7893     2.3847     0.1017     0.2476
 1905.5000     9.0906    91.0589     2.3894     0.1055     0.2438
 1906.0000     9.0595    90.6970     2.3883     0.1094     0.2367
 1906.5000     9.0676    90.9212     2.3824     0.1122     0.2297
 1907.0000     9.0855    92.2983     2.3781     0.1126     0.2270
 1907.5000     9.1032    92.4934     2.3763     0.1097     0.2275
 1908.0000     9.1004    92.5837     2.3767     0.1081     0.2323
 1908.5000     9.0700    92.9952     2.3782     0.1087     0.2369
 1909.0000     9.0399    93.1025     2.3797     0.1094     0.2383
 1909.5000     9.0096    92.2574     2.3806     0.1100     0.2391
 1910.0000     8.9795    92.8348     2.3800     0.1106     0.2399
 1910.5000     8.9533    93.8763     2.3794     0.1052     0.2407
 1911.0000     8.9480    93.8365     2.3787     0.0979     0.2416
 1911.5000     8.9417    92.2109     2.3810     0.0907     0.2424
 1912.0000     8.9353    89.7380     2.3925     0.0850     0.2433
 1912.5000     8.9290    87.2362     2.4043     0.0958     0.2370
 1913.0000     8.9226    87.1965     2.4088     0.0994     0.2194
 1913.5000     8.9162    89.4108     2.4004     0.0954     0.1984
 1914.0000     8.9143    90.6946     2.3947     0.0943     0.1786
 1914.5000     8.9374    90.5012     2.4000     0.0872     0.1774
 1915.0000     8.9811    90.2239     2.4047     0.0794     0.1767
 1915.5000     9.0252    89.5770     2.4088     0.0883     0.1760
 1916.0000     9.0140    88.6339     2.4179     0.0908     0.1743
 1916.5000     8.9634    89.7023     2.4214     0.0898     0.1724
 1917.0000     8.9507    91.0821     2.4057     0.0927     0.1795
 1917.5000     8.9893    91.0696     2.4036     0.0970     0.1973
 1918.0000     9.0268    89.1901     2.4012     0.0970     0.2039
 1918.5000     9.0549    83.7759     2.3964     0.0966     0.2087
 1919.0000     9.0565    83.6787     2.3957     0.0962     0.2135
 1919.5000     9.0587    85.2422     2.3957     0.0985     0.2179
