~VERSION INFORMATION
 VERS.                2.0:   CWLS LOG ASCII STANDARD - VERSION 2.0
 WRAP.                 NO:   ONE LINE PER DEPTH STEP
~WELL INFORMATION
#MNEM.UNIT      DATA TYPE    INFORMATION
#----------   ------------   ------------------------------
 STRT.F           12.0000:   START DEPTH
 STOP.F          660.0000:   STOP DEPTH
 STEP.F            0.5000:   STEP LENGTH
 NULL.          -999.2500:   NO VALUE
 COMP. LAWRENCE/ALLISON INC:   COMPANY
 WELL.    24-11 SX #11-11:   WELL
 FLD .             TEAPOT:   FIELD
 LOC .      S11 T38N R78W:   LOCATION
 CNTY.            NATRONA:   COUNTY
 STAT.            WYOMING:   STATE
 CTRY. UNITED STATES OF AMERICA:   COUNTRY
 SRVC.           Gearhart:   SERVICE COMPANY
 DATE.        21-JUN-1986:   LOGDATE
 API .       490251109900:   API NUMBER
~CURVE INFORMATION
#MNEM.UNIT       API CODE    CURVE DESCRIPTION
#----------   ------------   ------------------------------
 DEPT.F                  :   
 GRR .GAPI   07 310 01 00:   GAMMA RAY FROM RES. LOG.
 ILM .OHMM   07 120 44 00:   INDUCTION LOG MEDIUM
 ILD .OHMM   07 120 46 00:   INDUCTION LOG DEEP
~PARAMETER INFORMATION
#MNEM.UNIT          VALUE    DESCRIPTION
#----------   ------------   ------------------------------
 PD  .                 GL:   PERMANENT DATUM
 EPD .F              5157:   ELEVATION PERMANENT DATUM
 LMF .                 KB:   LOG MEASURED FROM
 DAPD.F                 5:   FEET ABOVE PERMANENT DATUM
 DMF .                 KB:   DRILLING MEASURED FROM
 EKB .F              5162:   KELLING BUSHING
 EGL .F              5157:   GROUND LEVEL
 DATE.            6-21-86:   RUN DATE
 RUN .                  1:   RUN NUMBER
 DD  .F               665:   DEPTH DRILLER
 DL  .F               667:   DEPTH LOGGER
 BLI .F               658:   BOTTOM LOG INTERVAL
 CS  .IN            8.625:   CASING SIZE
 CBD .F                47:   CASING BOTTOM DRILLER
 CBL .F                48:   CASING BOTTOM LOGGER
 BS  .IN            7.875:   BIT SIZE
 BSD .F               665:   BIT SIZE AT DEPTH
 DFT .                AIR:   DRILLING FLUID TYPE
 TCS .HRS            1130:   TIME CURCULATED STOPPED
 TLAB.HRS            1315:   TIME LOGGER AT BOTTOM
 MRT .F                67:   MAXIMUM RECORDED TEMPERATURE
 LUN .               7609:   LOGGING UNIT NUMBER
 LUL .           GILLETTE:   LOGGING UNIT LOCATION
 ENGI.            WANGLER:   RECORDING ENGINEER
 WITN.           JENNINGS:   WITNESSED BY
 CLNT.            A2DTECH:   CLIENT CODE
 ORIG.       2", 5" PRINT:   ORIGIN OF DATA
 UWI .       490251109900:   UNIQUE WELL ID
 DICO. A2D Technologies, Inc.:   DIGITIZING COMPANY
~OTHER INFORMATION
~A   DEPT       GRR       ILM        ILD   
# ...
  103.0000   109.1585    10.3557     7.4695
  103.5000   108.2746     9.1193     7.3918
  104.0000   106.8625     8.0354     7.2692
  104.5000   105.8992     7.2195     7.1490
  105.0000   107.2633     7.0946     7.0284
  105.5000   108.4927     7.2971     7.0995
  106.0000   107.6620     7.3656     7.1726
  106.5000   108.0754     7.4352     7.2469
  107.0000   109.2409     7.6138     7.3212
  107.5000   107.9039     7.7959     7.4321
  108.0000   104.1978     7.9823     7.5935
  108.5000    97.5805     8.0885     7.7584
  109.0000    98.2118     8.2070     7.9269
  109.5000   101.5507     8.3210     8.0901
  110.0000   108.3626     8.3210     8.0901
  110.5000   114.5101     8.3210     8.0903
  111.0000   113.5214     8.3217     8.0904
  111.5000   111.2330     8.2957     8.0916
  112.0000   109.9831     8.2581     8.0891
  112.5000   109.5535     8.2212     7.8815
  113.0000   108.7963     8.1843     7.7234
  113.5000   107.7666     8.0501     7.5685
  114.0000   106.7039     7.8277     7.4167
  114.5000   107.1213     7.6115     7.2680
  115.0000   107.6895     7.4012     7.1210
  115.5000   107.3267     7.1968     7.0211
  116.0000   106.9781     7.0284     6.9646
  116.5000   107.1715     7.1216     6.8978
  117.0000   109.9713     7.2033     6.9524
  117.5000   114.0732     7.2860     7.0497
  118.0000   117.9258     7.3696     7.1484
  118.5000   116.1077     7.4542     7.2443
  119.0000   111.7222     7.5397     7.3223
  119.5000   107.4243     7.6262     7.4014
  120.0000   104.9214     7.7137     7.4814
  120.5000   106.5338     7.8023     7.5622
  121.0000   110.0581     7.8918     7.6187
  121.5000   113.7070     7.9824     7.6702
  122.0000   115.1547     8.0146     7.7220
  122.5000   115.0941     8.0146     7.7749
  123.0000   110.6109     8.0146     7.8447
  123.5000   105.8920     8.0146     7.9246
  124.0000   101.6767     8.0146     8.0146
  124.5000   104.1996     8.0146     7.9600
  125.0000   107.5365     8.0145     7.8988
  125.5000   108.6345     8.0145     7.8381
  126.0000   109.2056     8.0148     7.7779
  126.5000   111.9802     7.9227     7.7181
  127.0000   115.1774     7.8412     7.6587
  127.5000   116.9615     7.7605     7.5998
  128.0000   116.7661     7.6807     7.5414
  128.5000   116.2565     7.6017     7.4836
  129.0000   117.9034     7.5053     7.4295
  129.5000   119.4758     7.5135     7.3965
  130.0000   117.4316     7.5243     7.3631
  130.5000   115.0228     7.5351     7.3297
  131.0000   114.4008     7.5459     7.2973
  131.5000   115.4190     7.5567     7.3657
  132.0000   114.0968     7.5676     7.4360
  132.5000   109.9790     7.5784     7.5067
  133.0000   106.0478     7.5893     7.5780
  133.5000   103.6190     7.6001     7.6500
  134.0000   102.2187     7.6110     7.7195
  134.5000   102.9076     7.6220     7.6989
  135.0000   105.5172     7.6329     7.6747
  135.5000   108.2386     7.6439     7.6506
  136.0000   110.9502     7.6565     7.6265
  136.5000   113.3251     7.6698     7.6034
  137.0000   114.1633     7.6833     7.5751
  137.5000   111.3618     7.6966     7.6508
  138.0000   108.3157     7.7101     7.6488
  138.5000   108.1308     7.7494     7.6474
  139.0000   109.9695     7.8467     7.7461
  139.5000   111.7344     7.9449     7.8357
  140.0000   112.5329     8.0443     7.9263
  140.5000   112.3543     8.1450     8.0180
  141.0000   112.7585     8.2470     8.1107
  141.5000   114.6096     8.3502     8.2045
  142.0000   116.7835     8.4553     8.2994
  142.5000   119.0724     8.5207     8.4063
  143.0000   120.4013     8.5761     8.5566
  143.5000   121.7336     8.6316     8.7097
  144.0000   122.0592     8.6875     8.8654
  144.5000   122.1451     8.7272     9.0240
  145.0000   122.2241     8.7437     9.0600
  145.5000   122.3010     8.7603     9.0700
  146.0000   122.3478     8.7769     9.0799
  146.5000   123.9753     8.7935     9.0899
  147.0000   125.8990     8.8331     9.0999
  147.5000   127.6427     8.9557     9.1099
  148.0000   126.6408     9.0800     9.1202
  148.5000   123.6011     9.2061     9.1318
  149.0000   120.6622     9.3339     9.1323
  149.5000   119.3543     9.4830     9.4566
  150.0000   119.8024     9.6553     9.7593
  150.5000   120.3085     9.8308    10.0718
  151.0000   117.6753    10.0094    10.2619
  151.5000   113.8627    10.1570    10.3287
  152.0000   109.9659    10.2336    10.3960
  152.5000   110.0229    10.3109    10.4636
  153.0000   112.5245    10.3887    10.5318
  153.5000   115.7302    10.4671    10.6003
  154.0000   117.9266    10.5462    10.6693
  154.5000   115.4993    10.6258    10.7388
  155.0000   112.8027    10.7060    10.8087
  155.5000   112.4803    10.7868    10.8757
  156.0000   112.6453    10.8326    11.0297
  156.5000   111.2458    10.8646    11.0285
  157.0000   109.4427    10.8968    11.0265
  157.5000   109.5543    10.9218    11.0249
  158.0000   110.8902    10.8999    10.7307
  158.5000   112.1849    10.8786    10.4306
  159.0000   112.2067    10.8572    10.3161
  159.5000   109.8528    10.8358    10.3033
  160.0000   107.5554    10.8200    10.2904
  160.5000   106.0582    10.7600    10.2777
  161.0000   107.4351    10.7036    10.2649
  161.5000   109.1127    10.6475    10.2521
  162.0000   110.7878    10.5724    10.2394
  162.5000   111.8331    10.4801    10.2279
  163.0000   111.0770    10.3865    10.1397
  163.5000   109.8792    10.3188    10.0602
  164.0000   108.6662    10.2638     9.9812
  164.5000   107.4502    10.2101     9.9029
  165.0000   106.4906    10.1570     9.8252
  165.5000   107.0586    10.1262     9.7593
  166.0000   111.5274    10.0835     9.8318
  166.5000   118.3435    10.0410     9.8954
  167.0000   122.5484     9.9988     9.9593
  167.5000   124.6285     9.9566    10.0237
  168.0000   123.3448     9.9147    10.0792
  168.5000   116.7765     9.8730    10.1325
  169.0000   114.2835     9.8314    10.0796
  169.5000   113.2696     9.7900    10.0268
  170.0000   113.9309     9.7487     9.9742
  170.5000   116.0304     9.7077     9.9220
  171.0000   118.9151     9.6683     9.8700
  171.5000   122.8155     9.5713     9.7290
  172.0000   125.3551     9.4786     9.4570
  172.5000   125.3584     9.3868     9.2722
  173.0000   124.9360     9.2959     9.1849
  173.5000   124.5340     9.2058     9.0985
  174.0000   122.9563     9.1167     8.9938
  174.5000   121.2551     8.9745     8.7837
  175.0000   121.0587     8.7059     8.5785
  175.5000   122.9761     8.4453     8.3781
  176.0000   125.4684     8.2593     8.1664
  176.5000   125.7196     8.1400     8.0898
  177.0000   125.3479     8.0146     8.0071
  177.5000   125.8702     8.0146     7.9252
  178.0000   127.4149     8.0146     7.8442
  178.5000   127.7649     8.0146     7.7922
  179.0000   124.4509     8.0385     7.9646
  179.5000   119.4158     8.1869     8.0945
  180.0000   115.1564     8.3381     8.2264
  180.5000   112.6004     8.4921     8.3605
  181.0000   113.4294     8.6491     8.4969
  181.5000   114.2901     8.8092     8.6353
  182.0000   113.8454     8.9691     8.7772
  182.5000   112.2903     8.9858     8.8195
  183.0000   110.2580     9.0011     8.8480
  183.5000   108.2027     9.0162     8.8856
  184.0000   106.1782     9.0326     8.8321
  184.5000   105.3526     9.0484     8.7490
  185.0000   108.3955     9.5472     8.6667
  185.5000   111.3098    10.3531     8.5584
  186.0000   111.4049    11.2270     8.5924
  186.5000   110.2221    12.1747     8.6433
  187.0000   110.9944    13.1755     8.6946
  187.5000   115.1523    13.0036     8.7461
  188.0000   120.2924    12.1401     8.7979
  188.5000   120.3519    11.0973     8.8501
  189.0000   116.0695    10.1440     8.8856
  189.5000   111.8343     9.2727     8.8858
  190.0000   109.0133     9.0539     8.8857
  190.5000   110.3401     9.0539     8.8856
  191.0000   111.7202     9.0539     8.8856
  191.5000   112.9935     9.0539     8.8856
  192.0000   112.6945     9.0539     8.8857
  192.5000   112.3447     9.0539     8.8820
  193.0000   111.9883     9.0539     8.8758
  193.5000   111.1519     9.0539     8.8695
