~VERSION INFORMATION
 VERS.                2.0:   CWLS LOG ASCII STANDARD - VERSION 2.0
 WRAP.                 NO:   ONE LINE PER DEPTH STEP
~WELL INFORMATION
#MNEM.UNIT      DATA TYPE    INFORMATION
#----------   ------------   ------------------------------
 STRT.F           32.0000:   START DEPTH
 STOP.F          571.0000:   STOP DEPTH
 STEP.F            0.5000:   STEP LENGTH
 NULL.          -999.2500:   NO VALUE
 COMP. FENIX & SCISSON INCORP.:   COMPANY
 WELL.      NPR-3 #21-S-3:   WELL
 FLD .             TEAPOT:   FIELD
 LOC .       S3 T38N R78W:   LOCATION
 CNTY.            NATRONA:   COUNTY
 STAT.            WYOMING:   STATE
 CTRY. UNITED STATES OF AMERICA:   COUNTRY
 SRVC.           BIRDWELL:   SERVICE COMPANY
 DATE.        25-JUL-1978:   LOGDATE
 API .       490251067100:   API NUMBER
~CURVE INFORMATION
#MNEM.UNIT       API CODE    CURVE DESCRIPTION
#----------   ------------   ------------------------------
 DEPT.F                  :   
 CALD.IN     45 280 60 00:   CALIPER FROM DENSITY LOG
 CORR.G/C3   45 356 01 00:   DENSITY CORRECTION
 DPHI.DEC    45 890 10 00:   DENSITY POROSITY LIMESTONE
 GRD .GAPI   45 310 01 00:   GAMMA RAY FROM DENSITY LOG
 RHOB.G/C3   45 350 01 00:   BULK DENSITY
 ILD .OHMM   05 120 46 00:   INDUCTION LOG DEEP
 SN  .OHMM   05 040 16 00:   SHORT NORMAL 16"
 SPR .MV     05 010 01 00:   SPONTANEOUS POTENTIAL FROM RES.
 NPHI.DEC    42 890 01 00:   NEUTRON POROSITY LIMESTONE
~PARAMETER INFORMATION
#MNEM.UNIT          VALUE    DESCRIPTION
#----------   ------------   ------------------------------
 PD  .                 GL:   PERMANENT DATUM
 EPD .F              5203:   ELEVATION PERMANENT DATUM
 LMF .                 KB:   LOG MEASURED FROM
 DAPD.F                 4:   FEET ABOVE PERMANENT DATUM
 DMF .                 KB:   DRILLING MEASURED FROM
 EKB .F              5207:   KELLING BUSHING
 EGL .F              5203:   GROUND LEVEL
 DATE.        25-JUL-1978:   RUN DATE
 RUN .                  1:   RUN NUMBER
 DD  .F               565:   DEPTH DRILLER
 DL  .F               573:   DEPTH LOGGER
 BLI .F               566:   BOTTOM LOG INTERVAL
 TLI .F                46:   TOP LOG INTERVAL
 CS  .IN            8.625:   CASING SIZE
 CBD .F                40:   CASING BOTTOM DRILLER
 CBL .F                48:   CASING BOTTOM LOGGER
 BS  .IN            7.875:   BIT SIZE
 BSD .F               565:   BIT SIZE AT DEPTH
 DFT .                KCL:   DRILLING FLUID TYPE
 DFD .                8.6:   DRILLING FLUID DENSITY
 DFV .                 30:   DRILLING FLUID VISCOSITY
 DFPH.                  9:   DRILLING FLUID PH
 MSS .           FLOWLINE:   MUD SAMPLE SOURCE
 LUN .               2958:   LOGGING UNIT NUMBER
 LUL .               CASP:   LOGGING UNIT LOCATION
 WITN.           MCGINLEY:   WITNESSED BY
 CLNT.            A2DTECH:   CLIENT CODE
 ORIG.           5" PRINT:   ORIGIN OF DATA
 UWI .       490251067100:   UNIQUE WELL ID
 DICO. A2D Technologies, Inc.:   DIGITIZING COMPANY
~OTHER INFORMATION
~A   DEPT     CALD       CORR       DPHI         GRD      RHOB        ILD         SN        SPR       NPHI   
# ...
  141.5000     6.9481     0.1599     0.1317   106.1396     2.4599     8.8894     8.4177   -48.8396  -999.2500
  142.0000     6.8440     0.1659     0.1194   107.3453     2.4689     8.7699     8.4239   -48.6767  -999.2500
  142.5000     6.7400     0.1568     0.1170   110.0525     2.4839     8.6052     8.4290   -48.5138  -999.2500
  143.0000     6.6359     0.1355     0.1167   108.3554     2.4869     8.4948     8.4340   -48.3508  -999.2500
  143.5000     6.5767     0.0996     0.1174   106.4588     2.4869     8.3282     8.3799   -48.6336  -999.2500
  144.0000     6.5175     0.0516     0.1201   105.1118     2.4784     8.3354     8.3273   -48.6157  -999.2500
  144.5000     6.5630     0.0365     0.1593   104.5146     2.4367     8.2836     8.2761   -48.7535  -999.2500
  145.0000     6.6383     0.0290     0.1563   106.4720     2.4255     8.2925     8.2812   -48.8877  -999.2500
  145.5000     6.7286     0.0244     0.1518   108.7287     2.4240     8.2999     8.2864   -49.1706  -999.2500
  146.0000     6.8055     0.0154     0.1480   107.5319     2.4337     8.2499     8.2924   -49.4502  -999.2500
  146.5000     6.9280     0.0123     0.1449   105.7345     2.4419     8.2588     8.2974   -49.4354  -999.2500
  147.0000     7.1191     0.0108     0.1399   105.6636     2.4449     8.2660     8.3024   -49.5697  -999.2500
  147.5000     7.2692     0.0107     0.1330   108.4460     2.4539     8.2731     8.3074   -49.7039  -999.2500
  148.0000     7.4790     0.0122     0.1303   110.5526     2.4637     8.2803     8.3124   -49.5374  -999.2500
  148.5000     7.5543     0.0137     0.1294   112.3714     2.4674     8.2874     8.3174   -49.5230  -999.2500
  149.0000     7.5549     0.0151     0.1306   112.9890     2.4689     8.2947     8.3225   -49.5087  -999.2500
  149.5000     7.5406     0.0181     0.1363   110.4167     2.4659     8.3036     8.3286   -49.3457  -999.2500
  150.0000     7.4962     0.0390     0.1468   107.4170     2.4607     8.0832     8.2764   -48.8832  -999.2500
  150.5000     7.5118     0.0600     0.1498   106.9748     2.4509     8.2602     8.1663   -48.2745  -999.2500
  151.0000     7.4976     0.0870     0.1501   108.4836     2.4449     8.2668     8.1724   -48.2602  -999.2500
  151.5000     7.4532     0.1331     0.1468   110.7518     2.4419     8.2150     8.1774   -48.3980  -999.2500
  152.0000     7.3194     0.1563     0.1357   111.8033     2.4472     8.2232     8.1835   -48.6776  -999.2500
  152.5000     6.8566     0.1620     0.1282   112.4112     2.4546     8.1733     8.1884   -48.6627  -999.2500
  153.0000     6.6628     0.1605     0.1189   112.7187     2.4630     8.1814     8.1933   -48.4964  -999.2500
  153.5000     6.4840     0.1544     0.1216   112.7260     2.4784     8.2446     8.2550   -48.1848  -999.2500
  154.0000     6.4099     0.1133     0.1285   110.1807     2.5011     8.3082     8.3171   -48.1705  -999.2500
  154.5000     6.3806     0.0478     0.1354   105.3832     2.4808     8.3148     8.3221   -48.1562  -999.2500
  155.0000     6.4261     0.0342     0.1492   103.8839     2.4584     8.2643     8.3270   -48.1418  -999.2500
  155.5000     6.4715     0.0327     0.1611   106.5941     2.4389     8.2140     8.3322   -48.1275  -999.2500
  156.0000     6.5020     0.0297     0.1684   113.3648     2.4276     8.2208     8.3383   -48.4103  -999.2500
  156.5000     6.5325     0.0281     0.1693   115.9228     2.4134     8.1708     8.4010   -48.5445  -999.2500
  157.0000     6.5630     0.0251     0.1631   113.9781     2.4104     8.1228     8.4061   -48.2294  -999.2500
  157.5000     6.6084     0.0206     0.1502   114.8881     2.4227     8.1855     8.3533   -48.0665  -999.2500
  158.0000     6.7435     0.0145     0.1352   115.1938     2.4546     8.1921     8.3584   -48.0522  -999.2500
  158.5000     6.8948     0.0085     0.1286   114.9026     2.4590     8.1986     8.3634   -48.6357  -999.2500
  159.0000     7.0161     0.0070     0.1253   113.2512     2.4695     8.2052     8.3685   -48.7667  -999.2500
  159.5000     7.1938     0.0024     0.1250   109.3889     2.4755     8.2117     8.3747   -48.7519  -999.2500
  160.0000     7.2841    -0.0006     0.1262   106.2175     2.4755     8.2185     8.3797   -48.7341  -999.2500
  160.5000     7.3744    -0.0006     0.1265   104.1227     2.4755     8.2833     8.3847   -48.5712  -999.2500
  161.0000     7.4945    -0.0007     0.1259   103.8279     2.4762     8.2900     8.4478   -48.5569  -999.2500
  161.5000     7.5698     0.0008     0.1256   105.6388     2.4822     8.2966     8.5703   -48.5425  -999.2500
  162.0000     7.6153     0.0023     0.1253   109.5499     2.4806     8.2446     8.5163   -48.3796  -999.2500
  162.5000     7.6308     0.0043     0.1271   109.8575     2.4770     8.1959     8.4049   -48.3652  -999.2500
  163.0000     7.5997     0.0097     0.1344   109.8719     2.4702     8.1464     8.4100   -48.2021  -999.2500
  163.5000     7.5273     0.0172     0.1409   110.1742     2.4597     8.0969     8.2998   -48.1844  -999.2500
  164.0000     7.4981     0.0355     0.1436   110.4817     2.4500     8.0478     8.1910   -48.3222  -999.2500
  164.5000     7.4090     0.0663     0.1461   111.5401     2.4500     7.9989     8.1397   -48.4564  -999.2500
  165.0000     7.0957     0.1117     0.1479   111.0969     2.4500     7.9519     8.1458   -48.2899  -999.2500
  165.5000     6.9767     0.1477     0.1482   109.4525     2.4470     7.9583     8.1507   -48.4277  -999.2500
  166.0000     6.8129     0.1627     0.1464   107.8081     2.4447     7.9084     8.0995   -48.4098  -999.2500
  166.5000     6.6341     0.1627     0.1359   108.1157     2.4582     7.8619     8.0487   -48.2469  -999.2500
  167.0000     6.5127     0.1551     0.1283   109.5135     2.4717     7.8684     8.0548   -48.5297  -999.2500
  167.5000     6.4260     0.1281     0.1260   111.1351     2.4761     7.8761     8.1153   -48.8125  -999.2500
  168.0000     6.4417     0.0740     0.1626   112.4937     2.4686     7.9917     8.1764   -48.6460  -999.2500
  168.5000     6.4871     0.0269     0.1686   112.6511     2.4589     8.0534     8.1813   -48.4831  -999.2500
  169.0000     6.5773     0.0169     0.1692   111.4572     2.4117     7.9495     8.2428   -48.4688  -999.2500
  169.5000     6.6527     0.0184     0.1689   110.5635     2.4057     7.9559     8.3049   -48.3058  -999.2500
  170.0000     6.7579     0.0153     0.1626   108.7637     2.4057     8.0173     8.3673   -48.7372  -999.2500
  170.5000     6.7884     0.0093     0.1473   106.5240     2.4272     8.0793     8.3725   -48.8715  -999.2500
  171.0000     6.8511     0.0017     0.1386   107.6206     2.4499     8.2561     8.3786   -48.8536  -999.2500
  171.5000     7.0335     0.0017     0.1347   108.7926     2.4581     8.3198     8.3837   -48.8392  -999.2500
  172.0000     7.1938     0.0017     0.1326   108.3495     2.4626     8.5003     8.3298   -48.3791  -999.2500
  172.5000     7.2990     0.0018     0.1306   109.4078     2.4626     8.5659     8.4518   -48.2162  -999.2500
  173.0000     7.3893     0.0076     0.1294   109.5634     2.4626     8.5728     8.4569   -48.2018  -999.2500
  173.5000     7.4646     0.0121     0.1216   108.2211     2.4716     8.5206     8.5205   -48.1872  -999.2500
  174.0000     7.5250     0.0166     0.1213   107.3275     2.4835     8.5276     8.5887   -48.6153  -999.2500
  174.5000     7.5405     0.0210     0.1237   106.4339     2.4835     8.5951     8.7103   -48.6010  -999.2500
  175.0000     7.5262     0.0345     0.1267   106.6166     2.4789     8.6019     8.7156   -48.2894  -999.2500
  175.5000     7.5118     0.0585     0.1306   106.4502     2.4760     8.6088     8.7811   -48.1265  -999.2500
  176.0000     7.4378     0.0735     0.1318   105.8569     2.4730     8.6157     8.7864   -47.6664  -999.2500
  176.5000     7.2590     0.0947     0.1330   104.8131     2.4693     8.6226     8.7917   -47.5035  -999.2500
  177.0000     7.0652     0.1241     0.1357   104.0696     2.4678     8.6295     8.7969   -47.6377  -999.2500
  177.5000     6.8267     0.1380     0.1375   103.9249     2.4648     8.5182     8.7418   -47.9205  -999.2500
