~VERSION INFORMATION
 VERS.                2.0:   CWLS LOG ASCII STANDARD - VERSION 2.0
 WRAP.                 NO:   ONE LINE PER DEPTH STEP
~WELL INFORMATION
#MNEM.UNIT      DATA TYPE    INFORMATION
#----------   ------------   ------------------------------
 STRT.F            0.0000:   START DEPTH
 STOP.F          489.0000:   STOP DEPTH
 STEP.F            0.5000:   STEP LENGTH
 NULL.          -999.2500:   NO VALUE
 COMP.   FLUOR DANIEL INC:   COMPANY
 WELL. NAVAL PETROLEUM RES 3 SX-3 44 #1-3:   WELL
 FLD .             TEAPOT:   FIELD
 LOC .       S3 T38N R78W:   LOCATION
 CNTY.            NATRONA:   COUNTY
 STAT.            WYOMING:   STATE
 CTRY. UNITED STATES OF AMERICA:   COUNTRY
 SRVC.      Western Atlas:   SERVICE COMPANY
 DATE.        10-JUL-1995:   LOGDATE
 API .       490252273800:   API NUMBER
~CURVE INFORMATION
#MNEM.UNIT       API CODE    CURVE DESCRIPTION
#----------   ------------   ------------------------------
 DEPT.F                  :   
 RILD.OHMM   07 120 46 00:   INDUCTION LOG DEEP RESISTIVITY
 RILM.OHMM   07 120 44 00:   INDUCTION LOG MEDIUM RESISTIVITY
 GRR .GAPI   07 310 01 00:   GAMMA RAY FROM RES. LOG.
~PARAMETER INFORMATION
#MNEM.UNIT          VALUE    DESCRIPTION
#----------   ------------   ------------------------------
 PD  .                 GL:   PERMANENT DATUM
 EPD .F              5164:   ELEVATION PERMANENT DATUM
 LMF .                 KB:   LOG MEASURED FROM
 DAPD.F                10:   FEET ABOVE PERMANENT DATUM
 DMF .                 KB:   DRILLING MEASURED FROM
 EKB .F              5174:   KELLING BUSHING
 EDF .F              5173:   DRILLING FLOOR
 EGL .F              5164:   GROUND LEVEL
 DATE.            7-10-95:   RUN DATE
 RUN .                  1:   RUN NUMBER
 DD  .F               500:   DEPTH DRILLER
 DL  .F               500:   DEPTH LOGGER
 BLI .F               494:   BOTTOM LOG INTERVAL
 TLI .F                53:   TOP LOG INTERVAL
 CS  .IN            9.625:   CASING SIZE
 CBD .F                53:   CASING BOTTOM DRILLER
 CBL .F                53:   CASING BOTTOM LOGGER
 BS  .IN             8.75:   BIT SIZE
 BSD .F               500:   BIT SIZE AT DEPTH
 DFT .                AIR:   DRILLING FLUID TYPE
 BHT .F                92:   BOTTOM HOLE TEMPERATURE
 MRT .F                92:   MAXIMUM RECORDED TEMPERATURE
 LUN .            HL 6530:   LOGGING UNIT NUMBER
 LUL .             CASPER:   LOGGING UNIT LOCATION
 ENGI.          RASMUSEEN:   RECORDING ENGINEER
 WITN.             STRONG:   WITNESSED BY
 CLNT.            A2DTECH:   CLIENT CODE
 ORIG.       2", 5" PRINT:   ORIGIN OF DATA
 UWI .       490252273800:   UNIQUE WELL ID
 DICO. A2D Technologies, Inc.:   DIGITIZING COMPANY
~OTHER INFORMATION
~A    DEPT    RILD       RILM          GRR 
# ...
  364.0000    14.3702    14.6822    80.1213
  364.5000    14.0191    14.2777    80.1166
  365.0000    13.9374    14.2821    80.8921
  365.5000    13.8262    14.1272    83.0044
  366.0000    13.7158    14.0144    83.9260
  366.5000    13.6064    13.9025    83.8411
  367.0000    13.4978    13.7916    82.9481
  367.5000    13.3872    13.6815    83.8046
  368.0000    13.3490    13.6230    85.7940
  368.5000    13.2850    13.5576    86.1604
  369.0000    13.2214    13.4924    86.3997
  369.5000    13.1403    13.4263    87.1610
  370.0000    13.2251    13.3845    87.3188
  370.5000    13.4533    13.6770    84.9196
  371.0000    13.7638    13.9792    81.7505
  371.5000    13.7621    14.2881    78.2693
  372.0000    13.9356    14.6038    78.5706
  372.5000    14.0698    14.6880    80.5894
  373.0000    14.2035    14.7252    80.3477
  373.5000    14.2854    14.7625    80.5520
  374.0000    14.4127    14.8173    81.1778
  374.5000    14.2963    14.7460    81.6261
  375.0000    14.2277    14.6136    80.4165
  375.5000    14.1594    14.4825    78.1869
  376.0000    14.0414    14.4127    76.5273
  376.5000    13.6530    14.1355    77.3880
  377.0000    13.2612    13.8299    79.3953
  377.5000    12.9661    13.5309    80.3680
  378.0000    12.7395    13.2366    79.2514
  378.5000    12.5192    12.9504    77.3576
  379.0000    12.3022    12.6655    78.9253
  379.5000    12.2068    12.4342    82.6904
  380.0000    12.2068    12.4342    86.3356
  380.5000    12.1324    12.4342    86.8714
  381.0000    12.0163    12.4342    87.4836
  381.5000    11.9833    12.4342    88.0873
  382.0000    12.1564    12.5495    87.8845
  382.5000    12.6874    13.1603    86.2093
  383.0000    13.5156    13.7628    84.8173
  383.5000    14.7463    16.0270    83.6395
  384.0000    15.9880    18.4810    79.7433
  384.5000    18.0308    21.3106    72.9124
  385.0000    20.9290    24.5736    66.3070
  385.5000    24.0834    28.3361    59.6502
  386.0000    28.0442    31.3329    57.3273
  386.5000    32.1694    34.3162    60.2538
  387.0000    33.9633    34.7175    63.3562
  387.5000    34.3162    34.9663    63.6613
  388.0000    33.6762    34.2882    62.6745
  388.5000    33.1687    33.5274    62.1027
  389.0000    32.6689    32.7687    63.2733
  389.5000    32.1694    32.7687    63.7781
  390.0000    32.1694    32.7687    64.0446
  390.5000    32.1190    32.7687    65.5766
  391.0000    31.6083    32.3958    68.0194
  391.5000    31.1057    31.8807    67.2081
  392.0000    29.9841    31.0358    64.6218
  392.5000    29.0639    29.6023    62.8274
  393.0000    28.9580    29.6053    63.9937
  393.5000    28.8038    29.4006    67.3998
  394.0000    28.6503    29.2439    70.0266
  394.5000    28.5324    29.0881    69.2136
  395.0000    27.9529    28.6909    68.1292
  395.5000    27.4049    28.1284    68.4190
  396.0000    26.8677    27.5770    69.4568
  396.5000    26.7475    27.2457    69.6705
  397.0000    26.9811    27.5288    66.5260
  397.5000    27.2457    28.3238    62.4336
  398.0000    28.5634    29.5689    60.3652
  398.5000    29.8804    31.2503    62.6710
  399.0000    30.1532    33.3003    65.5866
  399.5000    30.1643    34.0358    66.1789
  400.0000    30.1569    31.3090    62.5356
  400.5000    29.6693    29.9599    56.8360
  401.0000    29.1392    28.5324    54.6221
  401.5000    28.6185    28.7970    58.2248
  402.0000    27.3278    27.3238    63.1878
  402.5000    25.9200    24.9799    71.8901
  403.0000    24.9778    24.6617    75.3070
  403.5000    24.2176    24.3554    76.5273
  404.0000    23.5055    24.0405    76.5042
  404.5000    23.2747    23.7235    76.5081
  405.0000    23.2176    23.7235    75.9011
  405.5000    23.1629    23.7235    76.2075
  406.0000    23.1083    23.7235    76.8453
  406.5000    23.0749    23.5055    76.9555
  407.0000    22.8550    23.3506    74.2573
  407.5000    22.6437    23.1179    71.3747
  408.0000    22.4351    22.8874    71.7123
  408.5000    22.2280    22.6593    72.8299
  409.0000    22.0365    22.4455    71.3700
  409.5000    21.9050    22.2568    68.9465
  410.0000    21.7551    22.0792    69.5526
  410.5000    21.6061    21.9029    72.3109
  411.0000    21.4582    21.7281    74.0507
  411.5000    21.3113    21.5547    73.2484
  412.0000    20.8528    21.3623    72.7018
  412.5000    20.0874    20.6884    74.2127
  413.0000    19.7629    20.2056    76.8853
  413.5000    19.1221    19.7250    77.9881
  414.0000    18.5530    19.1189    77.6577
  414.5000    18.0005    18.5498    76.9231
  415.0000    17.4646    17.9975    78.9974
  415.5000    16.9446    17.4617    82.3096
  416.0000    16.4402    16.9419    85.5246
  416.5000    15.9507    16.4375    86.9668
  417.0000    15.7238    16.0802    85.5861
  417.5000    15.5626    15.9154    80.4702
  418.0000    15.4031    15.7523    75.4759
  418.5000    15.2450    15.5907    76.9802
  419.0000    15.0897    15.4313    79.4081
  419.5000    14.9531    15.2712    80.9505
  420.0000    14.9053    15.2175    79.7476
  420.5000    14.8154    15.1263    77.4430
  421.0000    14.7267    15.0356    76.8136
  421.5000    14.5725    14.9318    78.2059
  422.0000    14.3519    14.7050    79.4688
  422.5000    14.1333    14.4815    79.9297
  423.0000    13.9190    14.2616    79.3762
  423.5000    13.7628    14.0451    76.8043
  424.0000    13.6965    13.9758    74.4779
  424.5000    13.6349    13.9129    76.8436
  425.0000    13.5735    13.8504    79.2896
  425.5000    13.5125    13.7881    78.4558
  426.0000    13.4517    13.7258    78.2577
  426.5000    13.3860    13.6646    80.8070
  427.0000    13.3876    13.6358    79.1726
  427.5000    13.3869    13.6365    75.9899
  428.0000    13.3869    13.6364    75.4573
  428.5000    13.3870    13.6363    77.7588
  429.0000    13.3871    13.6363    79.0099
  429.5000    13.3873    13.6364    78.1721
  430.0000    13.3881    13.6377    79.3042
  430.5000    13.3071    13.5882    81.5859
  431.0000    13.2418    13.5302    84.3691
  431.5000    13.1766    13.4725    84.9418
  432.0000    13.1118    13.4151    84.9652
  432.5000    13.0473    13.3579    84.4495
  433.0000    12.9831    13.3009    82.7201
  433.5000    12.9192    13.2442    81.3920
  434.0000    12.8557    13.1877    82.9912
  434.5000    12.7924    13.1421    85.0831
  435.0000    12.7295    13.2640    86.3205
  435.5000    12.6669    13.1215    86.9988
  436.0000    12.6046    13.0223    88.3373
  436.5000    12.5426    12.9018    88.5609
  437.0000    12.4809    12.9258    89.1313
  437.5000    12.4342    12.9570    90.9698
  438.0000    12.4913    12.9881    94.6855
  438.5000    12.5460    13.0194    94.3380
  439.0000    12.6010    13.0507    91.2482
  439.5000    12.6666    13.0821    88.3167
  440.0000    12.6669    13.1137    88.0891
  440.5000    12.6132    13.1422    88.9161
  441.0000    12.5336    13.1423    90.7670
  441.5000    12.4552    13.1430    90.1288
  442.0000    12.3773    13.1431    89.1748
  442.5000    12.3000    12.9926    90.5132
  443.0000    12.2231    12.8714    94.5328
  443.5000    12.1466    12.7512    97.1826
  444.0000    12.0707    12.6321    95.8739
  444.5000    11.9952    12.5141    95.0883
  445.0000    11.8815    12.3973    95.3774
  445.5000    11.7619    12.2815    95.0826
  446.0000    11.6434    12.1727    93.7843
  446.5000    11.5482    12.0755    92.9614
  447.0000    11.4769    11.9791    93.1375
  447.5000    11.4049    11.8835    93.9860
  448.0000    11.3336    11.6563    94.2335
  448.5000    11.2646    11.5405    92.9704
  449.0000    11.1191    11.4431    91.7973
  449.5000    10.8408    11.1683    92.1552
  450.0000    10.5683    10.9014    94.7536
  450.5000    10.3385    10.6449    97.2766
  451.0000    10.1612    10.4567    96.5368
  451.5000     9.9769    10.2575    94.6228
  452.0000     9.7956    10.0621    93.7980
  452.5000     9.6050     9.8704    94.3967
  453.0000     9.3255     9.6169    95.0176
  453.5000     8.6572     9.1962    96.4055
  454.0000     7.9313     8.6126    99.1751
  454.5000     7.2662     7.9595   101.8801
