~VERSION INFORMATION
 VERS.                2.0:   CWLS LOG ASCII STANDARD - VERSION 2.0
 WRAP.                 NO:   ONE LINE PER DEPTH STEP
~WELL INFORMATION
#MNEM.UNIT      DATA TYPE    INFORMATION
#----------   ------------   ------------------------------
 STRT.F          100.0000:   START DEPTH
 STOP.F          872.0000:   STOP DEPTH
 STEP.F            0.5000:   STEP LENGTH
 NULL.          -999.2500:   NO VALUE
 COMP. U S NAVY/INTEX OIL CO:   COMPANY
 WELL. 53 S 11 #N P R 3-11:   WELL
 FLD .             TEAPOT:   FIELD
 LOC .      S11 T38N R78W:   LOCATION
 CNTY.            NATRONA:   COUNTY
 STAT.            WYOMING:   STATE
 CTRY. UNITED STATES OF AMERICA:   COUNTRY
 SRVC.       Schlumberger:   SERVICE COMPANY
 DATE.        07-AUG-1961:   LOGDATE
 API .       490250635800:   API NUMBER
~CURVE INFORMATION
#MNEM.UNIT       API CODE    CURVE DESCRIPTION
#----------   ------------   ------------------------------
 DEPT.F                  :   
 CILD.MMHO   05 110 46 00:   CONDUCTIVITY INDUCTION LOG DEEP
 ILD .OHMM   05 120 46 00:   INDUCTION LOG DEEP
 SPR .MV     05 010 01 00:   SPONTANEOUS POTENTIAL FROM RES.
 ASN .OHMM   05 041 16 00:   AMPLIFIED SHORT NORMAL 16"
~PARAMETER INFORMATION
#MNEM.UNIT          VALUE    DESCRIPTION
#----------   ------------   ------------------------------
 PD  .                 GL:   PERMANENT DATUM
 EPD .F              5192:   ELEVATION PERMANENT DATUM
 LMF .                 KB:   LOG MEASURED FROM
 DAPD.F                 6:   FEET ABOVE PERMANENT DATUM
 DMF .                 KB:   DRILLING MEASURED FROM
 EKB .F              5198:   KELLING BUSHING
 EGL .F              5192:   GROUND LEVEL
 DATE.             8-7-61:   RUN DATE
 RUN .                  1:   RUN NUMBER
 DD  .F               870:   DEPTH DRILLER
 DL  .F               873:   DEPTH LOGGER
 BLI .F               872:   BOTTOM LOG INTERVAL
 TLI .F               100:   TOP LOG INTERVAL
 BS  .IN            7.875:   BIT SIZE
 BSD .F               870:   BIT SIZE AT DEPTH
 DFT .            GEL/OIL:   DRILLING FLUID TYPE
 DFD .               10.4:   DRILLING FLUID DENSITY
 DFV .                 43:   DRILLING FLUID VISCOSITY
 RMS .OHMM            .02:   RESISTIVITY MUD SAMPLE
 MST .F                70:   MUD SAMPLE TEMPERATURE
 TCS .HRS               1:   TIME CURCULATED STOPPED
 LUN .               2544:   LOGGING UNIT NUMBER
 LUL .                 NC:   LOGGING UNIT LOCATION
 ENGI.             QUINCY:   RECORDING ENGINEER
 WITN.          JORGENSON:   WITNESSED BY
 CLNT.            A2DTECH:   CLIENT CODE
 ORIG.       2", 5" PRINT:   ORIGIN OF DATA
 UWI .       490250635800:   UNIQUE WELL ID
 DICO. A2D Technologies, Inc.:   DIGITIZING COMPANY
~OTHER INFORMATION
~A   DEPT      CILD         ILD      SPR          ASN 
# ...
  611.0000   179.6723     4.5153   -24.0609     7.1489
  611.5000   192.0539     4.1140   -23.7238     7.0048
  612.0000   204.4355     3.7033   -23.5007     6.7749
  612.5000   216.8171     3.3700   -23.5679     6.4752
  613.0000   229.6891     3.1125   -23.6322     6.1605
  613.5000   233.7011     2.9876   -23.6979     5.6552
  614.0000   231.7352     3.0419   -23.7684     5.3407
  614.5000   229.7091     3.1160   -23.8213     5.3017
  615.0000   227.6830     3.1788   -23.9466     5.4047
  615.5000   225.6570     3.2889   -24.4578     5.5365
  616.0000   223.6710     3.6808   -24.9101     6.0290
  616.5000   203.0090     4.1937   -24.6772     6.6125
  617.0000   179.5386     4.6132   -24.6192     6.9241
  617.5000   171.0130     4.9789   -25.0129     7.2396
  618.0000   159.4784     5.3175   -25.0152     7.4303
  618.5000   156.7515     5.5910   -24.7785     7.4846
  619.0000   153.5858     5.7583   -24.5231     7.5824
  619.5000   150.4200     5.9240   -24.2240     7.7506
  620.0000   148.4035     6.0868   -24.0794     7.9605
  620.5000   146.2930     6.2483   -24.0627     8.0880
  621.0000   144.1826     6.4159   -23.9332     8.1728
  621.5000   142.0721     6.5278   -23.9569     8.2620
  622.0000   139.9615     6.5827   -24.1948     8.3490
  622.5000   139.0585     6.5921   -24.4261     8.4375
  623.0000   138.3978     6.5890   -24.6603     8.5250
  623.5000   137.7371     6.5902   -24.8992     8.6134
  624.0000   137.0764     6.5887   -25.1225     8.6990
  624.5000   136.4158     6.5950   -25.3843     8.7529
  625.0000   135.7551     6.6667   -25.4868     8.8029
  625.5000   135.0944     6.7435   -25.3820     8.8546
  626.0000   134.4337     6.8263   -25.3047     8.9015
  626.5000   133.7731     6.8956   -25.2175     8.9323
  627.0000   133.4002     7.0083   -25.1271     8.9960
  627.5000   133.4002     7.1020   -25.1092     8.9615
  628.0000   133.4002     7.0894   -25.0494     8.9344
  628.5000   133.4002     7.0953   -24.6023     8.9888
  629.0000   133.4002     7.0932   -24.0913     9.0404
  629.5000   133.4002     7.0838   -23.9303     9.0738
  630.0000   134.6540     6.9331   -24.1039     8.9458
  630.5000   133.8098     6.7447   -24.2188     8.8840
  631.0000   132.9656     6.6878   -24.3625     8.7002
  631.5000   132.1214     6.7328   -24.4924     8.5321
  632.0000   131.3942     6.7522   -24.6257     8.4281
  632.5000   134.8591     6.8062   -24.7654     8.3015
  633.0000   138.5429     6.6779   -24.8881     8.1862
  633.5000   142.2267     6.3121   -25.0477     8.0639
  634.0000   145.9105     5.9815   -25.0068     7.9276
  634.5000   147.4423     5.6477   -24.7352     7.6693
  635.0000   158.1411     5.1302   -24.4973     7.3354
  635.5000   168.9468     4.5333   -24.2400     7.0139
  636.0000   179.5386     3.9782   -23.9959     6.7093
  636.5000   208.6532     3.3685   -23.7400     6.4080
  637.0000   241.7252     2.9636   -23.4985     5.8281
  637.5000   279.8573     2.3689   -23.2278     5.3161
  638.0000   325.6158     1.7954   -23.0202     4.7356
  638.5000   371.4299     1.1921   -22.8964     4.3936
  639.0000   417.0816     1.0318   -22.7517     3.9918
  639.5000   454.2944     1.0406   -22.6110     3.5930
  640.0000   470.9847     1.0047   -22.5002     3.3407
  640.5000   489.1535     0.9924   -22.6208     3.2264
  641.0000   491.0360     0.9575   -22.7809     3.1869
  641.5000   470.6369     0.9854   -23.0389     3.1709
  642.0000   436.3892     1.3442   -23.7117     3.2599
  642.5000   387.7633     1.7383   -24.1281     3.4461
  643.0000   339.1374     2.1876   -23.9384     3.9928
  643.5000   297.4674     2.6905   -23.9480     4.4926
  644.0000   261.1668     3.1625   -24.0645     4.9712
  644.5000   231.6951     3.5997   -24.1800     5.5401
  645.0000   195.5868     4.0812   -24.2855     5.9788
  645.5000   185.8375     4.5284   -24.2911     6.2255
  646.0000   171.5145     5.0572   -24.0885     6.3617
  646.5000   168.3927     5.1982   -23.8065     6.4105
  647.0000   165.4965     5.1900   -23.5250     6.4720
  647.5000   169.3717     5.0808   -23.5263     6.5538
  648.0000   173.9765     4.6662   -23.6029     6.6586
  648.5000   182.6667     4.2631   -23.6477     6.7617
  649.0000   193.4303     3.8399   -23.7938     6.6458
  649.5000   204.1938     3.4773   -24.0383     6.4671
  650.0000   213.6201     3.2743   -24.2634     6.1366
  650.5000   221.6822     3.1292   -24.1983     5.7551
  651.0000   229.7444     2.9876   -24.0960     5.5716
  651.5000   237.8065     2.8670   -24.0954     5.4493
  652.0000   243.7312     2.8797   -24.0917     5.3933
  652.5000   240.2541     3.0222   -24.0972     5.4536
  653.0000   233.5406     3.1756   -24.0870     5.7530
  653.5000   227.6830     3.3128   -24.1649     5.8421
  654.0000   214.8480     3.6414   -24.2806     5.9409
  654.5000   203.4643     3.9880   -24.1297     6.2420
  655.0000   192.0806     4.3172   -23.9793     6.5736
  655.5000   180.6969     4.6737   -23.6874     6.8147
  656.0000   171.1294     5.0134   -23.3224     7.0541
  656.5000   163.0732     5.3547   -23.4450     7.4485
  657.0000   155.0170     5.6946   -23.6177     7.8075
  657.5000   146.9609     6.0123   -23.7871     8.0474
  658.0000   143.4303     6.3619   -23.9560     8.1978
  658.5000   142.3653     6.4710   -24.1265     8.2777
  659.0000   141.4243     6.3684   -24.3014     8.2913
  659.5000   141.4243     6.3129   -24.5841     8.2829
  660.0000   144.6892     6.2064   -24.8528     8.2161
  660.5000   147.4672     5.9868   -25.1693     8.1347
  661.0000   150.2452     5.7675   -25.2516     8.0096
  661.5000   153.0232     5.5476   -25.0561     7.8707
  662.0000   155.8012     5.2991   -24.8930     7.7083
  662.5000   159.4784     5.0480   -24.5954     7.5431
  663.0000   164.2221     4.8267   -24.3105     7.4193
  663.5000   170.1457     4.5876   -24.0130     7.3259
  664.0000   176.0694     4.4075   -23.7320     7.2180
  664.5000   181.5446     4.2180   -23.4219     7.0749
  665.0000   194.5011     3.9109   -23.2371     6.8948
  665.5000   205.1637     3.6260   -23.1506     6.5907
  666.0000   217.6530     3.3703   -23.1416     6.2945
  666.5000   219.6590     3.4164   -23.6234     6.0543
  667.0000   216.5145     3.5393   -23.7994     5.8840
  667.5000   212.7382     3.6595   -23.9663     5.9327
  668.0000   208.9619     3.7777   -24.1694     6.0740
  668.5000   203.1052     3.9074   -24.3827     6.2768
  669.0000   193.0393     4.3224   -24.6063     6.6710
  669.5000   182.9310     4.7596   -24.7091     7.1035
  670.0000   175.0733     5.1968   -24.6960     7.4527
  670.5000   165.5289     5.6307   -24.6951     7.5341
  671.0000   156.0029     5.7664   -24.6062     7.5888
  671.5000   149.0912     5.9030   -24.5075     7.7627
  672.0000   146.5630     6.0710   -24.4092     7.9450
  672.5000   146.0052     6.0917   -24.3099     8.0489
  673.0000   145.4537     6.0871   -24.2120     8.1485
  673.5000   144.8731     6.0883   -24.1049     8.2460
  674.0000   144.2559     6.0871   -24.0890     8.3199
  674.5000   143.6167     6.0873   -24.0921     8.3881
  675.0000   143.4255     6.0867   -24.0910     8.4357
  675.5000   143.4252     6.0872   -24.0909     8.4196
  676.0000   143.4263     6.0860   -24.0923     8.3352
  676.5000   143.4303     6.0880   -24.1375     8.3300
  677.0000   143.4303     6.0729   -24.3195     8.4115
  677.5000   143.4303     6.0475   -24.4010     8.4243
  678.0000   143.4303     6.0265   -24.9611     8.3630
  678.5000   143.4303     6.0038   -25.1271     8.3088
  679.0000   143.4303     5.9824   -24.9934     8.2463
  679.5000   143.4303     5.9599   -24.9433     8.2041
  680.0000   143.4303     5.9380   -24.8551     8.1805
  680.5000   145.3132     5.9155   -24.7870     8.2143
  681.0000   146.6794     5.8878   -24.6953     8.2611
  681.5000   147.8866     5.7315   -24.4956     8.2367
  682.0000   149.3826     5.3941   -24.2527     8.2133
  682.5000   155.8347     4.9044   -24.0171     8.0543
  683.0000   168.1982     4.3846   -23.7794     7.8568
  683.5000   180.5528     3.9768   -23.5398     7.6183
