~VERSION INFORMATION
 VERS.                2.0:   CWLS LOG ASCII STANDARD - VERSION 2.0
 WRAP.                 NO:   ONE LINE PER DEPTH STEP
~WELL INFORMATION
#MNEM.UNIT      DATA TYPE    INFORMATION
#----------   ------------   ------------------------------
 STRT.F           38.0000:   START DEPTH
 STOP.F          637.0000:   STOP DEPTH
 STEP.F            0.5000:   STEP LENGTH
 NULL.          -999.2500:   NO VALUE
 COMP. FENIX & SCISSON INC:   COMPANY
 WELL.    NPR ##3 57-S-34:   WELL
 FLD .             TEAPOT:   FIELD
 LOC .      S34 T39N R78W:   LOCATION
 CNTY.            NATRONA:   COUNTY
 STAT.            WYOMING:   STATE
 CTRY. UNITED STATES OF AMERICA:   COUNTRY
 SRVC.              Welex:   SERVICE COMPANY
 DATE.        12-MAR-1977:   LOGDATE
 API .       490251030600:   API NUMBER
~CURVE INFORMATION
#MNEM.UNIT       API CODE    CURVE DESCRIPTION
#----------   ------------   ------------------------------
 DEPT.F                  :   
 SPR .MV     07 010 01 00:   SPONTANEOUS POTENTIAL
 ILM .OHMM   07 120 44 00:   INDUCTION LOG MEDIUM
 ILD .OHMM   07 120 46 00:   INDUCTION LOG DEEP
 SGRD.OHMM   07 221 05 00:   SHALLOW SHORT GUARD RESISTIVITY
 CALD.IN     45 280 60 00:   CALIPER FROM DENSITY LOG
 GRD .GAPI   45 310 01 00:   GAMMA RAY FROM DENSITY LOG
 CORR.G/C3   45 356 01 00:   DENSITY CORRECTION
 DPHI.DEC    45 890 12 00:   DENSITY POROSITY SANDSTONE
 RHOB.G/C3   45 350 01 00:   BULK DENSITY
~PARAMETER INFORMATION
#MNEM.UNIT          VALUE    DESCRIPTION
#----------   ------------   ------------------------------
 PD  .                 GL:   PERMANENT DATUM
 EPD .F              5107:   ELEVATION PERMANENT DATUM
 LMF .                 GL:   LOG MEASURED FROM
 DMF .                 GL:   DRILLING MEASURED FROM
 EGL .F              5107:   GROUND LEVEL
 DATE.          3-12-1977:   RUN DATE
 RUN .                  1:   RUN NUMBER
 DD  .F               650:   DEPTH DRILLER
 DL  .F               637:   DEPTH LOGGER
 BLI .F               636:   BOTTOM LOG INTERVAL
 TLI .F                46:   TOP LOG INTERVAL
 CS  .IN            8.625:   CASING SIZE
 CBD .F                45:   CASING BOTTOM DRILLER
 CBL .F                46:   CASING BOTTOM LOGGER
 BS  .IN            7.875:   BIT SIZE
 BSD .F               650:   BIT SIZE AT DEPTH
 DFT .            KCL MUD:   DRILLING FLUID TYPE
 DFD .                8.9:   DRILLING FLUID DENSITY
 DFV .                 35:   DRILLING FLUID VISCOSITY
 MSS .            MUD PIT:   MUD SAMPLE SOURCE
 RMS .OHMM            .53:   RESISTIVITY MUD SAMPLE
 MST .F                68:   MUD SAMPLE TEMPERATURE
 RMF .OHMM            .41:   RESISTIVITY MUD FILTRATE SAMPLE
 MFST.F                69:   MUD FILTRATE SAMPLE TEMPERATURE
 RMC .OHMM            .62:   RESISTIVITY MUD CAKE
 MCST.F                65:   MUD CAKE SAMPLE TEMPERATURE
 MFSS.           MEASURED:   MUD FILTRATE SAMPLE SOURCE
 MCSS.           MEASURED:   MUD CAKE SAMPLE SOURCE
 RMB .OHMM            .60:   RESISTIVITY MUD AT BHT
 BHT .F                60:   BOTTOM HOLE TEMPERATURE
 TCS .HRS               1:   TIME CURCULATED STOPPED
 MRT .F                60:   MAXIMUM RECORDED TEMPERATURE
 LUN .               0716:   LOGGING UNIT NUMBER
 LUL .             VERNAL:   LOGGING UNIT LOCATION
 ENGI.        E. CALLAHAN:   RECORDING ENGINEER
 WITN.         STUEBUNGER:   WITNESSED BY
 CLNT.            A2DTECH:   CLIENT CODE
 ORIG.           5" PRINT:   ORIGIN OF DATA
 UWI .       490251030600:   UNIQUE WELL ID
 DICO. A2D Technologies, Inc.:   DIGITIZING COMPANY
~OTHER INFORMATION
~A   DEPT      SPR        ILM        ILD       SGRD       CALD        GRD       CORR       DPHI       RHOB   
# ...
  512.5000   -22.2313    11.3789     9.5053    12.7375     7.8731    98.5938     0.0867     0.1153     2.4565
  513.0000   -23.5874    11.5375     9.5053    12.5615     7.8735    98.1826     0.0851     0.1172     2.4557
  513.5000   -23.7441    11.1451     9.5053    12.3882     7.9203    98.3393     0.0851     0.1181     2.4534
  514.0000   -23.6032    10.7661     9.4397    12.3020     7.9827    98.3408     0.0820     0.1206     2.4503
  514.5000   -25.4102    10.7661     9.5053    12.2164     8.0124    98.0328     0.0759     0.1256     2.4395
  515.0000   -24.5225    10.9920     9.4397    12.2155     8.0279    96.3315     0.0774     0.1321     2.4318
  515.5000   -23.3337    11.0683     9.4397    12.2147     8.0433    96.6427     0.0851     0.1253     2.4342
  516.0000   -22.2946    11.0683     9.4397    12.2139     8.0433    96.7990     0.0975     0.1178     2.4566
  516.5000   -21.2555    11.1451     9.4397    12.2978     8.0433    96.6453     0.1146     0.1150     2.4597
  517.0000   -20.2164    11.3005     9.3746    12.3825     8.0279    97.2665     0.1316     0.1070     2.4830
  517.5000   -19.4750    11.5375     9.4397    12.5539     7.9814    99.1256     0.1221     0.1141     2.4652
  518.0000   -18.8850    11.3789     9.4397    12.7278     7.9040    99.5915     0.1144     0.1135     2.4629
  518.5000   -18.8955    11.2225     9.5053    12.9935     7.8111    99.4379     0.1084     0.1144     2.4591
  519.0000   -18.9043    11.3789     9.6377    13.2652     7.7492    98.9754     0.1048     0.1215     2.4421
  519.5000   -18.7634    11.9437     9.7047    13.5421     7.7337    97.4289     0.0898     0.1253     2.4390
  520.0000   -18.4746    12.1101     9.8399    13.6354     7.7337    96.5017     0.0929     0.1311     2.4220
  520.5000   -19.0822    11.7795     9.9082    13.2623     7.7492    95.7292     0.0805     0.1234     2.4406
  521.0000   -20.2886    11.4579     9.9082    12.8996     7.7492    95.4208     0.0697     0.1352     2.4228
  521.5000   -21.4950    11.3789     9.9082    12.7216     7.7492    98.6735     0.0697     0.1259     2.4352
  522.0000   -22.7014    11.7795     9.9082    12.7208     7.7492   100.3778     0.0759     0.1191     2.4484
  522.5000   -23.9078    11.6983     9.9082    12.8972     7.7492    99.6053     0.0867     0.0998     2.4600
  523.0000   -24.8148    11.2225     9.9082    12.8071     7.7492    98.6780     0.0991     0.1057     2.4778
  523.5000   -25.1230    10.9162     9.8399    12.7180     7.7647    98.6796     0.0960     0.1119     2.4624
  524.0000   -25.1318    10.9920     9.7047    12.4560     7.7647    98.5263     0.1006     0.1091     2.4609
  524.5000   -24.9909    11.0683     9.6377    12.2841     7.7647    98.5279     0.1099     0.1036     2.4802
  525.0000   -24.7021    11.0683     9.4397    12.1987     7.7802    98.5294     0.1161     0.1020     2.4810
  525.5000   -24.5594    10.6181     9.2458    12.0303     7.7957    98.0458     0.1115     0.1054     2.4795
  526.0000   -24.4185    10.3283     8.9934    12.0295     7.7647    95.8289     0.1146     0.1048     2.4757
  526.5000   -25.4770    10.4000     8.7479    11.8635     7.7492    92.7601     0.1207     0.1067     2.4664
  527.0000   -28.1804    10.7661     8.5681    11.8627     7.7492    89.8978     0.1192     0.1156     2.4602
  527.5000   -28.9377    10.4722     8.5090    11.7800     7.7492    86.1532     0.1099     0.1212     2.4564
  528.0000   -29.2459    10.1863     8.5090    11.7792     7.7802    86.6191     0.0960     0.1318     2.4131
  528.5000   -29.1032    10.3283     8.5681    11.8603     7.8111    83.6799     0.0743     0.1525     2.3899
  529.0000   -28.6647    10.5449     8.6276    12.0246     7.8266    83.5262     0.0712     0.1649     2.3783
  529.5000   -28.3741    10.7661     8.7479    12.1912     7.8731    83.0634     0.0712     0.1712     2.3644
  530.0000   -27.9355    11.0683     8.9934    12.3600     7.8885    80.4337     0.0789     0.1837     2.3450
  530.5000   -27.4935    11.5375     9.3746    12.4451     7.9350    71.9213     0.0836     0.1959     2.3226
  531.0000   -26.6058    12.0266     9.9082    12.7931     7.9350    69.4461     0.0712     0.1992     2.3087
  531.5000   -25.5667    12.5365    10.5449    13.0605     7.8883    69.7572     0.0666     0.2076     2.2956
  532.0000   -24.5276    13.2500    11.2225    13.6126     7.8731    70.8423     0.0650     0.2137     2.2902
  532.5000   -23.3388    14.5979    11.8613    17.2191     7.8731    72.0818     0.0820     0.2154     2.2933
  533.0000   -22.7471    16.3070    12.6235    23.3406     7.8885    71.7738     0.0898     0.2067     2.2964
  533.5000   -25.4522    18.0906    13.6219    27.5521     7.8885    72.8593     0.1022     0.2012     2.3158
  534.0000   -26.6604    19.5214    14.8013    30.5616     7.8731    74.7184     0.1084     0.1767     2.3336
  534.5000   -26.3680    20.9201    15.8618    25.5311     7.8239    75.9583     0.1067     0.1702     2.3553
  535.0000   -25.4804    21.6566    16.7647    30.7691     7.7492    76.7339     0.0941     0.1736     2.3546
  535.5000   -24.7407    20.9201    17.4754    36.8267     7.7337    78.1286     0.0882     0.1717     2.3647
  536.0000   -23.7016    20.9201    18.2163    32.2906     7.7492    78.5941     0.0898     0.1686     2.3639
  536.5000   -22.9601    21.8070    18.4701    32.9657     7.7957    76.2741     0.0879     0.1751     2.3570
  537.0000   -23.7192    21.8070    18.3427    26.2375     7.8266    75.3468     0.0805     0.1714     2.3585
  537.5000   -21.3328    19.9309    17.9659    24.1466     7.8266    72.7168     0.0728     0.1708     2.3609
  538.0000   -19.3955    19.3868    17.3549    23.6496     7.8266    71.1083     0.0650     0.1677     2.3617
  538.5000   -17.7576    20.0693    16.6491    24.6494     7.8111    74.1130     0.0743     0.1327     2.4097
  539.0000   -16.7202    21.0654    16.5343    26.5956     7.8111    76.4366     0.0820     0.1200     2.4298
  539.5000   -16.8787    20.2087    16.6491    24.6461     7.8266    74.4257     0.0757     0.1141     2.4624
  540.0000   -19.1330    20.9201    16.9983    27.5275     7.8266    73.3437     0.0697     0.1225     2.4477
  540.5000   -22.8843    23.2083    17.2352    30.3235     7.8266    76.7509     0.0729     0.1404     2.4020
  541.0000   -23.4919    23.5317    17.4754    48.1893     7.8266    78.6100     0.0820     0.1463     2.3881
  541.5000   -22.7522    21.6566    17.2352    53.4530     7.8266    80.0047     0.0789     0.1668     2.3572
  542.0000   -23.9586    20.3490    16.7647    26.7689     7.8266    79.6963     0.0756     0.1801     2.3456
  542.5000   -25.3148    19.1203    16.0829    22.2086     7.8266    80.9366     0.0728     0.1798     2.3526
  543.0000   -26.5212    18.0906    15.2168    19.7445     7.8266    82.3313     0.0743     0.1785     2.3464
  543.5000   -27.4299    17.4754    14.6993    21.7497     7.8266    83.7260     0.0789     0.1798     2.3488
  544.0000   -27.7364    17.1164    14.1994    21.1549     7.8111    82.4892     0.0913     0.1705     2.3558
  544.5000   -27.7469    16.8811    13.7165    19.7402     7.7957    81.7167     0.0960     0.1683     2.3643
  545.0000   -28.3545    16.5343    13.3420    19.4678     7.7957    80.9443     0.0944     0.1705     2.3628
  545.5000   -28.8107    16.1946    13.2500    20.1512     7.7957    79.8570     0.0944     0.1723     2.3551
  546.0000   -28.3704    16.0829    13.2500    20.7153     7.8111    79.0898     0.0929     0.1705     2.3566
  546.5000   -27.4827    16.0829    13.3420    20.1485     7.7802    79.4008     0.0944     0.1686     2.3605
  547.0000   -26.4436    16.3070    13.4347    20.0080     7.7492    81.1053     0.0960     0.1600     2.3768
  547.5000   -24.9554    15.8618    13.5280    20.2853     7.7337    80.9004     0.0960     0.1586     2.3815
  548.0000   -23.4672    16.0829    13.6219    21.5863     7.7028    76.1551     0.0944     0.1624     2.3714
  548.5000   -20.7832    17.3549    13.7165    21.1417     7.7028    75.6919     0.0882     0.1603     2.3838
