~VERSION INFORMATION
 VERS.                2.0:   CWLS LOG ASCII STANDARD - VERSION 2.0
 WRAP.                 NO:   ONE LINE PER DEPTH STEP
~WELL INFORMATION
#MNEM.UNIT      DATA TYPE    INFORMATION
#----------   ------------   ------------------------------
 STRT.F            0.0000:   START DEPTH
 STOP.F          547.0000:   STOP DEPTH
 STEP.F            0.1000:   STEP LENGTH
 NULL.          -999.2500:   NO VALUE
 COMP.       F D SERV INC:   COMPANY
 WELL.    87-5 SX 3 #87-3:   WELL
 FLD .             TEAPOT:   FIELD
 LOC .       S3 T38N R78W:   LOCATION
 CNTY.            NATRONA:   COUNTY
 STAT.            WYOMING:   STATE
 CTRY. UNITED STATES OF AMERICA:   COUNTRY
 SRVC.     Atlas Wireline:   SERVICE COMPANY
 DATE.        31-OCT-1992:   LOGDATE
 API .       490252254800:   API NUMBER
~CURVE INFORMATION
#MNEM.UNIT       API CODE    CURVE DESCRIPTION
#----------   ------------   ------------------------------
 DEPT.F                  :   
 GRR .GAPI   07 310 01 00:   GAMMA RAY
 RILD.OHMM   07 120 46 00:   INDUCTION LOG DEEP RESISTIVITY
 RILM.OHMM   07 120 44 00:   INDUCTION LOG MEDIUM RESISTIVITY
~PARAMETER INFORMATION
#MNEM.UNIT          VALUE    DESCRIPTION
#----------   ------------   ------------------------------
 PD  .                 GL:   PERMANENT DATUM
 EPD .F              5119:   ELEVATION PERMANENT DATUM
 LMF .                 KB:   LOG MEASURED FROM
 DAPD.F                10:   FEET ABOVE PERMANENT DATUM
 DMF .                 KB:   DRILLING MEASURED FROM
 EKB .F              5129:   KELLING BUSHING
 EDF .F              5128:   DRILLING FLOOR
 EGL .F              5119:   GROUND LEVEL
 DATE.        31-OCT-1992:   RUN DATE
 RUN .                  1:   RUN NUMBER
 DD  .F               568:   DEPTH DRILLER
 DL  .F               555:   DEPTH LOGGER
 BLI .F               547:   BOTTOM LOG INTERVAL
 TLI .F                71:   TOP LOG INTERVAL
 CS  .IN            8.625:   CASING SIZE
 CBD .F                70:   CASING BOTTOM DRILLER
 CBL .F                71:   CASING BOTTOM LOGGER
 BS  .IN            7.875:   BIT SIZE
 BSD .F               568:   BIT SIZE AT DEPTH
 DFT .           AIR FOAM:   DRILLING FLUID TYPE
 TCS .HRS               2:   TIME CURCULATED STOPPED
 MRT .F                64:   MAXIMUM RECORDED TEMPERATURE
 LUN .            HL-6274:   LOGGING UNIT NUMBER
 LUL .             CASPER:   LOGGING UNIT LOCATION
 ENGI.        P.RASHUSSEN:   RECORDING ENGINEER
 WITN.     BRUCE ANDERSON:   WITNESSED BY
 CLNT.            A2DTECH:   CLIENT CODE
 ORIG.           5" PRINT:   ORIGIN OF DATA
 UWI .       490252254800:   UNIQUE WELL ID
 DICO. A2D Technologies, Inc.:   DIGITIZING COMPANY
~OTHER INFORMATION
~A    DEPT      GRR      RILD       RILM   
# ...
  309.4000   152.2060     5.9035     6.2523
  309.5000   152.1770     5.8348     6.1638
  309.6000   152.3642     5.7606     6.0653
  309.7000   152.3818     5.7301     5.9963
  309.8000   152.8401     5.4983     5.9557
  309.9000   153.0917     5.4625     5.9553
  310.0000   153.5457     5.4347     5.7670
  310.1000   153.7469     5.4031     5.6959
  310.2000   153.8468     5.3718     5.6469
  310.3000   154.1491     5.3494     5.5517
  310.4000   154.6537     5.3468     5.5146
  310.5000   155.1582     5.3122     5.4603
  310.6000   155.8651     5.2849     5.4175
  310.7000   156.6227     5.2543     5.4003
  310.8000   157.5825     5.2238     5.3922
  310.9000   158.7953     5.2021     5.3627
  311.0000   159.8058     5.2021     5.3627
  311.1000   160.7148     5.2021     5.3090
  311.2000   161.1185     5.2021     5.2883
  311.3000   161.7748     5.2021     5.2883
  311.4000   162.3300     5.2021     5.2799
  311.5000   162.5314     5.2021     5.2515
  311.6000   162.5299     5.2021     5.2515
  311.7000   162.5287     5.2021     5.2515
  311.8000   162.5275     5.2021     5.2725
  311.9000   162.5262     5.2021     5.3033
  312.0000   162.5250     5.2021     5.3434
  312.1000   162.4732     5.2021     5.4031
  312.2000   162.2191     5.2021     5.4381
  312.3000   161.4592     5.2021     5.4952
  312.4000   160.6993     5.2021     5.5371
  312.5000   160.0910     5.2021     5.5858
  312.6000   159.4828     5.2173     5.6513
  312.7000   158.8241     5.2386     5.7176
  312.8000   158.5699     5.2417     5.7909
  312.9000   157.6580     5.2752     5.8526
  313.0000   156.8477     5.3031     5.9461
  313.1000   155.3798     5.3340     6.0328
  313.2000   154.0128     5.3652     6.1035
  313.3000   153.2528     5.4062     6.1708
  313.4000   152.4928     5.4659     6.2097
  313.5000   151.8844     5.5008     6.2769
  313.6000   151.4787     5.5299     6.3237
  313.7000   151.1235     5.5853     6.3607
  313.8000   150.8694     5.6507     6.3979
  313.9000   150.6661     5.7168     6.4353
  314.0000   150.9681     5.7799     6.4754
  314.1000   151.2702     5.8166     6.5109
  314.2000   151.4715     5.8788     6.5490
  314.3000   151.5715     5.9229     6.5873
  314.4000   151.5703     5.9575     6.6392
  314.5000   151.5690     6.0145     6.7055
  314.6000   151.5678     6.1119     6.7055
  314.7000   151.5666     6.1505     6.7428
  314.8000   151.5654     6.2166     6.7822
  314.9000   151.5642     6.2631     6.8219
  315.0000   151.4618     6.2996     6.8618
  315.1000   151.2077     6.3483     6.9019
  315.2000   150.9535     6.4226     6.9437
  315.3000   150.6486     6.5036     6.9437
  315.4000   150.4453     6.5036     6.9749
  315.5000   150.3430     6.5310     6.9924
  315.6000   150.2406     6.5894     7.0076
  315.7000   149.9865     6.6538     7.0414
  315.8000   149.7323     6.6926     7.0414
  315.9000   149.4782     6.7345     7.0414
  316.0000   149.4264     6.8077     7.0414
  316.1000   149.4252     6.8291     7.0414
  316.2000   149.4240     6.8502     7.0414
  316.3000   149.4228     6.8769     7.0414
  316.4000   149.4215     6.8769     7.0414
  316.5000   149.4203     6.8769     7.0414
  316.6000   149.4191     6.7298     7.0088
  316.7000   149.4179     6.6310     6.9924
  316.8000   149.4167     6.5543     6.9924
  316.9000   149.3649     6.4659     6.9840
  317.0000   149.1108     6.3588     6.9424
  317.1000   149.1093     6.2806     6.7524
  317.2000   149.1084     6.1123     6.6576
  317.3000   149.1071     5.9122     6.5422
  317.4000   149.1059     5.7446     6.4287
  317.5000   149.1553     5.6453     6.3091
  317.6000   149.4070     5.6035     6.1641
  317.7000   149.4058     5.5008     6.0386
  317.8000   149.2022     5.4707     5.9523
  317.9000   149.0999     5.4156     5.8704
  318.0000   149.0986     5.3698     5.7879
  318.1000   149.0974     5.3281     5.6874
  318.2000   149.0962     5.2664     5.5898
  318.3000   148.8421     5.2021     5.5146
  318.4000   148.3857     5.2021     5.4344
  318.5000   148.0303     5.1572     5.3204
  318.6000   147.5739     5.1137     5.2110
  318.7000   146.9151     5.0841     5.1279
  318.8000   146.6609     5.0589     5.0684
  318.9000   146.1540     5.0589     5.0010
  319.0000   145.8493     5.0310     4.9762
  319.1000   145.5952     5.0238     4.9662
  319.2000   145.5434     5.0077     4.9662
  319.3000   145.7445     4.9786     4.9662
  319.4000   145.7433     4.9497     4.9662
  319.5000   146.3488     4.9197     4.9662
  319.6000   146.5502     4.9197     4.9662
  319.7000   146.9536     4.9197     4.9662
  319.8000   147.5593     4.9197     4.9662
  319.9000   148.3168     4.9197     4.9662
  320.0000   149.0744     4.9243     4.9685
  320.1000   150.2869     4.9542     5.0010
  320.2000   151.9047     4.9542     5.0010
  320.3000   153.3197     4.9542     5.0211
  320.4000   154.2290     4.9542     5.0361
  320.5000   154.9359     4.9647     5.0447
  320.6000   155.4404     4.9888     5.0714
  320.7000   155.9450     4.9888     5.0714
  320.8000   155.6403     4.9888     5.0980
  320.9000   154.8297     4.9888     5.1278
  321.0000   153.9180     4.9888     5.1884
  321.1000   153.2086     4.9888     5.2799
  321.2000   152.7015     4.9888     5.3696
  321.3000   151.4863     4.9888     5.4381
  321.4000   150.6759     5.0171     5.4964
  321.5000   149.8149     5.0238     5.5609
  321.6000   149.3584     5.0406     5.6261
  321.7000   149.3572     5.0589     5.6814
  321.8000   149.3560     5.0641     5.7271
  321.9000   149.0511     5.0944     5.8723
  322.0000   149.0501     5.1820     5.9684
  322.1000   149.0489     5.2734     6.0479
  322.2000   149.1489     5.3301     6.1381
  322.3000   149.3499     5.3971     6.2341
  322.4000   149.3487     5.5123     6.3072
  322.5000   149.3473     5.5781     6.3856
  322.6000   149.1440     5.6745     6.4917
  322.7000   148.7382     5.8278     6.5777
  322.8000   148.2311     6.0207     6.6763
  322.9000   147.7240     6.2060     6.7662
  323.0000   147.2170     6.3382     6.8119
  323.1000   146.7101     6.4134     6.8954
  323.2000   146.6076     6.5249     6.9339
  323.3000   146.4547     6.6094     6.9437
  323.4000   146.0994     6.6868     6.9665
  323.5000   145.6935     6.7651     7.0072
  323.6000   145.6923     6.8366     7.0482
  323.7000   145.6911     6.8769     7.0907
  323.8000   145.6898     6.9567     7.1309
  323.9000   145.6886     7.0382     7.1404
  324.0000   145.7885     7.0960     7.1404
  324.1000   145.9899     7.1374     7.1562
  324.2000   145.9885     7.1872     7.1980
  324.3000   145.9872     7.2717     7.2408
  324.4000   145.9860     7.2717     7.2825
  324.5000   145.9848     7.3055     7.2915
  324.6000   145.9836     7.3226     7.3167
  324.7000   145.9824     7.3396     7.3426
  324.8000   145.9812     7.3739     7.3426
  324.9000   145.7271     7.3739     7.3426
  325.0000   145.4730     7.4255     7.3941
  325.1000   145.0671     7.4602     7.4287
  325.2000   144.4589     7.4775     7.4722
  325.3000   143.6989     7.4775     7.4981
  325.4000   142.9390     7.4864     7.5072
  325.5000   142.3306     7.5299     7.5506
  325.6000   141.9250     7.5299     7.5506
  325.7000   141.4180     7.5653     7.5506
  325.8000   141.0121     7.5826     7.5779
  325.9000   140.7579     7.6006     7.6035
  326.0000   140.5038     7.6357     7.6135
  326.1000   140.5023     7.6357     7.6580
  326.2000   140.5014     7.6357     7.7105
  326.3000   140.5002     7.6718     7.7105
  326.4000   140.4989     7.6892     7.7105
  326.5000   140.4977     7.6892     7.7301
  326.6000   140.4965     7.6892     7.7645
  326.7000   140.4953     7.6892     7.7645
  326.8000   140.4941     7.6892     7.7645
  326.9000   140.3411     7.6892     7.7645
  327.0000   140.1882     7.6892     7.7645
  327.1000   140.1363     7.6892     7.7645
  327.2000   139.8822     7.6989     7.7645
  327.3000   139.6281     7.7430     7.7670
  327.4000   139.3740     7.7430     7.8189
  327.5000   139.1199     7.7430     7.8189
