~VERSION INFORMATION
 VERS.                2.0:   CWLS LOG ASCII STANDARD - VERSION 2.0
 WRAP.                 NO:   ONE LINE PER DEPTH STEP
~WELL INFORMATION
#MNEM.UNIT      DATA TYPE    INFORMATION
#----------   ------------   ------------------------------
 STRT.F           34.0000:   START DEPTH
 STOP.F          576.0000:   STOP DEPTH
 STEP.F            0.5000:   STEP LENGTH
 NULL.          -999.2500:   NO VALUE
 COMP. FENIX & SCISSON INC:   COMPANY
 WELL.   NPR-3 #22 SX 3-3:   WELL
 FLD .             TEAPOT:   FIELD
 LOC .       S3 T38N R78W:   LOCATION
 CNTY.            NATRONA:   COUNTY
 STAT.            WYOMING:   STATE
 CTRY. UNITED STATES OF AMERICA:   COUNTRY
 SRVC.            Unknown:   SERVICE COMPANY
 DATE.        17-JUL-1978:   LOGDATE
 API .       490251066700:   API NUMBER
~CURVE INFORMATION
#MNEM.UNIT       API CODE    CURVE DESCRIPTION
#----------   ------------   ------------------------------
 DEPT.F                  :   
 SN  .OHMM   05 040 16 00:   SHORT NORMAL 16"
 ILD .OHMM   05 120 46 00:   INDUCTION LOG DEEP
 SPR .MV     05 010 01 00:   SPONTANEOUS POTENTIAL FROM RES.
 CALD.IN     45 280 60 00:   CALIPER FROM DENSITY LOG
 GRD .GAPI   45 310 01 00:   GAMMA RAY FROM DENSITY LOG
 CORR.G/C3   45 356 01 00:   DENSITY CORRECTION
 DPHI.DEC    45 890 12 00:   DENSITY POROSITY SANDSTONE
 DEN .G/C3   45 350 01 00:   COMPENSATED BULK DENSITY
~PARAMETER INFORMATION
#MNEM.UNIT          VALUE    DESCRIPTION
#----------   ------------   ------------------------------
 PD  .                 GL:   PERMANENT DATUM
 EPD .F              5193:   ELEVATION PERMANENT DATUM
 LMF .                 KB:   LOG MEASURED FROM
 DAPD.F                 4:   FEET ABOVE PERMANENT DATUM
 DMF .                 KB:   DRILLING MEASURED FROM
 EKB .F              5197:   KELLING BUSHING
 EGL .F              5193:   GROUND LEVEL
 DATE.        17-JUL-1978:   RUN DATE
 RUN .                  1:   RUN NUMBER
 DD  .F               570:   DEPTH DRILLER
 DL  .F               576:   DEPTH LOGGER
 BLI .F               576:   BOTTOM LOG INTERVAL
 CS  .IN            8.625:   CASING SIZE
 CBD .F                30:   CASING BOTTOM DRILLER
 BS  .IN            7.875:   BIT SIZE
 BSD .F               570:   BIT SIZE AT DEPTH
 DFT .            MUD KCL:   DRILLING FLUID TYPE
 DFD .                8.6:   DRILLING FLUID DENSITY
 DFV .                 32:   DRILLING FLUID VISCOSITY
 DFL .                 15:   DRILLING FLUID LOSS
 MSS .           FLOWLINE:   MUD SAMPLE SOURCE
 RMS .OHMM            .18:   RESISTIVITY MUD SAMPLE
 MST .F                86:   MUD SAMPLE TEMPERATURE
 RMF .OHMM            .17:   RESISTIVITY MUD FILTRATE SAMPLE
 MFST.F                94:   MUD FILTRATE SAMPLE TEMPERATURE
 RMC .OHMM            .34:   RESISTIVITY MUD CAKE
 MCST.F                94:   MUD CAKE SAMPLE TEMPERATURE
 MFSS.               MEAS:   MUD FILTRATE SAMPLE SOURCE
 TCS .HRS            0300:   TIME CURCULATED STOPPED
 LUN .               2958:   LOGGING UNIT NUMBER
 LUL .               CASP:   LOGGING UNIT LOCATION
 ENGI.             MILLER:   RECORDING ENGINEER
 WITN.           MCGINLEY:   WITNESSED BY
 CLNT.            A2DTECH:   CLIENT CODE
 ORIG.           5" PRINT:   ORIGIN OF DATA
 UWI .       490251066700:   UNIQUE WELL ID
 DICO. A2D Technologies, Inc.:   DIGITIZING COMPANY
~OTHER INFORMATION
~A   DEPT       SN        ILD        SPR       CALD         GRD      CORR       DPHI        DEN   
# ...
  317.5000     5.6674     5.7316   -44.9206     8.0442    90.5363    -0.0201     0.1674     2.4213
  318.0000     5.6705     5.7349   -45.2163     8.0446    90.6841    -0.0335     0.1787     2.4169
  318.5000     5.6339     5.7377   -45.6360     8.0451    90.5426    -0.0291     0.1772     2.4028
  319.0000     5.5982     5.7404   -45.7716     8.0456    90.2362    -0.0335     0.1835     2.3850
  319.5000     5.6020     5.7030   -46.0528     8.0315    90.2420    -0.0410     0.2010     2.3589
  320.0000     5.4154     5.5897   -46.3406     8.0319    90.8273    -0.0469     0.2322     2.3203
  320.5000     5.1634     5.4405   -46.9194     8.0324    92.9318    -0.0067     0.2485     2.2876
  321.0000     5.0606     5.1514   -47.7991     8.0328    95.3371     0.0442     0.2488     2.2616
  321.5000     5.0634     5.0139   -48.9765     8.0332    96.2127     0.0469     0.2144     2.2594
  322.0000     5.0661     5.0163   -49.7107     8.0336    95.2014     0.0082     0.1617     2.4117
  322.5000     5.0689     5.0186   -48.6526     8.0341    92.3033    -0.0067     0.1409     2.4326
  323.0000     5.0723     5.0557   -48.0442     8.0346    87.8088    -0.0171     0.1385     2.4498
  323.5000     5.5120     5.2455   -48.0310     8.0350    85.0559    -0.0231     0.1534     2.4438
  324.0000     6.0730     5.7419   -47.4186     8.0354    85.7862    -0.0037     0.1638     2.4193
  324.5000     6.2030     6.0977   -46.6655     8.0212    88.1350    -0.0216     0.1569     2.4067
  325.0000     6.2924     6.2709   -46.8011     8.0073    89.4726    -0.0186     0.1535     2.4156
  325.5000     6.4716     6.4047   -46.6359     8.0077    90.1545    -0.0110     0.1572     2.4238
  326.0000     6.6558     6.4520   -46.1763     7.9936    88.9993    -0.0231     0.1599     2.4216
  326.5000     6.6138     6.4551   -46.6096     7.9795    87.4074    -0.0395     0.1572     2.4185
  327.0000     6.3052     6.3261   -46.2989     7.9801    86.3962    -0.0469     0.1649     2.4127
  327.5000     6.2661     6.1150   -45.6905     7.9659    87.5620    -0.0514     0.1842     2.3986
  328.0000     6.2265     5.9517   -45.8262     8.1983    90.0340    -0.0544     0.1937     2.3860
  328.5000     6.1856     5.3704   -46.4083     7.8509    90.4765    -0.0529     0.2130     2.3622
  329.0000     6.0593     5.0501   -47.1392     7.7336    90.1886    -0.0380     0.2210     2.3206
  329.5000     5.7826     4.9493   -47.8701     8.1564    90.7750     0.0013     0.2148     2.2990
  330.0000     5.5900     4.9176   -48.0060     7.8455    91.3602     0.0037     0.1657     2.3028
  330.5000     5.5158     4.9205   -47.5446     8.0266    91.6552    -0.0022     0.1515     2.4257
  331.0000     5.5195     4.9229   -47.2351     8.3892    91.3696    -0.0022     0.1473     2.4366
  331.5000     5.5606     4.8908   -47.2217     8.1579    90.5035    -0.0007     0.1460     2.4351
  332.0000     6.0013     5.2424   -47.2058     8.0424    89.3471     0.0007     0.1422     2.4396
  332.5000     6.3445     5.7359   -47.0439     7.9993    88.0456     0.0022     0.1392     2.4367
  333.0000     6.5251     6.0219   -46.7331     7.9852    87.6149     0.0022     0.1369     2.4315
  333.5000     6.7109     6.2788   -46.7200     7.9856    87.9317     0.0022     0.1321     2.4493
  334.0000     6.8546     6.5467   -46.8557     7.9861    89.3671     0.0007     0.1285     2.4568
  334.5000     7.0498     6.8731   -46.9946     8.0156    90.9683    -0.0022     0.1264     2.4516
  335.0000     7.1024     7.0198   -46.5318     8.0305    91.8427    -0.0037     0.1240     2.4576
  335.5000     7.1063     7.0716   -46.0722     8.0309    88.6555    -0.0037     0.1217     2.4690
  336.0000     7.0612     7.0751   -45.9102     8.0458    85.4672    -0.0037     0.1211     2.4754
  336.5000     7.0660     7.1274   -45.8971     8.0463    83.4399    -0.0037     0.1276     2.4732
  337.0000     7.0698     7.0825   -45.8839     8.0467    81.9933    -0.0007     0.1294     2.4695
  337.5000     7.0683     7.0858   -46.0317     8.0471    81.2723     0.0007     0.1288     2.4628
  338.0000     7.0584     7.0892   -46.3041     8.0476    83.8906     0.0022     0.1222     2.4539
  338.5000     7.0484     7.0925   -45.9901     8.0480    85.3467     0.0037     0.1186     2.4584
  339.0000     7.0368     7.0959   -45.8281     8.0339    85.7868     0.0037     0.1210     2.4725
  339.5000     7.0407     7.0992   -45.6661     8.0344    85.9367     0.0022     0.1240     2.4815
  340.0000     7.0445     7.1026   -45.6530     8.0202    86.3768     0.0022     0.1251     2.4643
  340.5000     7.0483     7.1060   -45.6399     8.0062    86.9620     0.0007     0.1251     2.4637
  341.0000     7.0028     7.1584   -45.4779     8.0067    87.5473    -0.0007     0.1245     2.4666
  341.5000     7.0075     7.1127   -45.4648     7.9926    87.5520     0.0007     0.1245     2.4696
  342.0000     6.9622     7.1161   -45.4516     7.9931    86.9569     0.0022     0.1290     2.4734
  342.5000     7.0151     7.1195   -45.5878     7.9935    86.8357     0.0037     0.1340     2.4756
  343.0000     7.0189     7.1236   -45.7232     7.9940    86.9867     0.0067     0.1355     2.4608
  343.5000     7.0712     7.1270   -45.8591     7.9944    87.1366     0.0022     0.1355     2.4489
  344.0000     7.0751     7.1303   -46.1548     7.9948    87.4315    -0.0022     0.1349     2.4511
  344.5000     7.0866     7.1337   -46.2788     7.9807    87.5802    -0.0052     0.1331     2.4519
  345.0000     7.1818     7.1371   -46.4112     7.9812    87.1505    -0.0052     0.1316     2.4571
  345.5000     7.1857     7.1898   -46.3980     7.9526    87.8811    -0.0037     0.1332     2.4608
  346.0000     7.1895     7.1932   -46.5370     7.9385    86.7926    -0.0021     0.1484     2.4475
  346.5000     7.1934     7.0982   -46.8182     7.9390    82.2312     0.0007     0.1592     2.4326
  347.0000     7.1470     6.8613   -46.8050     7.9540    79.7686     0.0007     0.1675     2.4267
  347.5000     7.0047     6.2338   -46.7919     7.9834    79.3367     0.0052     0.1758     2.4230
  348.0000     6.7258     5.7820   -46.4811     7.8823    83.2613     0.0216     0.1847     2.3836
  348.5000     6.4129     5.9540   -46.9144     7.6646    86.7493     0.0440     0.1803     2.3702
  349.0000     6.1993     6.2074   -47.4965     7.9423    90.5276     0.0320     0.1654     2.3734
  349.5000     6.3320     6.5547   -46.7393     7.7388    91.2484     0.0171     0.1514     2.4498
  350.0000     6.6026     6.6479   -46.2798     8.1884    82.9898     0.0037     0.1256     2.4796
  350.5000     7.0201     6.9804   -45.8806     8.2036    79.6057     0.0054     0.1262     2.4848
  351.0000     7.4298     7.3796   -45.5147     7.9001    77.1949     0.0022     0.1303     2.4751
  351.5000     7.8002     7.7505   -45.5045     7.9298    76.0385     0.0096     0.1285     2.4555
  352.0000     8.1891     8.0430   -45.3433     7.9450    76.3335     0.0126     0.1270     2.4520
  352.5000     8.4798     8.4835   -45.1844     7.9602    78.0798     0.0036     0.1258     2.4654
  353.0000     8.7263     8.7250   -45.1743     7.9609    80.6062    -0.0038     0.1246     2.4662
  353.5000     8.8467     8.8506   -45.0154     7.9616    83.5090    -0.0172     0.1315     2.4625
  354.0000     8.9735     8.9165   -44.8565     7.9623    84.2378    -0.0173     0.1470     2.4595
  354.5000     9.1021     8.9829   -44.8465     7.9485    83.7870    -0.0128     0.1493     2.4520
  355.0000     9.3606     9.1753   -44.8363     7.9494    81.0588    -0.0054     0.1505     2.4319
  355.5000     9.6264     9.4404   -44.6518     7.9355    77.7297     0.0006     0.1552     2.4260
  356.0000    10.1064    10.2559   -44.2185     7.9362    72.8063    -0.0292     0.1650     2.4171
  356.5000    10.6102    11.6951   -43.7620     7.9514    68.6076    -0.0412     0.1850     2.4089
  357.0000    11.0793    12.5352   -43.4543     7.9668    63.6843    -0.0381     0.2040     2.3866
  357.5000    11.6959    13.6219   -42.9978     7.9675    53.1087    -0.0129     0.2123     2.3309
