~VERSION INFORMATION
 VERS.                2.0:   CWLS LOG ASCII STANDARD - VERSION 2.0
 WRAP.                 NO:   ONE LINE PER DEPTH STEP
~WELL INFORMATION
#MNEM.UNIT      DATA TYPE    INFORMATION
#----------   ------------   ------------------------------
 STRT.F           32.0000:   START DEPTH
 STOP.F          662.0000:   STOP DEPTH
 STEP.F            0.5000:   STEP LENGTH
 NULL.          -999.2500:   NO VALUE
 COMP.    FENIX & SCISSON:   COMPANY
 WELL.   NPR 67SX34 #3-34:   WELL
 FLD .             TEAPOT:   FIELD
 LOC .      S34 T39N R78W:   LOCATION
 CNTY.            NATRONA:   COUNTY
 STAT.            WYOMING:   STATE
 CTRY. UNITED STATES OF AMERICA:   COUNTRY
 SRVC.            Unknown:   SERVICE COMPANY
 DATE.        03-SEP-1978:   LOGDATE
 API .       490251070500:   API NUMBER
~CURVE INFORMATION
#MNEM.UNIT       API CODE    CURVE DESCRIPTION
#----------   ------------   ------------------------------
 DEPT.F                  :   
 ILD .OHMM   05 120 46 00:   INDUCTION LOG DEEP
 SN  .OHMM   05 040 00 00:   SHORT NORMAL
 SPR .MV     05 010 01 00:   SPONTANEOUS POTENTIAL FROM RES.
 CALD.IN     45 280 60 00:   CALIPER FROM DENSITY LOG
 DEN .G/C3   45 350 01 00:   COMPENSATED BULK DENSTIY
 DPHI.DEC    45 890 12 00:   DENSITY POROSITY SANDSTONE
 DRHO.G/C3   45 356 01 00:   DENSITY CORRECTION
 GRD .GAPI   45 310 01 00:   GAMMA RAY FROM DENSITY LOG
~PARAMETER INFORMATION
#MNEM.UNIT          VALUE    DESCRIPTION
#----------   ------------   ------------------------------
 PD  .                 GL:   PERMANENT DATUM
 EPD .F              5076:   ELEVATION PERMANENT DATUM
 LMF .                 KB:   LOG MEASURED FROM
 DAPD.F                 4:   FEET ABOVE PERMANENT DATUM
 DMF .                 KB:   DRILLING MEASURED FROM
 EKB .F              5080:   KELLING BUSHING
 EGL .F              5076:   GROUND LEVEL
 DATE.        03-SEP-1978:   RUN DATE
 RUN .                  1:   RUN NUMBER
 DD  .F               660:   DEPTH DRILLER
 DL  .F               662:   DEPTH LOGGER
 BLI .F               662:   BOTTOM LOG INTERVAL
 TLI .F                40:   TOP LOG INTERVAL
 CS  .IN            8.625:   CASING SIZE
 CBD .F                40:   CASING BOTTOM DRILLER
 BS  .IN            7.875:   BIT SIZE
 BSD .F               660:   BIT SIZE AT DEPTH
 DFT .                KCL:   DRILLING FLUID TYPE
 DFD .                9.0:   DRILLING FLUID DENSITY
 DFV .                 34:   DRILLING FLUID VISCOSITY
 MSS .           FLOWLINE:   MUD SAMPLE SOURCE
 RMS .OHMM            1.4:   RESISTIVITY MUD SAMPLE
 MST .F                65:   MUD SAMPLE TEMPERATURE
 RMF .OHMM            3.2:   RESISTIVITY MUD FILTRATE SAMPLE
 MFST.F                77:   MUD FILTRATE SAMPLE TEMPERATURE
 RMC .OHMM            2.1:   RESISTIVITY MUD CAKE
 MCST.F                78:   MUD CAKE SAMPLE TEMPERATURE
 MFSS.               MEAS:   MUD FILTRATE SAMPLE SOURCE
 TCS .HRS               1:   TIME CURCULATED STOPPED
 LUN .               3006:   LOGGING UNIT NUMBER
 LUL .               CASP:   LOGGING UNIT LOCATION
 ENGI.             MILLER:   RECORDING ENGINEER
 WITN.           MCGINLEY:   WITNESSED BY
 CLNT.            A2DTECH:   CLIENT CODE
 ORIG.        2" 5" PRINT:   ORIGIN OF DATA
 UWI .       490251070500:   UNIQUE WELL ID
 DICO. A2D Technologies, Inc.:   DIGITIZING COMPANY
~OTHER INFORMATION
~A   DEPT      ILD         SN        SPR       CALD        DEN       DPHI       DRHO         GRD  
# ...
  194.0000     8.0218     7.7344   -16.7454     7.1852     2.4564     0.1552     0.0345    90.4036
  194.5000     7.9123     7.6811   -16.7411     7.1113     2.4495     0.1601     0.0315    91.0070
  195.0000     7.5389     7.5757   -16.7368     7.0821     2.4369     0.1647     0.0270    92.0574
  195.5000     7.6444     7.6811   -16.7315     7.0679     2.4324     0.1653     0.0165    93.1079
  196.0000     7.8593     7.8964   -16.5780     7.0842     2.4317     0.1647     0.0075    93.7113
  196.5000     8.0804     8.1177   -16.7241     7.1166     2.4324     0.1623     0.0060    95.3579
  197.0000     8.2503     8.2877   -16.7187     7.1748     2.4332     0.1518     0.0120    97.4516
  197.5000     8.4238     8.4613   -16.7134     7.2203     2.4362     0.1371     0.0182    98.6511
  198.0000     8.5416     8.5790   -16.8595     7.2359     2.4715     0.1293     0.0285    95.0834
  198.5000     8.7214     8.5790   -16.8553     7.2814     2.4827     0.1314     0.0225    88.0862
  199.0000     8.7825     8.6385   -16.7006     7.3418     2.4850     0.1388     0.0165    84.5167
  199.5000     8.8440     8.6385   -16.6962     7.3724     2.4737     0.1419     0.0105    84.9710
  200.0000     8.6031     8.6116   -17.1429     7.3582     2.4685     0.1356     0.0090    86.4681
  200.5000     8.7243     8.5260   -17.4393     7.4203     2.4760     0.1302     0.0075    86.1715
  201.0000     8.6653     8.4624   -17.4340     7.4786     2.4865     0.1308     0.0090    84.6826
  201.5000     8.6068     8.4047   -17.1289     7.5089     2.4865     0.1311     0.0120    83.0049
  202.0000     8.5486     8.3474   -16.8239     7.5392     2.4865     0.1299     0.0180    81.8539
  202.5000     8.5500     8.3481   -16.6692     7.5694     2.4880     0.1281     0.0225    83.1970
  203.0000     8.4922     8.3486   -16.6638     7.5997     2.4895     0.1299     0.0195    84.2413
  203.5000     8.4348     8.3492   -16.5092     7.6300     2.4872     0.1338     0.0180    81.7095
  204.0000     8.4947     8.3498   -16.5049     7.6304     2.4797     0.1263     0.0270    78.2833
  204.5000     8.4958     8.4082   -16.5006     7.6309     2.4812     0.1155     0.0345    78.0959
  205.0000     8.6152     8.3508   -16.4962     7.6314     2.4895     0.1140     0.0420    80.0745
  205.5000     8.7364     8.3515   -16.4909     7.6319     2.5026     0.1101     0.0435    82.2419
  206.0000     8.7984     8.4100   -16.3363     7.6323     2.5098     0.1029     0.0435    85.8900
  206.5000     8.8606     8.4107   -16.3320     7.6327     2.5195     0.1005     0.0405    87.6798
  207.0000     8.8618     8.4112   -16.3277     7.6481     2.5263     0.1053     0.0345    87.9793
  207.5000     8.8018     8.4118   -16.3233     7.6784     2.5300     0.1120     0.0285    88.7259
  208.0000     8.8031     8.3544   -16.4695     7.6776     2.5180     0.1224     0.0240    90.2177
  208.5000     8.7438     8.2974   -16.6156     7.6494     2.5068     0.1284     0.0225    89.1759
  209.0000     8.7450     8.2981   -16.7617     7.6349     2.4975     0.1368     0.0225    85.5807
  209.5000     8.7461     8.2987   -16.7563     7.6205     2.4805     0.1407     0.0225    86.0495
  210.0000     8.7473     8.2992   -16.7519     7.6059     2.4722     0.1353     0.0225    86.4980
  210.5000     8.6283     8.2997   -16.7467     7.5914     2.4752     0.1377     0.0242    86.2014
  211.0000     8.5699     8.3003   -16.7424     7.5920     2.4775     0.1395     0.0285    85.7557
  211.5000     8.5713     8.2437   -16.5877     7.5924     2.4722     0.1335     0.0330    86.9494
  212.0000     8.5725     8.1876   -16.4330     7.5779     2.4760     0.1206     0.0420    88.7392
  212.5000     8.5736     8.1881   -16.4277     7.5784     2.4850     0.1080     0.0706    90.5291
  213.0000     8.5156     8.1323   -16.4234     7.5789     2.5019     0.1086     0.0931    89.7853
  213.5000     8.5170     8.0768   -16.2687     7.5793     2.5128     0.0995     0.1096    90.0852
  214.0000     8.3433     8.0775   -16.1141     7.5797     2.5255     0.0857     0.1291    90.5338
  214.5000     8.2297     8.0223   -15.8090     7.5802     2.5345     0.0956     0.1426    90.3862
  215.0000     8.1141     7.9675   -15.5029     7.5955     2.5443     0.1029     0.1361    90.0895
  215.5000     8.0073     7.9682   -15.6501     7.5960     2.5353     0.1008     0.1246    89.7926
  216.0000     7.9532     7.9689   -15.6447     7.5665     2.5300     0.1086     0.1081    88.1550
  216.5000     8.0097     7.9694   -15.7908     7.5223     2.5293     0.1200     0.0826    88.0074
  217.0000     8.0108     7.9699   -15.6361     7.4780     2.5113     0.1290     0.0616    89.9466
  217.5000     8.0118     7.9704   -15.4804     7.4186     2.4940     0.1404     0.0420    90.6929
  218.0000     8.0131     8.0262   -15.4761     7.3445     2.4805     0.1452     0.0285    88.0121
  218.5000     8.0142     8.0825   -15.4722     7.2554     2.4670     0.1488     0.0255    87.7151
  219.0000     8.0708     8.1955   -15.4675     7.1961     2.4617     0.1476     0.0239    88.0150
  219.5000     8.0719     8.2529   -15.4632     7.1358     2.4580     0.1497     0.0195    87.1223
  220.0000     8.1292     8.3107   -15.4579     7.0628     2.4565     0.1579     0.0150    85.1863
  220.5000     8.1867     8.3688   -15.4536     7.0482     2.4504     0.1572     0.0075    85.0387
  221.0000     8.2446     8.4510   -15.2989     7.0487     2.4422     0.1545     0.0045    85.9347
  221.5000     8.3029     8.4865   -15.2946     7.0491     2.4474     0.1656    -0.0015    87.2774
  222.0000     8.3616     8.5460   -15.1398     7.0645     2.4384     0.1668    -0.0090    89.3653
  222.5000     8.4210     8.5465   -14.9842     7.0948     2.4197     0.1524     0.0045    90.8570
  223.0000     8.4806     8.4882   -14.8295     7.1400     2.4535     0.1422     0.0121    91.6036
  223.5000     8.5405     8.4889   -14.8253     7.1852     2.4655     0.1377     0.0135    91.7541
  224.0000     8.6009     8.4895   -14.8210     7.2455     2.4723     0.1424     0.0105    91.7556
  224.5000     8.6617     8.4900   -14.6662     7.3205     2.4722     0.1494     0.0060    91.7574
  225.0000     8.6032     8.4906   -14.6609     7.4105     2.4685     0.1506     0.0015    92.3549
  225.5000     8.6046     8.4912   -14.6566     7.4706     2.4550     0.1461     0.0030    92.8035
  226.0000     8.5464     8.4917   -14.8038     7.5308     2.4610     0.1413     0.0105    90.9270
  226.5000     8.5475     8.4924   -15.0992     7.5461     2.4670     0.1392     0.0165    92.2102
  227.0000     8.4900     8.4929   -15.3957     7.5615     2.4692     0.1428     0.0180    93.7020
  227.5000     8.4911     8.4935   -15.6911     7.5619     2.4685     0.1437     0.0180    91.7660
  228.0000     8.4337     8.4941   -15.8382     7.5625     2.4685     0.1362     0.0240    88.3596
  228.5000     8.4349     8.4947   -15.8328     7.5628     2.4692     0.1293     0.0345    85.6586
  229.0000     8.4360     8.4953   -15.9789     7.5633     2.4827     0.1176     0.0526    86.5546
  229.5000     8.4373     8.4959   -15.9736     7.5638     2.5038     0.1115     0.0706    87.3012
  230.0000     8.4970     8.4379   -16.1207     7.5642     2.5143     0.1089     0.0796    86.2594
  230.5000     8.4981     8.4386   -16.2668     7.5646     2.5173     0.1101     0.0811    85.3667
  231.0000     8.5582     8.4977   -16.4118     7.5800     2.5158     0.1116     0.0826    85.6662
  231.5000     8.5004     8.4396   -16.4075     7.5805     2.5135     0.1131     0.0811    86.2638
  232.0000     8.4432     8.4988   -16.4022     7.5810     2.5128     0.1137     0.0811    86.4146
  232.5000     8.4443     8.4408   -16.2475     7.5963     2.5128     0.1125     0.0811    88.0554
  233.0000     8.4454     8.4415   -16.2432     7.5967     2.5135     0.1095     0.0796    90.1433
  233.5000     8.3883     8.4421   -16.2389     7.5972     2.5158     0.1055     0.0781    90.5914
  234.0000     8.3897     8.4426   -16.0842     7.5976     2.5195     0.1008     0.0766    90.7423
