~VERSION INFORMATION
 VERS.                2.0:   CWLS LOG ASCII STANDARD - VERSION 2.0
 WRAP.                 NO:   ONE LINE PER DEPTH STEP
~WELL INFORMATION
#MNEM.UNIT      DATA TYPE    INFORMATION
#----------   ------------   ------------------------------
 STRT.F           64.0000:   START DEPTH
 STOP.F          390.0000:   STOP DEPTH
 STEP.F            0.5000:   STEP LENGTH
 NULL.          -999.2500:   NO VALUE
 COMP. DEPARTMENT OF ENERGY:   COMPANY
 WELL. NPR-3 55-65-SX C-2 #55-3:   WELL
 FLD . TEAPOT NAVAL RESERVE:   FIELD
 LOC .       S3 T38N R78W:   LOCATION
 CNTY.            NATRONA:   COUNTY
 STAT.            WYOMING:   STATE
 CTRY. UNITED STATES OF AMERICA:   COUNTRY
 SRVC.      Dresser Atlas:   SERVICE COMPANY
 DATE.        29-JUN-1985:   LOGDATE
 API .       490251134500:   API NUMBER
~CURVE INFORMATION
#MNEM.UNIT       API CODE    CURVE DESCRIPTION
#----------   ------------   ------------------------------
 DEPT.F                  :   
 CALD.IN     45 280 60 00:   CALIPER FROM DENSITY LOG
 CNC .DEC    42 890 03 00:   NEUTRON POROSITY SANDSTONE
 CORR.G/C3   45 356 01 00:   DENSITY CORRECTION
 GRD .GAPI   45 310 01 00:   GAMMA RAY FROM DENSITY LOG
 PORD.DEC    45 890 12 00:   POROSITY DENSITY SANDSTONE
 RHOB.G/C3   45 350 01 00:   BULK DENSITY
 SPR .MV     07 010 01 00:   SPONTANEOUS POTENTIAL
 ILD .OHMM   06 120 46 00:   INDUCTION LOG DEEP
 ILM .OHMM   07 120 44 00:   INDUCTION LOG MEDIUM
~PARAMETER INFORMATION
#MNEM.UNIT          VALUE    DESCRIPTION
#----------   ------------   ------------------------------
 PD  .                 GL:   PERMANENT DATUM
 EPD .F              5168:   ELEVATION PERMANENT DATUM
 LMF .                 GL:   LOG MEASURED FROM
 DMF .                 GL:   DRILLING MEASURED FROM
 EGL .F              5168:   GROUND LEVEL
 DATE.        29-JUN-1985:   RUN DATE
 RUN .                  1:   RUN NUMBER
 DD  .F               394:   DEPTH DRILLER
 DL  .F               394:   DEPTH LOGGER
 BLI .F               386:   BOTTOM LOG INTERVAL
 CS  .IN                7:   CASING SIZE
 CBD .F                80:   CASING BOTTOM DRILLER
 CBL .F                82:   CASING BOTTOM LOGGER
 BS  .IN            4.875:   BIT SIZE
 BSD .F               394:   BIT SIZE AT DEPTH
 DFT .           FOAM AIR:   DRILLING FLUID TYPE
 TCS .HRS               5:   TIME CURCULATED STOPPED
 MRT .F               238:   MAXIMUM RECORDED TEMPERATURE
 LUN .               6274:   LOGGING UNIT NUMBER
 LUL .               GLTE:   LOGGING UNIT LOCATION
 ENGI.             RAUTIO:   RECORDING ENGINEER
 WITN.           JENNINGS:   WITNESSED BY
 CLNT.            A2DTECH:   CLIENT CODE
 ORIG.           5" PRINT:   ORIGIN OF DATA
 UWI .       490251134500:   UNIQUE WELL ID
 DICO. A2D Technologies, Inc.:   DIGITIZING COMPANY
~OTHER INFORMATION
~A   DEPT     CALD          CNC     CORR        GRD       PORD       RHOB        SPR        ILD        ILM   
# ...
  173.5000     6.5744     0.2816     0.0391   154.8023     0.1350     2.4273   -79.9569     5.7809     4.9370
  174.0000     6.5596     0.2819     0.0346   153.3022     0.1347     2.4264   -78.7443     5.6631     4.8359
  174.5000     6.5600     0.2834     0.0284   149.6936     0.1359     2.4258   -76.3252     5.4716     4.7347
  175.0000     6.5754     0.2846     0.0271   148.7944     0.1308     2.4378   -76.3193     5.2863     4.4663
  175.5000     6.5756     0.2855     0.0376   151.5127     0.1248     2.4446   -77.5200     5.0721     4.0113
  176.0000     6.5910     0.2867     0.0466   156.3379     0.1229     2.4371   -82.3407     4.7291     3.8216
  176.5000     6.5913     0.2888     0.0512   159.3558     0.1305     2.4341   -85.4158     4.3267     3.6662
  177.0000     6.5916     0.2915     0.0617   156.9521     0.1326     2.4348   -81.0981     3.9274     3.3504
  177.5000     6.6069     0.2951     0.0903   155.7530     0.1307     2.4371   -79.9097     3.4916     3.0617
  178.0000     6.6675     0.2975     0.1069   156.0603     0.1290     2.4258   -82.6187     3.0615     2.6652
  178.5000     6.7280     0.3003     0.1445   151.2250     0.1483     2.3753   -81.7064     2.6109     2.3363
  179.0000     6.8040     0.3045     0.2016   149.4456     0.1815     2.3353   -80.1922     2.1508     2.0765
  179.5000     6.8491     0.3129     0.2558   149.7542     0.2041     2.3104   -80.1863     1.8990     1.8171
  180.0000     6.8946     0.3284     0.3335   152.4695     0.2198     2.3049   -82.2920     1.7237     1.5277
  180.5000     6.9100     0.3299     0.4047   150.0672     0.2304     2.2735   -84.3977     1.6424     1.4888
  181.0000     7.0308     0.3129     0.4724   147.0611     0.2446     2.1432   -87.1068     1.6314     1.4787
  181.5000     7.3172     0.2881     0.3882   144.6574     0.2922     2.0121   -89.5142     1.6661     1.4996
  182.0000     7.6789     0.2140     0.2980   142.5548     0.5961     2.0000   -91.9215     1.7615     1.6414
  182.5000     8.3419     0.2071     0.2378   141.3545     0.6871     2.0008   -92.5190     1.9146     1.8345
  183.0000     8.9747     0.2790     0.1912   142.5667     0.6615     2.0008   -87.7466     2.1997     2.0789
  183.5000     8.0413     0.2960     0.1551   147.9943     0.6071     2.0000   -78.6294     2.5803     2.3887
  184.0000     6.8819     0.3177     0.1521   151.9158     0.5319     2.0000   -71.0820     2.9441     2.7070
  184.5000     6.6108     0.3050     0.2003   150.4157     0.3429     2.0754   -69.0980     3.4571     3.0681
  185.0000     6.7480     0.2757     0.2153   150.4217     0.2563     2.2020   -71.9752     3.7931     3.6343
  185.5000     6.7623     0.2950     0.1669   151.7650     0.2205     2.2813   -74.3826     4.2242     3.9396
  186.0000     6.5217     0.3011     0.0559   160.9771     0.1743     2.3538   -74.3767     4.6233     3.9676
  186.5000     6.4918     0.3047     0.0124   165.8023     0.1612     2.3865   -73.1641     4.8541     4.0236
  187.0000     6.5223     0.3074    -0.0147   168.2178     0.1573     2.3896   -71.0466     4.9571     4.0521
  187.5000     6.5377     0.3089    -0.0222   164.6093     0.1618     2.3798   -69.8341     4.9926     4.1093
  188.0000     6.5380     0.3086    -0.0086   164.3125     0.1639     2.3791   -70.4315     4.9936     4.1385
  188.5000     6.5231     0.3080     0.0109   166.1271     0.1588     2.3866   -68.9158     4.9601     4.1391
  189.0000     6.5235     0.3077     0.0140   167.0367     0.1530     2.3971   -67.1000     4.8557     4.1110
  189.5000     6.5389     0.3062     0.0110   165.8378     0.1494     2.4017   -66.4922     4.6623     4.0549
  190.0000     6.5392     0.3043     0.0110   157.7111     0.1470     2.4054   -70.7081     4.2615     3.8613
  190.5000     6.5395     0.3031     0.0125   158.0182     0.1458     2.4084   -73.4186     4.0046     3.5390
  191.0000     6.5398     0.3068    -0.0057   163.1447     0.1449     2.4099   -70.3947     3.7114     3.0946
  191.5000     6.5552     0.3155    -0.0117   169.8042     0.1452     2.4107   -64.9589     3.4877     2.9278
  192.0000     6.5856     0.3312    -0.0130   171.5903     0.1505     2.4028   -61.6348     3.3232     2.9079
  192.5000     6.6010     0.3303    -0.0055   171.8976     0.1735     2.3572   -59.2156     3.2107     2.9903
  193.0000     6.6314     0.3158     0.0066   171.9047     0.2324     2.2427   -61.3453     3.1892     3.0325
  193.5000     6.6618     0.3037     0.0517   171.9106     0.3329     2.0972   -67.1916     3.1932     3.1183
  194.0000     6.7073     0.2995     0.1043   172.2163     0.3399     2.0874   -68.5493     3.2577     3.2289
  194.5000     6.6473     0.2995     0.0968   162.2839     0.3097     2.1379   -70.3519     3.3499     3.3202
  195.0000     6.6325     0.3001     0.0833   158.9751     0.2560     2.2653   -71.8558     3.4928     3.4395
  195.5000     6.6178     0.2994     0.1029   159.5849     0.2191     2.3278   -72.4532     3.6419     3.5879
  196.0000     6.6181     0.3038     0.1239   165.3137     0.1956     2.3655   -69.4293     3.8503     3.7899
  196.5000     6.6184     0.3095     0.0743   168.9340     0.1625     2.3956   -68.2167     4.0706     3.9791
  197.0000     6.6187     0.3103     0.0488   162.6146     0.1491     2.4032   -68.8156     4.3035     4.1778
  197.5000     6.6190     0.3012     0.0653   156.8977     0.1518     2.3979   -68.5066     4.5551     4.3561
  198.0000     6.6169     0.2985     0.0655   157.5302     0.1512     2.4077   -67.5957     4.8438     4.5105
  198.5000     6.6045     0.2952     0.0215   162.4559     0.1427     2.4237   -66.6687     5.0156     4.5742
  199.0000     6.6049     0.2928     0.0080   165.7048     0.1346     2.4336   -65.7738     5.1935     4.6066
  199.5000     6.6052     0.2921    -0.0053   165.3565     0.1303     2.4356   -64.5600     5.3406     4.6394
  200.0000     6.5903     0.2940    -0.0549   163.2540     0.1337     2.3888   -64.2539     5.4086     4.6723
  200.5000     6.6070     0.2967    -0.0744   162.9547     0.1626     2.3685   -66.0565     5.4165     4.5767
  201.0000     6.6214     0.2985    -0.0729   166.5729     0.1750     2.3587   -64.8439     5.3055     4.4520
  201.5000     6.6218     0.2988    -0.0716   170.7927     0.1768     2.3628   -63.3297     5.1608     4.3307
  202.0000     6.6223     0.2991    -0.0716   171.6985     0.1699     2.3731   -64.2288     4.9853     4.2397
  202.5000     6.6227     0.2994    -0.0671   167.4846     0.1650     2.3791   -68.4009     4.8494     4.1264
  203.0000     6.6383     0.2994    -0.0401   168.3918     0.1638     2.3784   -71.1012     4.8161     4.0141
  203.5000     6.6388     0.2984     0.0095   169.2984     0.1653     2.3746   -70.4374     4.7501     3.9319
  204.0000     6.6392     0.2966     0.0004   167.7953     0.1681     2.3708   -67.7500     4.6528     3.8781
  204.5000     6.6547     0.2961     0.0034   163.8826     0.1702     2.3686   -65.9253     4.4946     3.7988
  205.0000     6.6552     0.2970    -0.0223   158.1325     0.1696     2.3717   -65.6090     4.2791     3.6698
  205.5000     6.6707     0.2992    -0.0298   156.6595     0.1641     2.3807   -66.5030     3.8719     3.4962
  206.0000     6.6862     0.3042    -0.0284   162.3861     0.1593     2.3905   -66.4847     3.3140     3.1291
  206.5000     6.7017     0.3091    -0.0284   169.9192     0.1573     2.3860   -65.2634     2.9459     2.7805
  207.0000     6.7322     0.3131    -0.0300   172.0298     0.1602     2.3868   -64.3438     2.7872     2.4815
  207.5000     6.7327     0.3207    -0.0195   170.8279     0.1569     2.3928   -64.6308     2.7490     2.3715
  208.0000     6.7482     0.3234     0.0060   170.8316     0.1523     2.3996   -66.4224     2.7684     2.4728
  208.5000     6.7638     0.3046     0.0271   171.4369     0.1621     2.3831   -68.2214     2.7878     2.6143
  209.0000     6.8094     0.2823     0.0467   171.7411     0.2658     2.2357   -68.5084     2.8466     2.8616
  209.5000     6.9002     0.2605     0.1066   172.0452     0.3087     2.1267   -67.5851     2.9261     3.0044
