~VERSION INFORMATION
 VERS.                2.0:   CWLS LOG ASCII STANDARD - VERSION 2.0
 WRAP.                 NO:   ONE LINE PER DEPTH STEP
~WELL INFORMATION
#MNEM.UNIT      DATA TYPE    INFORMATION
#----------   ------------   ------------------------------
 STRT.F           35.0000:   START DEPTH
 STOP.F          484.0000:   STOP DEPTH
 STEP.F            0.5000:   STEP LENGTH
 NULL.          -999.2500:   NO VALUE
 COMP. LAWRENCE/ALLISON INC:   COMPANY
 WELL.     73-1 STX #1-10:   WELL
 FLD .              NPR-3:   FIELD
 LOC .      S10 T38N R78W:   LOCATION
 CNTY.            NATRONA:   COUNTY
 STAT.            WYOMING:   STATE
 CTRY. UNITED STATES OF AMERICA:   COUNTRY
 SRVC.              Welex:   SERVICE COMPANY
 DATE.        04-APR-1977:   LOGDATE
 API .       490251032400:   API NUMBER
~CURVE INFORMATION
#MNEM.UNIT       API CODE    CURVE DESCRIPTION
#----------   ------------   ------------------------------
 DEPT.F                  :   
 CALD.IN     45 280 60 00:   CALIPER
 GRD .GAPI   45 310 01 00:   GAMMA RAY FROM DENSITY LOG
 RHOB.G/C3   45 350 01 00:   BULK DENSITY
 DPHI.DEC    45 890 12 00:   DENSITY POROSITY SANDSTONE
 CORR.G/C3   45 356 01 00:   DENSITY CORRECTION
 SPR .MV     07 010 01 00:   SPONTANEOUS POTENTIAL
 SGRD.OHMM   07 220 05 00:   SHALLOW RESISTIVITY
 ILD .OHMM   07 120 46 00:   INDUCTION LOG DEEP
 ILM .OHMM   07 120 44 00:   INDUCTION LOG MEDIUM
~PARAMETER INFORMATION
#MNEM.UNIT          VALUE    DESCRIPTION
#----------   ------------   ------------------------------
 PD  .                 GL:   PERMANENT DATUM
 EPD .F              5170:   ELEVATION PERMANENT DATUM
 LMF .                 GL:   LOG MEASURED FROM
 DMF .                 GL:   DRILLING MEASURED FROM
 EGL .F              5170:   GROUND LEVEL
 DATE.             4-4-77:   RUN DATE
 RUN .                  1:   RUN NUMBER
 DD  .F               490:   DEPTH DRILLER
 DL  .F               487:   DEPTH LOGGER
 BLI .F               485:   BOTTOM LOG INTERVAL
 TLI .F                35:   TOP LOG INTERVAL
 CS  .IN            8.625:   CASING SIZE
 CBD .F                42:   CASING BOTTOM DRILLER
 CBL .F                42:   CASING BOTTOM LOGGER
 BS  .IN            7.875:   BIT SIZE
 BSD .F               490:   BIT SIZE AT DEPTH
 DFT .            KCL MUD:   DRILLING FLUID TYPE
 DFD .                8.4:   DRILLING FLUID DENSITY
 DFV .                 32:   DRILLING FLUID VISCOSITY
 DFPH.                8.5:   DRILLING FLUID PH
 DFL .                 17:   DRILLING FLUID LOSS
 RMS .OHMM            .48:   RESISTIVITY MUD SAMPLE
 MST .F                48:   MUD SAMPLE TEMPERATURE
 RMF .OHMM            .44:   RESISTIVITY MUD FILTRATE SAMPLE
 MFST.F                48:   MUD FILTRATE SAMPLE TEMPERATURE
 RMC .OHMM            .62:   RESISTIVITY MUD CAKE
 MCST.F                48:   MUD CAKE SAMPLE TEMPERATURE
 MFSS.          FANN TEST:   MUD FILTRATE SAMPLE SOURCE
 MCSS.          FANN TEST:   MUD CAKE SAMPLE SOURCE
 BHT .F                58:   BOTTOM HOLE TEMPERATURE
 TCS .HRS               2:   TIME CURCULATED STOPPED
 MRT .F                58:   MAXIMUM RECORDED TEMPERATURE
 LUN .               8611:   LOGGING UNIT NUMBER
 LUL .           GILLETTE:   LOGGING UNIT LOCATION
 ENGI.               DOAK:   RECORDING ENGINEER
 WITN.      B. HARRINGTON:   WITNESSED BY
 CLNT.            A2DTECH:   CLIENT CODE
 ORIG.        2" 5" PRINT:   ORIGIN OF DATA
 UWI .       490251032400:   UNIQUE WELL ID
 DICO. A2D Technologies, Inc.:   DIGITIZING COMPANY
~OTHER INFORMATION
~A   DEPT     CALD        GRD       RHOB       DPHI       CORR        SPR       SGRD        ILD        ILM   
# ...
   71.5000     7.8394   106.9184     2.4883     0.0929     0.0193   -46.6281   107.7206     6.4883     7.6856
   72.0000     7.9473   106.6897     2.4940     0.0948     0.0265   -46.7452   134.7519     6.5495     8.0258
   72.5000     8.0542   107.3304     2.5013     0.0862     0.0333   -46.8628   170.6471     6.6299     8.3447
   73.0000     8.1168   108.3223     2.5087     0.0820     0.0368   -46.9801   164.4807     6.6252     8.3321
   73.5000     8.1170   109.3173     2.5045     0.0852     0.0352   -47.0953   187.0936     6.6175     8.3182
   74.0000     8.1174   110.3117     2.4790     0.0941     0.0331   -47.2203   177.0447     6.6099     8.3043
   74.5000     8.1173   111.3080     2.4538     0.1103     0.0202   -47.6040   452.5591     6.6025     8.2904
   75.0000     8.1173   112.3155     2.4380     0.1232     0.0091   -47.9886   310.3410     6.5951     8.2766
   75.5000     8.1173   112.3933     2.4611     0.1110     0.0095   -48.0089   525.1428     6.5877     8.2627
   76.0000     8.1173   112.2647     2.4849     0.0989     0.0122   -48.0014   778.8245     6.5805     8.2489
   76.5000     8.1173   112.0896     2.5087     0.0868     0.0269   -47.8364   440.2378     6.5692     8.2351
   77.0000     8.1173   113.5550     2.5337     0.0746     0.0412   -46.8339   514.7773     6.6021     8.2213
   77.5000     8.1173   115.1503     2.5211     0.0676     0.0434   -48.6650   412.7768     6.6685     8.2077
   78.0000     8.1173   115.1283     2.5018     0.0828     0.0390   -50.3624    43.2637     6.7355     8.1925
   78.5000     8.1173   114.1519     2.4824     0.0956     0.0342   -42.7536    22.4537     6.8032     8.3413
   79.0000     8.1173   112.7587     2.4631     0.1084     0.0263   -52.8682    20.6985     6.8716     8.5099
   79.5000     8.1173   110.7404     2.4473     0.1188     0.0222   -49.5862    18.9258     6.9407     8.6818
   80.0000     8.1173   108.6774     2.4671     0.1066     0.0242   -46.5659    19.4142     7.0104     8.8572
   80.5000     8.1173   106.5596     2.4869     0.0963     0.0286   -47.5810    19.9717     7.0809     8.9821
   81.0000     8.1173   105.7701     2.4874     0.0920     0.0289   -44.7440    20.3715     7.1521     8.2586
   81.5000     8.1173   105.5470     2.4748     0.1026     0.0217   -48.2629    19.4555     7.2407     7.6863
   82.0000     8.1183   105.3514     2.4563     0.1115     0.0145   -35.7349    19.8168     7.3699     8.3867
   82.5000     8.1269   103.6063     2.4531     0.1160     0.0136   -48.5381    20.3447     7.5015     9.1489
   83.0000     8.1355   101.2652     2.4581     0.1129     0.0170   -48.5677    20.9416     7.6354     9.3360
   83.5000     8.1441    98.9057     2.4640     0.1098     0.0205   -48.8820    21.1352     7.7717     9.4919
   84.0000     8.1527    96.3412     2.4693     0.1044     0.0240   -49.3775    19.6805     7.9329     9.7083
   84.5000     8.1613    97.4615     2.4993     0.0875     0.0320   -49.2890    16.4986     8.1446    10.0260
   85.0000     8.1699    99.8415     2.5206     0.0732     0.0430   -49.1653    13.5893     8.3437    10.2495
   85.5000     8.1785   102.2091     2.5116     0.0808     0.0380   -49.0434    13.4649     8.5477    10.4325
   86.0000     8.1873   102.1406     2.4759     0.0944     0.0321   -48.9233    17.0479     8.7567    10.6000
   86.5000     8.1954    99.7279     2.4518     0.1080     0.0287   -48.8207    17.4253     8.9707    11.2735
   87.0000     8.1811    96.7252     2.4516     0.1160     0.0271   -48.3449    17.3551     9.1901    11.9169
   87.5000     8.1125    96.8012     2.4526     0.1138     0.0256   -47.7737    17.2666     9.4147    12.5977
   88.0000     8.0454   100.0260     2.4543     0.1116     0.0241   -47.2201    17.9266     9.6682    13.1020
   88.5000     7.9784   102.8980     2.4494     0.1187     0.0179   -47.1988    19.4466     9.6454    12.5706
   89.0000     7.9114   104.3555     2.4289     0.1263     0.0080   -47.4260    19.3564     9.6200    12.1094
   89.5000     7.8428   105.8474     2.4093     0.1338    -0.0019   -47.7860    18.6134     9.5948    11.6216
   90.0000     7.8843   105.9068     2.3933     0.1400    -0.0119   -48.1468    17.6381     9.5696    11.7083
   90.5000     7.9872   104.9493     2.3860     0.1434    -0.0205   -48.5075    17.4217     9.5445    11.8333
   91.0000     8.0905   103.9950     2.3821     0.1421    -0.0205   -48.8717    18.3260     9.5194    11.9469
   91.5000     8.1939   103.0636     2.3783     0.1396    -0.0186   -49.0040    19.2773     9.4919    11.7967
   92.0000     8.2576   102.5996     2.3743     0.1426    -0.0166   -48.7896    18.8715     9.4310    11.7290
   92.5000     8.2548   104.3971     2.3743     0.1479    -0.0145   -48.4571    17.9085     9.3446    12.3947
   93.0000     8.2001   106.1641     2.3842     0.1425    -0.0118   -48.1232    17.9118     9.2590    13.4119
   93.5000     8.1067   107.9363     2.3963     0.1366    -0.0089   -47.7882    17.9076     9.1742    14.6274
   94.0000     7.9896   108.2621     2.4137     0.1308    -0.0060   -47.4444    17.9110     9.0902    13.6631
   94.5000     7.8711   105.0070     2.4283     0.1244    -0.0030   -47.0478    17.5701     9.0069    12.6660
   95.0000     7.8737   102.1659     2.4253     0.1263    -0.0013   -47.3424    16.7553     8.8998    11.7417
   95.5000     7.9668    99.7486     2.4221     0.1303    -0.0074   -47.6760    15.7509     8.9129    11.3052
   96.0000     8.0608    98.0082     2.4238     0.1272    -0.0084   -48.0045    16.0106     8.9315    11.5218
   96.5000     8.1553    96.2544     2.4352     0.1211    -0.0014   -48.3312    16.3343     8.9502    11.7223
   97.0000     8.2364    94.4980     2.4460     0.1144     0.0013   -48.6579    16.1866     8.9690    11.9469
   97.5000     8.2208    92.7347     2.4399     0.1195    -0.0072   -48.9847    15.1836     8.9877    11.9469
   98.0000     8.2031    91.9042     2.4258     0.1252    -0.0145   -49.3116    15.4576     9.0066    11.9469
   98.5000     8.1858    91.9026     2.4325     0.1257    -0.0160   -49.6399    16.5550     9.0254    12.1448
   99.0000     8.1684    92.0559     2.4380     0.1284    -0.0175   -49.9630    18.3030     9.0442    12.5093
   99.5000     8.1511    92.6375     2.4302     0.1330    -0.0191   -49.9376    19.6353     9.0651    12.5093
  100.0000     8.1338    94.5093     2.4198     0.1376    -0.0207   -49.8662    17.0961     8.9496    12.0134
  100.5000     8.1163    97.7756     2.4095     0.1422    -0.0224   -49.7945    15.4576     8.8229    11.6454
  101.0000     8.0982    99.3936     2.4010     0.1460    -0.0217   -49.7231    15.8902     8.6980    11.2886
  101.5000     8.0982   101.0673     2.4068     0.1416    -0.0208   -49.6521    15.8902     8.5750    10.9427
  102.0000     8.0994   101.2372     2.4121     0.1459    -0.0199   -49.5813    14.8466     8.4536    10.6075
  102.5000     8.1005   100.8929     2.3986     0.1543    -0.0191   -49.5094    13.7149     8.3447    10.3114
  103.0000     8.1016   101.2630     2.3834     0.1616    -0.0204   -49.4374    13.7694     8.3042    10.2685
  103.5000     8.1026   102.4001     2.3684     0.1678    -0.0273   -49.1888    13.8814     8.2589    10.2170
  104.0000     8.1037   102.8534     2.3579     0.1728    -0.0297   -48.7409    13.9940     8.2139    10.3092
  104.5000     8.1048   103.0875     2.3601     0.1704    -0.0283   -48.2956    14.0983     8.1691    10.4454
  105.0000     8.1059   103.3443     2.3649     0.1679    -0.0269   -47.8511    14.0351     8.1246    10.5833
  105.5000     8.1069   104.3905     2.3695     0.1645    -0.0252   -47.6069    13.9768     8.0803     9.8832
  106.0000     8.1080   104.7856     2.3918     0.1517    -0.0194   -47.6001    13.7832     8.0363     9.1272
  106.5000     8.1091   103.4156     2.4193     0.1338    -0.0026   -47.9579    13.5739     7.9925     8.3714
  107.0000     8.1101   101.9833     2.4468     0.1159     0.0054   -48.4938    13.3678     7.9489     8.5351
  107.5000     8.1112   100.7129     2.4743     0.0936     0.0140   -48.8464    13.5433     7.9056     8.7584
