~VERSION INFORMATION
 VERS.                2.0:   CWLS LOG ASCII STANDARD - VERSION 2.0
 WRAP.                 NO:   ONE LINE PER DEPTH STEP
~WELL INFORMATION
#MNEM.UNIT      DATA TYPE    INFORMATION
#----------   ------------   ------------------------------
 STRT.F           53.0000:   START DEPTH
 STOP.F         4152.0000:   STOP DEPTH
 STEP.F            0.5000:   STEP LENGTH
 NULL.          -999.2500:   NO VALUE
 COMP. DEPARTMENT OF ENERGY:   COMPANY
 WELL. RES 3 TEAPOT #11-STX-11:   WELL
 FLD . TEAPOT NAVAL RESERVE:   FIELD
 LOC .      S11 T38N R78W:   LOCATION
 CNTY.            NATRONA:   COUNTY
 STAT.            WYOMING:   STATE
 CTRY. UNITED STATES OF AMERICA:   COUNTRY
 SRVC.       Schlumberger:   SERVICE COMPANY
 DATE.        24-JUL-1975:   LOGDATE
 API .       490251025200:   API NUMBER
~CURVE INFORMATION
#MNEM.UNIT       API CODE    CURVE DESCRIPTION
#----------   ------------   ------------------------------
 DEPT.F                  :   
 SPR .MV     07 010 01 00:   SPONTANEOUS POTENTIAL
 ILD .OHMM   07 120 46 00:   INDUCTION LOG DEEP
 ILM .OHMM   07 120 44 00:   INDUCTION LOG MEDIUM
 LL8 .OHMM   07 220 08 00:   LATEROLOG-8 RES.
 DPOR.DEC    45 890 12 00:   DENSITY POROSITY SANDSTONE
 NPOR.DEC    42 890 03 00:   NEUTRON POROSITY SANDSTONE
 RHOB.G/C3   45 350 01 00:   BULK DENSITY
 CORR.G/C3   45 356 01 00:   DENSITY CORRECTION
 GRD .GAPI   45 310 01 00:   GAMMA RAY FROM DENSITY LOG
 CALD.IN     45 280 60 00:   CALIPER FROM DENSITY LOG
~PARAMETER INFORMATION
#MNEM.UNIT          VALUE    DESCRIPTION
#----------   ------------   ------------------------------
 PD  .                 GL:   PERMANENT DATUM
 EPD .F              5165:   ELEVATION PERMANENT DATUM
 LMF .                 KB:   LOG MEASURED FROM
 DAPD.F                13:   FEET ABOVE PERMANENT DATUM
 DMF .                 KB:   DRILLING MEASURED FROM
 EKB .F              5178:   KELLING BUSHING
 EGL .F              5165:   GROUND LEVEL
 DATE.            7-24-75:   RUN DATE
 RUN .                  1:   RUN NUMBER
 DD  .F              4150:   DEPTH DRILLER
 DL  .F              4154:   DEPTH LOGGER
 BLI .F              4152:   BOTTOM LOG INTERVAL
 TLI .F              1800:   TOP LOG INTERVAL
 CS  .IN            8.625:   CASING SIZE
 CBD .F               625:   CASING BOTTOM DRILLER
 CBL .F               627:   CASING BOTTOM LOGGER
 BS  .IN            7.875:   BIT SIZE
 BSD .F              4150:   BIT SIZE AT DEPTH
 DFT .                FGM:   DRILLING FLUID TYPE
 DFD .                9.5:   DRILLING FLUID DENSITY
 DFV .                 85:   DRILLING FLUID VISCOSITY
 MSS .           FLOWLINE:   MUD SAMPLE SOURCE
 RMS .OHMM           1.34:   RESISTIVITY MUD SAMPLE
 MST .F                91:   MUD SAMPLE TEMPERATURE
 RMF .OHMM           1.17:   RESISTIVITY MUD FILTRATE SAMPLE
 MFST.F                91:   MUD FILTRATE SAMPLE TEMPERATURE
 MFSS.                  M:   MUD FILTRATE SAMPLE SOURCE
 RMB .OHMM            .94:   RESISTIVITY MUD AT BHT
 BHT .F               130:   BOTTOM HOLE TEMPERATURE
 TCS .HRS            1230:   TIME CURCULATED STOPPED
 TLAB.HRS            1900:   TIME LOGGER AT BOTTOM
 MRT .F               132:   MAXIMUM RECORDED TEMPERATURE
 LUN .               7680:   LOGGING UNIT NUMBER
 LUL .               CSPR:   LOGGING UNIT LOCATION
 ENGI.             FRENCH:   RECORDING ENGINEER
 WITN.             CARTER:   WITNESSED BY
 CLNT.            A2DTECH:   CLIENT CODE
 ORIG.       2", 5" PRINT:   ORIGIN OF DATA
 UWI .       490251025200:   UNIQUE WELL ID
 DICO. A2D Technologies, Inc.:   DIGITIZING COMPANY
~OTHER INFORMATION
~A   DEPT      SPR          ILD        ILM       LL8      DPOR       NPOR       RHOB       CORR        GRD       CALD   
# ...
 4106.5000  -999.2500  -999.2500  -999.2500  -999.2500     0.0937     0.3290     2.5138     0.0300   246.4154     8.1144
 4107.0000  -999.2500  -999.2500  -999.2500  -999.2500     0.0949     0.3315     2.5027     0.0231   254.0534     8.1209
 4107.5000  -999.2500  -999.2500  -999.2500  -999.2500     0.0856     0.3355     2.4743     0.0156   264.3262     8.1491
 4108.0000  -999.2500  -999.2500  -999.2500  -999.2500     0.0955     0.3366     2.4535     0.0132   276.6787     8.1754
 4108.5000  -999.2500  -999.2500  -999.2500  -999.2500     0.1135     0.3251     2.4499     0.0088   291.4785     8.1715
 4109.0000  -999.2500  -999.2500  -999.2500  -999.2500     0.1197     0.3150     2.4453     0.0054   306.2179     8.1586
 4109.5000  -999.2500  -999.2500  -999.2500  -999.2500     0.1224     0.3186     2.4392     0.0112   320.8603     8.1455
 4110.0000  -999.2500  -999.2500  -999.2500  -999.2500     0.1282     0.3246     2.4453     0.0195   334.3889     8.1319
 4110.5000  -999.2500  -999.2500  -999.2500  -999.2500     0.1308     0.3382     2.4555     0.0274   346.5804     8.1183
 4111.0000  -999.2500  -999.2500  -999.2500  -999.2500     0.1213     0.3509     2.4653     0.0312   349.6263     8.1047
 4111.5000  -999.2500  -999.2500  -999.2500  -999.2500     0.1128     0.3541     2.4632     0.0225   353.0858     8.0926
 4112.0000  -999.2500  -999.2500  -999.2500  -999.2500     0.1128     0.3616     2.4466     0.0144   365.5320     8.1524
 4112.5000  -999.2500  -999.2500  -999.2500  -999.2500     0.1193     0.3717     2.4510     0.0101   377.8668     8.1431
 4113.0000  -999.2500  -999.2500  -999.2500  -999.2500     0.1232     0.3805     2.4564     0.0103   387.8994     8.1395
 4113.5000  -999.2500  -999.2500  -999.2500  -999.2500     0.1220     0.3829     2.4618     0.0104   395.0647     8.1626
 4114.0000  -999.2500  -999.2500  -999.2500  -999.2500     0.1196     0.3749     2.4648     0.0053   400.2970     8.1746
 4114.5000  -999.2500  -999.2500  -999.2500  -999.2500     0.1121     0.3664     2.4688     0.0125   400.1455     8.1623
 4115.0000  -999.2500  -999.2500  -999.2500  -999.2500     0.1072     0.3593     2.4794     0.0278   400.0927     8.1458
 4115.5000  -999.2500  -999.2500  -999.2500  -999.2500     0.1108     0.3660     2.4841     0.0167   400.0413     8.1342
 4116.0000  -999.2500  -999.2500  -999.2500  -999.2500     0.1042     0.3774     2.4565     0.0064   399.9930     8.1410
 4116.5000  -999.2500  -999.2500  -999.2500  -999.2500     0.1021     0.3818     2.4706     0.0116   399.9445     8.1483
 4117.0000  -999.2500  -999.2500  -999.2500  -999.2500     0.1191     0.3725     2.4896     0.0191   399.9269     8.1580
 4117.5000  -999.2500  -999.2500  -999.2500  -999.2500     0.1104     0.3661     2.4707     0.0179   400.0044     8.1803
 4118.0000  -999.2500  -999.2500  -999.2500  -999.2500     0.1009     0.3617     2.4546     0.0256   399.2103     8.1714
 4118.5000  -999.2500  -999.2500  -999.2500  -999.2500     0.1123     0.3700     2.4613     0.0279   375.9968     8.1155
 4119.0000  -999.2500  -999.2500  -999.2500  -999.2500     0.1183     0.3786     2.4683     0.0083   352.2749     8.0942
 4119.5000  -999.2500  -999.2500  -999.2500  -999.2500     0.1144     0.3764     2.4740     0.0038   328.6756     8.1082
 4120.0000  -999.2500  -999.2500  -999.2500  -999.2500     0.1091     0.3697     2.4569    -0.0008   313.5073     8.1252
 4120.5000  -999.2500  -999.2500  -999.2500  -999.2500     0.1122     0.3629     2.4500     0.0019   308.6479     8.1343
 4121.0000  -999.2500  -999.2500  -999.2500  -999.2500     0.1174     0.3562     2.4641     0.0110   305.3235     8.1260
 4121.5000  -999.2500  -999.2500  -999.2500  -999.2500     0.1216     0.3494     2.4642     0.0207   297.3843     8.0872
 4122.0000  -999.2500  -999.2500  -999.2500  -999.2500     0.1171     0.3430     2.4566     0.0289   275.6386     8.0326
 4122.5000  -999.2500  -999.2500  -999.2500  -999.2500     0.1128     0.3470     2.4819     0.0392   253.3435     8.0675
 4123.0000  -999.2500  -999.2500  -999.2500  -999.2500     0.1187     0.3540     2.4957     0.0518   236.6946     8.1136
 4123.5000  -999.2500  -999.2500  -999.2500  -999.2500     0.1069     0.3549     2.5083     0.0444   219.4678     8.1345
 4124.0000  -999.2500  -999.2500  -999.2500  -999.2500     0.0973     0.3383     2.5005     0.0320   202.1282     8.1022
 4124.5000  -999.2500  -999.2500  -999.2500  -999.2500     0.0904     0.3188     2.4862     0.0278   192.2148     8.0981
 4125.0000  -999.2500  -999.2500  -999.2500  -999.2500     0.0872     0.2966     2.4765     0.0195   192.7104     8.1207
 4125.5000  -999.2500  -999.2500  -999.2500  -999.2500     0.0934     0.2836     2.4785     0.0106   201.2740     8.1371
 4126.0000  -999.2500  -999.2500  -999.2500  -999.2500     0.0993     0.2708     2.4630     0.0052   206.8056     8.1438
 4126.5000  -999.2500  -999.2500  -999.2500  -999.2500     0.1057     0.2694     2.4641     0.0163   211.4610     8.1506
 4127.0000  -999.2500  -999.2500  -999.2500  -999.2500     0.1122     0.2786     2.4893     0.0259   209.6457     8.1533
 4127.5000  -999.2500  -999.2500  -999.2500  -999.2500     0.1135     0.2903     2.5025     0.0273   208.5062     8.1482
 4128.0000  -999.2500  -999.2500  -999.2500  -999.2500     0.1040     0.3000     2.4980     0.0228   208.2060     8.1434
 4128.5000  -999.2500  -999.2500  -999.2500  -999.2500     0.0942     0.3036     2.5043     0.0184   209.4929     8.1386
 4129.0000  -999.2500  -999.2500  -999.2500  -999.2500     0.0918     0.2982     2.5004     0.0136   211.2999     8.1336
 4129.5000  -999.2500  -999.2500  -999.2500  -999.2500     0.0917     0.2744     2.5073     0.0156   213.1365     8.1286
 4130.0000  -999.2500  -999.2500  -999.2500  -999.2500     0.0896     0.2544     2.5206     0.0182   215.0358     8.1235
 4130.5000  -999.2500  -999.2500  -999.2500  -999.2500     0.0916     0.2345     2.5266     0.0156   215.3544     8.1185
 4131.0000  -999.2500  -999.2500  -999.2500  -999.2500     0.0811     0.2145     2.5323     0.0167   214.0201     8.1140
 4131.5000  -999.2500  -999.2500  -999.2500  -999.2500     0.0778     0.1965     2.5376     0.0207   212.6505     8.1091
 4132.0000  -999.2500  -999.2500  -999.2500  -999.2500     0.0755     0.1947     2.5454     0.0235   211.2935     8.1037
 4132.5000  -999.2500  -999.2500  -999.2500  -999.2500     0.0730     0.1920     2.5558     0.0209   209.9381     8.0985
 4133.0000  -999.2500  -999.2500  -999.2500  -999.2500     0.0679     0.1839     2.5513     0.0193   208.5799     8.0933
 4133.5000  -999.2500  -999.2500  -999.2500  -999.2500     0.0618     0.1757     2.5490     0.0277   207.7353     8.0719
 4134.0000  -999.2500  -999.2500  -999.2500  -999.2500     0.0597     0.1676     2.5656     0.0353   210.6734     8.0503
 4134.5000  -999.2500  -999.2500  -999.2500  -999.2500     0.0626     0.1647     2.5847     0.0450   213.7874     8.0425
 4135.0000  -999.2500  -999.2500  -999.2500  -999.2500     0.0547     0.1698     2.5490     0.0373   213.7663     8.0823
 4135.5000  -999.2500  -999.2500  -999.2500  -999.2500     0.0385     0.1749     2.5263     0.0513   212.0906     8.0770
 4136.0000  -999.2500  -999.2500  -999.2500  -999.2500     0.0507     0.1783     2.5367     0.0292   210.4505     8.0547
 4136.5000  -999.2500  -999.2500  -999.2500  -999.2500     0.0684     0.1767     2.4822     0.0184   208.7127     8.0957
 4137.0000  -999.2500  -999.2500  -999.2500  -999.2500     0.0748     0.1751     2.4971     0.0307   206.5745     8.1511
 4137.5000  -999.2500  -999.2500  -999.2500  -999.2500     0.0984     0.1781     2.5174     0.0419   204.3779     8.1236
 4138.0000  -999.2500  -999.2500  -999.2500  -999.2500     0.1020     0.1811     2.5378     0.0376   203.3212     8.0813
 4138.5000  -999.2500  -999.2500  -999.2500  -999.2500     0.0893     0.1771     2.5528     0.0372   203.0726     8.0428
 4139.0000  -999.2500  -999.2500  -999.2500  -999.2500     0.0779     0.1728     2.5756     0.0298   203.3894     7.9749
 4139.5000  -999.2500  -999.2500  -999.2500  -999.2500     0.0666     0.1690     2.5829     0.0253   205.2531     7.9069
