~VERSION INFORMATION
 VERS.                2.0:   CWLS LOG ASCII STANDARD - VERSION 2.0
 WRAP.                 NO:   ONE LINE PER DEPTH STEP
~WELL INFORMATION
#MNEM.UNIT      DATA TYPE    INFORMATION
#----------   ------------   ------------------------------
 STRT.F           86.0000:   START DEPTH
 STOP.F         1134.0000:   STOP DEPTH
 STEP.F            0.5000:   STEP LENGTH
 NULL.          -999.2500:   NO VALUE
 COMP.          U.S. NAVY:   COMPANY
 WELL. RES 3 TEAPOT DOM #64-S-2:   WELL
 FLD .             TEAPOT:   FIELD
 LOC .       S2 T38N R78W:   LOCATION
 CNTY.            NATRONA:   COUNTY
 STAT.            WYOMING:   STATE
 CTRY. UNITED STATES OF AMERICA:   COUNTRY
 SRVC. Schlumberger Well Surveying Corp:   SERVICE COMPANY
 DATE.        28-JUL-1964:   LOGDATE
 API .       490250644400:   API NUMBER
~CURVE INFORMATION
#MNEM.UNIT       API CODE    CURVE DESCRIPTION
#----------   ------------   ------------------------------
 DEPT.F                  :   
 ASN .OHMM   05 041 16 00:   AMPLIFIED SHORT NORMAL 16"
 CILD.MMHO   05 110 46 00:   CONDUCTIVITY INDUCTION LOG DEEP
 ILD .OHMM   05 120 46 00:   INDUCTION LOG DEEP
 SPR .MV     05 010 01 00:   SPONTANEOUS POTENTIAL FROM RES.
 DT  .US/F   60 520 33 00:   INTERVAL TRANSIT TIME
 GR  .GAPI   30 310 01 00:   GAMMA RAY
~PARAMETER INFORMATION
#MNEM.UNIT          VALUE    DESCRIPTION
#----------   ------------   ------------------------------
 PD  .                 GL:   PERMANENT DATUM
 EPD .F              5204:   ELEVATION PERMANENT DATUM
 LMF .                 KB:   LOG MEASURED FROM
 DAPD.F                 5:   FEET ABOVE PERMANENT DATUM
 DMF .                 KB:   DRILLING MEASURED FROM
 EKB .F              5209:   KELLING BUSHING
 EGL .F              5204:   GROUND LEVEL
 DATE.        28-JUL-1964:   RUN DATE
 RUN .                  1:   RUN NUMBER
 DD  .F              1135:   DEPTH DRILLER
 DL  .F              1135:   DEPTH LOGGER
 BLI .F              1134:   BOTTOM LOG INTERVAL
 TLI .F                86:   TOP LOG INTERVAL
 CS  .IN            10.75:   CASING SIZE
 CBD .F                11:   CASING BOTTOM DRILLER
 BS  .IN            7.875:   BIT SIZE
 BSD .F              1135:   BIT SIZE AT DEPTH
 DFT .            GEL-OIL:   DRILLING FLUID TYPE
 DFD .                9.5:   DRILLING FLUID DENSITY
 DFV .                 49:   DRILLING FLUID VISCOSITY
 DFL .                 10:   DRILLING FLUID LOSS
 MSS .           FLOWLINE:   MUD SAMPLE SOURCE
 RMS .OHMM           2.35:   RESISTIVITY MUD SAMPLE
 MST .F                89:   MUD SAMPLE TEMPERATURE
 RMF .OHMM           1.71:   RESISTIVITY MUD FILTRATE SAMPLE
 MFST.F                89:   MUD FILTRATE SAMPLE TEMPERATURE
 RMC .OHMM           3.01:   RESISTIVITY MUD CAKE
 MCST.F                89:   MUD CAKE SAMPLE TEMPERATURE
 MFSS.                 FP:   MUD FILTRATE SAMPLE SOURCE
 MCSS.                 FP:   MUD CAKE SAMPLE SOURCE
 TCS .HRS               1:   TIME CURCULATED STOPPED
 LUN .               3527:   LOGGING UNIT NUMBER
 LUL .               CSPR:   LOGGING UNIT LOCATION
 ENGI.             KNOBEL:   RECORDING ENGINEER
 WITN.          JORGENSEN:   WITNESSED BY
 CLNT.            A2DTECH:   CLIENT CODE
 ORIG.        2" 5" PRINT:   ORIGIN OF DATA
 UWI .       490250644400:   UNIQUE WELL ID
 DICO. A2D Technologies, Inc.:   DIGITIZING COMPANY
~OTHER INFORMATION
~A   DEPT        ASN      CILD        ILD       SPR         DT         GR   
# ...
  346.0000     7.5747   152.4548     7.0629   -28.7046  -999.2500  -999.2500
  346.5000     7.5856   152.4589     7.0623   -28.7998  -999.2500  -999.2500
  347.0000     7.4715   152.4624     7.0616   -29.4558  -999.2500  -999.2500
  347.5000     7.4515   152.4661     7.0114   -29.7514  -999.2500  -999.2500
  348.0000     7.4514   152.4704     6.9850   -30.0750  -999.2500  -999.2500
  348.5000     7.4514   152.4736     6.9842   -30.3577  -999.2500  -999.2500
  349.0000     7.4513   152.4774     6.9835   -30.5082  -999.2500  -999.2500
  349.5000     7.4052   152.4819     6.9827   -30.5135  -999.2500  -999.2500
  350.0000     7.3183   152.4849     6.9819   -30.6597  -999.2500  -999.2500
  350.5000     7.2919   152.4888     6.9812   -30.6604  -999.2500  -999.2500
  351.0000     7.4158   152.4925     6.9805   -30.5113  -999.2500  -999.2500
  351.5000     7.5961   152.4962     6.9796   -30.5120  -999.2500  -999.2500
  352.0000     7.8117   151.7473     7.0070   -30.5127  -999.2500  -999.2500
  352.5000     7.8267   151.7508     7.0536   -30.5136  -999.2500  -999.2500
  353.0000     7.7815   151.6391     7.1142   -30.4413  -999.2500  -999.2500
  353.5000     7.6258   151.0053     7.1270   -30.3650  -999.2500  -999.2500
  354.0000     7.4314   150.6877     7.2012   -30.3659  -999.2500  -999.2500
  354.5000     7.5256   149.5066     7.2416   -30.3666  -999.2500  -999.2500
  355.0000     7.7451   148.7582     7.2885   -30.3673  -999.2500  -999.2500
  355.5000     7.9306   148.0083     7.3491   -30.3681  -999.2500  -999.2500
  356.0000     8.0517   146.5061     7.4575   -30.3228  -999.2500  -999.2500
  356.5000     8.0957   144.5444     7.5044   -30.2196  -999.2500  -999.2500
  357.0000     8.1418   142.1913     7.6470   -30.2204  -999.2500  -999.2500
  357.5000     8.1568   137.4814     7.7215   -30.2211  -999.2500  -999.2500
  358.0000     8.1774   134.8043     7.7958   -30.2220  -999.2500  -999.2500
  358.5000     8.2329   131.9817     7.8701   -30.0727  -999.2500  -999.2500
  359.0000     8.3413   129.9628     7.9446   -30.0545  -999.2500  -999.2500
  359.5000     8.5768   129.6423     7.9436   -29.9243  -999.2500  -999.2500
  360.0000     8.6546   129.2167     8.0180   -29.9250  -999.2500  -999.2500
  360.5000     8.5430   129.9743     8.0173   -29.9258  -999.2500  -999.2500
  361.0000     8.4720   130.3138     7.9414   -29.7768  -999.2500  -999.2500
  361.5000     8.5622   130.7342     7.9407   -29.7774  -999.2500  -999.2500
  362.0000     8.6296   131.1998     7.9399   -29.7781  -999.2500  -999.2500
  362.5000     8.6015   132.4360     7.9391   -29.7789  -999.2500  -999.2500
  363.0000     8.5168   133.0048     7.9384   -29.7796  -999.2500  -999.2500
  363.5000     8.4475   134.5143     7.9377   -29.7804  -999.2500  -999.2500
  364.0000     8.3344   136.1446     7.9369   -29.7811  -999.2500  -999.2500
  364.5000     8.2910   137.5343     7.8611   -29.7819  -999.2500  -999.2500
  365.0000     8.2957   138.6170     7.8603   -29.7827  -999.2500  -999.2500
  365.5000     8.3210   140.6062     7.7456   -29.6334  -999.2500  -999.2500
  366.0000     8.2523   142.0639     7.6972   -29.6342  -999.2500  -999.2500
  366.5000     7.9597   143.0786     7.6328   -29.6351  -999.2500  -999.2500
  367.0000     7.7944   145.0829     7.5571   -29.6357  -999.2500  -999.2500
  367.5000     7.8851   146.3040     7.4768   -29.6365  -999.2500  -999.2500
  368.0000     7.9447   147.5401     7.4053   -29.5492  -999.2500  -999.2500
  368.5000     7.8844   149.6125     7.3049   -29.4879  -999.2500  -999.2500
  369.0000     7.7195   151.1622     7.1787   -29.3389  -999.2500  -999.2500
  369.5000     7.5009   153.6308     7.1029   -29.3396  -999.2500  -999.2500
  370.0000     7.2677   156.4011     7.0095   -29.1903  -999.2500  -999.2500
  370.5000     7.2477   159.6498     6.8761   -29.1334  -999.2500  -999.2500
  371.0000     7.2976   162.4874     6.7625   -29.0420  -999.2500  -999.2500
  371.5000     7.2640   164.6957     6.6390   -28.8928  -999.2500  -999.2500
  372.0000     6.9512   167.2189     6.4984   -28.7438  -999.2500  -999.2500
  372.5000     6.9149   169.2207     6.4671   -28.7444  -999.2500  -999.2500
  373.0000     7.0974   171.9503     6.3403   -28.5952  -999.2500  -999.2500
  373.5000     7.2322   174.1327     6.1958   -28.5075  -999.2500  -999.2500
  374.0000     7.2457   176.7623     6.0966   -28.4467  -999.2500  -999.2500
  374.5000     6.9495   179.0701     5.9692   -28.4476  -999.2500  -999.2500
  375.0000     6.8258   181.5386     5.8496   -28.4483  -999.2500  -999.2500
  375.5000     6.7255   182.7979     5.8012   -28.4695  -999.2500  -999.2500
  376.0000     6.6328   182.1385     5.7417   -28.5998  -999.2500  -999.2500
  376.5000     6.0186   179.6774     5.7410   -28.6619  -999.2500  -999.2500
  377.0000     5.7492   177.5383     5.8338   -28.7511  -999.2500  -999.2500
  377.5000     5.9842   175.7718     6.1898   -28.9019  -999.2500  -999.2500
  378.0000     6.8304   174.5332     6.3984   -28.9025  -999.2500  -999.2500
  378.5000     7.0455   173.7839     6.6431   -28.9033  -999.2500  -999.2500
  379.0000     7.0859   173.5919     6.7385   -28.9930  -999.2500  -999.2500
  379.5000     6.6647   173.0384     6.7125   -29.0547  -999.2500  -999.2500
  380.0000     6.5313   173.0422     6.6366   -29.0555  -999.2500  -999.2500
  380.5000     6.4509   173.0459     6.5932   -29.0562  -999.2500  -999.2500
  381.0000     6.4239   173.0501     6.4850   -29.0570  -999.2500  -999.2500
  381.5000     6.4296   173.8065     6.4091   -29.0578  -999.2500  -999.2500
  382.0000     6.4701   173.8102     6.3333   -28.9085  -999.2500  -999.2500
  382.5000     6.5685   174.5677     6.1743   -28.9093  -999.2500  -999.2500
  383.0000     6.6236   177.8940     6.0314   -28.7603  -999.2500  -999.2500
  383.5000     6.5138   182.8577     5.9273   -28.7609  -999.2500  -999.2500
  384.0000     6.3653   186.8173     5.7287   -28.6117  -999.2500  -999.2500
  384.5000     6.2603   190.0389     5.6052   -28.5230  -999.2500  -999.2500
  385.0000     6.1376   192.6584     5.4817   -28.4632  -999.2500  -999.2500
  385.5000     5.9581   194.2231     5.3521   -28.3142  -999.2500  -999.2500
  386.0000     5.8159   195.6777     5.2347   -28.2389  -999.2500  -999.2500
  386.5000     5.7464   196.4349     5.1863   -28.1656  -999.2500  -999.2500
  387.0000     5.7524   196.1019     5.1245   -28.0166  -999.2500  -999.2500
  387.5000     5.7776   195.6263     5.1239   -28.0797  -999.2500  -999.2500
  388.0000     5.8514   194.1874     5.2052   -28.3258  -999.2500  -999.2500
  388.5000     5.9354   192.4159     5.3475   -28.7685  -999.2500  -999.2500
  389.0000     6.1370   190.4292     5.4765   -28.9680  -999.2500  -999.2500
  389.5000     6.4559   186.7507     5.7215   -29.2197  -999.2500  -999.2500
  390.0000     6.3228   181.9528     5.9184   -29.3103  -999.2500  -999.2500
  390.5000     6.1518   182.1576     6.0204   -29.3711  -999.2500  -999.2500
  391.0000     6.1744   184.8871     5.8693   -29.2219  -999.2500  -999.2500
  391.5000     6.1990   186.6826     5.8282   -29.2226  -999.2500  -999.2500
  392.0000     6.2268   185.9337     5.7177   -29.0734  -999.2500  -999.2500
  392.5000     6.2545   184.8456     5.7169   -28.9244  -999.2500  -999.2500
  393.0000     6.2727   184.3699     5.7162   -28.8621  -999.2500  -999.2500
  393.5000     6.2867   183.6860     5.7155   -28.7758  -999.2500  -999.2500
  394.0000     6.3017   182.9367     5.7146   -28.6268  -999.2500  -999.2500
  394.5000     6.2865   182.1875     5.7140   -28.6274  -999.2500  -999.2500
  395.0000     6.2622   181.4382     5.7883   -28.6282  -999.2500  -999.2500
  395.5000     6.2374   180.4857     5.7875   -28.7789  -999.2500  -999.2500
  396.0000     6.2863   179.9398     5.8620   -28.9655  -999.2500  -999.2500
  396.5000     6.4836   178.7814     5.9361   -29.0803  -999.2500  -999.2500
  397.0000     6.3713   178.3057     5.9747   -29.3079  -999.2500  -999.2500
  397.5000     6.3162   177.6920     6.0849   -29.5315  -999.2500  -999.2500
