~VERSION INFORMATION
 VERS.                2.0:   CWLS LOG ASCII STANDARD - VERSION 2.0
 WRAP.                 NO:   ONE LINE PER DEPTH STEP
~WELL INFORMATION
#MNEM.UNIT      DATA TYPE    INFORMATION
#----------   ------------   ------------------------------
 STRT.F         1400.0000:   START DEPTH
 STOP.F         3422.0000:   STOP DEPTH
 STEP.F            0.5000:   STEP LENGTH
 NULL.          -999.2500:   NO VALUE
 COMP. LAWRENCE/ALLISON INC:   COMPANY
 WELL.   NPR 3 #36-STX-23:   WELL
 FLD .             TEAPOT:   FIELD
 LOC .      S23 T38N R78W:   LOCATION
 CNTY.            NATRONA:   COUNTY
 STAT.            WYOMING:   STATE
 CTRY. UNITED STATES OF AMERICA:   COUNTRY
 SRVC.            Unknown:   SERVICE COMPANY
 DATE.        04-JAN-1985:   LOGDATE
 API .       490251137700:   API NUMBER
~CURVE INFORMATION
#MNEM.UNIT       API CODE    CURVE DESCRIPTION
#----------   ------------   ------------------------------
 DEPT.F                  :   
 ROP .MIN/FT 91 810 01 00:   RAT OF DRILLING PENETRATION
 TGAS.UNITS  91 830 01 00:   TOTAL GAS UNIT
~PARAMETER INFORMATION
#MNEM.UNIT          VALUE    DESCRIPTION
#----------   ------------   ------------------------------
 DATE.           1-4-1985:   RUN DATE
 RUN .                  1:   RUN NUMBER
 DD  .F              3427:   DEPTH DRILLER
 TLI .F              1400:   TOP LOG INTERVAL
 BSD .F              3427:   BIT SIZE AT DEPTH
 WITN. RAY ANDERSON/JACK HARBISON:   WITNESSED BY
 CLNT.            A2DTECH:   CLIENT CODE
 ORIG.           5" PRINT:   ORIGIN OF DATA
 UWI .       490251137700:   UNIQUE WELL ID
 DICO. A2D Technologies, Inc.:   DIGITIZING COMPANY
~OTHER INFORMATION
~A  DEPT       ROP       TGAS   
# ...
 2615.0000     0.5254     0.0000
 2615.5000     0.5263     0.0000
 2616.0000     0.5273     0.0000
 2616.5000     0.5282     0.0000
 2617.0000     0.5292     0.0000
 2617.5000     0.5301     0.0000
 2618.0000     0.5311     0.0000
 2618.5000     0.5320     0.0000
 2619.0000     0.5330     0.0000
 2619.5000     0.5339     0.0000
 2620.0000     0.5349     0.0000
 2620.5000     0.5358     0.0000
 2621.0000     0.5368     0.0000
 2621.5000     0.5377     0.0000
 2622.0000     0.5387     0.0000
 2622.5000     0.5396     0.0000
 2623.0000     0.5406     0.0000
 2623.5000     0.5415     0.0000
 2624.0000     0.5419     0.0000
 2624.5000     0.5413     0.0000
 2625.0000     0.5407     0.0000
 2625.5000     0.5401     0.0000
 2626.0000     0.5395     0.0000
 2626.5000     0.5389     0.0000
 2627.0000     0.5383     0.0000
 2627.5000     0.5377     0.0000
 2628.0000     0.5371     0.0000
 2628.5000     0.5365     0.0000
 2629.0000     0.5359     0.0000
 2629.5000     0.5353     0.0000
 2630.0000     0.5347     0.0000
 2630.5000     0.5340     0.0000
 2631.0000     0.5334     0.0000
 2631.5000     0.5328     0.0000
 2632.0000     0.5322     0.0000
 2632.5000     0.5316     0.0000
 2633.0000     0.5310     0.0000
 2633.5000     0.5304     0.0000
 2634.0000     0.5298     0.0000
 2634.5000     0.5292     0.0000
 2635.0000     0.5286     0.0000
 2635.5000     0.5280     0.0000
 2636.0000     0.5274     0.0000
 2636.5000     0.5268     0.0000
 2637.0000     0.5261     0.0000
 2637.5000     0.5255     0.0000
 2638.0000     0.5249     0.0000
 2638.5000     0.5243     0.0000
 2639.0000     0.5237     0.0000
 2639.5000     0.5231     0.0000
 2640.0000     0.5225     0.0000
 2640.5000     0.5219     0.0000
 2641.0000     0.5213     0.0000
 2641.5000     0.5207     0.0000
 2642.0000     0.5047     0.0000
 2642.5000     0.4928     0.0000
 2643.0000     0.4933     0.0000
 2643.5000     0.4938     0.0000
 2644.0000     0.4941     0.0000
 2644.5000     0.4943     0.0000
 2645.0000     0.4945     0.0000
 2645.5000     0.4947     0.0000
 2646.0000     0.4949     0.0000
 2646.5000     0.4950     0.0000
 2647.0000     0.4952     0.0000
 2647.5000     0.4954     0.0000
 2648.0000     0.4956     0.0000
 2648.5000     0.4958     0.0000
 2649.0000     0.4959     0.0000
 2649.5000     0.4961     0.0000
 2650.0000     0.4963     0.0000
 2650.5000     0.4965     0.0000
 2651.0000     0.4967     0.0000
 2651.5000     0.4969     0.0000
 2652.0000     0.4970     0.0000
 2652.5000     0.4972     0.0000
 2653.0000     0.4974     0.0000
 2653.5000     0.4976     0.0000
 2654.0000     0.4978     0.0000
 2654.5000     0.4979     0.0000
 2655.0000     0.4981     0.0000
 2655.5000     0.4983     0.0000
 2656.0000     0.4985     0.0000
 2656.5000     0.4987     0.0000
 2657.0000     0.4989     0.0000
 2657.5000     0.4990     0.0000
 2658.0000     0.4992     0.0000
 2658.5000     0.4994     0.0000
 2659.0000     0.4996     0.0000
 2659.5000     0.4998     0.0000
 2660.0000     0.5000     0.0000
 2660.5000     0.5007     0.0000
 2661.0000     0.5013     0.0000
 2661.5000     0.5020     0.0000
 2662.0000     0.5026     0.0000
 2662.5000     0.5032     0.0000
 2663.0000     0.5039     0.0000
 2663.5000     0.5045     0.0000
 2664.0000     0.5052     0.0000
 2664.5000     0.5058     0.0000
 2665.0000     0.5065     0.0000
 2665.5000     0.5071     0.0000
 2666.0000     0.5077     0.0000
 2666.5000     0.5084     0.0000
 2667.0000     0.5090     0.0000
 2667.5000     0.5097     0.0000
 2668.0000     0.5103     0.0000
 2668.5000     0.5110     0.0000
 2669.0000     0.5116     0.0000
 2669.5000     0.5122     0.0000
 2670.0000     0.5129     0.0000
 2670.5000     0.5135     0.0000
 2671.0000     0.5142     0.0000
 2671.5000     0.5148     0.0000
 2672.0000     0.5155     0.0000
 2672.5000     0.5161     0.0000
 2673.0000     0.5168     0.0000
 2673.5000     0.5174     0.0000
 2674.0000     0.5180     0.0000
 2674.5000     0.5187     0.0000
 2675.0000     0.5193     0.0000
 2675.5000     0.5200     0.0000
 2676.0000     0.5206     0.0000
 2676.5000     0.5213     0.0000
 2677.0000     0.5219     0.0000
 2677.5000     0.5225     0.0000
 2678.0000     0.5232     0.0000
 2678.5000     0.5238     0.0000
 2679.0000     0.5245     0.0000
 2679.5000     0.5251     0.0000
 2680.0000     0.5258     0.0000
 2680.5000     0.5266     0.0000
 2681.0000     0.5275     0.0000
 2681.5000     0.5283     0.0000
 2682.0000     0.5291     0.0000
 2682.5000     0.5299     0.0000
 2683.0000     0.5307     0.0000
 2683.5000     0.5315     0.0000
 2684.0000     0.5324     0.0000
 2684.5000     0.5332     0.0000
 2685.0000     0.5340     0.0000
 2685.5000     0.5348     0.0000
 2686.0000     0.5356     0.0000
 2686.5000     0.5364     0.0000
 2687.0000     0.5372     0.0000
 2687.5000     0.5381     0.0000
 2688.0000     0.5389     0.0000
 2688.5000     0.5397     0.0000
 2689.0000     0.5405     0.0000
 2689.5000     0.5414     0.0000
 2690.0000     0.5955     0.0000
 2690.5000     0.6513     0.0000
 2691.0000     0.7071     0.0000
 2691.5000     0.7735     0.0000
 2692.0000     0.7745     0.0000
 2692.5000     0.7757     0.0000
 2693.0000     0.7770     0.0000
 2693.5000     0.7783     0.0000
 2694.0000     0.7795     0.0000
 2694.5000     0.7808     0.0000
 2695.0000     0.7820     0.0000
 2695.5000     0.7833     0.0000
 2696.0000     0.7846     0.0000
 2696.5000     0.7858     0.0000
 2697.0000     0.7857     0.0000
 2697.5000     0.7846     0.0000
 2698.0000     0.7835     0.0000
 2698.5000     0.7823     0.0000
 2699.0000     0.7812     0.0000
 2699.5000     0.7801     0.0000
 2700.0000     0.7693     0.0000
 2700.5000     0.7714     0.0000
 2701.0000     0.7737     0.0000
 2701.5000     0.7760     0.0000
 2702.0000     0.7783     0.0000
 2702.5000     0.7575     7.6528
 2703.0000     0.6724     9.5859
 2703.5000     0.5874     1.7029
 2704.0000     0.5115     1.6808
 2704.5000     0.5118     1.6584
 2705.0000     0.5120     1.6360
 2705.5000     0.5123     1.6136
 2706.0000     0.5125     1.5912
 2706.5000     0.5127     1.5688
 2707.0000     0.5130     1.5464
 2707.5000     0.5132     1.5240
 2708.0000     0.5135     1.5016
 2708.5000     0.5137     1.4792
 2709.0000     0.5139     1.4568
 2709.5000     0.5142     1.4344
 2710.0000     0.5144     1.4119
 2710.5000     0.5147     1.3895
 2711.0000     0.5149     1.3671
 2711.5000     0.5153     1.3447
 2712.0000     0.5178     1.3223
 2712.5000     0.5204     1.2999
 2713.0000     0.5229     1.2775
 2713.5000     0.5255     1.2551
 2714.0000     0.5280     1.2327
 2714.5000     0.5305     1.2103
 2715.0000     0.5331     1.1879
 2715.5000     0.5356     1.1655
 2716.0000     0.5382     1.1431
 2716.5000     0.5407     1.1207
 2717.0000     0.5432     1.0983
 2717.5000     0.5458     1.0759
 2718.0000     0.5373     1.0534
 2718.5000     0.5296     1.0310
 2719.0000     0.5220     1.0086
 2719.5000     0.5143     0.9862
 2720.0000     0.5100     0.9638
 2720.5000     0.5113     0.9414
 2721.0000     0.5126     0.9190
 2721.5000     0.5139     0.8966
 2722.0000     0.5151     0.8742
 2722.5000     0.5164     0.8518
 2723.0000     0.5177     0.8294
 2723.5000     0.5190     0.8070
 2724.0000     0.5203     0.7868
 2724.5000     0.5214     1.0140
 2725.0000     0.5217     1.2207
 2725.5000     0.5122     1.4273
 2726.0000     0.5133     1.6340
 2726.5000     0.5143     1.8407
 2727.0000     0.5152     2.0473
 2727.5000     0.5162     2.2540
 2728.0000     0.5171     2.4606
 2728.5000     0.5180     2.6673
 2729.0000     0.5190     2.8739
 2729.5000     0.5199     3.0806
 2730.0000     0.5209     3.2872
 2730.5000     0.5218     4.4423
 2731.0000     0.5228     7.1683
 2731.5000     0.5237    10.2177
 2732.0000     0.5247    16.0756
 2732.5000     0.5252    20.9531
 2733.0000     0.5105    27.7914
 2733.5000     0.4969    34.6296
 2734.0000     0.5009    42.4483
 2734.5000     0.5049    51.2474
 2735.0000     0.5088    57.1053
 2735.5000     0.5127    58.0612
 2736.0000     0.5174    66.8603
