~VERSION INFORMATION
 VERS.                2.0:   CWLS LOG ASCII STANDARD - VERSION 2.0
 WRAP.                 NO:   ONE LINE PER DEPTH STEP
~WELL INFORMATION
#MNEM.UNIT      DATA TYPE    INFORMATION
#----------   ------------   ------------------------------
 STRT.F          217.0000:   START DEPTH
 STOP.F         3170.0000:   STOP DEPTH
 STEP.F            0.5000:   STEP LENGTH
 NULL.          -999.2500:   NO VALUE
 COMP. FENIX & SCISSON INC:   COMPANY
 WELL.    51 TX 33 #51-33:   WELL
 FLD .             TEAPOT:   FIELD
 LOC .      S33 T39N R78W:   LOCATION
 CNTY.            NATRONA:   COUNTY
 STAT.            WYOMING:   STATE
 CTRY. UNITED STATES OF AMERICA:   COUNTRY
 SRVC.            Unknown:   SERVICE COMPANY
 DATE.        02-APR-1978:   LOGDATE
 API .       490251068600:   API NUMBER
~CURVE INFORMATION
#MNEM.UNIT       API CODE    CURVE DESCRIPTION
#----------   ------------   ------------------------------
 DEPT.F                  :   
 TGAS.UNITS  91 830 01 00:   TOTAL GAS FROM HOTWIRE
 ROP .MIN/FT 91 810 01 00:   RATE OF DRILLING PENETRATION
~PARAMETER INFORMATION
#MNEM.UNIT          VALUE    DESCRIPTION
#----------   ------------   ------------------------------
 DATE.         2-APR-1978:   RUN DATE
 RUN .                  1:   RUN NUMBER
 BLI .F              3150:   BOTTOM LOG INTERVAL
 TLI .F               250:   TOP LOG INTERVAL
 DFT .       CHEMICAL GEL:   DRILLING FLUID TYPE
 ENGI.            R. CABS:   RECORDING ENGINEER
 CLNT.            A2DTECH:   CLIENT CODE
 ORIG.           5" PRINT:   ORIGIN OF DATA
 UWI .       490251068600:   UNIQUE WELL ID
 DICO. A2D Technologies, Inc.:   DIGITIZING COMPANY
~OTHER INFORMATION
~A   DEPT       TGAS      ROP   
# ...
 2768.5000     2.1601     5.8721
 2769.0000     2.0784     5.8481
 2769.5000     1.9957     5.8479
 2770.0000     1.9884     8.9947
 2770.5000     1.8302     8.9943
 2771.0000     1.7484     8.9939
 2771.5000     1.6657     8.9936
 2772.0000     1.6699     9.7012
 2772.5000     1.6741     9.7009
 2773.0000     1.6783     9.7005
 2773.5000     1.6826     9.7001
 2774.0000     1.6878     9.4991
 2774.5000     1.6920     9.1686
 2775.0000     1.6962     9.1682
 2775.5000     1.7004     9.1678
 2776.0000     1.6166     9.1675
 2776.5000     1.5348     9.1671
 2777.0000     1.3612     9.1667
 2777.5000     1.0226    14.6981
 2778.0000     0.6783    15.5031
 2778.5000     0.6826    15.5005
 2779.0000     0.6870    15.4977
 2779.5000     0.6913     7.6863
 2780.0000     0.6957     7.6711
 2780.5000     0.7000     7.6708
 2781.0000     0.7043     7.6705
 2781.5000     0.7087     7.6702
 2782.0000     0.7130     8.9167
 2782.5000     0.7174     9.0333
 2783.0000     0.7217     9.0333
 2783.5000     0.7261     8.9667
 2784.0000     0.7305    10.9166
 2784.5000     1.0826    11.4093
 2785.0000     1.1747    11.3910
 2785.5000     1.2659    11.3726
 2786.0000     1.2701    11.3542
 2786.5000     1.3612    11.3358
 2787.0000     1.4524    11.3174
 2787.5000     1.4566    11.2991
 2788.0000     1.5526    11.9583
 2788.5000     1.6400    11.9505
 2789.0000     1.8181    11.9376
 2789.5000     1.8223    11.9246
 2790.0000     1.9135    12.9044
 2790.5000     2.0046    12.9074
 2791.0000     2.0088    12.9104
 2791.5000     2.1000    12.9134
 2792.0000     2.1913    12.9164
 2792.5000     2.1964    12.9194
 2793.0000     2.2006    11.4894
 2793.5000     2.1168    11.4894
 2794.0000     2.0341    11.4894
 2794.5000     2.0393    11.4894
 2795.0000     1.8696    11.5319
 2795.5000     1.8739    11.5107
 2796.0000     1.7911    11.1915
 2796.5000     1.7083    11.0213
 2797.0000     1.7136    10.8511
 2797.5000     1.8917    10.6809
 2798.0000     1.8959    10.4681
 2798.5000     2.0740    10.2553
 2799.0000     2.3444    10.0426
 2799.5000     2.6921    10.0000
 2800.0000     2.9572    10.0000
 2800.5000     3.2223    10.0000
 2801.0000     3.4874    10.0000
 2801.5000     3.8394    10.0000
 2802.0000     4.1045    10.0000
 2802.5000     4.3724     7.5072
 2803.0000     4.5478     7.5362
 2803.5000     4.5529     7.5387
 2804.0000     4.5571     5.8552
 2804.5000     4.3864     5.8312
 2805.0000     4.3047     5.8309
 2805.5000     4.2217     5.8307
 2806.0000     4.0522     5.5448
 2806.5000     3.8825     5.5207
 2807.0000     3.7128     5.5205
 2807.5000     3.6311     5.5202
 2808.0000     3.5473     9.3571
 2808.5000     3.3776     9.3568
 2809.0000     3.2079     9.3565
 2809.5000     3.0391     9.3561
 2810.0000     2.6841     9.2850
 2810.5000     2.1791     5.9474
 2811.0000     2.0083     5.9471
 2811.5000     2.0136     5.9468
 2812.0000     2.0178     6.6447
 2812.5000     2.1959     7.0444
 2813.0000     2.2001     7.0788
 2813.5000     2.3804     7.0883
 2814.0000     2.5704     5.9458
 2814.5000     2.8225     5.9693
 2815.0000     2.9136     5.9810
 2815.5000     2.9178     6.0204
 2816.0000     2.9220     4.5280
 2816.5000     3.0132     4.5397
 2817.0000     3.1044     4.5634
 2817.5000     3.2058     4.5394
 2818.0000     3.3747     6.4042
 2818.5000     3.4659     6.4039
 2819.0000     3.5570     6.4036
 2819.5000     3.6482     6.4032
 2820.0000     3.8263     8.1097
 2820.5000     4.0044     8.1094
 2821.0000     4.1826     8.1444
 2821.5000     4.3617     8.1441
 2822.0000     4.7137     9.4358
 2822.5000     4.8918     9.4885
 2823.0000     4.8091     9.5413
 2823.5000     4.7253     9.5940
 2824.0000     4.5565     5.4528
 2824.5000     4.3869     5.3931
 2825.0000     4.3042     5.3929
 2825.5000     4.2214     5.6426
 2826.0000     4.2267     5.9638
 2826.5000     4.2309     5.9636
 2827.0000     4.2806     5.9633
 2827.5000     4.3264     6.0030
 2828.0000     4.3307     6.2204
 2828.5000     4.5088     6.2794
 2829.0000     4.6000     6.2792
 2829.5000     4.6913     6.2788
 2830.0000     4.8704     6.3970
 2830.5000     5.0454     6.5153
 2831.0000     5.0494     6.5445
 2831.5000     5.2159     5.6517
 2832.0000     5.2199     5.6515
 2832.5000     5.3052     5.6354
 2833.0000     5.3904     5.6510
 2833.5000     5.3944     5.6627
 2834.0000     5.3984     5.2219
 2834.5000     5.4024     5.2217
 2835.0000     5.4886     5.2214
 2835.5000     5.5738     5.2211
 2836.0000     5.7404     4.0066
 2836.5000     5.7444     4.0065
 2837.0000     5.8296     4.0181
 2837.5000     5.9149     4.0060
 2838.0000     5.9188     4.0296
 2838.5000     5.8415     5.6483
 2839.0000     5.7642     5.6719
 2839.5000     5.6738     5.6717
 2840.0000     5.5292     7.1022
 2840.5000     5.2883     7.1020
 2841.0000     5.0493     7.1016
 2841.5000     4.9690     7.1458
 2842.0000     4.4525     5.9324
 2842.5000     4.1089     5.9321
 2843.0000     3.6784     5.9319
 2843.5000     3.3348     5.9317
 2844.0000     2.7224     8.0573
 2844.5000     2.3009     8.0570
 2845.0000     2.0442     8.0567
 2845.5000     1.7876     8.0563
 2846.0000     1.7038     8.0205
 2846.5000     2.0569     8.0202
 2847.0000     2.5829     8.0198
 2847.5000     2.7611     8.0194
 2848.0000     2.9392     6.4456
 2848.5000     3.1174     6.4601
 2849.0000     3.2957     6.4747
 2849.5000     3.3008     6.4743
 2850.0000     3.3920     7.6296
 2850.5000     3.3082     7.6145
 2851.0000     3.2266     7.5995
 2851.5000     3.2308     7.5695
 2852.0000     3.3220     7.5692
 2852.5000     3.7610     6.0874
 2853.0000     4.2870     6.1167
 2853.5000     4.9050     6.1165
 2854.0000     5.3301     5.8309
 2854.5000     5.7284     5.5455
 2855.0000     6.0575     5.5452
 2855.5000     6.1428     5.5450
 2856.0000     5.9029     8.6152
 2856.5000     5.3377     8.6148
 2857.0000     3.8176     8.6145
 2857.5000     1.9791     8.6141
 2858.0000     2.1572     4.9327
 2858.5000     2.8571     4.9483
 2859.0000     4.7744     4.9481
 2859.5000     5.6874     4.9240
 2860.0000     6.1791     4.9238
 2860.5000     6.3457     5.5308
 2861.0000     6.5123     5.5424
 2861.5000     6.5976     5.5303
 2862.0000     6.5778     6.1114
 2862.5000     6.1999     6.1111
 2863.0000     5.7161     6.1108
 2863.5000     6.6957     6.1105
 2864.0000     6.2931     8.2202
 2864.5000     2.7351     8.2552
 2865.0000     2.8263     8.2548
 2865.5000     3.3523     8.2545
 2866.0000     4.4000     8.2542
 2866.5000     5.5875     5.6350
 2867.0000     5.9114     5.6586
 2867.5000     5.9153     5.6583
 2868.0000     6.0006     6.1672
 2868.5000     6.0046     6.1668
 2869.0000     6.0898     6.1666
 2869.5000     6.0938     6.1662
 2870.0000     6.1791     6.1659
 2870.5000     6.1830     6.1656
 2871.0000     6.2688     6.1357
 2871.5000     6.4439     6.3724
 2872.0000     6.8463     6.4018
 2872.5000     7.5820     6.4015
 2873.0000     8.3989     6.4308
 2873.5000     8.6468     5.9896
 2874.0000     8.1630     5.6076
 2874.5000     7.6791     5.6073
 2875.0000     7.2766     5.6072
 2875.5000     6.9553     5.5236
 2876.0000     6.6309     4.6543
 2876.5000     6.3827     4.6421
 2877.0000     6.1552     4.6300
 2877.5000     6.5286     4.6059
 2878.0000     6.9399     5.5343
 2878.5000     7.1073     5.5816
 2879.0000     6.9493     5.5814
 2879.5000     6.5487     5.5812
 2880.0000     6.0656     6.8711
 2880.5000     5.5825     6.8708
 2881.0000     5.0994     6.8706
 2881.5000     4.4157     6.8702
 2882.0000     4.0729     7.6980
 2882.5000     4.0792     8.5611
 2883.0000     4.1712     8.5961
 2883.5000     4.5241     8.5958
 2884.0000     5.5354     7.1049
 2884.5000     5.7027     5.5788
 2885.0000     5.6260     5.5785
 2885.5000     5.6309     5.5783
 2886.0000     5.7312     4.1019
 2886.5000     6.0480     4.1016
 2887.0000     6.5405     4.0775
 2887.5000     8.0899     4.0774
 2888.0000     8.8263     4.4819
 2888.5000     8.8311     4.5055
 2889.0000     8.9171     4.5053
 2889.5000     9.2577     4.5050
