~VERSION INFORMATION
 VERS.                2.0:   CWLS LOG ASCII STANDARD - VERSION 2.0
 WRAP.                 NO:   ONE LINE PER DEPTH STEP
~WELL INFORMATION
#MNEM.UNIT      DATA TYPE    INFORMATION
#----------   ------------   ------------------------------
 STRT.F          550.0000:   START DEPTH
 STOP.F         2078.5000:   STOP DEPTH
 STEP.F            0.5000:   STEP LENGTH
 NULL.          -999.2500:   NO VALUE
 COMP. BROWN JOHN E&C INC:   COMPANY
 WELL. 58-61 STX-10 #58-10:   WELL
 FLD .             TEAPOT:   FIELD
 LOC .      S10 T38N R78W:   LOCATION
 CNTY.            NATRONA:   COUNTY
 STAT.            WYOMING:   STATE
 CTRY. UNITED STATES OF AMERICA:   COUNTRY
 SRVC.            Unknown:   SERVICE COMPANY
 DATE.        07-SEP-1991:   LOGDATE
 API .       490251108000:   API NUMBER
~CURVE INFORMATION
#MNEM.UNIT       API CODE    CURVE DESCRIPTION
#----------   ------------   ------------------------------
 DEPT.F                  :   
 ROP .MIN/FT 91 810 01 00:   RAT OF DRILLING PENETRATION
 TGAS.UNITS  91 830 01 00:   TOTAL GAS FROM HOTWIRE
~PARAMETER INFORMATION
#MNEM.UNIT          VALUE    DESCRIPTION
#----------   ------------   ------------------------------
 EKB .F              5216:   KELLING BUSHING
 EGL .F              5206:   GROUND LEVEL
 DATE.             9-7-91:   RUN DATE
 DD  .F              2079:   DEPTH DRILLER
 TCS .HRS            1815:   TIME CURCULATED STOPPED
 TLAB.HRS            1930:   TIME LOGGER AT BOTTOM
 ENGI.         HUSK/TOWER:   RECORDING ENGINEER
 WITN.             HENDRY:   WITNESSED BY
 CLNT.            A2DTECH:   CLIENT CODE
 ORIG.           5" PRINT:   ORIGIN OF DATA
 UWI .       490251108000:   UNIQUE WELL ID
 DICO. A2D Technologies, Inc.:   DIGITIZING COMPANY
~OTHER INFORMATION
~A   DEPT        ROP       TGAS 
# ...
  671.5000     0.3029    24.2741
  672.0000     0.3027    24.4620
  672.5000     0.3025    24.6490
  673.0000     0.3023    24.8363
  673.5000     0.3021    25.0235
  674.0000     0.3019    25.2108
  674.5000     0.3017    25.3980
  675.0000     0.3015    25.5852
  675.5000     0.3013    25.7725
  676.0000     0.3011    25.9597
  676.5000     0.3009    26.1469
  677.0000     0.3007    26.3306
  677.5000     0.3005    26.5038
  678.0000     0.3003    26.7738
  678.5000     0.3001    29.6675
  679.0000     0.2999    31.5596
  679.5000     0.2997    90.6904
  680.0000     0.2995   121.1392
  680.5000     0.2993   111.1647
  681.0000     0.2991    59.7907
  681.5000     0.2989    30.5330
  682.0000     0.2987    27.9102
  682.5000     0.2985    26.1058
  683.0000     0.2984    25.9902
  683.5000     0.2982    25.9172
  684.0000     0.2980    25.8373
  684.5000     0.2978    25.7548
  685.0000     0.2976    25.6722
  685.5000     0.2974    25.5895
  686.0000     0.2972    25.5077
  686.5000     0.2970    25.4541
  687.0000     0.2968    25.5298
  687.5000     0.2966    25.7620
  688.0000     0.2964    26.0009
  688.5000     0.2962    26.7515
  689.0000     0.2960    26.5868
  689.5000     0.2958    26.3278
  690.0000     0.2956    26.0809
  690.5000     0.2954    25.8332
  691.0000     0.2952    25.5856
  691.5000     0.2950    25.3412
  692.0000     0.2948    25.0998
  692.5000     0.2946    24.6801
  693.0000     0.2944    24.2492
  693.5000     0.2942    24.2930
  694.0000     0.2940    24.3611
  694.5000     0.2938    24.4275
  695.0000     0.2936    24.4928
  695.5000     0.2934    24.5582
  696.0000     0.2932    24.6235
  696.5000     0.2930    24.6889
  697.0000     0.2929    24.7540
  697.5000     0.2927    24.8150
  698.0000     0.2925    24.7848
  698.5000     0.2923    25.6552
  699.0000     0.2921    30.8817
  699.5000     0.2919    63.6123
  700.0000     0.2917   113.9475
  700.5000     0.2915    74.4217
  701.0000     0.2913    33.8997
  701.5000     0.2911    27.6354
  702.0000     0.2909    24.3537
  702.5000     0.2900    23.9112
  703.0000     0.2885    23.5993
  703.5000     0.2869    23.2813
  704.0000     0.2853    22.9661
  704.5000     0.2837    22.6490
  705.0000     0.2822    22.3266
  705.5000     0.2806    22.2636
  706.0000     0.2790    22.2158
  706.5000     0.2774    22.1667
  707.0000     0.2758    22.1171
  707.5000     0.2743    22.0675
  708.0000     0.2727    22.0179
  708.5000     0.2711    21.9683
  709.0000     0.2695    21.9187
  709.5000     0.2680    21.8691
  710.0000     0.2664    21.8195
  710.5000     0.2648    21.7700
  711.0000     0.2632    21.7204
  711.5000     0.2617    21.6708
  712.0000     0.2601    21.6212
  712.5000     0.2585    21.5716
  713.0000     0.2569    21.5220
  713.5000     0.2554    21.4724
  714.0000     0.2538    21.4228
  714.5000     0.2534    21.3733
  715.0000     0.2540    21.3237
  715.5000     0.2547    21.2741
  716.0000     0.2553    21.2245
  716.5000     0.2560    21.1740
  717.0000     0.2566    21.1184
  717.5000     0.2573    21.0725
  718.0000     0.2579    21.4879
  718.5000     0.2585    24.4121
  719.0000     0.2592    29.4151
  719.5000     0.2598    88.1473
  720.0000     0.2605    99.5871
  720.5000     0.2611    96.0997
  721.0000     0.2618    41.9747
  721.5000     0.2624    26.7620
  722.0000     0.2630    23.8553
  722.5000     0.2637    22.9461
  723.0000     0.2643    22.3018
  723.5000     0.2650    22.3126
  724.0000     0.2657    22.3110
  724.5000     0.2648    22.3114
  725.0000     0.2637    22.3114
  725.5000     0.2626    22.3114
  726.0000     0.2616    22.3114
  726.5000     0.2605    22.3114
  727.0000     0.2595    22.3114
  727.5000     0.2584    22.3114
  728.0000     0.2574    22.3114
  728.5000     0.2563    22.3114
  729.0000     0.2553    22.3114
  729.5000     0.2542    22.3114
  730.0000     0.2532    22.3114
  730.5000     0.2521    22.3114
  731.0000     0.2511    22.3114
  731.5000     0.2500    22.3114
  732.0000     0.2490    22.3114
  732.5000     0.2479    22.3114
  733.0000     0.2469    22.3125
  733.5000     0.2458    22.3149
  734.0000     0.2448    22.2917
  734.5000     0.2437    21.8373
  735.0000     0.2427    21.7657
  735.5000     0.2416    21.8859
  736.0000     0.2407    22.0032
  736.5000     0.2444    22.1147
  737.0000     0.2482    22.1911
  737.5000     0.2520    21.9177
  738.0000     0.2558    23.9190
  738.5000     0.2596    26.3209
  739.0000     0.2634    45.8397
  739.5000     0.2672    91.8371
  740.0000     0.2709    93.0406
  740.5000     0.2747    33.2581
  741.0000     0.2785    24.8031
  741.5000     0.2823    24.0378
  742.0000     0.2861    22.9895
  742.5000     0.2900    21.8772
  743.0000     0.2904    21.0332
  743.5000     0.2898    20.9704
  744.0000     0.2893    20.8932
  744.5000     0.2887    20.8158
  745.0000     0.2882    20.7381
  745.5000     0.2876    20.6604
  746.0000     0.2871    20.5826
  746.5000     0.2865    20.5049
  747.0000     0.2860    20.4272
  747.5000     0.2855    20.3495
  748.0000     0.2849    20.2718
  748.5000     0.2844    20.1941
  749.0000     0.2838    20.1164
  749.5000     0.2833    20.0387
  750.0000     0.2827    19.9609
  750.5000     0.2822    19.8825
  751.0000     0.2816    19.8031
  751.5000     0.2811    19.8906
  752.0000     0.2805    19.9952
  752.5000     0.2800    20.1002
  753.0000     0.2794    20.2048
  753.5000     0.2789    20.3093
  754.0000     0.2784    20.4138
  754.5000     0.2778    20.5184
  755.0000     0.2773    20.6229
  755.5000     0.2767    20.7274
  756.0000     0.2762    20.8320
  756.5000     0.2756    20.9341
  757.0000     0.2751    21.0235
  757.5000     0.2745    21.6818
  758.0000     0.2740    22.3270
  758.5000     0.2734    22.6491
  759.0000     0.2729    28.0029
  759.5000     0.2723    77.8227
  760.0000     0.2718    98.0117
  760.5000     0.2713    40.7325
  761.0000     0.2707    23.7181
  761.5000     0.2702    22.7022
  762.0000     0.2696    22.1218
  762.5000     0.2691    21.6237
  763.0000     0.2685    21.1151
  763.5000     0.2680    21.7406
  764.0000     0.2674    22.7741
  764.5000     0.2669    23.8300
  765.0000     0.2663    24.1165
  765.5000     0.2658    23.9489
  766.0000     0.2651    23.7763
  766.5000     0.2643    23.6029
  767.0000     0.2636    23.4303
  767.5000     0.2629    23.2577
  768.0000     0.2622    23.0850
  768.5000     0.2614    22.9124
  769.0000     0.2607    22.7397
  769.5000     0.2600    22.5671
  770.0000     0.2592    22.3945
  770.5000     0.2585    22.2218
  771.0000     0.2578    22.0492
  771.5000     0.2570    21.8766
  772.0000     0.2563    21.7040
  772.5000     0.2556    21.5313
  773.0000     0.2548    21.3587
  773.5000     0.2541    21.1861
  774.0000     0.2533    21.0134
  774.5000     0.2534    20.8404
  775.0000     0.2538    20.6681
  775.5000     0.2541    20.4967
  776.0000     0.2545    20.5798
  776.5000     0.2549    20.9738
  777.0000     0.2553    21.3631
  777.5000     0.2556    21.7620
  778.0000     0.2560    22.0915
  778.5000     0.2564    25.2443
  779.0000     0.2568    30.2731
  779.5000     0.2571    56.7089
  780.0000     0.2575   100.9419
  780.5000     0.2579    99.2478
  781.0000     0.2583    73.4368
  781.5000     0.2586    42.3032
  782.0000     0.2590    34.5722
  782.5000     0.2594    29.3675
  783.0000     0.2598    28.4299
  783.5000     0.2601    27.3700
  784.0000     0.2605    26.3019
  784.5000     0.2609    25.7132
  785.0000     0.2612    25.0586
  785.5000     0.2616    24.4077
  786.0000     0.2620    23.7544
  786.5000     0.2624    23.1010
  787.0000     0.2627    22.4476
  787.5000     0.2631    21.7943
  788.0000     0.2635    21.1403
  788.5000     0.2639    20.4826
  789.0000     0.2642    19.8289
  789.5000     0.2646    19.6647
  790.0000     0.2650    19.4972
  790.5000     0.2654    19.3261
  791.0000     0.2657    19.1542
  791.5000     0.2661    18.9823
  792.0000     0.2665    18.8105
  792.5000     0.2668    18.6387
