~VERSION INFORMATION
 VERS.                2.0:   CWLS LOG ASCII STANDARD - VERSION 2.0
 WRAP.                 NO:   ONE LINE PER DEPTH STEP
~WELL INFORMATION
#MNEM.UNIT      DATA TYPE    INFORMATION
#----------   ------------   ------------------------------
 STRT.F          648.0000:   START DEPTH
 STOP.F         2443.0000:   STOP DEPTH
 STEP.F            0.5000:   STEP LENGTH
 NULL.          -999.2500:   NO VALUE
 COMP.    FENIX & SCISSON:   COMPANY
 WELL.  NPR #3 SHX-11 #22:   WELL
 FLD .             TEAPOT:   FIELD
 LOC .      S11 T38N R78W:   LOCATION
 CNTY.            NATRONA:   COUNTY
 STAT.            WYOMING:   STATE
 CTRY. UNITED STATES OF AMERICA:   COUNTRY
 SRVC.           BIRDWELL:   SERVICE COMPANY
 DATE.        23-APR-1978:   LOGDATE
 API .       490251061300:   API NUMBER
~CURVE INFORMATION
#MNEM.UNIT       API CODE    CURVE DESCRIPTION
#----------   ------------   ------------------------------
 DEPT.F                  :   
 CALD.IN     45 280 60 00:   CALIPER FROM DENSITY LOG
 CORR.G/C3   45 356 01 00:   DENSITY CORRECTION
 DPHI.DEC    45 890 12 00:   DENSITY POROSITY SANDSTONE
 GRD .GAPI   45 310 01 00:   GAMMA RAY FROM DENSITY LOG
 RHOB.G/C3   45 350 01 00:   BULK DENSITY
~PARAMETER INFORMATION
#MNEM.UNIT          VALUE    DESCRIPTION
#----------   ------------   ------------------------------
 PD  .                 GL:   PERMANENT DATUM
 EPD .F              5166:   ELEVATION PERMANENT DATUM
 LMF .                 KB:   LOG MEASURED FROM
 DMF .                 KB:   DRILLING MEASURED FROM
 EKB .F              5176:   KELLING BUSHING
 EGL .F              5166:   GROUND LEVEL
 DATE.        23-APR-1978:   RUN DATE
 RUN .                  1:   RUN NUMBER
 DD  .F              2450:   DEPTH DRILLER
 DL  .F              2450:   DEPTH LOGGER
 BLI .F              2443:   BOTTOM LOG INTERVAL
 TLI .F               670:   TOP LOG INTERVAL
 CS  .IN            9.625:   CASING SIZE
 CBD .F               660:   CASING BOTTOM DRILLER
 CBL .F               670:   CASING BOTTOM LOGGER
 BS  .IN             8.75:   BIT SIZE
 BSD .F              2450:   BIT SIZE AT DEPTH
 DFT .               MIST:   DRILLING FLUID TYPE
 LUN .               2958:   LOGGING UNIT NUMBER
 LUL .             CASPER:   LOGGING UNIT LOCATION
 ENGI.             MILLER:   RECORDING ENGINEER
 WITN.          MC GINLEY:   WITNESSED BY
 CLNT.            A2DTECH:   CLIENT CODE
 ORIG.           5" PRINT:   ORIGIN OF DATA
 UWI .       490251061300:   UNIQUE WELL ID
 DICO. A2D Technologies, Inc.:   DIGITIZING COMPANY
~OTHER INFORMATION
~A   DEPT     CALD       CORR       DPHI        GRD       RHOB   
# ...
 1807.0000     9.1483     0.0426     0.0365   126.4155     2.5069
 1807.5000     9.1481     0.0455     0.0612   122.9601     2.4949
 1808.0000     9.1179     0.0605     0.0720   121.6037     2.4821
 1808.5000     9.0877     0.0846     0.0834   121.5966     2.4453
 1809.0000     9.0875     0.1568     0.0672   122.7872     2.4099
 1809.5000     9.0723     0.1657     0.0504   123.6797     2.3987
 1810.0000     9.4331     0.1325     0.0281   124.1241     2.4204
 1810.5000     9.5683     0.0586     0.0224   118.1498     2.4627
 1811.0000     9.3189     0.0586     0.0111   120.6915     2.5121
 1811.5000    10.2447     0.0570     0.0062   121.8853     2.4812
 1812.0000     9.0114     0.0223    -0.0011   122.4794     2.5519
 1812.5000     9.3872     0.0222     0.0038   122.4738     2.5466
 1813.0000     9.0713     0.0237     0.0041   121.5672     2.5428
 1813.5000     9.1163     0.0251     0.0008   119.4627     2.5481
 1814.0000     9.1462     0.0280    -0.0010   117.0583     2.5458
 1814.5000     9.1611     0.0324    -0.0019   115.7811     2.5450
 1815.0000     9.1910     0.0339    -0.0049   114.9481     2.5525
 1815.5000     9.1908     0.0338    -0.0070   118.3894     2.5517
 1816.0000     9.2057     0.0352    -0.0106   121.2323     2.5540
 1816.5000     9.2056     0.0352    -0.0166   121.5266     2.5705
 1817.0000     9.1904     0.0336    -0.0181   120.0203     2.5705
 1817.5000     9.1902     0.0275    -0.0166   113.5679     2.5765
 1818.0000     9.1901     0.0364    -0.0104   107.7153     2.5705
 1818.5000     9.1448     0.0409    -0.0058   109.8072     2.5592
 1819.0000     9.1296     0.0423    -0.0033   111.7506     2.5546
 1819.5000     9.1144     0.0347    -0.0021   113.3942     2.5501
 1820.0000     9.0992     0.0241    -0.0015   114.1382     2.5479
 1820.5000     9.0840     0.0210     0.0003   112.1822     2.5396
 1821.0000     9.0689     0.0209     0.0027   110.8272     2.5403
 1821.5000     9.0537     0.0208     0.0060   111.4335     2.5418
 1822.0000     9.0385     0.0178     0.0061   112.9136     2.5380
 1822.5000     9.0233     0.0192     0.0024   113.9575     2.5358
 1823.0000     9.0081     0.0206     0.0027   114.8514     2.5418
 1823.5000     9.0080     0.0190     0.0064   115.1457     2.5478
 1824.0000     9.0078     0.0145     0.0112   111.3905     2.5402
 1824.5000     9.0227     0.0084     0.0109   108.6863     2.5356
 1825.0000     9.0376     0.0098     0.0103   108.0810     2.5312
 1825.5000     9.0825     0.0172     0.0175   110.0230     2.5327
 1826.0000     9.1125     0.0202     0.0148   111.6680     2.5214
 1826.5000     9.1574     0.0201     0.0121   110.4615     2.5236
 1827.0000     9.2024     0.0215     0.0115   110.9358     2.5244
 1827.5000     9.2323     0.0245     0.0203   118.9947     2.5251
 1828.0000     9.2472     0.0259     0.0146   120.9381     2.5176
 1828.5000     9.2471     0.0273     0.0158   118.6836     2.5206
 1829.0000     9.2168     0.0257     0.0167   115.0784     2.5228
 1829.5000     9.2016     0.0242     0.0184   113.2737     2.5190
 1830.0000     9.2165     0.0226     0.0264   111.3191     2.5115
 1830.5000     9.2314     0.0240     0.0429   109.7903     2.4942
 1831.0000     9.2463     0.0239     0.0615   110.2570     2.4859
 1831.5000     9.2913     0.0224     0.0702   113.2499     2.4686
 1832.0000     9.3212     0.0253     0.0964   114.3059     2.4416
 1832.5000     9.3361     0.0282     0.1155   108.5896     2.3972
 1833.0000     9.3510     0.0357     0.1398   105.8853     2.3491
 1833.5000     9.3809     0.0592     0.1624   106.7793     2.3130
 1834.0000     9.5161     0.1455     0.1705   110.2278     2.2488
 1834.5000     9.6964     0.1650     0.1726   110.6661     2.1575
 1835.0000    10.3428     0.1453     0.1666   109.6110     2.1267
 1835.5000    11.4730     0.0368     0.1341   112.6025     2.2206
 1836.0000    11.7260     0.0232     0.0065   114.9957     2.3550
 1836.5000     9.4251     0.0201     0.0065   111.3905     2.5030
 1837.0000     9.2295     0.0185     0.0068   108.0866     2.5368
 1837.5000     9.1842     0.0184     0.0068   105.9820     2.5331
 1838.0000     9.1540     0.0184     0.0072   105.8265     2.5323
 1838.5000     9.1388     0.0183     0.0084   107.1688     2.5323
 1839.0000     9.1236     0.0182     0.0090   106.5635     2.5338
 1839.5000     9.1234     0.0181     0.0081   107.2295     2.5384
 1840.0000     9.1233     0.0196     0.0066   109.1010     2.5412
 1840.5000     9.1232     0.0195     0.0045   108.9441     2.5405
 1841.0000     9.1381     0.0179     0.0057   109.5382     2.5390
 1841.5000     9.1379     0.0178     0.0069   110.1323     2.5382
 1842.0000     9.1528     0.0178     0.0082   110.5750     2.5359
 1842.5000     9.1677     0.0177     0.0094   111.9188     2.5359
 1843.0000     9.1675     0.0176     0.0103   114.1857     2.5382
 1843.5000     9.1674     0.0175     0.0097   116.2540     2.5381
 1844.0000     9.1672     0.0175     0.0082   117.5977     2.5336
 1844.5000     9.1520     0.0174     0.0064   117.6163     2.5321
 1845.0000     9.1519     0.0173     0.0046   114.2867     2.5328
 1845.5000     9.1668     0.0172     0.0043   111.8823     2.5388
 1846.0000     9.1666     0.0172     0.0058   110.6773     2.5418
 1846.5000     9.1815     0.0171     0.0071   110.6836     2.5380
 1847.0000     9.1964     0.0170     0.0083   112.1640     2.5380
 1847.5000     9.2113     0.0169     0.0089   113.6576     2.5373
 1848.0000     9.2262     0.0169     0.0095   115.4511     2.5372
 1848.5000     9.2260     0.0168     0.0101   117.8429     2.5357
 1849.0000     9.2259     0.0167     0.0101   118.5869     2.5319
 1849.5000     9.2107     0.0181     0.0095   119.0325     2.5297
 1850.0000     9.1956     0.0181     0.0090   118.4258     2.5297
 1850.5000     9.1960     0.0180     0.0078   115.4203     2.5342
 1851.0000     9.1813     0.0164     0.0084   113.0159     2.5364
 1851.5000     9.1818     0.0148     0.0096   112.5619     2.5326
 1852.0000     9.1823     0.0132     0.0111   114.5398     2.5319
 1852.5000     9.1828     0.0147     0.0132   115.2465     2.5311
 1853.0000     9.1832     0.0161     0.0138   115.6907     2.5303
 1853.5000     9.1836     0.0205     0.0114   116.4347     2.5228
 1854.0000     9.1841     0.0250     0.0094   116.5790     2.5250
 1854.5000     9.1694     0.0280     0.0073   115.6725     2.5326
 1855.0000     9.1700     0.0279     0.0010   114.0177     2.5378
 1855.5000     9.1644     0.0172    -0.0036   112.9626     2.5430
 1856.0000     9.1558     0.0066     0.0091   114.4549     2.5580
 1856.5000     9.1563    -0.0010     0.0142   114.1494     2.5550
 1857.0000     9.1567     0.0035     0.0179   114.1438     2.5325
 1857.5000     9.1722     0.0064     0.0194   114.8864     2.5182
 1858.0000     9.2027     0.0094     0.0200   116.6799     2.5107
 1858.5000     9.2332     0.0075     0.0200   117.7238     2.5069
 1859.0000     9.2488     0.0047     0.0200   112.2970     2.5106
 1859.5000     9.2793     0.0106     0.0203   110.0650     2.5136
 1860.0000     9.2948     0.0181     0.0206   111.7086     2.5106
 1860.5000     9.2955     0.0225     0.0228   114.8044     2.5001
 1861.0000     9.2807     0.0194     0.0268   121.3415     2.5015
 1861.5000     9.2360     0.0209     0.0312   123.5805     2.5045
 1862.0000     9.1912     0.0270     0.0244   125.2198     2.4955
 1862.5000     9.1617     0.0207     0.0102   125.9595     2.5173
 1863.0000     9.1771     0.0041     0.0162   124.7477     2.5225
 1863.5000     9.1927     0.0025     0.0252   121.1396     2.5236
 1864.0000     9.2232     0.0084     0.0301   117.6815     2.5047
 1864.5000     9.2085     0.0144     0.0289   114.5231     2.4962
 1865.0000     9.1935     0.0172     0.0295   115.8601     2.5014
 1865.5000     9.1794     0.0228     0.0319   118.6988     2.4984
 1866.0000     9.1799     0.0272     0.0325   121.8373     2.4909
 1866.5000     9.1803     0.0289     0.0266   122.8771     2.4916
 1867.0000     9.1808     0.0301     0.0256   120.4657     2.4946
 1867.5000     9.1812     0.0194     0.0319   118.2069     2.4968
