~VERSION INFORMATION
 VERS.                2.0:   CWLS LOG ASCII STANDARD - VERSION 2.0
 WRAP.                 NO:   ONE LINE PER DEPTH STEP
~WELL INFORMATION
#MNEM.UNIT      DATA TYPE    INFORMATION
#----------   ------------   ------------------------------
 STRT.F           70.0000:   START DEPTH
 STOP.F         1236.0000:   STOP DEPTH
 STEP.F            0.5000:   STEP LENGTH
 NULL.          -999.2500:   NO VALUE
 COMP. U S NAVY/INTEX OIL CO:   COMPANY
 WELL. NAVAL PETROLEUM TE ##3 75S-11:   WELL
 FLD .             TEAPOT:   FIELD
 LOC .      S11 T38N R78W:   LOCATION
 CNTY.            NATRONA:   COUNTY
 STAT.            WYOMING:   STATE
 CTRY. UNITED STATES OF AMERICA:   COUNTRY
 SRVC.         Lane Wells:   SERVICE COMPANY
 DATE.        04-MAR-1960:   LOGDATE
 API .       490250633900:   API NUMBER
~CURVE INFORMATION
#MNEM.UNIT       API CODE    CURVE DESCRIPTION
#----------   ------------   ------------------------------
 DEPT.F                  :   
 GR  .GAPI   30 310 01 00:   GAMMA RAY
 SPR .MV     05 010 01 00:   SPONTANEOUS POTENTIAL FROM RES.
 ILD .OHMM   05 120 46 00:   INDUCTION LOG DEEP
 CILD.MMHO   05 110 46 00:   CONDUCTIVITY INDUCTION LOG DEEP
 ASN .OHMM   05 041 18 00:   AMPLIFIED SHORT NORMAL 18"
~PARAMETER INFORMATION
#MNEM.UNIT          VALUE    DESCRIPTION
#----------   ------------   ------------------------------
 PD  .                 GL:   PERMANENT DATUM
 EPD .F              5252:   ELEVATION PERMANENT DATUM
 LMF .                 KB:   LOG MEASURED FROM
 DAPD.F                 5:   FEET ABOVE PERMANENT DATUM
 DMF .                 KB:   DRILLING MEASURED FROM
 EKB .F              5257:   KELLING BUSHING
 EGL .F              5252:   GROUND LEVEL
 DATE.             3-4-60:   RUN DATE
 RUN .                  1:   RUN NUMBER
 DD  .F              1239:   DEPTH DRILLER
 DL  .F              1238:   DEPTH LOGGER
 BLI .F              1236:   BOTTOM LOG INTERVAL
 TLI .F                70:   TOP LOG INTERVAL
 CS  .IN            8.625:   CASING SIZE
 CBD .F                12:   CASING BOTTOM DRILLER
 BS  .IN            7.875:   BIT SIZE
 BSD .F              1239:   BIT SIZE AT DEPTH
 DFT .                GEL:   DRILLING FLUID TYPE
 DFD .                9.2:   DRILLING FLUID DENSITY
 DFV .                 34:   DRILLING FLUID VISCOSITY
 DFPH.                7.5:   DRILLING FLUID PH
 DFL .                8.5:   DRILLING FLUID LOSS
 MSS .                PIT:   MUD SAMPLE SOURCE
 RMS .OHMM              3:   RESISTIVITY MUD SAMPLE
 MST .F                52:   MUD SAMPLE TEMPERATURE
 RMF .OHMM            2.8:   RESISTIVITY MUD FILTRATE SAMPLE
 MFST.F                55:   MUD FILTRATE SAMPLE TEMPERATURE
 RMC .OHMM            3.3:   RESISTIVITY MUD CAKE
 MCST.F                55:   MUD CAKE SAMPLE TEMPERATURE
 MFSS.                MUD:   MUD FILTRATE SAMPLE SOURCE
 MCSS.              PRESS:   MUD CAKE SAMPLE SOURCE
 RMB .OHMM            2.2:   RESISTIVITY MUD AT BHT
 BHT .F                77:   BOTTOM HOLE TEMPERATURE
 TCS .HRS              .5:   TIME CURCULATED STOPPED
 MRT .F                77:   MAXIMUM RECORDED TEMPERATURE
 LUN .               4474:   LOGGING UNIT NUMBER
 LUL .             CASPER:   LOGGING UNIT LOCATION
 ENGI.      GRIGGS/NELSON:   RECORDING ENGINEER
 WITN.  JORGENSEN/HOLLAND:   WITNESSED BY
 CLNT.            A2DTECH:   CLIENT CODE
 ORIG.       2", 5" PRINT:   ORIGIN OF DATA
 UWI .       490250633900:   UNIQUE WELL ID
 DICO. A2D Technologies, Inc.:   DIGITIZING COMPANY
~OTHER INFORMATION
~A   DEPT       GR        SPR          ILD      CILD         ASN 
# ...
 1168.0000  -999.2500   -30.1267    10.3562   101.1811    12.0635
 1168.5000  -999.2500   -30.4396    10.4286   100.8783    12.0260
 1169.0000  -999.2500   -30.7528    10.5008   100.5757    12.0248
 1169.5000  -999.2500   -31.0661    10.5647   100.2727    12.0664
 1170.0000  -999.2500   -31.3664    10.6117    99.9732    12.1135
 1170.5000  -999.2500   -31.1473    10.6620    99.4926    12.1860
 1171.0000  -999.2500   -30.7912    10.7118    98.8438    12.2587
 1171.5000  -999.2500   -30.4329    10.7336    98.1950    12.2751
 1172.0000  -999.2500   -30.0750    10.6899    98.1545    12.2758
 1172.5000  -999.2500   -29.7173    10.6474    98.5494    12.2099
 1173.0000  -999.2500   -29.3590    10.6048    98.9443    12.0906
 1173.5000  -999.2500   -29.0008    10.5622    99.3411    11.9709
 1174.0000  -999.2500   -28.6792    10.5196    99.7379    11.8486
 1174.5000  -999.2500   -28.5914    10.4769   101.6081    11.8255
 1175.0000  -999.2500   -28.5039    10.4357   101.6187    11.8253
 1175.5000  -999.2500   -28.6096    10.3945   101.6187    11.8256
 1176.0000  -999.2500   -28.8873    10.3532   101.6187    11.8251
 1176.5000  -999.2500   -29.3098    10.3120   101.6169    11.7961
 1177.0000  -999.2500   -29.7346    10.2707   101.6210    11.7259
 1177.5000  -999.2500   -29.6101    10.2280   101.5908    11.6558
 1178.0000  -999.2500   -29.3364    10.1205   104.0610    11.6432
 1178.5000  -999.2500   -29.0627     9.9293   106.9292    11.5104
 1179.0000  -999.2500   -28.7842     9.7393   109.7974    11.2171
 1179.5000  -999.2500   -28.4979     9.5486   112.4101    10.9174
 1180.0000  -999.2500   -28.5970     9.3580   112.8262    10.8171
 1180.5000  -999.2500   -28.6916     9.1698   113.2020     9.9625
 1181.0000  -999.2500   -28.7835     9.0158   113.5771     9.8687
 1181.5000  -999.2500   -28.8506     8.9528   113.9576     9.7233
 1182.0000  -999.2500   -28.7127     8.8876   115.0495     9.6280
 1182.5000  -999.2500   -28.4066     8.7854   117.5472     9.5298
 1183.0000  -999.2500   -28.0398     8.6516   120.0450     9.4314
 1183.5000  -999.2500   -27.6723     8.5181   122.5427     9.3337
 1184.0000  -999.2500   -27.3001     8.3845   125.0405     9.2327
 1184.5000  -999.2500   -26.9273     8.2508   127.5382     9.0412
 1185.0000  -999.2500   -26.8975     8.1168   130.0360     8.9117
 1185.5000  -999.2500   -26.9235     7.9804   132.5337     8.7943
 1186.0000  -999.2500   -26.9502     7.9952   133.5323     8.7227
 1186.5000  -999.2500   -26.9762     8.0397   132.4584     8.7026
 1187.0000  -999.2500   -27.0020     8.0972   131.3617     8.7196
 1187.5000  -999.2500   -27.0279     8.1558   130.2698     8.7372
 1188.0000  -999.2500   -27.0552     8.2145   129.1799     8.7611
 1188.5000  -999.2500   -27.1020     8.2732   128.5971     8.7711
 1189.0000  -999.2500   -27.1524     8.3314   128.5912     8.6498
 1189.5000  -999.2500   -27.2019     8.3932   128.5914     8.5089
 1190.0000  -999.2500   -27.2209     8.2902   128.9376     8.3684
 1190.5000  -999.2500   -27.1722     8.1253   132.4364     8.2270
 1191.0000  -999.2500   -27.1245     7.9564   135.9297     8.0857
 1191.5000  -999.2500   -27.0774     7.7864   137.3251     7.9451
 1192.0000  -999.2500   -26.9665     7.7773   136.8228     7.8046
 1192.5000  -999.2500   -26.8093     7.8102   136.3163     7.6763
 1193.0000  -999.2500   -26.6519     7.8658   135.7933     7.6104
 1193.5000  -999.2500   -26.4952     7.8330   135.2751     7.5519
 1194.0000  -999.2500   -26.3317     7.7947   134.7361     7.4948
 1194.5000  -999.2500   -26.0121     7.7570   134.2165     7.4145
 1195.0000  -999.2500   -25.6887     7.7189   135.5781     7.3469
 1195.5000  -999.2500   -25.4605     7.6572   138.2972     7.2458
 1196.0000  -999.2500   -25.6129     7.4880   140.9975     7.1381
 1196.5000  -999.2500   -25.7567     7.3212   143.6977     6.9945
 1197.0000  -999.2500   -25.8989     7.1545   146.3980     6.8365
 1197.5000  -999.2500   -25.9464     6.9869   149.0983     6.6543
 1198.0000  -999.2500   -25.8759     6.8214   151.7986     6.4725
 1198.5000  -999.2500   -25.8064     6.7596   153.7770     6.2886
 1199.0000  -999.2500   -25.7360     7.0662   148.9146     6.3053
 1199.5000  -999.2500   -25.6673     7.4699   144.3674     6.5993
 1200.0000  -999.2500   -25.6553     7.8620   139.8202     6.8904
 1200.5000  -999.2500   -25.8152     8.2538   133.9567     7.3678
 1201.0000  -999.2500   -25.9796     8.6457   126.8263     7.8360
 1201.5000  -999.2500   -26.4792     9.0376   119.6959     8.1545
 1202.0000  -999.2500   -26.8324     9.4297   112.4101     8.4998
 1202.5000  -999.2500   -27.0401     9.8222   109.0471     8.7847
 1203.0000  -999.2500   -26.7241    10.2047   105.6093     8.9972
 1203.5000  -999.2500   -26.3906    10.4408   102.1714     9.1558
 1204.0000  -999.2500   -26.0289    10.6701    98.7335     9.2612
 1204.5000  -999.2500   -25.5150    10.8979    96.5228     9.3668
 1205.0000  -999.2500   -25.0021    10.8900    97.6340     9.3804
 1205.5000  -999.2500   -24.9786    10.8131    98.7452     9.3615
 1206.0000  -999.2500   -25.0821    10.7365    99.8565     9.3430
 1206.5000  -999.2500   -25.1889    10.6600   100.9677     9.3332
 1207.0000  -999.2500   -25.2944    10.5836   102.0789     9.3026
 1207.5000  -999.2500   -25.3998    10.5072   103.1902     9.2526
 1208.0000  -999.2500   -25.5059    10.4310   104.2277     9.1893
 1208.5000  -999.2500   -25.6131    10.3544   105.2464     9.1271
 1209.0000  -999.2500   -25.6188    10.2693   106.2652     9.0752
 1209.5000  -999.2500   -25.6182    10.1446   107.2840     9.0362
 1210.0000  -999.2500   -25.6180    10.0223   108.3012     9.0620
 1210.5000  -999.2500   -25.6180     9.9003   109.1809     9.0512
 1211.0000  -999.2500   -25.6174     9.7783   110.4031     8.9894
 1211.5000  -999.2500   -25.6141     9.6546   111.6195     8.9202
 1212.0000  -999.2500   -25.7522     9.4159   113.4942     8.8305
 1212.5000  -999.2500   -25.9058     8.9542   116.5651     8.6738
 1213.0000  -999.2500   -25.9337     8.4886   122.3438     8.4207
 1213.5000  -999.2500   -25.8046     7.9873   131.0983     8.0456
 1214.0000  -999.2500   -25.6757     7.4869   141.4119     7.6084
 1214.5000  -999.2500   -25.5465     6.9870   151.6176     7.0990
 1215.0000  -999.2500   -25.4175     6.5009   160.9712     6.5594
 1215.5000  -999.2500   -25.2885     5.9755   178.0789     6.1941
 1216.0000  -999.2500   -25.1595     5.4625   193.9863     5.8035
 1216.5000  -999.2500   -25.0305     4.9483   210.9924     5.3162
 1217.0000  -999.2500   -24.9017     4.4337   233.8379     4.8194
 1217.5000  -999.2500   -24.7718     3.9202   255.1909     4.2940
 1218.0000  -999.2500   -24.7195     3.5508   287.0953     3.7576
 1218.5000  -999.2500   -24.7190     3.1849   326.5050     3.2338
 1219.0000  -999.2500   -24.7499     2.8162   362.5125     2.7487
 1219.5000  -999.2500   -24.8995     2.4753   383.9596     2.4733
 1220.0000  -999.2500   -25.0453     2.3705   397.8798     2.3951
 1220.5000  -999.2500   -25.1896     2.5456   405.3423     2.5224
 1221.0000  -999.2500   -25.5924     2.7984   384.9424     2.7470
 1221.5000  -999.2500   -26.2147     3.0599   366.6528     3.1830
 1222.0000  -999.2500   -26.8372     3.3519   331.2562     3.7529
 1222.5000  -999.2500   -27.4601     3.7897   295.9786     4.3517
 1223.0000  -999.2500   -28.0831     4.2310   266.7309     4.9500
 1223.5000  -999.2500   -28.7068     4.6718   235.2867     5.5234
 1224.0000  -999.2500   -29.3240     5.1108   203.0539     5.9926
 1224.5000  -999.2500   -29.7632     5.5443   183.4187     6.2795
 1225.0000  -999.2500   -29.5611     6.0883   170.7250     6.5438
 1225.5000  -999.2500   -28.1670     6.6717   159.1727     6.8630
 1226.0000  -999.2500   -27.3711     7.2396   150.0890     7.1038
 1226.5000  -999.2500   -27.0505     7.5995   141.1871     7.2714
 1227.0000  -999.2500   -27.1457     7.6380   136.4409     7.4006
 1227.5000  -999.2500   -27.2635     7.6874   133.0650     7.5024
 1228.0000  -999.2500   -25.9359     7.6888   138.3036     7.6101
 1228.5000  -999.2500   -24.4300     7.6728   137.7473     7.7233
