~VERSION INFORMATION
 VERS.                2.0:   CWLS LOG ASCII STANDARD - VERSION 2.0
 WRAP.                 NO:   ONE LINE PER DEPTH STEP
~WELL INFORMATION
#MNEM.UNIT      DATA TYPE    INFORMATION
#----------   ------------   ------------------------------
 STRT.F         1005.5000:   START DEPTH
 STOP.F         2315.0000:   STOP DEPTH
 STEP.F            0.5000:   STEP LENGTH
 NULL.          -999.2500:   NO VALUE
 COMP. LAWRENCE/ALLISON INC:   COMPANY
 WELL.  32 SHX 15 #32 -15:   WELL
 FLD .             TEAPOT:   FIELD
 LOC .      S15 T38N R78W:   LOCATION
 CNTY.            NATRONA:   COUNTY
 STAT.            WYOMING:   STATE
 CTRY. UNITED STATES OF AMERICA:   COUNTRY
 SRVC.            Unknown:   SERVICE COMPANY
 DATE.        10-SEP-1988:   LOGDATE
 API .       490251124500:   API NUMBER
~CURVE INFORMATION
#MNEM.UNIT       API CODE    CURVE DESCRIPTION
#----------   ------------   ------------------------------
 DEPT.F                  :   
 ROP .MIN/FT 91 810 01 00:   RATE OF DRILLING PENETRATION
 TGAS.UNITS  91 830 01 00:   TOTAL GAS FROM HOTWIRE
~PARAMETER INFORMATION
#MNEM.UNIT          VALUE    DESCRIPTION
#----------   ------------   ------------------------------
 EKB .F              5259:   KELLING BUSHING
 EGL .F              5249:   GROUND LEVEL
 DATE.        10-SEP-1988:   RUN DATE
 RUN .                  1:   RUN NUMBER
 DD  .F              2316:   DEPTH DRILLER
 TLI .F              1005:   TOP LOG INTERVAL
 CS  .IN                7:   CASING SIZE
 CBD .F               991:   CASING BOTTOM DRILLER
 ENGI. R. HUSK/D. PETERSON:   RECORDING ENGINEER
 CLNT.            A2DTECH:   CLIENT CODE
 ORIG.           5" PRINT:   ORIGIN OF DATA
 UWI .       490251124500:   UNIQUE WELL ID
 DICO. A2D Technologies, Inc.:   DIGITIZING COMPANY
~OTHER INFORMATION
~A  DEPT         ROP       TGAS 
# ...
 1977.5000     0.6747     6.1864
 1978.0000     0.7066     6.1737
 1978.5000     0.7067     6.1609
 1979.0000     0.7175     6.1482
 1979.5000     0.7916     6.1354
 1980.0000     0.8869     6.1227
 1980.5000     1.0033     6.1099
 1981.0000     1.1726     6.0972
 1981.5000     1.2151     6.0845
 1982.0000     1.1624     6.0717
 1982.5000     1.1308     6.0590
 1983.0000     1.0781     6.0462
 1983.5000     1.0043     6.0335
 1984.0000     0.8988     6.0207
 1984.5000     0.8355     6.0080
 1985.0000     0.7194     5.9953
 1985.5000     0.6350     5.9825
 1986.0000     0.5822     5.9698
 1986.5000     0.5507     5.9570
 1987.0000     0.5509     5.9443
 1987.5000     0.5404     5.9316
 1988.0000     0.5406     5.9188
 1988.5000     0.5091     5.9061
 1989.0000     0.4775     5.8933
 1989.5000     0.4565     5.8806
 1990.0000     0.4144     5.8678
 1990.5000     0.4145     5.8551
 1991.0000     0.4147     5.8424
 1991.5000     0.4149     5.8296
 1992.0000     0.4573     5.8169
 1992.5000     0.4680     5.8041
 1993.0000     0.4471     5.7914
 1993.5000     0.3838     5.7786
 1994.0000     0.3628     5.7659
 1994.5000     0.4158     5.7532
 1995.0000     0.5534     5.7404
 1995.5000     0.7121     5.7277
 1996.0000     0.7228     5.7149
 1996.5000     0.5856     5.7022
 1997.0000     0.4906     5.6894
 1997.5000     0.4379     5.6767
 1998.0000     0.4064     5.6640
 1998.5000     0.3748     5.6512
 1999.0000     0.3644     5.6385
 1999.5000     0.3539     5.6257
 2000.0000     0.3647     5.6130
 2000.5000     0.3754     5.6003
 2001.0000     0.3967     5.5875
 2001.5000     0.4603     5.5748
 2002.0000     0.4505     5.5685
 2002.5000     0.4086     5.5660
 2003.0000     0.3772     5.5635
 2003.5000     0.3669     5.5611
 2004.0000     0.3355     5.5586
 2004.5000     0.3252     5.5561
 2005.0000     0.3361     5.5536
 2005.5000     0.3365     5.5511
 2006.0000     0.3368     5.5487
 2006.5000     0.3371     5.5462
 2007.0000     0.3375     5.5437
 2007.5000     0.3378     5.5412
 2008.0000     0.3275     5.5387
 2008.5000     0.3173     5.5363
 2009.0000     0.2964     5.5338
 2009.5000     0.2861     5.5313
 2010.0000     0.2759     5.5288
 2010.5000     0.2974     5.5263
 2011.0000     0.3294     5.5239
 2011.5000     0.3720     5.5214
 2012.0000     0.3935     5.5189
 2012.5000     0.4150     5.5164
 2013.0000     0.4153     5.5139
 2013.5000     0.4262     5.5115
 2014.0000     0.4265     5.5090
 2014.5000     0.4268     5.5065
 2015.0000     0.4377     5.5040
 2015.5000     0.4486     5.5015
 2016.0000     0.4595     5.4991
 2016.5000     0.4703     5.4966
 2017.0000     0.5447     5.4941
 2017.5000     0.5978     5.4916
 2018.0000     0.6403     5.4891
 2018.5000     0.5562     5.4867
 2019.0000     0.5142     5.4842
 2019.5000     0.4617     5.4817
 2020.0000     0.4196     5.4792
 2020.5000     0.3777     5.4767
 2021.0000     0.3781     5.4743
 2021.5000     0.3783     5.4718
 2022.0000     0.3787     5.4693
 2022.5000     0.3896     5.4668
 2023.0000     0.3899     5.4643
 2023.5000     0.3795     5.4619
 2024.0000     0.3694     5.4594
 2024.5000     0.3485     5.4569
 2025.0000     0.3489     5.4544
 2025.5000     0.3492     5.4519
 2026.0000     0.3707     5.4495
 2026.5000     0.3816     5.4470
 2027.0000     0.4030     5.4445
 2027.5000     0.4245     5.4420
 2028.0000     0.4354     5.4395
 2028.5000     0.4250     5.4370
 2029.0000     0.4147     5.4346
 2029.5000     0.4045     5.4321
 2030.0000     0.4049     5.4296
 2030.5000     0.4052     5.4271
 2031.0000     0.4161     5.4246
 2031.5000     0.4270     5.4222
 2032.0000     0.4273     5.4197
 2032.5000     0.4276     5.4172
 2033.0000     0.4279     5.4147
 2033.5000     0.4176     5.4122
 2034.0000     0.3969     5.4098
 2034.5000     0.3865     5.4073
 2035.0000     0.3447     5.4048
 2035.5000     0.3132     5.4023
 2036.0000     0.3029     5.3998
 2036.5000     0.3139     5.3974
 2037.0000     0.3565     5.3949
 2037.5000     0.3885     5.3924
 2038.0000     0.4205     5.3899
 2038.5000     0.4420     5.3874
 2039.0000     0.4634     5.3850
 2039.5000     0.4744     5.3825
 2040.0000     0.4324     5.3800
 2040.5000     0.3904     5.3775
 2041.0000     0.3589     5.3750
 2041.5000     0.3594     5.3726
 2042.0000     0.3808     5.3701
 2042.5000     0.4340     5.3676
 2043.0000     0.4872     5.3651
 2043.5000     0.5297     5.3626
 2044.0000     0.5301     5.3602
 2044.5000     0.5304     5.3577
 2045.0000     0.5200     5.3552
 2045.5000     0.4886     5.3527
 2046.0000     0.4467     5.3502
 2046.5000     0.4364     5.3478
 2047.0000     0.4262     5.3453
 2047.5000     0.4266     5.3428
 2048.0000     0.4374     5.3403
 2048.5000     0.4378     5.3378
 2049.0000     0.4381     5.3354
 2049.5000     0.4278     5.3329
 2050.0000     0.4387     5.3304
 2050.5000     0.4496     5.3279
 2051.0000     0.4817     5.3254
 2051.5000     0.5137     5.3229
 2052.0000     0.5246     5.3205
 2052.5000     0.5142     5.3180
 2053.0000     0.4934     5.3155
 2053.5000     0.4831     5.3130
 2054.0000     0.5258     5.3105
 2054.5000     0.6213     5.3081
 2055.0000     0.7379     5.3056
 2055.5000     0.7488     5.3031
 2056.0000     0.6645     5.3006
 2056.5000     0.5380     5.2981
 2057.0000     0.4749     5.2957
 2057.5000     0.4012     5.2932
 2058.0000     0.3275     5.2907
 2058.5000     0.3172     5.2882
 2059.0000     0.3282     5.2857
 2059.5000     0.3708     5.2833
 2060.0000     0.4028     5.2808
 2060.5000     0.4665     5.2783
 2061.0000     0.4880     5.2758
 2061.5000     0.4989     5.2733
 2062.0000     0.4992     5.2709
 2062.5000     0.4889     5.2684
 2063.0000     0.4575     5.2659
 2063.5000     0.4472     5.2634
 2064.0000     0.4052     5.2609
 2064.5000     0.3633     5.2585
 2065.0000     0.3319     5.2560
 2065.5000     0.3323     5.2535
 2066.0000     0.3538     5.2510
 2066.5000     0.3646     5.2485
 2067.0000     0.3861     5.2461
 2067.5000     0.4076     5.2436
 2068.0000     0.4184     5.2411
 2068.5000     0.3765     5.2386
 2069.0000     0.3344     5.2361
 2069.5000     0.3242     5.2337
 2070.0000     0.3351     5.2312
 2070.5000     0.3672     5.2287
 2071.0000     0.3780     5.2262
 2071.5000     0.4207     5.2237
 2072.0000     0.4527     5.2213
 2072.5000     0.4636     5.2188
 2073.0000     0.4850     5.2163
 2073.5000     0.5065     5.2138
 2074.0000     0.5491     5.2113
 2074.5000     0.6023     5.2089
 2075.0000     0.6554     5.2064
 2075.5000     0.6663     5.2039
 2076.0000     0.6138     5.2014
 2076.5000     0.5718     5.1989
 2077.0000     0.5299     5.1964
 2077.5000     0.4668     5.1940
 2078.0000     0.4564     5.1915
 2078.5000     0.4568     5.1890
 2079.0000     0.4888     5.1865
 2079.5000     0.5103     5.1840
 2080.0000     0.5423     5.1816
 2080.5000     0.5532     5.1791
 2081.0000     0.5747     5.1766
 2081.5000     0.5539     5.1741
 2082.0000     0.5436     5.1716
 2082.5000     0.5121     5.1692
 2083.0000     0.4702     5.1667
 2083.5000     0.4177     5.1642
 2084.0000     0.3757     5.1617
 2084.5000     0.3866     5.1592
 2085.0000     0.4187     5.1568
 2085.5000     0.4296     5.1543
 2086.0000     0.4616     5.1518
 2086.5000     0.4619     5.1493
 2087.0000     0.4622     5.1468
 2087.5000     0.4625     5.1444
 2088.0000     0.4311     5.1419
 2088.5000     0.4208     5.1394
 2089.0000     0.3895     5.1369
 2089.5000     0.3791     5.1344
 2090.0000     0.3689     5.1320
 2090.5000     0.3586     5.1295
 2091.0000     0.3696     5.1270
 2091.5000     0.3805     5.1245
 2092.0000     0.3808     5.1220
 2092.5000     0.4023     5.1196
 2093.0000     0.4237     5.1171
 2093.5000     0.4557     5.1146
 2094.0000     0.4667     5.1121
 2094.5000     0.4775     5.1096
 2095.0000     0.4778     5.1072
 2095.5000     0.4675     5.1047
 2096.0000     0.4362     5.1022
 2096.5000     0.4259     5.0997
 2097.0000     0.3945     5.0972
 2097.5000     0.3526     5.0948
 2098.0000     0.3422     5.0923
 2098.5000     0.3427     5.0898
