~VERSION INFORMATION
 VERS.                2.0:   CWLS LOG ASCII STANDARD - VERSION 2.0
 WRAP.                 NO:   ONE LINE PER DEPTH STEP
~WELL INFORMATION
#MNEM.UNIT      DATA TYPE    INFORMATION
#----------   ------------   ------------------------------
 STRT.F           36.0000:   START DEPTH
 STOP.F          686.0000:   STOP DEPTH
 STEP.F            0.5000:   STEP LENGTH
 NULL.          -999.2500:   NO VALUE
 COMP.    FENIX & SCISSON:   COMPANY
 WELL.        NPR #15-S-2:   WELL
 FLD .             TEAPOT:   FIELD
 LOC .       S2 T38N R78W:   LOCATION
 CNTY.            NATRONA:   COUNTY
 STAT.            WYOMING:   STATE
 CTRY. UNITED STATES OF AMERICA:   COUNTRY
 SRVC.       Schlumberger:   SERVICE COMPANY
 DATE.        16-MAR-1977:   LOGDATE
 API .       490251029900:   API NUMBER
~CURVE INFORMATION
#MNEM.UNIT       API CODE    CURVE DESCRIPTION
#----------   ------------   ------------------------------
 DEPT.F                  :   
 SPR .MV     07 010 01 00:   SPONTANEOUS POTENTIAL FROM RES.
 ILD .OHMM   07 120 46 00:   INDUCTION LOG DEEP
 ILM .OHMM   07 120 44 00:   INDUCTION LOG MEDIUM
 LL8 .OHMM   07 220 08 00:   LATEROLOG-8 RES.
 GRD .GAPI   45 310 01 00:   GAMMA RAY FROM DENSITY LOG
 CALD.IN     45 280 60 00:   CALIPER FROM DENSITY LOG
 CORR.G/C3   45 356 01 00:   DENSITY CORRECTION
 RHOB.G/C3   45 350 01 00:   BULK DENSITY
 DPHI.DEC    45 890 12 00:   DENSITY POROSITY SANDSTONE
~PARAMETER INFORMATION
#MNEM.UNIT          VALUE    DESCRIPTION
#----------   ------------   ------------------------------
 PD  .                 GL:   PERMANENT DATUM
 EPD .F              5129:   ELEVATION PERMANENT DATUM
 LMF .                 KB:   LOG MEASURED FROM
 DAPD.F                 4:   FEET ABOVE PERMANENT DATUM
 DMF .                 KB:   DRILLING MEASURED FROM
 EKB .F              5133:   KELLING BUSHING
 EGL .F              5129:   GROUND LEVEL
 DATE.        15-MAR-1977:   RUN DATE
 RUN .                  1:   RUN NUMBER
 DD  .F               680:   DEPTH DRILLER
 DL  .F               680:   DEPTH LOGGER
 BLI .F               683:   BOTTOM LOG INTERVAL
 TLI .F                48:   TOP LOG INTERVAL
 CS  .IN            8.625:   CASING SIZE
 CBD .F                40:   CASING BOTTOM DRILLER
 CBL .F                49:   CASING BOTTOM LOGGER
 BS  .IN            7.875:   BIT SIZE
 BSD .F               680:   BIT SIZE AT DEPTH
 DFT .            KCL MUD:   DRILLING FLUID TYPE
 DFD .                8.8:   DRILLING FLUID DENSITY
 DFV .                 33:   DRILLING FLUID VISCOSITY
 DFPH.                9.6:   DRILLING FLUID PH
 DFL .                9.0:   DRILLING FLUID LOSS
 MSS .                PIT:   MUD SAMPLE SOURCE
 RMS .OHMM           0.22:   RESISTIVITY MUD SAMPLE
 MST .F                50:   MUD SAMPLE TEMPERATURE
 RMF .OHMM           0.21:   RESISTIVITY MUD FILTRATE SAMPLE
 MFST.F                50:   MUD FILTRATE SAMPLE TEMPERATURE
 MFSS.               MEAS:   MUD FILTRATE SAMPLE SOURCE
 TCS .HRS            1800:   TIME CURCULATED STOPPED
 TLAB.HRS            2130:   TIME LOGGER AT BOTTOM
 LUN .               7711:   LOGGING UNIT NUMBER
 LUL .               CSPR:   LOGGING UNIT LOCATION
 ENGI.             TAYLER:   RECORDING ENGINEER
 CLNT.            A2DTECH:   CLIENT CODE
 ORIG.           5" PRINT:   ORIGIN OF DATA
 UWI .       490251029900:   UNIQUE WELL ID
 DICO. A2D Technologies, Inc.:   DIGITIZING COMPANY
~OTHER INFORMATION
~A   DEPT      SPR        ILD        ILM        LL8         GRD      CALD       CORR       RHOB       DPHI   
# ...
  328.0000   -67.5033     6.5264     6.5590     8.3091   107.1828     8.2957     0.0134     2.4572     0.1186
  328.5000   -67.6349     6.1364     6.0387     8.0317   109.1352     8.2826     0.0149     2.4446     0.1212
  329.0000   -67.9158     5.7697     5.6769     7.8177   110.1961     8.2844     0.0150     2.4349     0.1275
  329.5000   -68.3460     5.5005     5.3368     6.0067   111.1085     8.2862     0.0166     2.4124     0.1356
  330.0000   -69.0746     5.4660     5.3785     5.0873   111.4265     8.2880     0.0167     2.4260     0.1268
  330.5000   -68.5989     5.5093     5.7307     5.1270   112.4874     8.3046     0.0168     2.4494     0.1205
  331.0000   -67.9741     5.8323     6.5916     6.3221   116.3715     8.3063     0.0146     2.4736     0.1084
  331.5000   -67.3756     6.1721     7.1714     8.5930   118.1753     8.3081     0.0125     2.4804     0.1009
  332.0000   -67.2087     6.4695     7.7481     8.5405   118.1961     8.3099     0.0141     2.4797     0.1020
  332.5000   -67.0418     6.7477     8.0850     8.5496   117.4740     8.3116     0.0149     2.4791     0.1053
  333.0000   -66.8750     7.0379     8.2624     8.6795   116.7519     8.3134     0.0097     2.4761     0.1086
  333.5000   -66.8574     7.4944     8.3269     9.1950   115.4354     8.3003     0.0098     2.4732     0.1083
  334.0000   -66.6905     7.9255     8.3921     9.4456   115.0104     8.3021     0.0037     2.4710     0.1070
  334.5000   -66.6729     8.4396     8.4578     9.1318   116.5171     8.2890    -0.0028     2.4704     0.1085
  335.0000   -66.6552     8.8636     8.5236     9.1393   117.8752     8.2908     0.0012     2.4689     0.1087
  335.5000   -66.1899     9.2447     8.4716     9.4050   118.3418     8.2926     0.0042     2.4690     0.1084
  336.0000   -66.0230     9.5099     8.4803     9.9514   117.0253     8.2944     0.0066     2.4699     0.1084
  336.5000   -65.8561     9.5157     8.6062    10.0992   115.8574     8.2961     0.0036     2.4731     0.1071
  337.0000   -65.8385     9.3908     8.7950    10.0374   116.4725     8.2979     0.0060     2.4821     0.1032
  337.5000   -65.8209     9.2036     8.9879    10.0457   117.0877     8.2997     0.0075     2.4844     0.1008
  338.0000   -65.8030     9.1444     9.1213    10.0540   116.6627     8.2866     0.0114     2.4820     0.0995
  338.5000   -65.7851     9.0884     9.1926    10.2033   116.2377     8.2885     0.0130     2.4899     0.0968
  339.0000   -65.7636     9.0940     9.2002    10.2830   115.6642     8.2902     0.0086     2.4914     0.0964
  339.5000   -65.7460     9.0996     9.2721    10.2915   114.6449     8.2920     0.0094     2.4915     0.0952
  340.0000   -65.8821     9.1684     9.3445    10.3000   113.9227     8.2793     0.0140     2.4931     0.0940
  340.5000   -65.8600     9.2377     9.3523    10.3085   117.0639     8.2811     0.0149     2.4992     0.0909
  341.0000   -65.8424     9.3076     9.4253    10.3170   118.1248     8.2828     0.0165     2.4978     0.0934
  341.5000   -65.9785     9.3878     9.5653    10.3976   118.1456     8.2846     0.0211     2.4948     0.0942
  342.0000   -66.1101     9.5157     9.5732    10.4062   118.0178     8.2864     0.0196     2.5017     0.0902
  342.5000   -66.2417     9.5216     9.6480    10.4148   117.4443     8.2881     0.0099     2.5108     0.0812
  343.0000   -66.2197     9.5274     9.7234    10.4234   115.2363     8.2899     0.0131     2.5282     0.0752
  343.5000   -66.0528     9.5333     9.7314    10.4365   112.5825     8.2917     0.0146     2.5388     0.0700
  344.0000   -66.0352     9.5391     9.6720    10.7434   111.7117     8.2934     0.0155     2.5501     0.0633
  344.5000   -66.0176     9.5450     9.6800    10.8949   112.0297     8.2952     0.0141     2.5570     0.0567
  345.0000   -66.1493     9.4836     9.5541    10.9058   113.6850     8.2822     0.0096     2.5578     0.0545
  345.5000   -66.1313     9.3591     9.4298    10.9910   114.8945     8.2839     0.0015     2.5541     0.0521
  346.0000   -66.1134     9.1740     9.4377    10.9238   115.5097     8.2857     0.0015     2.5633     0.0515
  346.5000   -66.0920     9.1150     9.3082    10.5591   115.8311     8.2875     0.0159     2.5551     0.0556
  347.0000   -66.0744     9.0577     8.9302    10.2778   115.6981     8.2892     0.0025     2.4988     0.0886
  347.5000   -66.2104     9.0008     8.5160    10.2129   115.2784     8.2910     0.0063     2.4891     0.0964
  348.0000   -66.1884     8.8840     8.1626    10.2234   113.9619     8.2928     0.0139     2.4944     0.0925
  348.5000   -66.3244     8.7672     7.8011    10.2319   114.2798     8.2793     0.0141     2.4982     0.0909
  349.0000   -66.4517     8.5926     7.6997    10.1672   117.7182     8.2815     0.0164     2.4916     0.0954
  349.5000   -66.7326     8.3634     7.5469     9.8984   119.6706     8.2832     0.0195     2.4864     0.0990
  350.0000   -66.7603     7.9695     7.2944     9.3059   119.8658     8.2697     0.0136     2.4694     0.1110
  350.5000   -67.0096     7.5483     7.0997     8.7479   120.2382     8.2775     0.0083     2.4602     0.1136
  351.0000   -67.2793     7.0963     6.7674     7.7781   120.6169     8.2843     0.0062     2.4626     0.1142
  351.5000   -67.4162     6.6254     6.3175     7.3117   120.7834     8.2898     0.0077     2.4657     0.1181
  352.0000   -67.8476     6.1008     5.6959     7.1165   120.6528     8.2914     0.0101     2.4533     0.1259
  352.5000   -68.5733     5.5406     4.7241     6.4610   119.4820     8.2782     0.0147     2.4236     0.1301
  353.0000   -69.0088     4.9285     3.9182     5.7050   117.2712     8.2799     0.0162     2.4058     0.1401
  353.5000   -69.4360     4.1768     3.5082     5.1795   112.9800     8.2666     0.0088     2.3798     0.1592
  354.0000   -70.0167     3.6141     3.1193     4.4479   108.3918     8.2683     0.0096     2.3545     0.1766
  354.5000   -70.4480     3.2822     2.9119     3.9938   110.0442     8.2700     0.0142     2.3336     0.1925
  355.0000   -70.7342     3.0015     2.8534     3.0593   110.8051     8.2716     0.0200     2.3181     0.1981
  355.5000   -71.1656     2.8809     2.8167     2.8744   112.1603     8.2584     0.0241     2.3197     0.1987
  356.0000   -71.2984     2.8621     2.8385     3.9087   115.0014     8.2749     0.0199     2.3499     0.1841
  356.5000   -71.4313     2.8638     2.9006     4.4028   120.0714     8.2765     0.0113     2.3921     0.1554
  357.0000   -71.4108     3.0281     3.1119     4.6320   122.9125     8.2629     0.0107     2.3982     0.1535
  357.5000   -71.3944     3.3375     3.5792     3.9726   123.8220     8.2650     0.0155     2.3982     0.1529
  358.0000   -71.2287     3.7298     4.0037     3.6039   122.0569     8.2666     0.0244     2.4043     0.1420
  358.5000   -70.7645     4.4357     4.6048     4.4163   118.0630     8.2530     0.0102     2.4277     0.1222
  359.0000   -70.1511     5.2390     5.4457     6.9465   116.8608     8.2699     0.0095     2.4759     0.1083
  359.5000   -69.3884     5.8144     6.3955     8.2150   115.3493     8.2563     0.0111     2.4903     0.1050
  360.0000   -68.7750     6.1907     6.8139     7.9954   115.5575     8.2584     0.0065     2.4671     0.1096
  360.5000   -68.3109     6.5008     7.0605     7.8363   118.3110     8.2447     0.0029     2.4687     0.1073
  361.0000   -68.1452     6.7795     7.2653     7.7880   119.6464     8.2468     0.0099     2.4838     0.1022
  361.5000   -68.2822     6.9730     7.4760     7.7941   119.9574     8.2633     0.0174     2.4921     0.0962
  362.0000   -68.2616     7.0735     7.5339     7.8001   120.5696     8.2649     0.0189     2.4975     0.0931
  362.5000   -68.0960     7.1754     7.4356     7.9155   121.6196     8.2666     0.0092     2.4923     0.0907
  363.0000   -67.9303     7.1294     7.2371     8.0325   122.9749     8.2530     0.0153     2.5029     0.0876
  363.5000   -67.7647     6.9864     6.9950     8.1513   124.9245     8.2550     0.0184     2.5053     0.0855
  364.0000   -67.5990     6.6136     6.6677     8.3877   126.5769     8.2566     0.0147     2.4903     0.0945
