~VERSION INFORMATION
 VERS.                2.0:   CWLS LOG ASCII STANDARD - VERSION 2.0
 WRAP.                 NO:   ONE LINE PER DEPTH STEP
~WELL INFORMATION
#MNEM.UNIT      DATA TYPE    INFORMATION
#----------   ------------   ------------------------------
 STRT.F            2.0000:   START DEPTH
 STOP.F          518.0000:   STOP DEPTH
 STEP.F            0.5000:   STEP LENGTH
 NULL.          -999.2500:   NO VALUE
 COMP. LAWRENCE/ALLISON INC:   COMPANY
 WELL.    54-51 SX #10-10:   WELL
 FLD .             TEAPOT:   FIELD
 LOC .      S10 T38N R78W:   LOCATION
 CNTY.            NATRONA:   COUNTY
 STAT.            WYOMING:   STATE
 CTRY. UNITED STATES OF AMERICA:   COUNTRY
 SRVC.            Unknown:   SERVICE COMPANY
 DATE.        14-AUG-1984:   LOGDATE
 API .       490251098800:   API NUMBER
~CURVE INFORMATION
#MNEM.UNIT       API CODE    CURVE DESCRIPTION
#----------   ------------   ------------------------------
 DEPT.F                  :   
 CALD.IN     45 280 60 00:   CALIPER
 DEN .G/C3   45 350 01 00:   COMPENSATED BULK DENSTIY
 CORR.G/C3   45 356 01 00:   DENSITY CORRECTION
 CNC .DEC    42 890 03 00:   NEUTRON POROSITY SANDSTONE
 PORD.DEC    45 890 12 00:   POROSITY DENSITY SANDSTONE
 GRR .GAPI   07 310 01 00:   GAMMA RAY FROM RES. LOG.
 RFOC.OHMM   07 220 04 00:   RESISTIVITY FOCUSED LOG
 RILD.OHMM   07 120 46 00:   INDUCTION LOG DEEP RESISTIVITY
 RILM.OHMM   07 120 44 00:   INDUCTION LOG MEDIUM RESISTIVITY
 AC  .US/F   60 520 00 00:   ACOUSTIC SONIC
 SPR .MV     07 010 01 00:   SPONTANEOUS POTENTIAL
~PARAMETER INFORMATION
#MNEM.UNIT          VALUE    DESCRIPTION
#----------   ------------   ------------------------------
 PD  .                 GL:   PERMANENT DATUM
 EPD .F              5197:   ELEVATION PERMANENT DATUM
 LMF .                 GL:   LOG MEASURED FROM
 DMF .                 GL:   DRILLING MEASURED FROM
 EGL .F              5197:   GROUND LEVEL
 DATE.        14-AUG-1984:   RUN DATE
 RUN .                  1:   RUN NUMBER
 DD  .F               530:   DEPTH DRILLER
 DL  .F               520:   DEPTH LOGGER
 BLI .F               518:   BOTTOM LOG INTERVAL
 CS  .IN            9.625:   CASING SIZE
 CBD .F                40:   CASING BOTTOM DRILLER
 CBL .F                42:   CASING BOTTOM LOGGER
 BS  .IN            7.875:   BIT SIZE
 BSD .F               530:   BIT SIZE AT DEPTH
 DFT .          KCL WATER:   DRILLING FLUID TYPE
 MSS .           FLOWLINE:   MUD SAMPLE SOURCE
 RMS .OHMM            .19:   RESISTIVITY MUD SAMPLE
 MST .F                80:   MUD SAMPLE TEMPERATURE
 RMB .OHMM            .17:   RESISTIVITY MUD AT BHT
 BHT .F                90:   BOTTOM HOLE TEMPERATURE
 TCS .HRS               4:   TIME CURCULATED STOPPED
 MRT .F                90:   MAXIMUM RECORDED TEMPERATURE
 LUN .               6274:   LOGGING UNIT NUMBER
 LUL .               GLTE:   LOGGING UNIT LOCATION
 ENGI.             RAUTIO:   RECORDING ENGINEER
 WITN.              FIVAS:   WITNESSED BY
 CLNT.            A2DTECH:   CLIENT CODE
 ORIG.       2", 5" PRINT:   ORIGIN OF DATA
 UWI .       490251098800:   UNIQUE WELL ID
 DICO. A2D Technologies, Inc.:   DIGITIZING COMPANY
~OTHER INFORMATION
~A    DEPT    CALD        DEN       CORR        CNC       PORD         GRR      RFOC       RILD       RILM         AC        SPR   
# ...
   63.0000     8.4118     2.4356    -0.0014     0.0632     0.1464   109.4589  -999.2500     8.8625     9.2100  -999.2500   -23.4440
   63.5000     8.4127     2.4413     0.0087     0.0640     0.1431   108.1614  -999.2500     9.0159     9.3845  -999.2500   -25.4409
   64.0000     8.4135     2.4456     0.0202     0.0682     0.1386   108.2187  -999.2500     9.1718     9.5622  -999.2500   -27.8085
   64.5000     8.4144     2.4467     0.0303     0.0713     0.1377   110.5855  -999.2500     9.3305     9.7433  -999.2500   -28.7921
   65.0000     8.4153     2.4446     0.0200     0.0712     0.1401   112.8355  -999.2500     9.4918     9.9278  -999.2500   -27.1997
   65.5000     8.4161     2.4399     0.0092     0.0702     0.1426   113.0441  -999.2500     9.6867    10.0879  -999.2500   -25.6356
   66.0000     8.4170     2.4353    -0.0013     0.0691     0.1451   110.3012  -999.2500     9.9375    10.2904  -999.2500   -24.0632
   66.5000     8.4179     2.4326    -0.0115     0.0685     0.1475   107.7031  -999.2500    10.1947    10.5543  -999.2500   -23.8073
   67.0000     8.4187     2.4327    -0.0205     0.0693     0.1475   106.0342  -999.2500    10.4586    10.7820  -999.2500   -23.8232
   67.5000     8.4196     2.4353    -0.0122     0.0711     0.1458   105.8524  -999.2500    10.7293    11.0146  -999.2500   -24.6116
   68.0000     8.4205     2.4416    -0.0033     0.0742     0.1403   105.2666  -999.2500    11.0070    11.2656  -999.2500   -25.4289
   68.5000     8.4213     2.4478     0.0044     0.0756     0.1351   104.1595  -999.2500    11.2919    11.5966  -999.2500   -27.2231
   69.0000     8.4222     2.4540    -0.0052     0.0744     0.1336   103.4212  -999.2500    11.5871    11.9374  -999.2500   -29.0250
   69.5000     8.4231     2.4586    -0.0157     0.0733     0.1320   102.8786  -999.2500    11.8901    12.2882  -999.2500   -30.8538
   70.0000     8.4240     2.4596    -0.0039     0.0752     0.1301   102.3370  -999.2500    12.2006    12.6493  -999.2500   -30.2566
   70.5000     8.4248     2.4603     0.0121     0.0770     0.1276   101.8175  -999.2500    12.5190    13.0210  -999.2500   -29.2148
   71.0000     8.4257     2.4715     0.0286     0.0781     0.1233   101.7103  -999.2500    12.8735    13.3536  -999.2500   -28.1728
   71.5000     8.4266     2.4846     0.0195     0.0785     0.1179   102.4712  -999.2500    12.8268    13.2737  -999.2500   -27.9591
   72.0000     8.4274     2.4924     0.0055     0.0789     0.1139   102.1664  -999.2500    12.7692    13.1653  -999.2500   -29.0592
   72.5000     8.4283     2.4853    -0.0086     0.0793     0.1162   101.7332  -999.2500    12.7113    13.0581  -999.2500   -31.7003
   73.0000     8.4292     2.4755    -0.0151     0.0796     0.1199   102.7060  -999.2500    12.6533    12.9516  -999.2500   -34.5556
   73.5000     8.4300     2.4620    -0.0100     0.0800     0.1264   104.0290  -999.2500    12.5360    12.8463  -999.2500   -37.3319
   74.0000     8.4306     2.4471    -0.0050     0.0805     0.1333   105.3106  -999.2500    12.3963    12.7278  -999.2500   -39.3869
   74.5000     8.4305     2.4463     0.0014     0.0825     0.1376   104.6621  -999.2500    12.2582    12.5072  -999.2500   -40.5403
   75.0000     8.4306     2.4461     0.0141     0.0834     0.1378   103.5312  -999.2500    12.1216    12.3760  -999.2500   -41.9212
   75.5000     8.4306     2.4458     0.0234     0.0839     0.1381   102.3817  -999.2500    11.9866    12.2460  -999.2500   -43.5407
   76.0000     8.4306     2.4451     0.0311     0.0850     0.1383   102.3932  -999.2500    11.8531    12.1174  -999.2500   -45.1842
   76.5000     8.4306     2.4418     0.0391     0.0858     0.1405   101.8840  -999.2500    11.7211    11.9902  -999.2500   -47.0657
   77.0000     8.4306     2.4387     0.0287     0.0843     0.1427   100.0974  -999.2500    11.5906    11.8644  -999.2500   -46.6470
   77.5000     8.4306     2.4356     0.0290     0.0829     0.1446    99.0530  -999.2500    11.4615    11.7901  -999.2500   -44.7050
   78.0000     8.4306     2.4341     0.0272     0.0804     0.1463    99.9873  -999.2500    11.3338    11.7229  -999.2500   -40.3981
   78.5000     8.4306     2.4354     0.0164     0.0762     0.1460   100.9424  -999.2500    11.2823    11.6561  -999.2500   -36.1180
   79.0000     8.4306     2.4365     0.0057     0.0757     0.1458   100.3522  -999.2500    11.2417    11.5897  -999.2500   -31.8194
   79.5000     8.4306     2.4318    -0.0042     0.0778     0.1455    99.6833  -999.2500    11.2012    11.5278  -999.2500   -29.6889
   80.0000     8.4306     2.4268     0.0012     0.0799     0.1501    99.5396  -999.2500    11.1608    11.4732  -999.2500   -29.3441
   80.5000     8.4306     2.4241     0.0086     0.0809     0.1531    99.7432  -999.2500    11.1206    11.4222  -999.2500   -29.1643
   81.0000     8.4306     2.4273     0.0159     0.0799     0.1508   100.2772  -999.2500    11.0805    11.3713  -999.2500   -28.8833
   81.5000     8.4306     2.4304     0.0178     0.0790     0.1489   100.8763  -999.2500    11.0406    11.3207  -999.2500   -31.3249
   82.0000     8.4306     2.4315     0.0147     0.0780     0.1491   101.4015  -999.2500    11.0105    11.2703  -999.2500   -34.3368
   82.5000     8.4306     2.4261     0.0115     0.0771     0.1518   101.3871  -999.2500    10.9299    11.2201  -999.2500   -36.8627
   83.0000     8.4306     2.4204     0.0083     0.0770     0.1546   101.5781  -999.2500    10.8533    11.1702  -999.2500   -38.3926
   83.5000     8.4306     2.4147     0.0046     0.0776     0.1579   103.4530  -999.2500    10.7772    11.1205  -999.2500   -38.5547
   84.0000     8.4306     2.4088    -0.0021     0.0782     0.1614   105.6926  -999.2500    10.7016    11.0709  -999.2500   -38.6492
   84.5000     8.4306     2.4094    -0.0087     0.0788     0.1612   104.7134  -999.2500    10.6266    11.0217  -999.2500   -38.9714
   85.0000     8.4306     2.4125    -0.0122     0.0794     0.1599   102.8928  -999.2500    10.5521    10.9726  -999.2500   -39.3222
   85.5000     8.4306     2.4156    -0.0065     0.0800     0.1586   101.0206  -999.2500    10.4782    10.9238  -999.2500   -39.6679
   86.0000     8.4306     2.4202    -0.0009     0.0806     0.1548   102.0267  -999.2500    10.4069    10.8751  -999.2500   -39.6139
   86.5000     8.4306     2.4249     0.0049     0.0813     0.1506   103.4503  -999.2500    10.3441    10.8267  -999.2500   -38.2983
   87.0000     8.4306     2.4295     0.0127     0.0813     0.1491   102.9866  -999.2500    10.2816    10.7783  -999.2500   -37.2490
   87.5000     8.4306     2.4327     0.0207     0.0799     0.1475   101.1156  -999.2500    10.2196    10.7300  -999.2500   -39.0596
   88.0000     8.4306     2.4309     0.0211     0.0785     0.1484    99.4545  -999.2500    10.1579    10.6610  -999.2500   -40.9842
   88.5000     8.4306     2.4277     0.0193     0.0770     0.1502   100.0662  -999.2500    10.0966    10.5789  -999.2500   -42.9503
   89.0000     8.4306     2.4244     0.0161     0.0756     0.1521    99.8273  -999.2500    10.0357    10.4969  -999.2500   -43.7373
   89.5000     8.4306     2.4212     0.0130     0.0741     0.1539    99.1488  -999.2500     9.9752    10.4155  -999.2500   -42.8589
   90.0000     8.4306     2.4180     0.0097     0.0763     0.1557    99.2458  -999.2500     9.9150    10.3347  -999.2500   -41.8558
   90.5000     8.4306     2.4148     0.0105     0.0787     0.1575   100.3494  -999.2500     9.8551    10.2546  -999.2500   -41.0080
   91.0000     8.4306     2.4123     0.0152     0.0811     0.1594   103.6292  -999.2500     9.7957    10.1750  -999.2500   -40.7897
   91.5000     8.4306     2.4112     0.0200     0.0807     0.1600   106.7894  -999.2500     9.7366    10.0958  -999.2500   -41.1822
   92.0000     8.4306     2.4087     0.0208     0.0780     0.1602   106.1480  -999.2500     9.6778    10.0172  -999.2500   -41.8699
   92.5000     8.4306     2.4049     0.0033     0.0752     0.1617   104.5476  -999.2500     9.5937     9.9527  -999.2500   -42.1828
   93.0000     8.4306     2.4040    -0.0166     0.0742     0.1637   102.3285  -999.2500     9.6051     9.9934  -999.2500   -42.2272
