~VERSION INFORMATION
 VERS.                2.0:   CWLS LOG ASCII STANDARD - VERSION 2.0
 WRAP.                 NO:   ONE LINE PER DEPTH STEP
~WELL INFORMATION
#MNEM.UNIT      DATA TYPE    INFORMATION
#----------   ------------   ------------------------------
 STRT.F           32.0000:   START DEPTH
 STOP.F          757.0000:   STOP DEPTH
 STEP.F            0.5000:   STEP LENGTH
 NULL.          -999.2500:   NO VALUE
 COMP. FENIX & SCISSON INC:   COMPANY
 WELL.     88 S 34 #88-34:   WELL
 FLD .             NPR #3:   FIELD
 LOC .      S34 T39N R78W:   LOCATION
 CNTY.            NATRONA:   COUNTY
 STAT.            WYOMING:   STATE
 CTRY. UNITED STATES OF AMERICA:   COUNTRY
 SRVC.              Welex:   SERVICE COMPANY
 DATE.        10-MAY-1977:   LOGDATE
 API .       490251035800:   API NUMBER
~CURVE INFORMATION
#MNEM.UNIT       API CODE    CURVE DESCRIPTION
#----------   ------------   ------------------------------
 DEPT.F                  :   
 GURD.OHMM   07 220 05 00:   SHALLOW GUARD RESISTIVITY
 ILD .OHMM   07 120 46 00:   INDUCTION LOG DEEP
 ILM .OHMM   07 120 44 00:   INDUCTION LOG MEDIUM
 SPR .MV     07 010 01 00:   SPONTANEOUS POTENTIAL FROM RES.
 CALD.IN     45 280 60 00:   CALIPER FROM DENSITY LOG
 CORR.G/C3   45 356 01 00:   DENSITY CORRECTION
 DPHI.DEC    45 890 12 00:   DENSITY POROSITY SANDSTONE
 GRD .GAPI   45 310 01 00:   GAMMA RAY FROM DENSITY LOG
 RHOB.G/C3   45 350 01 00:   BULK DENSITY
~PARAMETER INFORMATION
#MNEM.UNIT          VALUE    DESCRIPTION
#----------   ------------   ------------------------------
 PD  .                 GL:   PERMANENT DATUM
 EPD .F              5094:   ELEVATION PERMANENT DATUM
 LMF .                 GL:   LOG MEASURED FROM
 DMF .                 GL:   DRILLING MEASURED FROM
 EGL .F              5094:   GROUND LEVEL
 DATE.        10-MAY-1977:   RUN DATE
 RUN .                  1:   RUN NUMBER
 DD  .F               760:   DEPTH DRILLER
 DL  .F               759:   DEPTH LOGGER
 BLI .F               757:   BOTTOM LOG INTERVAL
 TLI .F                30:   TOP LOG INTERVAL
 CS  .IN            8.625:   CASING SIZE
 CBD .F                40:   CASING BOTTOM DRILLER
 CBL .F                45:   CASING BOTTOM LOGGER
 BS  .IN            7.875:   BIT SIZE
 BSD .F               760:   BIT SIZE AT DEPTH
 DFT .            KCL MUD:   DRILLING FLUID TYPE
 DFD .                9.0:   DRILLING FLUID DENSITY
 DFV .                 33:   DRILLING FLUID VISCOSITY
 DFPH.                7.5:   DRILLING FLUID PH
 DFL .                7.4:   DRILLING FLUID LOSS
 MSS .           FLOWLINE:   MUD SAMPLE SOURCE
 RMS .OHMM           0.33:   RESISTIVITY MUD SAMPLE
 MST .F                70:   MUD SAMPLE TEMPERATURE
 RMF .OHMM           0.28:   RESISTIVITY MUD FILTRATE SAMPLE
 MFST.F                70:   MUD FILTRATE SAMPLE TEMPERATURE
 RMC .OHMM           0.40:   RESISTIVITY MUD CAKE
 MCST.F                70:   MUD CAKE SAMPLE TEMPERATURE
 MFSS.           FANN KIT:   MUD FILTRATE SAMPLE SOURCE
 MCSS.           FANN KIT:   MUD CAKE SAMPLE SOURCE
 RMB .OHMM           0.26:   RESISTIVITY MUD AT BHT
 BHT .F                86:   BOTTOM HOLE TEMPERATURE
 TCS .HRS             1.5:   TIME CURCULATED STOPPED
 MRT .F                86:   MAXIMUM RECORDED TEMPERATURE
 LUN .               8611:   LOGGING UNIT NUMBER
 LUL .             CASPER:   LOGGING UNIT LOCATION
 ENGI.            C. DOAK:   RECORDING ENGINEER
 WITN.         D. RHOADES:   WITNESSED BY
 CLNT.            A2DTECH:   CLIENT CODE
 ORIG.           5" PRINT:   ORIGIN OF DATA
 UWI .       490251035800:   UNIQUE WELL ID
 DICO. A2D Technologies, Inc.:   DIGITIZING COMPANY
~OTHER INFORMATION
~A   DEPT     GURD        ILD        ILM        SPR         CALD      CORR      DPHI         GRD        RHOB 
# ...
  616.0000    14.2801    12.2224    12.5496   -26.8197     7.7889     0.0102     0.1539    90.4923     2.4209
  616.5000    13.7035    12.3969    12.5539   -27.1230     7.7891     0.0057     0.1479    90.1906     2.4337
  617.0000    13.2413    12.6605    12.6462   -27.5744     7.7892     0.0013     0.1428    88.5375     2.4412
  617.5000    14.0309    12.9297    12.8266   -27.8768     7.7894    -0.0016     0.1375    90.0375     2.4495
  618.0000    17.5921    13.1135    13.1908   -28.0302     7.7895    -0.0016     0.1292    90.9370     2.4555
  618.5000    24.3543    13.3923    13.5652   -28.0345     7.8046    -0.0015     0.1205    88.0823     2.4630
  619.0000    27.7811    13.6770    13.8542   -28.1878     7.8048     0.0000     0.1148    85.9788     2.4826
  619.5000    26.4755    13.8724    13.9550   -28.0431     7.8200     0.0031     0.1100    83.4248     2.4938
  620.0000    22.1250    13.6855    13.5789   -27.8984     7.8201     0.0078     0.1061    82.3723     2.5036
  620.5000    17.7380    13.2479    13.0264   -27.7548     7.8352     0.0167     0.1062    85.8243     2.5096
  621.0000    14.3195    12.4288    12.3353   -27.6090     7.8354     0.0213     0.1106    88.7597     2.4969
  621.5000    12.8188    11.6816    11.7564   -27.6145     7.8355     0.0243     0.1184    90.4757     2.4774
  622.0000    12.3054    10.9036    11.2824   -27.4687     7.8357     0.0259     0.1289    92.2761     2.4609
  622.5000    12.8310    10.1600    10.9027   -27.6229     7.8358     0.0259     0.1406    95.5779     2.4471
  623.0000    13.0131     9.5003    10.6088   -27.7765     7.8360     0.0290     0.1412    98.5795     2.4444
  623.5000    13.1069     9.1797    10.3945   -28.0790     7.8361     0.0291     0.1321    99.3304     2.4587
  624.0000    13.0193     8.9934    10.2582   -28.2325     7.8363     0.0291     0.1294    98.2043     2.4564
  624.5000    13.0236     8.9960    10.1147   -28.3867     7.8364     0.0262     0.1372    97.0733     2.4452
  625.0000    13.0271     9.0615     9.9708   -28.3905     7.8516     0.0202     0.1471    96.7719     2.4332
  625.5000    13.1210     9.1270     9.8483   -28.5444     7.8367     0.0143     0.1519    97.2206     2.4248
  626.0000    13.2157     9.2567     9.7837   -28.6977     7.8519     0.0054     0.1543    97.9699     2.4235
  626.5000    13.0385     9.3236     9.6534   -28.8511     7.8370     0.0069     0.1543    98.8724     2.4235
  627.0000    12.9513     9.1979     9.5893   -29.1535     7.8222     0.0085     0.1543    99.7685     2.4235
  627.5000    12.7777     9.0715     9.4616   -29.3070     7.8223     0.0115     0.1537   100.2175     2.4190
  628.0000    12.6056     8.7685     9.3347   -29.4613     7.8225     0.0101     0.1528   101.4172     2.4228
  628.5000    12.5212     8.5908     9.1462   -29.4650     7.8226     0.0057     0.1518   100.6650     2.4258
  629.0000    12.5255     8.5333     9.0142   -29.4699     7.8228     0.0027     0.1587    98.2612     2.4243
  629.5000    12.6158     8.6552     8.8413   -29.6233     7.8229     0.0043     0.1603    96.5946     2.4115
  630.0000    12.7067     9.0873     9.0304   -29.7767     7.8381     0.0089     0.1529    95.5553     2.4086
  630.5000    12.7102     9.4752     9.3512   -29.7810     7.8382     0.0149     0.1470    95.8541     2.4258
  631.0000    12.6268     9.8218     9.8182   -29.7854     7.8384     0.0180     0.1449    97.0539     2.4334
  631.5000    12.6302     9.9510    10.0970   -30.0888     7.8536     0.0195     0.1422    98.5540     2.4394
  632.0000    12.7212     9.8176    10.2410   -30.4063     7.8537     0.0226     0.1407    99.7538     2.4439
  632.5000    12.7246     9.7313    10.2445   -30.5446     7.8538     0.0241     0.1496    97.9505     2.4297
  633.0000    12.8164     9.6206     9.9588   -30.6979     7.8390     0.0272     0.1434    99.4502     2.4409
  633.5000    12.7315     9.4916     9.6336   -30.7019     7.8391     0.0318     0.1394   100.9502     2.4462
  634.0000    12.7349     9.4288     9.3740   -30.7066     7.8393     0.0333     0.1361    99.1470     2.4530
  634.5000    12.7384     9.3664     9.1213   -30.7109     7.8394     0.0303     0.1370    99.4459     2.4526
  635.0000    12.7419     9.4347     9.9138   -30.7153     7.8246     0.0215     0.1493   100.3453     2.4327
  635.5000    12.5710     9.5028    10.4089   -30.7207     7.8248     0.0185     0.1646   100.6442     2.4035
  636.0000    11.9802     9.7048    11.0046   -30.8740     7.8099     0.0201     0.1607    99.4412     2.4072
  636.5000    11.6565     9.8428    11.4752   -30.8783     7.8101     0.0246     0.1577    99.4397     2.4125
  637.0000    11.9041     9.9828    11.8109   -31.0317     7.7952     0.0217     0.1613    99.7390     2.4140
  637.5000    12.4978    10.0556    12.0528   -31.0358     7.7954     0.0202     0.1610   100.3377     2.4049
  638.0000    13.6769    10.1282    12.3095   -31.0407     7.7955     0.0188     0.1595    97.6336     2.4103
  638.5000    14.9673    10.1310    12.2288   -31.0447     7.7806     0.0219     0.1538    93.9339     2.4246
  639.0000    15.1798    10.1338    11.9818   -31.0492     7.7958     0.0249     0.1475    90.7235     2.4351
  639.5000    12.9522    10.1366    11.8202   -31.0544     7.7960     0.0235     0.1432    89.9716     2.4405
  640.0000    12.1740    10.0695    11.8251   -31.0588     7.7961     0.0115     0.1612    96.1260     2.4231
  640.5000    11.9265    10.0724    11.8291   -31.0631     7.7963     0.0068     0.1654    97.7766     2.4006
  641.0000    12.3502    10.0056    11.7424   -31.2165     7.7964     0.0027     0.1693    95.8228     2.3931
  641.5000    12.7000    10.0091    11.2787   -31.3698     7.8116     0.0027     0.1690    97.0555     2.4021
  642.0000    12.7384    10.0119    10.8240   -31.6722     7.8267     0.0043     0.1600    97.7719     2.4089
  642.5000    12.7949     9.9449    10.3876   -31.9821     7.8118     0.0044     0.1612    96.4187     2.4104
  643.0000    12.7984     9.8116    10.0379   -32.4271     7.8120     0.0074     0.1555    95.3666     2.4225
  643.5000    12.7770     9.7395     9.9026   -32.5805     7.8121     0.0106     0.1531    94.7642     2.4202
  644.0000    12.8061     9.5497     9.8383   -32.7338     7.8123     0.0165     0.1534    92.3603     2.4202
  644.5000    12.8096     9.4858     9.7739   -32.7382     7.8125     0.0196     0.1531    94.3888     2.4195
  645.0000    12.8130     9.4230     9.7099   -32.8915     7.8126     0.0211     0.1525    96.1109     2.4233
  645.5000    12.9054     9.4918     9.7139   -32.8959     7.8128     0.0212     0.1476    97.0103     2.4323
  646.0000    12.9089     9.5603     9.7846   -32.9002     7.8129     0.0228     0.1504    98.5104     2.4308
  646.5000    12.8232     9.5669     9.8558   -32.9046     7.8130     0.0230     0.1515    98.8096     2.4263
  647.0000    12.8268     9.6996     9.9964   -32.4628     7.8282     0.0259     0.1482    99.5585     2.4286
  647.5000    12.8303     9.7697    10.1390   -32.1162     7.8284     0.0289     0.1440   100.3529     2.4384
  648.0000    12.7453     9.9086    10.3550   -31.5773     7.8285     0.0320     0.1383   101.8076     2.4519
  648.5000    12.8380    10.1192    10.5756   -31.1335     7.8436     0.0321     0.1347   103.0077     2.4482
  649.0000    12.9306    10.4061    10.8890   -30.3937     7.8588     0.0321     0.1368   102.4053     2.4504
  649.5000    13.1141    10.7760    11.5790   -29.6529     7.8589     0.0277     0.1347    99.8513     2.4536
  650.0000    13.5231    11.3530    12.2417   -29.2148     7.8591     0.0226     0.1338    93.6937     2.4565
  650.5000    14.3350    12.2124    12.8531   -28.6231     7.8489     0.0153     0.1410    92.3423     2.4445
  651.0000    15.3978    13.1819    13.4021   -28.0169     7.8387     0.0113     0.1484    90.6907     2.4349
  651.5000    16.3768    14.1303    13.9745   -27.5796     7.8299     0.0098     0.1652    89.4895     2.4025
  652.0000    17.3117    15.1469    14.7742   -27.2843     7.8303     0.0113     0.1829    76.4264     2.3769
