~VERSION INFORMATION
 VERS.                2.0:   CWLS LOG ASCII STANDARD - VERSION 2.0
 WRAP.                 NO:   ONE LINE PER DEPTH STEP
~WELL INFORMATION
#MNEM.UNIT      DATA TYPE    INFORMATION
#----------   ------------   ------------------------------
 STRT.F           27.0000:   START DEPTH
 STOP.F          670.0000:   STOP DEPTH
 STEP.F            0.5000:   STEP LENGTH
 NULL.          -999.2500:   NO VALUE
 COMP. LAWRENCE/ALLISON INC:   COMPANY
 WELL. SX 11 WP 26 #26-11:   WELL
 FLD .           N.P.R #3:   FIELD
 LOC .      S11 T38N R78W:   LOCATION
 CNTY.            NATRONA:   COUNTY
 STAT.            WYOMING:   STATE
 CTRY. UNITED STATES OF AMERICA:   COUNTRY
 SRVC.            Unknown:   SERVICE COMPANY
 DATE.        11-SEP-1984:   LOGDATE
 API .       490251097700:   API NUMBER
~CURVE INFORMATION
#MNEM.UNIT       API CODE    CURVE DESCRIPTION
#----------   ------------   ------------------------------
 DEPT.F                  :   
 CNC .DEC    42 890 03 00:   NEUTRON POROSITY SANDSTONE
 AC  .US/F   60 520 00 00:   ACCOUSTIC SONIC
 SPR .MV     07 010 01 00:   SPONTANEOUS POTENTIAL
 RILD.OHMM   07 120 46 00:   INDUCTION LOG DEEP RESISTIVITY
 RILM.OHMM   07 120 44 00:   INDUCTION LOG MEDIUM RESISTIVITY
 RFOC.OHMM   07 220 04 00:   RESISTIVITY FOCUSED LOG
 GRD .GAPI   45 310 01 00:   GAMMA RAY FROM DENSITY LOG
 CALD.IN     45 280 60 00:   CALIPER FROM DENSITY LOG
 DEN .G/C3   45 350 01 00:   COMPENSATED BULK DENSTIY
 CORR.G/C3   45 356 01 00:   DENSITY CORRECTION
 PORD.DEC    45 890 12 00:   POROSITY DENSITY SANDSTONE
~PARAMETER INFORMATION
#MNEM.UNIT          VALUE    DESCRIPTION
#----------   ------------   ------------------------------
 PD  .                 GL:   PERMANENT DATUM
 EPD .F              5186:   ELEVATION PERMANENT DATUM
 LMF .                 GL:   LOG MEASURED FROM
 DMF .                 GL:   DRILLING MEASURED FROM
 EGL .F              5186:   GROUND LEVEL
 DATE.            9-11-84:   RUN DATE
 RUN .                  1:   RUN NUMBER
 DD  .F               672:   DEPTH DRILLER
 DL  .F               668:   DEPTH LOGGER
 BLI .F               668:   BOTTOM LOG INTERVAL
 TLI .F                45:   TOP LOG INTERVAL
 CS  .IN            8.625:   CASING SIZE
 CBD .F                42:   CASING BOTTOM DRILLER
 CBL .F                45:   CASING BOTTOM LOGGER
 BS  .IN            7.875:   BIT SIZE
 BSD .F               672:   BIT SIZE AT DEPTH
 DFT .          KCL WATER:   DRILLING FLUID TYPE
 MSS .               TANK:   MUD SAMPLE SOURCE
 RMS .OHMM            .36:   RESISTIVITY MUD SAMPLE
 MST .F                82:   MUD SAMPLE TEMPERATURE
 MFSS.                  C:   MUD FILTRATE SAMPLE SOURCE
 MCSS.                  C:   MUD CAKE SAMPLE SOURCE
 TCS .HRS               3:   TIME CURCULATED STOPPED
 MRT .F               100:   MAXIMUM RECORDED TEMPERATURE
 LUN .            HL 6307:   LOGGING UNIT NUMBER
 LUL .           GILLETTE:   LOGGING UNIT LOCATION
 ENGI.      FAHLSING/MACK:   RECORDING ENGINEER
 WITN.            JOHNSON:   WITNESSED BY
 CLNT.            A2DTECH:   CLIENT CODE
 ORIG.       2", 5" PRINT:   ORIGIN OF DATA
 UWI .       490251097700:   UNIQUE WELL ID
 DICO. A2D Technologies, Inc.:   DIGITIZING COMPANY
~OTHER INFORMATION
~A   DEPT      CNC          AC       SPR       RILD       RILM       RFOC        GRD       CALD        DEN       CORR       PORD   
# ...
  118.5000     0.3257   104.8970   -49.6360     6.7150     7.0240     8.9940    96.0010     8.0180     2.4590     0.0270     0.1330
  119.0000     0.3235   106.1940   -49.7190     6.6550     6.9280     8.6340    99.4280     8.0180     2.4510     0.0130     0.1370
  119.5000     0.3195   107.4910   -49.8030     6.5700     6.8310     8.4380   101.9690     8.0180     2.4440     0.0010     0.1400
  120.0000     0.3059   108.2450   -49.8900     6.4850     6.7340     8.2230   103.9520     8.0180     2.4480     0.0030     0.1380
  120.5000     0.2970   108.8440   -49.7450     6.4000     6.6370     8.2750   106.2660     8.0180     2.4510     0.0110     0.1380
  121.0000     0.2959   109.0020   -49.5610     6.3140     6.5400     8.3320   105.3590     8.0180     2.4490     0.0200     0.1390
  121.5000     0.3243   109.0380   -49.3750     6.2380     6.4720     8.3900   104.0740     8.0180     2.4480     0.0260     0.1400
  122.0000     0.3249   109.0740   -49.1890     6.3140     6.6480     8.4530   102.7830     8.0180     2.4490     0.0340     0.1380
  122.5000     0.3155   108.7290   -49.0020     6.4240     6.7600     8.3420   101.4910     8.0180     2.4530     0.0420     0.1360
  123.0000     0.3059   108.3790   -48.8160     6.5330     6.8730     8.1840   100.1860     8.0180     2.4570     0.0500     0.1300
  123.5000     0.3081   108.0300   -48.6290     6.6530     6.9850     8.0730    98.9240     8.0180     2.4630     0.0550     0.1240
  124.0000     0.3081   107.6810   -48.4430     6.6890     7.0970     8.3680   101.3670     8.0180     2.4760     0.0490     0.1180
  124.5000     0.3090   107.3310   -48.2570     6.7750     7.2090     8.5940   104.2100     8.0180     2.4890     0.0430     0.1120
  125.0000     0.3084   106.9820   -48.0700     6.8950     7.3210     8.8210   103.2370     8.0180     2.4910     0.0380     0.1140
  125.5000     0.3054   106.1660   -47.8840     7.0150     7.4330     9.0480   101.3120     8.0180     2.4880     0.0320     0.1150
  126.0000     0.3022   105.3490   -47.6970     7.1350     7.5450     9.2750   102.5120     8.0180     2.4900     0.0250     0.1110
  126.5000     0.2990   104.5320   -47.5120     7.2550     7.6580     9.5010   103.5910     8.0180     2.4980     0.0360     0.1060
  127.0000     0.2956   103.7160   -47.3260     7.3630     7.7810     9.7280   104.2070     8.0180     2.5060     0.0530     0.1020
  127.5000     0.2952   103.0930   -47.1420     7.3630     7.7120     9.9780   100.3200     8.0180     2.5080     0.0700     0.1010
  128.0000     0.3181   103.0300   -46.9480     7.2310     7.5750     9.6730    96.4830     8.0180     2.5100     0.0710     0.1020
  128.5000     0.3217   103.5910   -47.1950     7.1110     7.4370     9.3340    93.2370     8.0180     2.5110     0.0620     0.1030
  129.0000     0.3306   104.2930   -47.5290     6.9920     7.3000     8.9950    95.4200     8.0180     2.5060     0.0530     0.1060
  129.5000     0.3372   105.2660   -47.8730     6.8720     7.1620     8.6900    97.9790     8.0180     2.4990     0.0430     0.1150
  130.0000     0.3084   106.2400   -48.2200     6.7520     7.0250     8.4770   100.3760     8.0180     2.4830     0.0490     0.1230
  130.5000     0.3068   107.2130   -48.5680     6.6330     6.8870     8.2830    99.5800     8.0180     2.4690     0.0610     0.1250
  131.0000     0.3078   107.9290   -48.9150     6.5130     6.7490     8.1480    98.2690     8.0180     2.4700     0.0720     0.1250
  131.5000     0.3074   108.4760   -49.2620     6.3930     6.6270     8.0370    96.9720     8.0180     2.4710     0.0570     0.1240
  132.0000     0.3068   108.7690   -49.6080     6.2740     6.5320     7.9260    95.6750     8.0180     2.4730     0.0400     0.1250
  132.5000     0.3064   108.7000   -49.9190     6.2380     6.5320     7.9260    94.3160     8.0200     2.4720     0.0320     0.1270
  133.0000     0.3064   108.4230   -49.4910     6.3140     6.6380     8.1120    97.7950     8.0220     2.4650     0.0340     0.1300
  133.5000     0.3064   107.9400   -48.9700     6.3990     6.7350     8.2730   104.9520     8.0240     2.4590     0.0370     0.1320
  134.0000     0.3064   107.4160   -48.4470     6.4840     6.8320     8.4340   103.1780     8.0260     2.4550     0.0390     0.1330
  134.5000     0.3076   106.8920   -47.9230     6.5680     6.9280     8.5950   100.2400     8.0280     2.4560     0.0410     0.1310
  135.0000     0.3094   106.3690   -47.3990     6.6530     7.0250     8.7560    98.2170     8.0300     2.4580     0.0390     0.1310
  135.5000     0.3078   106.2850   -46.8750     6.7380     7.1220     8.9340   102.2550     8.0320     2.4600     0.0380     0.1320
  136.0000     0.3063   106.4150   -46.3480     6.8230     7.2280     8.8230   106.3190     8.0340     2.4620     0.0330     0.1300
  136.5000     0.3059   106.9510   -46.0190     6.9070     7.1620     8.7830   108.9680     8.0360     2.4650     0.0230     0.1270
  137.0000     0.3142   107.4870   -45.8410     6.9670     7.1620     8.6900   107.1650     8.0380     2.4690     0.0140     0.1240
  137.5000     0.3217   108.0230   -45.6630     6.8840     7.1620     8.7740   105.3200     8.0380     2.4730     0.0100     0.1210
  138.0000     0.3185   108.5590   -45.4850     6.8400     7.2060     8.8500    99.7390     8.0380     2.4780     0.0230     0.1180
  138.5000     0.3145   109.0950   -45.3060     6.8980     7.2950     8.9340    93.6820     8.0380     2.4820     0.0360     0.1170
  139.0000     0.3086   108.7470   -45.1300     6.9630     7.3830     8.9340    91.1550     8.0380     2.4840     0.0480     0.1170
  139.5000     0.2979   108.2480   -45.1920     7.0280     7.4710     8.9340    96.1670     8.0380     2.4830     0.0530     0.1170
  140.0000     0.2816   107.2470   -45.2700     7.0930     7.5600     8.9860    99.9620     8.0380     2.4830     0.0520     0.1170
  140.5000     0.2810   104.8150   -45.3760     7.1580     7.6480     9.1610   102.9050     8.0380     2.4890     0.0570     0.1120
  141.0000     0.2834   102.3820   -45.5700     7.2240     7.7370     9.3360   100.7490     8.0380     2.4950     0.0770     0.1060
  141.5000     0.3082   100.3090   -45.7590     7.2950     7.7810     9.5290    96.4150     8.0380     2.5010     0.0830     0.1020
  142.0000     0.3155   101.1240   -45.9470     7.2280     7.6480     9.7060    94.9200     8.0380     2.5080     0.0790     0.1010
  142.5000     0.3078   103.0530   -46.1340     7.0960     7.5450     9.4470   100.2970     8.0380     2.5120     0.0750     0.1010
  143.0000     0.3001   104.9830   -46.3220     7.0650     7.4430     9.2130   104.7780     8.0380     2.5120     0.0710     0.1010
  143.5000     0.2923   106.5820   -46.5120     6.9600     7.3410     8.9780   103.8500     8.0380     2.5130     0.0670     0.1010
  144.0000     0.3186   107.3020   -46.7060     6.8560     7.2280     8.7430   101.1460     8.0380     2.5130     0.0640     0.1020
  144.5000     0.3223   107.7340   -46.5720     6.7510     7.1440     8.5320    98.5520     8.0380     2.5080     0.0560     0.1020
  145.0000     0.3264   107.8490   -46.3810     6.6470     7.0500     8.5320    99.7840     8.0380     2.5020     0.0480     0.1070
  145.5000     0.3225   107.9650   -46.1890     6.5320     6.9560     8.5940   101.1860     8.0380     2.4960     0.0410     0.1120
  146.0000     0.3157   107.7950   -45.9960     6.4780     6.8620     8.7200   102.5850     8.0380     2.4890     0.0330     0.1160
  146.5000     0.3104   107.5870   -45.8030     6.4130     6.7770     8.8460   103.9630     8.0380     2.4860     0.0240     0.1120
  147.0000     0.3094   107.5370   -45.6110     6.4460     6.8100     8.9340   105.2520     8.0380     2.4920     0.0390     0.1090
  147.5000     0.3168   107.6550   -45.3060     6.4930     6.8390     8.7590   105.5110     8.0380     2.4980     0.0600     0.1060
  148.0000     0.3199   107.7720   -44.8950     6.5400     6.8690     8.6010   105.8010     8.0380     2.5050     0.0610     0.1060
  148.5000     0.3193   107.8780   -44.4850     6.5870     6.8990     8.4420   106.0990     8.0380     2.5000     0.0560     0.1100
