~VERSION INFORMATION
 VERS.                2.0:   CWLS LOG ASCII STANDARD - VERSION 2.0
 WRAP.                 NO:   ONE LINE PER DEPTH STEP
~WELL INFORMATION
#MNEM.UNIT      DATA TYPE    INFORMATION
#----------   ------------   ------------------------------
 STRT.F            0.0000:   START DEPTH
 STOP.F         2230.0000:   STOP DEPTH
 STEP.F            0.5000:   STEP LENGTH
 NULL.          -999.2500:   NO VALUE
 COMP. LAWRENCE/ALLISON INC:   COMPANY
 WELL. NPR 3 SH X 34 #48-34:   WELL
 FLD .            WILDCAT:   FIELD
 LOC .      S34 T39N R78W:   LOCATION
 CNTY.            NATRONA:   COUNTY
 STAT.            WYOMING:   STATE
 CTRY. UNITED STATES OF AMERICA:   COUNTRY
 SRVC.            Unknown:   SERVICE COMPANY
 DATE.        02-SEP-1991:   LOGDATE
 API .       490251110600:   API NUMBER
~CURVE INFORMATION
#MNEM.UNIT       API CODE    CURVE DESCRIPTION
#----------   ------------   ------------------------------
 DEPT.F                  :   
 ROP .MIN/FT 91 810 01 00:   RAT OF DRILLING PENETRATION
 TGAS.UNITS  91 830 01 00:   TOTAL GAS FROM HOTWIRE
 C1  .VF     91 831 01 00:   METHANE
 C2  .VF     91 832 01 00:   ETHANE
 C3  .VF     91 833 01 00:   PROPANE
 C4  .VF     91 834 01 00:   BUTANE
 TT  .US/F   81 520 00 00:   TRANSIT TIME
 GR  .GAPI   81 310 01 00:   GAMMA RAY FROM CEMENT BOND LOG
~PARAMETER INFORMATION
#MNEM.UNIT          VALUE    DESCRIPTION
#----------   ------------   ------------------------------
 EKB .F              5145:   KELLING BUSHING
 EGL .F              5135:   GROUND LEVEL
 DATE.          09-2-1991:   RUN DATE
 RUN .                  1:   RUN NUMBER
 BLI .F              2400:   BOTTOM LOG INTERVAL
 TLI .F              2200:   TOP LOG INTERVAL
 ENGI.           C. TOWER:   RECORDING ENGINEER
 WITN.            R. HUSK:   WITNESSED BY
 CLNT.            A2DTECH:   CLIENT CODE
 ORIG.           5" PRINT:   ORIGIN OF DATA
 UWI .       490251110600:   UNIQUE WELL ID
 DICO. A2D Technologies, Inc.:   DIGITIZING COMPANY
~OTHER INFORMATION
~A    DEPT     ROP       TGAS         C1         C2         C3         C4          TT         GR  
# ...
 1012.5000     0.5818     3.9560     9.2453     1.5299  -999.2500  -999.2500  -999.2500  -999.2500
 1013.0000     0.5718     3.9633     9.2745     1.5368  -999.2500  -999.2500  -999.2500  -999.2500
 1013.5000     0.5724     3.9706     9.3037     1.5438  -999.2500  -999.2500  -999.2500  -999.2500
 1014.0000     0.5734     3.9780     9.3329     1.5507  -999.2500  -999.2500  -999.2500  -999.2500
 1014.5000     0.5744     3.9853     9.3620     1.5577  -999.2500  -999.2500  -999.2500  -999.2500
 1015.0000     0.5753     3.9926     9.3912     1.5646  -999.2500  -999.2500  -999.2500  -999.2500
 1015.5000     0.5762     3.9999     9.4204     1.5716  -999.2500  -999.2500  -999.2500  -999.2500
 1016.0000     0.5772     4.0072     9.4495     1.5785  -999.2500  -999.2500  -999.2500  -999.2500
 1016.5000     0.5781     4.0145     9.4787     1.5855  -999.2500  -999.2500  -999.2500  -999.2500
 1017.0000     0.5790     4.0218     9.5079     1.5924  -999.2500  -999.2500  -999.2500  -999.2500
 1017.5000     0.5800     4.0291     9.5371     1.5993  -999.2500  -999.2500  -999.2500  -999.2500
 1018.0000     0.5809     4.0364     9.5662     1.6063  -999.2500  -999.2500  -999.2500  -999.2500
 1018.5000     0.5818     4.0437     9.5954     1.6132  -999.2500  -999.2500  -999.2500  -999.2500
 1019.0000     0.5828     4.0511     9.6246     1.6202  -999.2500  -999.2500  -999.2500  -999.2500
 1019.5000     0.5837     4.0584     9.6538     1.6271  -999.2500  -999.2500  -999.2500  -999.2500
 1020.0000     0.5836     4.0657     9.6829     1.6341  -999.2500  -999.2500  -999.2500  -999.2500
 1020.5000     0.5815     4.0730     9.7121     1.6410  -999.2500  -999.2500  -999.2500  -999.2500
 1021.0000     0.5794     4.0803     9.7422     1.6480  -999.2500  -999.2500  -999.2500  -999.2500
 1021.5000     0.5773     4.0876     9.7498     1.6549  -999.2500  -999.2500  -999.2500  -999.2500
 1022.0000     0.5752     4.0949     9.7501     1.6618  -999.2500  -999.2500  -999.2500  -999.2500
 1022.5000     0.5731     4.1022     9.7500     1.6688  -999.2500  -999.2500  -999.2500  -999.2500
 1023.0000     0.5710     4.1095     9.7500     1.6757  -999.2500  -999.2500  -999.2500  -999.2500
 1023.5000     0.5690     4.1168     9.7500     1.6827  -999.2500  -999.2500  -999.2500  -999.2500
 1024.0000     0.5669     4.1241     9.7513     1.6896  -999.2500  -999.2500  -999.2500  -999.2500
 1024.5000     0.5648     4.1315     9.7536     1.6966  -999.2500  -999.2500  -999.2500  -999.2500
 1025.0000     0.5627     4.1388     9.7431     1.7035  -999.2500  -999.2500  -999.2500  -999.2500
 1025.5000     0.5606     4.1461     9.4424     1.7104  -999.2500  -999.2500  -999.2500  -999.2500
 1026.0000     0.5590     4.1534     8.2687     1.7174  -999.2500  -999.2500  -999.2500  -999.2500
 1026.5000     0.5590     4.1607     7.2566     1.7243  -999.2500  -999.2500  -999.2500  -999.2500
 1027.0000     0.5591     4.1680     7.2735     1.7313  -999.2500  -999.2500  -999.2500  -999.2500
 1027.5000     0.5590     4.1753     7.3086     1.7382  -999.2500  -999.2500  -999.2500  -999.2500
 1028.0000     0.5591     4.1826     7.3404     1.7452  -999.2500  -999.2500  -999.2500  -999.2500
 1028.5000     0.5591     4.1899     7.3719     1.7521  -999.2500  -999.2500  -999.2500  -999.2500
 1029.0000     0.5590     4.1972     7.4031     1.7590  -999.2500  -999.2500  -999.2500  -999.2500
 1029.5000     0.5590     4.2045     7.4344     1.7660  -999.2500  -999.2500  -999.2500  -999.2500
 1030.0000     0.5591     4.2119     7.4656     1.7729  -999.2500  -999.2500  -999.2500  -999.2500
 1030.5000     0.5591     4.2192     7.4969     1.7799  -999.2500  -999.2500  -999.2500  -999.2500
 1031.0000     0.5619     4.2265     7.5281     1.7868  -999.2500  -999.2500  -999.2500  -999.2500
 1031.5000     0.5666     4.2338     7.5594     1.7938  -999.2500  -999.2500  -999.2500  -999.2500
 1032.0000     0.5713     4.2411     7.5906     1.8007  -999.2500  -999.2500  -999.2500  -999.2500
 1032.5000     0.5760     4.2484     7.6219     1.8076  -999.2500  -999.2500  -999.2500  -999.2500
 1033.0000     0.5807     4.2557     7.6531     1.8146  -999.2500  -999.2500  -999.2500  -999.2500
 1033.5000     0.5854     4.2630     7.6844     1.8215  -999.2500  -999.2500  -999.2500  -999.2500
 1034.0000     0.5901     4.2703     7.7162     1.8285  -999.2500  -999.2500  -999.2500  -999.2500
 1034.5000     0.5949     4.2776     7.7482     1.8354  -999.2500  -999.2500  -999.2500  -999.2500
 1035.0000     0.5996     4.2849     7.6981     1.8424  -999.2500  -999.2500  -999.2500  -999.2500
 1035.5000     0.6043     4.2923     7.6397     1.8493  -999.2500  -999.2500  -999.2500  -999.2500
 1036.0000     0.6091     4.2996     7.5814     1.8563  -999.2500  -999.2500  -999.2500  -999.2500
 1036.5000     0.6093     4.3069     7.5233     1.8632  -999.2500  -999.2500  -999.2500  -999.2500
 1037.0000     0.6093     4.3142     7.4651     1.8701  -999.2500  -999.2500  -999.2500  -999.2500
 1037.5000     0.6093     4.3215     7.4069     1.8771  -999.2500  -999.2500  -999.2500  -999.2500
 1038.0000     0.6093     4.3288     7.3485     1.8840  -999.2500  -999.2500  -999.2500  -999.2500
 1038.5000     0.6093     4.3361     7.2912     1.8910  -999.2500  -999.2500  -999.2500  -999.2500
 1039.0000     0.6093     4.3434     7.2638     1.8982  -999.2500  -999.2500  -999.2500  -999.2500
 1039.5000     0.6093     4.3507     7.3214     1.8975  -999.2500  -999.2500  -999.2500  -999.2500
 1040.0000     0.6093     4.3580     7.3763     1.8942  -999.2500  -999.2500  -999.2500  -999.2500
 1040.5000     0.6093     4.3653     7.4311     1.8907  -999.2500  -999.2500  -999.2500  -999.2500
 1041.0000     0.6093     4.3727     7.4861     1.8872  -999.2500  -999.2500  -999.2500  -999.2500
 1041.5000     0.6093     4.3800     7.5409     1.8837  -999.2500  -999.2500  -999.2500  -999.2500
 1042.0000     0.6093     4.3873     7.5958     1.8803  -999.2500  -999.2500  -999.2500  -999.2500
 1042.5000     0.6093     4.3946     7.6507     1.8768  -999.2500  -999.2500  -999.2500  -999.2500
 1043.0000     0.6093     4.4019     7.7056     1.8734  -999.2500  -999.2500  -999.2500  -999.2500
 1043.5000     0.6093     4.4092     7.7605     1.8699  -999.2500  -999.2500  -999.2500  -999.2500
 1044.0000     0.6093     4.4165     7.8154     1.8664  -999.2500  -999.2500  -999.2500  -999.2500
 1044.5000     0.6093     4.4238     7.8703     1.8630  -999.2500  -999.2500  -999.2500  -999.2500
 1045.0000     0.6093     4.4311     7.9252     1.8595  -999.2500  -999.2500  -999.2500  -999.2500
 1045.5000     0.6093     4.4384     7.9801     1.8561  -999.2500  -999.2500  -999.2500  -999.2500
 1046.0000     0.6093     4.4458     8.0350     1.8526  -999.2500  -999.2500  -999.2500  -999.2500
 1046.5000     0.6093     4.4531     8.0899     1.8491  -999.2500  -999.2500  -999.2500  -999.2500
 1047.0000     0.6093     4.4604     8.1448     1.8457  -999.2500  -999.2500  -999.2500  -999.2500
 1047.5000     0.6093     4.4677     8.1997     1.8422  -999.2500  -999.2500  -999.2500  -999.2500
 1048.0000     0.6093     4.4750     8.2546     1.8388  -999.2500  -999.2500  -999.2500  -999.2500
 1048.5000     0.6093     4.4823     8.3095     1.8353  -999.2500  -999.2500  -999.2500  -999.2500
 1049.0000     0.6093     4.4896     8.3644     1.8318  -999.2500  -999.2500  -999.2500  -999.2500
 1049.5000     0.6093     4.4969     8.4192     1.8284  -999.2500  -999.2500  -999.2500  -999.2500
 1050.0000     0.6093     4.5042     8.4741     1.8249  -999.2500  -999.2500  -999.2500  -999.2500
 1050.5000     0.6105     4.5115     8.5290     1.8214  -999.2500  -999.2500  -999.2500  -999.2500
 1051.0000     0.6123     4.5188     8.5839     1.8180  -999.2500  -999.2500  -999.2500  -999.2500
 1051.5000     0.6140     4.5262     8.6389     1.8145  -999.2500  -999.2500  -999.2500  -999.2500
 1052.0000     0.6158     4.5335     8.6941     1.8111  -999.2500  -999.2500  -999.2500  -999.2500
 1052.5000     0.6175     4.5408     8.7486     1.8076  -999.2500  -999.2500  -999.2500  -999.2500
