~VERSION INFORMATION
 VERS.                2.0:   CWLS LOG ASCII STANDARD - VERSION 2.0
 WRAP.                 NO:   ONE LINE PER DEPTH STEP
~WELL INFORMATION
#MNEM.UNIT      DATA TYPE    INFORMATION
#----------   ------------   ------------------------------
 STRT.F           16.0000:   START DEPTH
 STOP.F          634.0000:   STOP DEPTH
 STEP.F            0.5000:   STEP LENGTH
 NULL.          -999.2500:   NO VALUE
 COMP. LAWRENCE/ALLISON INC:   COMPANY
 WELL.    14-15 SX #11-11:   WELL
 FLD .             TEAPOT:   FIELD
 LOC .      S11 T38N R78W:   LOCATION
 CNTY.            NATRONA:   COUNTY
 STAT.            WYOMING:   STATE
 CTRY. UNITED STATES OF AMERICA:   COUNTRY
 SRVC.      Dresser Atlas:   SERVICE COMPANY
 DATE.        06-JAN-1985:   LOGDATE
 API .       490251101700:   API NUMBER
~CURVE INFORMATION
#MNEM.UNIT       API CODE    CURVE DESCRIPTION
#----------   ------------   ------------------------------
 DEPT.F                  :   
 SPR .MV     11 010 01 00:   SPONTANEOUS POTENTIAL FROM RES.
 RD  .OHMM   11 220 10 00:   RESISTIVITY DEEP
 RS  .OHMM   11 220 09 00:   RESISTIVITY SHALLOW
 RMLL.OHMM   20 270 04 00:   RESISTIVITY MICROLATEROLOG
 AC  .US/F   60 520 00 00:   ACCOUSTIC SONIC
 CNC .DEC    42 890 03 00:   COMPENSATED NEUTRON POROSITY SANDSTONE
 PORD.DEC    45 890 12 00:   POROSITY DENSITY SANDSTONE
 GRD .GAPI   45 310 01 00:   GAMMA RAY FROM DENSITY LOG
 CALD.IN     45 280 60 00:   CALIPER FROM DENSITY
 CORR.G/C3   45 356 01 00:   DENSITY CORRECTION
 DEN .G/C3   45 350 01 00:   COMPENSATED BULK DENSTIY
~PARAMETER INFORMATION
#MNEM.UNIT          VALUE    DESCRIPTION
#----------   ------------   ------------------------------
 PD  .                 GL:   PERMANENT DATUM
 EPD .F            5196.8:   ELEVATION PERMANENT DATUM
 LMF .                 KB:   LOG MEASURED FROM
 DMF .                 KB:   DRILLING MEASURED FROM
 EKB .F            5196.8:   KELLING BUSHING
 EGL .F            5196.8:   GROUND LEVEL
 DATE.        06-JAN-1985:   RUN DATE
 RUN .                  1:   RUN NUMBER
 DD  .F               650:   DEPTH DRILLER
 DL  .F               636:   DEPTH LOGGER
 BLI .F               634:   BOTTOM LOG INTERVAL
 CS  .IN            8.625:   CASING SIZE
 CBD .F                20:   CASING BOTTOM DRILLER
 CBL .F                22:   CASING BOTTOM LOGGER
 BS  .IN             6.25:   BIT SIZE
 BSD .F               650:   BIT SIZE AT DEPTH
 DFT .        KCL POLYMER:   DRILLING FLUID TYPE
 RMS .OHMM           .105:   RESISTIVITY MUD SAMPLE
 MST .F                72:   MUD SAMPLE TEMPERATURE
 RMF .OHMM            .08:   RESISTIVITY MUD FILTRATE SAMPLE
 MFST.F                72:   MUD FILTRATE SAMPLE TEMPERATURE
 RMC .OHMM            .13:   RESISTIVITY MUD CAKE
 MCST.F                72:   MUD CAKE SAMPLE TEMPERATURE
 MFSS.               CALC:   MUD FILTRATE SAMPLE SOURCE
 MCSS.               CALC:   MUD CAKE SAMPLE SOURCE
 TCS .HRS               3:   TIME CURCULATED STOPPED
 LUN .               6307:   LOGGING UNIT NUMBER
 LUL .               GLTE:   LOGGING UNIT LOCATION
 ENGI.               MACK:   RECORDING ENGINEER
 WITN.               PAGE:   WITNESSED BY
 CLNT.            A2DTECH:   CLIENT CODE
 ORIG.           5" PRINT:   ORIGIN OF DATA
 UWI .       490251101700:   UNIQUE WELL ID
 DICO. A2D Technologies, Inc.:   DIGITIZING COMPANY
 R1  . POROSITY WITH SANDSTONE:   REMARKS 1
~OTHER INFORMATION
~A   DEPT      SPR         RD         RS       RMLL         AC        CNC       PORD        GRD       CALD       CORR        DEN   
# ...
  565.0000   -69.1099    13.1460    12.6098    10.6673    88.5115     0.2491     0.0940   101.6669     6.5532     0.1371     2.5278
  565.5000   -68.9645    13.1414    12.7826    10.6537    88.1378     0.2500     0.1033    90.4853     6.5377     0.1464     2.5142
  566.0000   -68.9738    13.2285    12.9556    11.0275    88.4423     0.2558     0.1079    91.1040     6.5374     0.1554     2.5006
  566.5000   -68.6772    13.3160    13.2234    11.2575    89.2724     0.2561     0.1082    97.1691     6.5371     0.1535     2.5006
  567.0000   -68.3844    13.4972    13.3120    11.1786    90.1776     0.2522     0.1067   101.2674     6.5368     0.1447     2.5037
  567.5000   -68.3919    13.5865    13.4001    10.8701    90.1054     0.2480     0.1067   104.1554     6.5365     0.1357     2.5038
  568.0000   -68.3993    13.6763    13.4887    10.4964    89.6573     0.2435     0.1055   105.8331     6.5514     0.1327     2.5053
  568.5000   -68.4068    13.3858    13.2053    10.1356    89.2091     0.2504     0.1013   104.7877     6.5511     0.1249     2.5121
  569.0000   -68.4142    13.0138    12.9289    10.1519    88.8362     0.2583     0.1019   102.3808     6.5508     0.1010     2.5129
  569.5000   -68.1196    12.7467    12.7464    10.7315    88.9144     0.2622     0.1019   101.6345     6.5504     0.0890     2.5129
  570.0000   -67.8248    12.6542    12.5665    11.0939    89.3685     0.2610     0.0980   102.2567     6.5501     0.0817     2.5167
  570.5000   -67.2281    12.6498    12.5622    11.0158    90.1985     0.2493     0.0953   103.0267     6.5498     0.0805     2.5236
  571.0000   -67.0776    12.7337    12.6454    10.7883    90.8782     0.2490     0.0951   104.2506     6.5495     0.0820     2.5259
  571.5000   -66.9409    12.7282    12.8176    10.5654    91.4078     0.2525     0.0963   105.0206     6.5645     0.0856     2.5251
  572.0000   -67.0997    12.8135    12.9024    10.7117    91.7903     0.2608     0.0984   104.2777     6.5489     0.0945     2.5222
  572.5000   -67.2598    12.7194    12.8979    10.7102    92.3806     0.2644     0.1023   104.8965     6.5486     0.1006     2.5176
  573.0000   -67.2672    12.6272    12.7158    10.4890    92.9708     0.2647     0.1090   106.8768     6.5331     0.1020     2.5109
  573.5000   -67.4257    12.4490    12.5362    10.2015    93.4498     0.2663     0.1117   107.1896     6.5328     0.1020     2.5003
  574.0000   -67.5842    12.2733    12.4373    10.1299    93.6032     0.2716     0.1135   107.0519     6.5325     0.1021     2.4950
  574.5000   -67.7427    12.0164    12.1739    10.1288    93.6062     0.2765     0.1148   108.4304     6.5322     0.1022     2.4928
  575.0000   -67.9012    11.8468    11.9990    10.1980    93.6091     0.2801     0.1178   111.0159     6.5319     0.1023     2.4860
  575.5000   -67.9087    11.6796    11.6793    10.4830    93.6121     0.2789     0.1202   113.9039     6.5468     0.1006     2.4792
  576.0000   -67.9161    11.4352    11.4349    10.6787    93.6151     0.2765     0.1199   116.4894     6.5465     0.0898     2.4808
  576.5000   -68.0746    11.2738    11.3519  -999.2500    93.8437     0.2756     0.1160   116.9534     6.5462     0.0760     2.4868
  577.0000   -68.0821    11.1920    11.1917  -999.2500    94.2226     0.2717     0.1115   113.6421     6.5459     0.0663     2.4944
  577.5000   -68.2406    11.1882    11.1105  -999.2500    94.6015     0.2684     0.1088   107.4530     6.5456     0.0697     2.4991
  578.0000   -68.5501    11.1070    11.0299  -999.2500    94.8301     0.2681     0.1070   106.8580     6.5453     0.0809     2.5043
  578.5000   -68.7086    11.0265    10.9499  -999.2500    94.9835     0.2805     0.1058   108.0853     6.5449     0.0907     2.5074
  579.0000   -68.8672    10.7957    10.7954  -999.2500    95.0617     0.2828     0.1052   107.9476     6.5446     0.0905     2.5074
  579.5000   -69.1767    10.6433    10.5695  -999.2500    95.0647     0.2908     0.1053   106.2971     6.5443     0.0894     2.5097
  580.0000   -69.4964    10.3486    10.3483  -999.2500    95.0677     0.2902     0.1046   104.6465     6.5440     0.0894     2.5121
  580.5000   -69.7961    10.1320    10.2022  -999.2500    95.0707     0.2950     0.1001   104.5054     6.5437     0.0910     2.5160
  581.0000   -69.8308    10.1285     9.9887  -999.2500    95.0737     0.2920     0.0974   105.5814     6.5434     0.0956     2.5206
  581.5000   -70.1147    10.0551     9.9163  -999.2500    95.0767     0.2851     0.0930   107.2592     6.5431     0.1033     2.5291
  582.0000   -70.2732     9.9821     9.8443  -999.2500    95.0797     0.2806     0.0860   109.5420     6.5428     0.1064     2.5380
  582.5000   -70.2807     9.9787     9.9094  -999.2500    95.1579     0.2791     0.0873   112.5814     6.5425     0.1094     2.5410
  583.0000   -70.4392     9.9752     9.9060  -999.2500    95.4622     0.2791     0.0933   115.0155     6.5422     0.1201     2.5355
  583.5000   -70.4466    10.0412    10.0418  -999.2500    95.9164     0.2821     0.1024   116.6933     6.5419     0.1398     2.5196
  584.0000   -70.4541    10.1077    10.1075  -999.2500    95.9945     0.2861     0.1066   117.3120     6.5416     0.1444     2.5096
  584.5000   -70.4615    10.1033    10.1743  -999.2500    95.9975     0.2876     0.1078   115.3589     6.5413     0.1339     2.5031
  585.0000   -70.4690    10.0998    10.1004  -999.2500    96.0757     0.2885     0.1075   111.7416     6.5410     0.1234     2.5034
  585.5000   -70.6275     9.8885     9.9579  -999.2500    96.3043     0.2870     0.1051   112.2091     6.5407     0.1310     2.5049
  586.0000   -70.6349     9.8168     9.8173  -999.2500    96.6832     0.2816     0.1009   117.9715     6.5404     0.1326     2.5089
  586.5000   -70.7934     9.6782     9.6119  -999.2500    96.9869     0.2834     0.1003   116.1697     6.5401     0.1040     2.5139
  587.0000   -70.9519     9.5416     9.4731  -999.2500    97.2907     0.2915     0.0995   113.6114     6.5398     0.0845     2.5156
  587.5000   -71.1104     9.4069     9.3370  -999.2500    97.5944     0.2940     0.0983   113.4703     6.5395     0.0800     2.5170
  588.0000   -71.1179     9.2742     9.1393  -999.2500    97.5974     0.2904     0.0998   115.6053     6.5240     0.0997     2.5178
  588.5000   -71.4321     9.0801     9.0079  -999.2500    97.5245     0.2901     0.1031   118.3420     6.5237     0.1043     2.5135
  589.0000   -71.7372     8.9519     8.8283  -999.2500    97.5282     0.2889     0.1043   117.4479     6.5234     0.1089     2.5080
  589.5000   -71.8958     8.7646     8.7643  -999.2500    97.6816     0.2877     0.1029   115.7974     6.5231     0.1165     2.5122
  590.0000   -72.3580     8.7010     8.7008  -999.2500    97.8349     0.2711     0.0911   115.3537     6.5228     0.1272     2.5225
  590.5000   -72.6675     8.6379     8.6376  -999.2500    98.2139     0.2723     0.0863   116.1271     6.5377     0.1363     2.5346
  591.0000   -72.9771     8.5752     8.6347  -999.2500    99.1191     0.2808     0.0845   116.2886     6.5374     0.1168     2.5430
  591.5000   -73.2867     8.6327     8.6317  -999.2500   100.3075     0.2932     0.0890   116.1509     6.5371     0.0957     2.5438
  592.0000   -73.5962     8.5694     8.6287  -999.2500   101.6985     0.2980     0.0936   116.3192     6.5368     0.0746     2.5385
  592.5000   -73.7547     8.5072     8.6258  -999.2500   102.6617     0.3119     0.0984   116.4841     6.5365     0.0747     2.5302
  593.0000   -73.9132     8.4455     8.5632  -999.2500   102.2121     0.3252     0.1002   117.1028     6.5362     0.0793     2.5227
  593.5000   -74.0717     8.2688     8.0983  -999.2500   100.6970     0.3363     0.1033   118.1754     6.5359     0.0915     2.5144
  594.0000   -74.0792     7.2454     7.4490  -999.2500    98.5152     0.3249     0.1205   118.6429     6.5356     0.1112     2.4894
  594.5000   -74.2377     6.7576     6.8518  -999.2500    97.5436     0.3110     0.1208   118.8077     6.5353     0.1233     2.4788
  595.0000   -74.2451     6.4799     6.5248  -999.2500    96.8722     0.2997     0.1081   118.0649     6.5350     0.1159     2.4849
