~VERSION INFORMATION
 VERS.                2.0:   CWLS LOG ASCII STANDARD - VERSION 2.0
 WRAP.                 NO:   ONE LINE PER DEPTH STEP
~WELL INFORMATION
#MNEM.UNIT      DATA TYPE    INFORMATION
#----------   ------------   ------------------------------
 STRT.F            0.5000:   START DEPTH
 STOP.F          696.0000:   STOP DEPTH
 STEP.F            0.5000:   STEP LENGTH
 NULL.          -999.2500:   NO VALUE
 COMP. LAWRENCE/ALLISON INC:   COMPANY
 WELL. SX 11 WP #26-44-11:   WELL
 FLD .             TEAPOT:   FIELD
 LOC .      S11 T38N R78W:   LOCATION
 CNTY.            NATRONA:   COUNTY
 STAT.            WYOMING:   STATE
 CTRY. UNITED STATES OF AMERICA:   COUNTRY
 SRVC.      Dresser Atlas:   SERVICE COMPANY
 DATE.        08-SEP-1984:   LOGDATE
 API .       490251097600:   API NUMBER
~CURVE INFORMATION
#MNEM.UNIT       API CODE    CURVE DESCRIPTION
#----------   ------------   ------------------------------
 DEPT.F                  :   
 AC  .US/F   60 520 00 00:   ACCOUSTIC
 SPR .MV     07 010 01 00:   SPONTANEOUS POTENTIAL FROM RES.
 RILD.OHMM   07 120 46 00:   RESISTIVITY INDUCTION LOG DEEP
 RILM.OHMM   07 120 44 00:   RESISTIVITY INDUCTION LOG MEDIUM
 RFOC.OHMM   07 220 04 00:   RESISTIVITY FOCUSED LOG
 GRR .GAPI   07 310 01 00:   GAMMA RAY FROM RESISTIVITY
 CALD.IN     45 280 60 00:   CALIPER FROM DENSITY LOG
 DEN .G/C3   45 350 01 00:   COMPENSATED BULK DENSTIY
 CORR.G/C3   45 356 01 00:   DENSITY CORRECTION
 PORD.DEC    45 890 12 00:   POROSITY DENSITY SANDSTONE
 CNC .DEC    42 890 03 00:   NEUTRON POROSITY SANDSTONE
~PARAMETER INFORMATION
#MNEM.UNIT          VALUE    DESCRIPTION
#----------   ------------   ------------------------------
 PD  .                 GL:   PERMANENT DATUM
 EPD .F              5186:   ELEVATION PERMANENT DATUM
 LMF .                 GL:   LOG MEASURED FROM
 DMF .                 GL:   DRILLING MEASURED FROM
 EGL .F              5186:   GROUND LEVEL
 DATE.         8-SEP-1984:   RUN DATE
 RUN .                  1:   RUN NUMBER
 DD  .F               712:   DEPTH DRILLER
 DL  .F               695:   DEPTH LOGGER
 BLI .F               693:   BOTTOM LOG INTERVAL
 CS  .IN            8.625:   CASING SIZE
 CBD .F                40:   CASING BOTTOM DRILLER
 CBL .F                45:   CASING BOTTOM LOGGER
 BS  .IN            7.875:   BIT SIZE
 BSD .F               712:   BIT SIZE AT DEPTH
 DFT .          KCL WATER:   DRILLING FLUID TYPE
 MSS .           FLOWLINE:   MUD SAMPLE SOURCE
 RMS .OHMM            .22:   RESISTIVITY MUD SAMPLE
 MST .F                72:   MUD SAMPLE TEMPERATURE
 RMF .OHMM            .17:   RESISTIVITY MUD FILTRATE SAMPLE
 MFST.F                72:   MUD FILTRATE SAMPLE TEMPERATURE
 RMC .OHMM            .28:   RESISTIVITY MUD CAKE
 MCST.F                72:   MUD CAKE SAMPLE TEMPERATURE
 MFSS.               CALC:   MUD FILTRATE SAMPLE SOURCE
 MCSS.               CALC:   MUD CAKE SAMPLE SOURCE
 RMB .OHMM            .18:   RESISTIVITY MUD AT BHT
 BHT .F                90:   BOTTOM HOLE TEMPERATURE
 TCS .HRS               3:   TIME CURCULATED STOPPED
 MRT .F                90:   MAXIMUM RECORDED TEMPERATURE
 LUN .               6274:   LOGGING UNIT NUMBER
 LUL .               GLTE:   LOGGING UNIT LOCATION
 ENGI.             RAUTIO:   RECORDING ENGINEER
 WITN.           JENNINGS:   WITNESSED BY
 CLNT.            A2DTECH:   CLIENT CODE
 ORIG. 1", 2', 2.5", 5" PRNT:   ORIGIN OF DATA
 UWI .       490251097600:   UNIQUE WELL ID
 DICO. A2D Technologies, Inc.:   DIGITIZING COMPANY
~OTHER INFORMATION
~A    DEPT      AC        SPR       RILD       RILM       RFOC         GRR      CALD        DEN       CORR       PORD        CNC   
# ...
  153.0000   104.1970   -10.3160     8.2380     8.4680     8.5690    90.8668     7.8510     2.4840     0.0080     0.1170     0.3154
  153.5000   103.5480   -10.0600     8.2380     8.3900     8.7050    89.6931     7.8510     2.4880     0.0220     0.1140     0.3166
  154.0000   102.9320   -10.0920     8.0050     8.2030     8.6280    89.7016     7.8520     2.4880     0.0340     0.1140     0.3045
  154.5000   102.9750   -10.2090     7.7550     8.0010     8.3970    92.0806     7.8520     2.4880     0.0470     0.1140     0.3033
  155.0000   103.9800   -10.3290     7.5050     7.7990     8.1660    93.5720     7.8540     2.4850     0.0540     0.1160     0.3128
  155.5000   105.1300   -10.4490     7.2540     7.5970     7.9340    92.3954     7.8560     2.4790     0.0450     0.1190     0.3106
  156.0000   106.2800   -10.5700     7.0040     7.3940     7.7030    90.9224     7.8580     2.4750     0.0280     0.1220     0.3041
  156.5000   107.4300   -10.6880     6.7920     7.1920     7.4720    89.7458     7.8600     2.4720     0.0110     0.1240     0.3016
  157.0000   108.2210   -10.7800     6.7920     6.9810     7.2400    89.7558     7.8610     2.4690     0.0140     0.1260     0.3111
  157.5000   108.8210   -10.6830     6.7920     6.9940     7.0460    90.3569     7.8630     2.4640     0.0230     0.1290     0.3034
  158.0000   108.8250   -10.5880     6.7920     7.0080     7.0460    92.4396     7.8650     2.4540     0.0110     0.1350     0.3004
  158.5000   108.5250   -10.4930     6.7920     7.0210     7.0460    93.6333     7.8670     2.4490    -0.0150     0.1390     0.2928
  159.0000   108.0360   -10.3990     6.7920     7.0350     7.1350    95.4196     7.8690     2.4500    -0.0100     0.1380     0.2918
  159.5000   107.4530   -10.3040     6.8070     7.0620     7.2900    99.2815     7.8710     2.4500    -0.0020     0.1390     0.2955
  160.0000   106.8290   -10.2090     6.8930     7.1560     7.4460    96.0308     7.8720     2.4500     0.0060     0.1390     0.2917
  160.5000   106.1020   -10.1150     6.9790     7.2500     7.6020    92.1875     7.8740     2.4580     0.0140     0.1350     0.2902
  161.0000   105.3750   -10.0220     7.0660     7.3440     7.7570    91.0108     7.8750     2.4700     0.0160     0.1270     0.3135
  161.5000   104.6470    -9.9010     7.1520     7.4370     7.9130    91.0208     7.8760     2.4800    -0.0040     0.1200     0.3224
  162.0000   103.8450    -9.7780     7.2390     7.5310     8.1620    91.3257     7.8780     2.4800    -0.0320     0.1200     0.3168
  162.5000   103.8450    -9.6540     7.3250     7.6250     8.1420    91.0365     7.8790     2.4730    -0.0350     0.1230     0.3032
  163.0000   104.9440    -9.5290     7.4110     7.7190     8.0930    90.1562     7.8810     2.4640    -0.0290     0.1270     0.3003
  163.5000   105.9440    -9.4010     7.4980     7.8120     8.0140    88.9824     7.8820     2.4540    -0.0130     0.1330     0.2967
  164.0000   106.9440    -9.1560     7.5620     7.8870     8.0270    88.6918     7.8840     2.4420    -0.0090     0.1400     0.2985
  164.5000   107.8290    -8.9070     7.6220     7.9330     8.0610    88.9995     7.8850     2.4370     0.0010     0.1460     0.3008
  165.0000   107.6580    -8.6580     7.6810     7.9790     8.0940    91.0821     7.8870     2.4410     0.0110     0.1430     0.3070
  165.5000   107.1220    -8.4100     7.7400     8.0250     8.1280    94.6477     7.8880     2.4480     0.0080     0.1390     0.3208
  166.0000   106.5870    -8.1620     7.8000     8.0710     8.1610    96.7274     7.8890     2.4540    -0.0010     0.1360     0.3214
  166.5000   106.0510    -7.9130     7.8590     8.1180     8.1950    95.5537     7.8910     2.4610    -0.0010     0.1320     0.3207
  167.0000   105.5150    -7.6640     7.9340     8.1620     8.2280    94.9682     7.8830     2.4670     0.0090     0.1280     0.3216
  167.5000   104.9790    -7.6430     7.8660     8.0570     8.2620    94.6804     7.8740     2.4700     0.0190     0.1260     0.3280
  168.0000   104.7480    -7.6610     7.7500     7.9310     8.3140    94.6918     7.8640     2.4740     0.0200     0.1240     0.3267
  168.5000   104.6410    -7.6810     7.6340     7.8050     8.2360    93.5152     7.8540     2.4740     0.0070     0.1230     0.3202
  169.0000   105.4670    -7.7020     7.5180     7.6790     8.0620    92.6349     7.8520     2.4680     0.0060     0.1260     0.3131
  169.5000   106.1170    -7.7220     7.4020     7.5530     7.8880    92.0508     7.8520     2.4630     0.0090     0.1280     0.3057
  170.0000   106.7670    -7.7420     7.2850     7.4280     7.7240    90.2831     7.8510     2.4640     0.0190     0.1300     0.3034
  170.5000   107.4170    -7.7620     7.1770     7.3100     7.7480    91.1805     7.8510     2.4660     0.0290     0.1280     0.3006
  171.0000   107.7550    -7.7830     7.1950     7.3480     7.7710    93.5594     7.8510     2.4660     0.0300     0.1280     0.2920
  171.5000   107.5550    -7.8030     7.2130     7.3840     7.7930    92.0865     7.8510     2.4660     0.0240     0.1280     0.2871
  172.0000   107.3550    -7.8160     7.2310     7.4200     7.8160    90.0195     7.8510     2.4670     0.0180     0.1270     0.2845
  172.5000   107.1550    -7.6990     7.2480     7.4560     7.8380    90.0310     7.8510     2.4670     0.0240     0.1260     0.2821
  173.0000   107.4360    -7.5840     7.2660     7.4910     7.8680    91.2247     7.8510     2.4640     0.0230     0.1280     0.2866
  173.5000   108.4910    -7.4690     7.2840     7.5270     7.8100    92.4184     7.8510     2.4570     0.0030     0.1320     0.2940
  174.0000   109.5470    -7.3540     7.3010     7.5630     7.7260    93.3173     7.8520     2.4490    -0.0170     0.1370     0.2985
  174.5000   110.8170    -7.2340     7.3190     7.5990     7.6420    93.3258     7.8550     2.4460    -0.0200     0.1400     0.2828
  175.0000   110.8170    -7.1890     7.3370     7.6350     7.5840    92.7404     7.8580     2.4490    -0.0120     0.1380     0.2741
  175.5000   109.6220    -7.1460     7.3540     7.6710     7.7670    92.7504     7.8620     2.4540    -0.0050     0.1350     0.2695
  176.0000   107.8970    -7.1020     7.3720     7.7070     8.2380    93.3515     7.8650     2.4590    -0.0140     0.1320     0.2811
  176.5000   105.7540    -7.0580     7.4070     7.7420     8.1950    95.1393     7.8680     2.4550    -0.0180     0.1340     0.2981
  177.0000   103.6450    -7.0040     7.4490     7.7780     8.1120    96.0353     7.8710     2.4510    -0.0010     0.1370     0.3004
  177.5000   103.7710    -6.9110     7.4910     7.8000     8.0290    95.1549     7.8710     2.4490     0.0140     0.1400     0.3027
  178.0000   104.3420    -6.8200     7.5330     7.8100     7.9400    94.5723     7.8710     2.4520     0.0100     0.1390     0.3084
  178.5000   104.9130    -6.7300     7.5750     7.8190     7.9900    93.1008     7.8710     2.4640     0.0160     0.1300     0.3120
  179.0000   105.1530    -6.6400     7.6170     7.8280     8.0830    92.2205     7.8710     2.4760     0.0240     0.1230     0.3157
  179.5000   104.9530    -6.5490     7.6580     7.8370     8.1770    91.6350     7.8710     2.4770     0.0260     0.1200     0.3095
  180.0000   105.1850    -6.4610     7.6910     7.8470     8.3140    92.5339     7.8710     2.4700     0.0160     0.1230     0.3005
  180.5000   105.9710    -6.2690     7.7230     7.8560     8.1970    92.8402     7.8710     2.4620     0.0020     0.1290     0.3021
  181.0000   106.7560    -6.0470     7.7560     7.8650     8.0140    92.5510     7.8710     2.4550    -0.0120     0.1320     0.3069
  181.5000   107.0070    -5.8240     7.7890     7.9050     8.0860    92.5610     7.8710     2.4520    -0.0260     0.1350     0.3256
  182.0000   106.9680    -5.6010     7.8220     7.9550     8.2940    92.8658     7.8730     2.4510    -0.0360     0.1370     0.3326
  182.5000   106.9300    -5.3780     7.8540     8.0060     8.4680    93.7647     7.8750     2.4500    -0.0360     0.1380     0.3271
  183.0000   106.8920    -5.1540     7.8870     8.0560     8.3560    93.1807     7.8770     2.4500    -0.0280     0.1380     0.3137
