~VERSION INFORMATION
 VERS.                2.0:   CWLS LOG ASCII STANDARD - VERSION 2.0
 WRAP.                 NO:   ONE LINE PER DEPTH STEP
~WELL INFORMATION
#MNEM.UNIT      DATA TYPE    INFORMATION
#----------   ------------   ------------------------------
 STRT.F            2.0000:   START DEPTH
 STOP.F          518.0000:   STOP DEPTH
 STEP.F            0.5000:   STEP LENGTH
 NULL.          -999.2500:   NO VALUE
 COMP. LAWRENCE/ALLISON INC:   COMPANY
 WELL.    54-51 SX #10-10:   WELL
 FLD .             TEAPOT:   FIELD
 LOC .      S10 T38N R78W:   LOCATION
 CNTY.            NATRONA:   COUNTY
 STAT.            WYOMING:   STATE
 CTRY. UNITED STATES OF AMERICA:   COUNTRY
 SRVC.            Unknown:   SERVICE COMPANY
 DATE.        14-AUG-1984:   LOGDATE
 API .       490251098800:   API NUMBER
~CURVE INFORMATION
#MNEM.UNIT       API CODE    CURVE DESCRIPTION
#----------   ------------   ------------------------------
 DEPT.F                  :   
 CALD.IN     45 280 60 00:   CALIPER
 DEN .G/C3   45 350 01 00:   COMPENSATED BULK DENSTIY
 CORR.G/C3   45 356 01 00:   DENSITY CORRECTION
 CNC .DEC    42 890 03 00:   NEUTRON POROSITY SANDSTONE
 PORD.DEC    45 890 12 00:   POROSITY DENSITY SANDSTONE
 GRR .GAPI   07 310 01 00:   GAMMA RAY FROM RES. LOG.
 RFOC.OHMM   07 220 04 00:   RESISTIVITY FOCUSED LOG
 RILD.OHMM   07 120 46 00:   INDUCTION LOG DEEP RESISTIVITY
 RILM.OHMM   07 120 44 00:   INDUCTION LOG MEDIUM RESISTIVITY
 AC  .US/F   60 520 00 00:   ACOUSTIC SONIC
 SPR .MV     07 010 01 00:   SPONTANEOUS POTENTIAL
~PARAMETER INFORMATION
#MNEM.UNIT          VALUE    DESCRIPTION
#----------   ------------   ------------------------------
 PD  .                 GL:   PERMANENT DATUM
 EPD .F              5197:   ELEVATION PERMANENT DATUM
 LMF .                 GL:   LOG MEASURED FROM
 DMF .                 GL:   DRILLING MEASURED FROM
 EGL .F              5197:   GROUND LEVEL
 DATE.        14-AUG-1984:   RUN DATE
 RUN .                  1:   RUN NUMBER
 DD  .F               530:   DEPTH DRILLER
 DL  .F               520:   DEPTH LOGGER
 BLI .F               518:   BOTTOM LOG INTERVAL
 CS  .IN            9.625:   CASING SIZE
 CBD .F                40:   CASING BOTTOM DRILLER
 CBL .F                42:   CASING BOTTOM LOGGER
 BS  .IN            7.875:   BIT SIZE
 BSD .F               530:   BIT SIZE AT DEPTH
 DFT .          KCL WATER:   DRILLING FLUID TYPE
 MSS .           FLOWLINE:   MUD SAMPLE SOURCE
 RMS .OHMM            .19:   RESISTIVITY MUD SAMPLE
 MST .F                80:   MUD SAMPLE TEMPERATURE
 RMB .OHMM            .17:   RESISTIVITY MUD AT BHT
 BHT .F                90:   BOTTOM HOLE TEMPERATURE
 TCS .HRS               4:   TIME CURCULATED STOPPED
 MRT .F                90:   MAXIMUM RECORDED TEMPERATURE
 LUN .               6274:   LOGGING UNIT NUMBER
 LUL .               GLTE:   LOGGING UNIT LOCATION
 ENGI.             RAUTIO:   RECORDING ENGINEER
 WITN.              FIVAS:   WITNESSED BY
 CLNT.            A2DTECH:   CLIENT CODE
 ORIG.       2", 5" PRINT:   ORIGIN OF DATA
 UWI .       490251098800:   UNIQUE WELL ID
 DICO. A2D Technologies, Inc.:   DIGITIZING COMPANY
~OTHER INFORMATION
~A    DEPT    CALD        DEN       CORR        CNC       PORD         GRR      RFOC       RILD       RILM         AC        SPR   
# ...
  307.0000     7.7956     2.3942     0.0139     0.2508     0.1704    64.6512    17.4715    16.7980    16.1087    92.9828    85.1296
  307.5000     7.7956     2.3984     0.0295     0.2465     0.1674    64.9041    17.4215    16.7980    16.0166    93.1867    85.3688
  308.0000     7.7956     2.3943     0.0339     0.2441     0.1666    66.1097    17.3715    16.6712    15.9249    93.5470    85.6100
  308.5000     7.7956     2.3838     0.0351     0.2460     0.1746    67.6749    17.3218    16.5568    15.8338    93.9078    85.8640
  309.0000     7.7956     2.3765     0.0363     0.2447     0.1784    69.3116    17.2672    16.4431    15.7432    94.2786    85.6701
  309.5000     7.7956     2.3815     0.0345     0.2428     0.1806    69.7348    17.1251    16.3303    15.6531    94.1052    85.3830
  310.0000     7.7956     2.3884     0.0269     0.2457     0.1762    68.7853    16.9685    16.2182    15.5635    93.9268    85.0952
  310.5000     7.7956     2.3954     0.0194     0.2507     0.1678    67.7598    16.7980    16.1069    15.4655    93.7536    84.8078
  311.0000     7.7956     2.4025     0.0205     0.2555     0.1650    67.7390    16.6827    15.9964    15.5022    93.6038    84.5217
  311.5000     7.7956     2.4076     0.0223     0.2604     0.1620    69.0299    16.5555    15.8866    15.3519    93.4007    84.2358
  312.0000     7.7956     2.4096     0.0167     0.2635     0.1610    70.1465    16.2454    15.7775    15.2031    92.9726    84.0938
  312.5000     7.7956     2.4040     0.0091     0.2619     0.1636    69.5344    15.9288    15.6692    15.0558    92.3881    84.0832
  313.0000     7.7956     2.4025     0.0099     0.2619     0.1639    70.0708    15.6185    15.5617    14.9099    91.8886    83.8913
  313.5000     7.7956     2.4021     0.0105     0.2652     0.1633    71.0880    15.3141    15.4655    14.7653    91.3930    83.7659
  314.0000     7.7956     2.4016     0.0100     0.2687     0.1644    71.2651    15.0898    15.3120    14.6222    91.4770    83.6492
  314.5000     7.7956     2.3963     0.0033     0.2658     0.1684    69.6740    15.5724    15.1433    14.4805    91.8616    83.5329
  315.0000     7.7956     2.3907    -0.0057     0.2607     0.1724    68.5557    15.7884    14.9764    14.3402    92.3157    83.3417
  315.5000     7.7956     2.3849    -0.0193     0.2559     0.1758    69.3477    15.8975    14.8111    14.2012    92.4133    83.1188
  316.0000     7.7956     2.3837    -0.0182     0.2533     0.1755    71.6919    15.5115    14.6477    14.0635    92.0965    82.8955
  316.5000     7.7956     2.3923    -0.0066     0.2522     0.1697    74.2719    15.2211    14.5022    13.9272    91.5248    82.6720
  317.0000     7.7956     2.4073     0.0015     0.2510     0.1607    76.5375    14.9078    14.4463    13.7253    90.9376    82.4499
  317.5000     7.7956     2.4224     0.0034     0.2499     0.1522    76.4695    14.9078    14.3705    13.7748    90.8596    82.2277
  318.0000     7.7956     2.4332     0.0052     0.2457     0.1462    75.7096    14.9078    14.4036    13.8743    90.9950    82.1958
  318.5000     7.7956     2.4341     0.0161     0.2365     0.1473    74.2742    14.9078    14.4698    13.9746    91.4047    82.3542
  319.0000     7.7957     2.4308     0.0276     0.2348     0.1486    72.8633    14.9078    14.5771    14.0756    91.7972    82.5126
  319.5000     7.7944     2.4286     0.0367     0.2425     0.1499    71.3992    15.0937    14.7264    14.1774    92.1320    82.6725
  320.0000     7.7927     2.4286     0.0201     0.2464     0.1499    70.9522    15.3031    14.8774    14.2799    92.2985    82.8324
  320.5000     7.7910     2.4288     0.0289     0.2336     0.1479    70.7652    15.5153    15.0300    14.3831    92.4650    82.9915
  321.0000     7.7894     2.4324     0.0375     0.2363     0.1469    70.5722    15.7305    15.1841    14.4870    92.5871    83.1017
  321.5000     7.7877     2.4355     0.0412     0.2401     0.1465    70.3705    15.9487    15.3398    14.5918    92.5871    83.0093
  322.0000     7.7861     2.4386     0.0312     0.2439     0.1450    70.1703    16.1922    15.4971    14.6972    92.5184    82.9224
  322.5000     7.7844     2.4415     0.0189     0.2465     0.1411    70.7083    16.0170    15.6082    14.7715    92.2687    82.8364
  323.0000     7.7828     2.4348     0.0091     0.2488     0.1475    71.3316    15.8247    15.2860    14.6903    92.0707    82.7505
  323.5000     7.7811     2.4186     0.0249     0.2538     0.1541    71.9736    15.6346    15.0403    14.4230    92.0042    82.6646
  324.0000     7.7794     2.3983     0.0660     0.2589     0.1639    72.7252    15.4655    14.7991    14.1605    91.9383    82.5787
  324.5000     7.7778     2.3780     0.1057     0.2624     0.1813    73.9161    15.2764    14.5622    13.9029    91.8344    82.4926
  325.0000     7.7760     2.3617     0.0938     0.2651     0.1917    74.6621    15.0091    14.3306    13.6498    91.6395    82.4058
  325.5000     7.7782     2.3553     0.0743     0.2640     0.1887    75.2608    14.7739    14.1047    13.4013    91.4448    82.3186
  326.0000     7.7813     2.3765     0.0549     0.2584     0.1849    74.5040    14.3732    13.8587    13.1572    91.2505    82.2028
  326.5000     7.7843     2.3986     0.0302     0.2535     0.1666    73.7653    14.2388    13.8917    12.9173    91.1940    82.0499
  327.0000     7.7874     2.4123     0.0045     0.2539     0.1582    74.7412    14.0942    13.7542    12.7531    91.1940    81.8955
  327.5000     7.7904     2.4265    -0.0208     0.2543     0.1519    75.7018    13.9512    13.6232    12.7122    91.0180    81.7404
  328.0000     7.7934     2.4411    -0.0216     0.2473     0.1460    76.6485    13.8519    13.4935    12.6365    90.8259    81.5849
  328.5000     7.7965     2.4484     0.0050     0.2372     0.1403    77.5792    13.8519    13.3523    12.9115    90.6338    81.4347
  329.0000     7.7995     2.4454     0.0240     0.2416     0.1411    77.6597    13.8519    13.6029    13.4794    90.4416    81.4263
  329.5000     7.8026     2.4385     0.0233     0.2488     0.1420    76.0986    13.8519    13.7802    14.0722    90.2495    81.8314
  330.0000     7.8056     2.4302     0.0142     0.2631     0.1423    75.9602    14.4960    13.9834    14.8856    91.2582    82.2215
  330.5000     7.8087     2.4074     0.0065     0.2598     0.1566    76.7991    15.0453    14.4787    16.2364    93.2109    82.6111
  331.0000     7.8117     2.3850    -0.0019     0.2594     0.1731    74.1263    17.4683    15.7101    17.7099    94.8756    83.0014
  331.5000     7.8148     2.3626     0.0069     0.2591     0.1862    68.2355    20.0080    18.0992    19.3170    95.0746    83.3912
  332.0000     7.8178     2.3481     0.0119     0.2573     0.1964    63.2955    22.9170    20.8517    21.0700    92.5786    83.7808
  332.5000     7.8208     2.3711     0.0141     0.2555     0.1791    61.2771    26.2489    24.0229    22.9821    89.2637    84.1806
  333.0000     7.8239     2.4003     0.0218     0.2568     0.1574    62.3927    30.5126    27.6762    25.0677    87.7114    84.4324
  333.5000     7.8269     2.4241     0.0324     0.2577     0.1530    62.0588    30.3729    29.7290    27.5811    88.8478    84.5714
  334.0000     7.8300     2.3883     0.0433     0.2581     0.1680    61.2603    30.0952    31.5092    27.9636    93.9032    84.7414
  334.5000     7.8330     2.3464     0.0401     0.2576     0.1960    60.9277    29.6835    33.3961    28.0923    97.7805    84.9097
  335.0000     7.8351     2.3310     0.0296     0.2559     0.2088    61.9667    29.9770    34.6986    26.8316    97.5622    85.0789
  335.5000     7.8336     2.3369     0.0191     0.2503     0.2018    63.0080    30.5126    34.4485    27.8071    93.2836    85.2483
  336.0000     7.8323     2.3813     0.0117     0.2414     0.1903    62.1391    32.7758    34.2573    29.4122    87.9381    85.4195
  336.5000     7.8309     2.4247     0.0159     0.2312     0.1563    59.6025    35.6678    34.0672    28.3887    84.6269    85.5906
  337.0000     7.8295     2.4407     0.0199     0.2353     0.1446    59.4615    33.1553    33.8781    27.7398    86.4950    85.8669
