~VERSION INFORMATION
 VERS.                2.0:   CWLS LOG ASCII STANDARD - VERSION 2.0
 WRAP.                 NO:   ONE LINE PER DEPTH STEP
~WELL INFORMATION
#MNEM.UNIT      DATA TYPE    INFORMATION
#----------   ------------   ------------------------------
 STRT.F           38.0000:   START DEPTH
 STOP.F          517.0000:   STOP DEPTH
 STEP.F            0.5000:   STEP LENGTH
 NULL.          -999.2500:   NO VALUE
 COMP. FENIX & SCISSON U.S. NAVY:   COMPANY
 WELL.     NPR 3 #88 S -3:   WELL
 FLD .             TEAPOT:   FIELD
 LOC .       S3 T38N R78W:   LOCATION
 CNTY.            NATRONA:   COUNTY
 STAT.            WYOMING:   STATE
 CTRY. UNITED STATES OF AMERICA:   COUNTRY
 SRVC.              Welex:   SERVICE COMPANY
 DATE.        10-APR-1977:   LOGDATE
 API .       490251033000:   API NUMBER
~CURVE INFORMATION
#MNEM.UNIT       API CODE    CURVE DESCRIPTION
#----------   ------------   ------------------------------
 DEPT.F                  :   
 GRD .GAPI   45 310 01 00:   GAMMA RAY FROM DENSITY LOG
 CALD.IN     45 280 60 00:   CALIPER FROM DENSITY LOG
 CORR.G/C3   45 356 01 00:   DENSITY CORRECTION
 RHOB.G/C3   45 350 01 00:   BULK DENSITY
 DPHI.DEC    45 890 12 00:   DENSITY POROSITY SANDSTONE
 SPR .MV     07 010 01 00:   SPONTANEOUS POTENTIAL
 ILD .OHMM   07 120 46 00:   INDUCTION LOG DEEP
 ILM .OHMM   07 120 44 00:   INDUCTION LOG MEDIUM
 SGRD.OHMM   07 221 05 00:   SHALLOW SHORT GUARD RESISTIVITY
~PARAMETER INFORMATION
#MNEM.UNIT          VALUE    DESCRIPTION
#----------   ------------   ------------------------------
 PD  .                 GL:   PERMANENT DATUM
 EPD .F              5120:   ELEVATION PERMANENT DATUM
 LMF .                 GL:   LOG MEASURED FROM
 DMF .                 GL:   DRILLING MEASURED FROM
 EGL .F              5120:   GROUND LEVEL
 DATE.        10-APR-1977:   RUN DATE
 RUN .                  1:   RUN NUMBER
 DD  .F               520:   DEPTH DRILLER
 DL  .F               519:   DEPTH LOGGER
 BLI .F               517:   BOTTOM LOG INTERVAL
 TLI .F                40:   TOP LOG INTERVAL
 CS  .IN            8.625:   CASING SIZE
 CBD .F                40:   CASING BOTTOM DRILLER
 CBL .F                42:   CASING BOTTOM LOGGER
 BS  .IN            7.875:   BIT SIZE
 BSD .F               520:   BIT SIZE AT DEPTH
 DFT .           KCL- GEL:   DRILLING FLUID TYPE
 DFD .                8.8:   DRILLING FLUID DENSITY
 DFV .                 38:   DRILLING FLUID VISCOSITY
 DFPH.                8.0:   DRILLING FLUID PH
 DFL .                6.4:   DRILLING FLUID LOSS
 MSS .            MUD PIT:   MUD SAMPLE SOURCE
 RMS .OHMM            .28:   RESISTIVITY MUD SAMPLE
 MST .F                55:   MUD SAMPLE TEMPERATURE
 RMF .OHMM            .23:   RESISTIVITY MUD FILTRATE SAMPLE
 MFST.F                55:   MUD FILTRATE SAMPLE TEMPERATURE
 RMC .OHMM            .32:   RESISTIVITY MUD CAKE
 MCST.F                55:   MUD CAKE SAMPLE TEMPERATURE
 MFSS.               MEAS:   MUD FILTRATE SAMPLE SOURCE
 MCSS.               MEAS:   MUD CAKE SAMPLE SOURCE
 RMB .OHMM            .24:   RESISTIVITY MUD AT BHT
 BHT .F                65:   BOTTOM HOLE TEMPERATURE
 TCS .HRS            0300:   TIME CURCULATED STOPPED
 MRT .F                65:   MAXIMUM RECORDED TEMPERATURE
 LUN .               0716:   LOGGING UNIT NUMBER
 LUL .             VERNAL:   LOGGING UNIT LOCATION
 ENGI.        E. CALLAHAN:   RECORDING ENGINEER
 WITN.            R. LYON:   WITNESSED BY
 CLNT.            A2DTECH:   CLIENT CODE
 ORIG.           5" PRINT:   ORIGIN OF DATA
 UWI .       490251033000:   UNIQUE WELL ID
 DICO. A2D Technologies, Inc.:   DIGITIZING COMPANY
~OTHER INFORMATION
~A   DEPT       GRD        CALD     CORR         RHOB     DPHI        SPR        ILD        ILM       SGRD   
# ...
  330.0000   101.3654     7.8089     0.0280     2.2631     0.2262   -31.1144    24.6331    35.4003    52.7466
  330.5000    99.1424     7.8100     0.0207     2.2609     0.2344   -30.9804    24.6144    36.8847    60.1901
  331.0000    96.7704     7.7961     0.0148     2.2655     0.2305   -30.8433    24.5958    36.6007    49.4772
  331.5000    92.0894     7.7971     0.0089     2.2603     0.2323   -30.5615    24.5772    35.3199    47.7525
  332.0000    87.2578     7.7982     0.0045     2.2588     0.2343   -30.5783    24.5587    36.0392    50.8135
  332.5000    84.4999     7.7843     0.0016     2.2709     0.2267   -30.5949    24.3696    36.7730    55.2136
  333.0000    79.5974     7.8003     0.0032     2.2867     0.2156   -30.7654    24.0140    37.2611    56.3457
  333.5000    72.6078     7.8162     0.0123     2.3010     0.2071   -30.7817    23.8291    37.2320    58.7165
  334.0000    67.2576     7.8471     0.0199     2.3116     0.2032   -30.9487    23.6456    37.2035    61.2219
  334.5000    63.7703     7.8780     0.0185     2.3117     0.2030   -31.2663    23.6277    37.1694    46.5776
  335.0000    62.2950     7.8940     0.0126     2.3020     0.2082   -31.4333    23.2829    36.8832    43.1037
  335.5000    62.5334     7.9100     0.0082     2.2930     0.2127   -31.7509    22.9431    36.3449    43.5829
  336.0000    64.5602     7.9110     0.0053     2.2900     0.2162   -32.0685    22.5955    36.3174    47.9933
  336.5000    67.6303     7.8971     0.0039     2.2878     0.2176   -32.2355    21.9485    36.2898    49.1337
  337.0000    70.2533     7.8833     0.0033     2.2901     0.2162   -32.2519    21.0499    35.7602    52.6572
  337.5000    71.7585     7.8694     0.0169     2.3135     0.1970   -32.4189    20.0321    34.2691    45.4499
  338.0000    72.5186     7.8704     0.0327     2.3571     0.1695   -32.4353    20.0169    30.6285    39.5097
  338.5000    72.9061     7.8565     0.0418     2.3865     0.1573   -32.2970    19.8628    29.5567    35.5644
  339.0000    72.9211     7.8576     0.0479     2.3948     0.1552   -32.3174    19.3019    28.5224    34.0862
  339.5000    72.6380     7.8586     0.0540     2.4039     0.1491   -32.3338    18.8881    27.5244    33.1281
  340.0000    71.9077     7.8597     0.0593     2.4075     0.1464   -32.1955    18.4831    25.8307    32.8776
  340.5000    70.8795     7.8607     0.0640     2.3971     0.1485   -32.0648    18.2134    24.4108    32.8573
  341.0000    69.4785     7.8618     0.0663     2.3784     0.1552   -32.0818    17.8229    22.9087    33.0667
  341.5000    67.7796     7.8628     0.0657     2.3605     0.1657   -32.2488    17.6857    23.8693    33.2825
  342.0000    66.3042     7.8191     0.0598     2.3463     0.1752   -32.2652    17.5495    23.6855    33.2568
  342.5000    65.3504     7.7455     0.0524     2.3374     0.1823   -32.2817    17.4144    23.0114    33.0053
  343.0000    64.9928     7.7018     0.0428     2.3329     0.1883   -32.1473    17.5234    24.1510    32.5281
  343.5000    65.5294     7.7028     0.0332     2.3375     0.1874   -32.0131    17.6323    19.8491    32.5021
  344.0000    66.5875     7.7337     0.0190     2.3263     0.1904   -31.8575    17.7423    19.5594    33.6465
  344.5000    68.5398     7.7646     0.0079     2.3181     0.1965   -31.2929    17.8528    19.8228    34.3302
  345.0000    70.5667     7.8104     0.0042     2.3242     0.1977   -30.8575    17.8390    20.0859    34.3082
  345.5000    71.9210     7.8264     0.0043     2.3310     0.1939   -30.7274    17.8259    18.7154    34.0485
  346.0000    73.8734     7.8424     0.0044     2.3333     0.1882   -30.8944    17.9370    19.2301    33.5519
  346.5000    74.4844     7.8584     0.0067     2.3318     0.1885   -30.7560    18.0489    20.8924    32.6089
  347.0000    73.1581     7.8743     0.0091     2.3319     0.1902   -30.7765    18.1614    21.7726    31.6924
  347.5000    72.8749     7.8754     0.0122     2.3364     0.1893   -30.6423    18.2746    22.5236    31.8994
  348.0000    74.3802     7.8764     0.0153     2.3455     0.1842   -30.5040    18.5172    26.7923    32.1027
  348.5000    76.1835     7.8775     0.0169     2.3545     0.1773   -30.5245    18.6327    25.3196    32.9850
  349.0000    76.4965     7.8785     0.0215     2.3643     0.1700   -30.5409    18.7489    19.2768    33.9022
  349.5000    76.2133     7.8796     0.0246     2.3734     0.1637   -30.5573    18.6010    15.8460    33.6406
  350.0000    77.7186     7.8806     0.0262     2.3794     0.1613   -30.4190    18.5594    16.1687    32.7435
  350.5000    76.8385     7.8772     0.0234     2.3697     0.1636   -30.2889    18.4474    18.0621    31.5487
  351.0000    75.5092     7.8739     0.0175     2.3608     0.1699   -30.3066    19.2174    18.6888    31.0884
  351.5000    73.8818     7.8705     0.0161     2.3534     0.1765   -30.1738    19.7464    19.2029    30.8491
  352.0000    74.3408     7.8699     0.0177     2.3489     0.1789   -29.8904    19.7311    20.8629    30.6116
  352.5000    75.5450     7.8710     0.0238     2.3565     0.1789   -29.7576    18.6423    21.7428    30.5885
  353.0000    76.7491     7.8870     0.0300     2.3648     0.1741   -29.6247    18.1198    24.0369    30.5654
  353.5000    77.9533     7.8880     0.0391     2.3731     0.1680   -29.7976    18.3803    23.1470    30.9712
  354.0000    78.5614     7.9040     0.0437     2.3769     0.1653   -29.9659    18.4752    15.7349    30.3073
  354.5000    77.3810     7.9050     0.0453     2.3762     0.1632   -29.9837    17.9502    13.8712    29.6575
  355.0000    76.6478     7.9061     0.0439     2.3747     0.1650   -30.0015    17.6883    15.6020    29.2248
  355.5000    76.3616     7.9071     0.0426     2.3733     0.1669   -30.1699    17.4302    17.5521    28.9936
  356.0000    77.5658     7.9231     0.0397     2.3711     0.1676   -30.1876    17.2960    16.9380    28.5576
  356.5000    79.3661     7.9241     0.0353     2.3689     0.1673   -30.2054    17.0437    16.5780    28.3558
  357.0000    80.8684     7.9252     0.0279     2.3652     0.1688   -30.3738    17.0308    17.7584    28.3299
  357.5000    80.5822     7.9113     0.0235     2.3600     0.1733   -30.3916    16.8998    17.1371    28.1119
  358.0000    80.5941     7.9123     0.0207     2.3556     0.1759   -30.4096    16.8870    16.4226    27.3180
  358.5000    82.3944     7.9134     0.0208     2.3511     0.1783   -30.4277    16.8743    16.9924    26.7374
  359.0000    82.4064     7.9144     0.0209     2.3482     0.1797   -30.4493    16.8616    17.5819    27.8534
  359.5000    82.2692     7.9155     0.0210     2.3483     0.1799   -30.3121    16.9668    18.0656    29.4289
  360.0000    82.2812     7.9015     0.0211     2.3513     0.1772   -30.3343    17.1920    16.9304    29.8253
  360.5000    82.4421     7.9025     0.0198     2.3559     0.1750   -30.5027    17.0593    15.3507    29.3845
  361.0000    83.9444     7.9036     0.0184     2.3589     0.1740   -30.5204    16.9253    16.4597    28.3563
  361.5000    84.7014     7.8897     0.0185     2.3597     0.1743   -30.3832    16.9125    18.1338    27.9426
  362.0000    85.1605     7.8907     0.0186     2.3598     0.1731   -30.2503    16.7823    19.5682    27.3435
  362.5000    85.7685     7.8918     0.0187     2.3651     0.1682   -29.9714    16.4226    19.2827    27.7066
  363.0000    86.3766     7.8928     0.0249     2.3831     0.1625   -29.5373    16.0705    19.5387    27.3023
  363.5000    86.9846     7.8939     0.0265     2.3914     0.1553   -29.2539    15.8360    18.9834    26.7087
  364.0000    88.3378     7.8949     0.0206     2.3847     0.1568   -29.1205    15.3889    19.7795    26.1243
  364.5000    87.9026     7.8885     0.0177     2.3758     0.1625   -29.1389    15.0590    19.4909    25.7618
  365.0000    87.1694     7.8820     0.0193     2.3728     0.1637   -29.1566    15.0476    16.8235    25.7384
  365.5000    87.7774     7.8831     0.0195     2.3789     0.1610   -29.0238    15.0363    15.8988    25.7189
  366.0000    88.3855     7.8767     0.0181     2.3812     0.1600   -29.1928    14.9206    15.9980    24.1364
