~VERSION INFORMATION
 VERS.                2.0:   CWLS LOG ASCII STANDARD - VERSION 2.0
 WRAP.                 NO:   ONE LINE PER DEPTH STEP
~WELL INFORMATION
#MNEM.UNIT      DATA TYPE    INFORMATION
#----------   ------------   ------------------------------
 STRT.F           80.0000:   START DEPTH
 STOP.F          718.0000:   STOP DEPTH
 STEP.F            0.5000:   STEP LENGTH
 NULL.          -999.2500:   NO VALUE
 COMP. U S NAVY-INTEX OIL:   COMPANY
 WELL. RES 3 TEAPOT DOM #11SX-2:   WELL
 FLD .             TEAPOT:   FIELD
 LOC .       S2 T38N R78W:   LOCATION
 CNTY.            NATRONA:   COUNTY
 STAT.            WYOMING:   STATE
 CTRY. UNITED STATES OF AMERICA:   COUNTRY
 SRVC.       Schlumberger:   SERVICE COMPANY
 DATE.        05-AUG-1961:   LOGDATE
 API .       490250647900:   API NUMBER
~CURVE INFORMATION
#MNEM.UNIT       API CODE    CURVE DESCRIPTION
#----------   ------------   ------------------------------
 DEPT.F                  :   
 ILD .OHMM   05 120 46 00:   INDUCTION LOG DEEP
 ASN .OHMM   05 041 16 00:   AMPLIFIED SHORT NORMAL 16"
 SPR .MV     05 010 01 00:   SPONTANEOUS POTENTIAL FROM RES.
 CILD.MMHO   05 110 46 00:   CONDUCTIVITY INDUCTION LOG DEEP
 GR  .GAPI   30 310 01 00:   GAMMA RAY
~PARAMETER INFORMATION
#MNEM.UNIT          VALUE    DESCRIPTION
#----------   ------------   ------------------------------
 LMF .                 KB:   LOG MEASURED FROM
 DMF .                 KB:   DRILLING MEASURED FROM
 EKB .F              5105:   KELLING BUSHING
 EGL .F              5100:   GROUND LEVEL
 DATE.           8-5-1961:   RUN DATE
 RUN .                  1:   RUN NUMBER
 DD  .F               715:   DEPTH DRILLER
 DL  .F               719:   DEPTH LOGGER
 BLI .F               718:   BOTTOM LOG INTERVAL
 TLI .F               120:   TOP LOG INTERVAL
 BS  .IN             6.75:   BIT SIZE
 BSD .F               715:   BIT SIZE AT DEPTH
 DFT .       OIL EMULSION:   DRILLING FLUID TYPE
 DFV .                 40:   DRILLING FLUID VISCOSITY
 RMS .OHMM           1.11:   RESISTIVITY MUD SAMPLE
 MST .F                68:   MUD SAMPLE TEMPERATURE
 TCS .HRS               2:   TIME CURCULATED STOPPED
 LUN .               2544:   LOGGING UNIT NUMBER
 LUL .                 NC:   LOGGING UNIT LOCATION
 ENGI.            EARNEST:   RECORDING ENGINEER
 WITN.          JORGENSEN:   WITNESSED BY
 CLNT.            A2DTECH:   CLIENT CODE
 ORIG.      2" & 5" PRINT:   ORIGIN OF DATA
 UWI .       490250647900:   UNIQUE WELL ID
 DICO. A2D Technologies, Inc.:   DIGITIZING COMPANY
~OTHER INFORMATION
~A   DEPT        ILD        ASN      SPR        CILD        GR   
# ...
  629.0000     5.9496    12.6796   -46.8468    81.1770    37.4988
  629.5000     5.9074    12.6263   -46.6361    81.6834    39.3401
  630.0000     5.8650    12.6243   -46.7814    82.1899    39.0009
  630.5000     5.8221    12.6247   -46.9192    82.6971    41.8169
  631.0000     5.8135    12.6248   -47.0560    83.2131    44.5498
  631.5000     5.8133    12.6248   -47.1928    83.7521    48.0664
  632.0000     5.8133    12.6248   -47.3280    84.2156    46.4496
  632.5000     5.8134    12.6247   -47.3324    82.2748    42.5575
  633.0000     5.8134    12.6247   -47.0952    82.1689    43.7119
  633.5000     5.8134    12.6243   -46.8613    82.0629    45.6454
  634.0000     5.8127    12.6261   -46.6247    81.9569    46.6422
  634.5000     5.8352    12.6930   -46.4545    81.8510    45.6817
  635.0000     5.8635    12.7644   -46.2843    81.7450    47.7816
  635.5000     5.8920    12.8357   -46.1132    81.6391    45.2002
  636.0000     5.9205    12.9069   -45.9416    81.5331    43.4726
  636.5000     5.9489    12.9775   -45.7719    81.4271    45.1881
  637.0000     5.9774    13.0093   -45.6115    81.3610    46.4312
  637.5000     6.0074    12.9627   -45.5546    81.5166    46.5013
  638.0000     5.9794    12.9174   -45.4920    81.6723    45.9333
  638.5000     5.9354    12.8722   -45.4305    81.8279    47.0055
  639.0000     5.8908    12.8269   -45.4929    81.9835    47.8597
  639.5000     5.8463    12.7816   -45.5648    82.1392    45.2769
  640.0000     5.8018    12.7364   -45.6867    82.2948    42.9197
  640.5000     5.7573    12.6911   -46.1204    82.9246    44.4138
  641.0000     5.7129    12.6458   -46.5594    83.7214    46.7477
  641.5000     5.6684    12.6005   -47.0008    84.5182    49.0713
  642.0000     5.6239    12.5554   -46.9874    85.3150    51.4029
  642.5000     5.5795    12.5243   -46.9478    86.1118    53.6626
  643.0000     5.5350    12.5250   -46.9103    86.9086    55.1395
  643.5000     5.5053    12.5249   -46.8730    87.7054    49.0812
  644.0000     5.4886    12.5235   -46.8359    88.5022    50.8922
  644.5000     5.4720    12.5806   -46.7237    89.2990    52.7156
  645.0000     5.4553    12.6567   -46.5440    90.0958    48.7725
  645.5000     5.4390    12.7380   -46.3638    89.8698    44.9572
  646.0000     5.4226    12.8534   -46.1829    89.0037    42.4119
  646.5000     5.4605    12.9689   -46.0235    88.1376    42.9598
  647.0000     5.5490    13.1950   -46.0253    87.2715    40.2732
  647.5000     5.6363    13.5260   -46.1208    86.3273    37.5927
  648.0000     5.8550    13.8957   -46.4833    82.8420    38.2887
  648.5000     6.1264    14.5660   -46.8367    79.0112    33.1455
  649.0000     6.7242    15.2530   -47.2019    73.8578    31.4236
  649.5000     7.4535    16.2299   -47.2940    65.6852    33.1760
  650.0000     8.2374    17.9195   -47.3736    57.5125    34.0710
  650.5000     9.2478    19.9132   -47.4552    51.0825    34.8077
  651.0000    10.2384    22.8320   -47.5373    46.4236    31.8306
  651.5000    11.2286    25.9567   -47.6195    41.7647    28.4676
  652.0000    12.2165    29.0815   -47.7016    37.4252    25.4475
  652.5000    13.2016    32.3852   -47.7840    35.5361    27.7650
  653.0000    13.9764    32.0227   -47.8666    33.7682    30.7448
  653.5000    13.9814    31.2272   -47.9473    32.4351    33.1546
  654.0000    13.7560    30.4316   -47.9813    33.2113    31.9734
  654.5000    13.2143    29.6361   -47.8182    34.1322    33.9185
  655.0000    12.6392    28.8405   -47.6591    35.0532    36.5512
  655.5000    12.0635    28.0525   -47.5005    35.9741    39.8196
  656.0000    11.6998    27.4271   -47.3415    36.8951    38.2074
  656.5000    11.3913    26.8482   -47.1813    37.8160    36.4773
  657.0000    11.1369    26.1850   -47.0243    38.7369    37.0369
  657.5000    10.9731    25.3846   -47.0753    39.6579    34.0648
  658.0000    10.8080    24.4144   -47.1381    40.5809    29.4811
  658.5000    10.6434    24.6492   -47.2022    41.5135    24.9447
  659.0000    10.4830    24.9865   -47.1916    42.4461    21.7878
  659.5000    10.3246    25.2174   -47.1583    43.3787    25.9706
  660.0000    10.1664    24.4094   -47.1243    44.3114    28.4668
  660.5000    10.0079    23.3452   -47.0903    45.2440    28.7428
  661.0000     9.8455    22.1785   -47.0573    46.1766    31.6649
  661.5000     9.7935    22.2050   -47.0221    47.1093    34.8257
  662.0000     9.7754    22.7166   -46.7333    48.0419    39.3704
  662.5000     9.7558    23.0915   -46.4055    48.9745    41.4721
  663.0000     9.5547    22.6258   -46.0769    49.9071    39.3305
  663.5000     9.3308    22.2591   -45.7491    50.8398    40.1489
  664.0000     9.1058    21.8931   -45.4198    51.7724    37.3762
  664.5000     8.8738    21.5256   -45.0822    52.7050    39.9476
  665.0000     8.7573    21.1593   -45.2297    53.3932    42.4226
  665.5000     8.7741    20.9370   -45.5150    52.7569    44.9050
  666.0000     8.7895    20.7386   -45.9674    52.1569    47.1189
  666.5000     8.8036    20.7085   -46.4244    51.5569    43.8630
  667.0000     8.8180    20.7079   -46.6621    50.9569    45.0706
  667.5000     8.8325    20.7112   -46.7387    50.3569    45.9135
  668.0000     8.8456    20.4982   -46.8151    49.7569    39.5101
  668.5000     8.8156    20.1612   -46.8909    50.2777    40.4503
  669.0000     8.5944    19.8220   -46.9646    52.4299    41.5396
  669.5000     8.3753    19.4762   -46.9751    54.5821    39.3626
  670.0000     8.1554    19.5015   -46.8110    56.7344    37.5651
  670.5000     8.0555    19.6002   -46.6532    58.8866    39.8131
  671.0000     7.9859    19.3295   -46.4954    59.1146    41.9879
  671.5000     7.9179    19.0371   -46.3401    58.7461    43.0308
  672.0000     7.8595    18.7468   -46.2609    58.3795    41.2949
  672.5000     7.9123    18.6158   -46.4416    58.0157    39.3935
  673.0000     8.0083    18.8500   -46.6165    57.6535    41.9238
  673.5000     8.1058    19.0256   -46.7962    57.2913    45.4071
  674.0000     8.2031    19.0640   -46.6553    56.9291    48.9520
  674.5000     8.0667    18.7927   -46.4604    56.5669    49.5176
  675.0000     7.9093    18.5846   -46.2629    57.5541    45.9750
  675.5000     7.7524    18.3754   -46.0652    59.2295    43.1657
  676.0000     7.5958    18.1639   -45.8609    60.9050    41.4844
  676.5000     7.4393    17.9045   -45.9790    62.5804    41.4423
  677.0000     7.2828    17.4852   -46.1741    64.2558    40.2756
  677.5000     7.1263    17.0743   -46.3836    65.9312    41.3583
  678.0000     6.9697    16.6612   -46.1432    67.6066    44.8772
  678.5000     6.8132    16.2525   -45.7789    69.2821    45.8567
  679.0000     6.6567    15.9175   -45.4094    70.9575    45.8943
  679.5000     6.5001    15.6824   -45.2645    72.6329    45.8880
  680.0000     6.3432    15.4475   -45.3284    74.3083    45.8835
  680.5000     6.1878    15.2139   -45.3925    75.9837  -999.2500
  681.0000     6.0587    14.9800   -45.3853    77.6591  -999.2500
  681.5000     6.0529    14.7457   -45.3000    79.3413  -999.2500
  682.0000     6.0282    14.5135   -45.2152    79.9987  -999.2500
  682.5000     6.0042    14.3017   -45.1287    80.6428  -999.2500
  683.0000     5.9795    14.2326   -45.0364    81.3067  -999.2500
  683.5000     6.0189    14.1580   -45.2169    79.3060  -999.2500
  684.0000     6.1167    14.0826   -45.4372    77.5824  -999.2500
  684.5000     6.2934    14.0076   -45.6604    75.8066  -999.2500
  685.0000     6.3932    13.9331   -45.8830    75.3493  -999.2500
  685.5000     6.2427    13.8583   -46.1046    78.8373  -999.2500
  686.0000     6.0941    13.8849   -46.3278    82.5499  -999.2500
  686.5000     5.9640    14.0002   -46.3866    84.1698  -999.2500
  687.0000     6.0070    14.1160   -46.3300    82.7884  -999.2500
  687.5000     6.0934    14.2541   -46.2727    81.4070  -999.2500
  688.0000     6.1793    14.5617   -46.2146    80.0255  -999.2500
  688.5000     6.2657    14.9634   -46.1566    78.6441  -999.2500
  689.0000     6.3513    15.4559   -46.0988    77.2627  -999.2500
  689.5000     6.3624    15.9499   -46.0422    75.8813  -999.2500
