~VERSION INFORMATION
 VERS.                2.0:   CWLS LOG ASCII STANDARD - VERSION 2.0
 WRAP.                 NO:   ONE LINE PER DEPTH STEP
~WELL INFORMATION
#MNEM.UNIT      DATA TYPE    INFORMATION
#----------   ------------   ------------------------------
 STRT.F            0.0000:   START DEPTH
 STOP.F         3315.0000:   STOP DEPTH
 STEP.F            0.5000:   STEP LENGTH
 NULL.          -999.2500:   NO VALUE
 COMP. LAWRENCE/ALLISON INC     84-AX-:   COMPANY
 WELL.          SHX3 #1-3:   WELL
 FLD .            WILDCAT:   FIELD
 LOC .       S3 T38N R78W:   LOCATION
 CNTY.            NATRONA:   COUNTY
 STAT.            WYOMING:   STATE
 CTRY. UNITED STATES OF AMERICA:   COUNTRY
 SRVC.      Dresser Atlas:   SERVICE COMPANY
 DATE.        20-JAN-1986:   LOGDATE
 API .       490251104200:   API NUMBER
~CURVE INFORMATION
#MNEM.UNIT       API CODE    CURVE DESCRIPTION
#----------   ------------   ------------------------------
 DEPT.F                  :   
 SPR .MV     07 010 01 00:   SPONTANEOUS POTENTIAL
 RILD.OHMM   07 120 46 00:   INDUCTION LOG DEEP RESISTIVITY
 RILM.OHMM   07 120 44 00:   INDUCTION LOG MEDIUM RESISTIVITY
 RFOC.OHMM   07 220 04 00:   RESISTIVITY FOCUSED LOG
 AC  .US/F   60 520 00 00:   ACCOUSTIC
 CALD.IN     45 280 60 00:   CALIPER FROM DENSITY
 CORR.G/C3   45 356 01 00:   DENSITY CORRECTION
 DEN .G/C3   45 350 01 00:   COMPENSATED BULK DENSTIY
 PORD.DEC    45 890 12 00:   POROSITY DENSITY SANDSTONE
 CNC .DEC    42 890 03 00:   NEUTRON POROSITY SANDSTONE
 GRR .GAPI   07 310 01 00:   GAMMA RAY
~PARAMETER INFORMATION
#MNEM.UNIT          VALUE    DESCRIPTION
#----------   ------------   ------------------------------
 PD  .                 GL:   PERMANENT DATUM
 EPD .F              5136:   ELEVATION PERMANENT DATUM
 LMF .                 KB:   LOG MEASURED FROM
 DAPD.F                11:   FEET ABOVE PERMANENT DATUM
 DMF .                 KB:   DRILLING MEASURED FROM
 EKB .F              5147:   KELLING BUSHING
 EGL .F              5136:   GROUND LEVEL
 DATE.        26-JAN-1986:   RUN DATE
 RUN .                  1:   RUN NUMBER
 DD  .F              3320:   DEPTH DRILLER
 DL  .F              3317:   DEPTH LOGGER
 BLI .F              3315:   BOTTOM LOG INTERVAL
 CS  .IN            8.625:   CASING SIZE
 CBD .F               550:   CASING BOTTOM DRILLER
 CBL .F               592:   CASING BOTTOM LOGGER
 BS  .IN            7.875:   BIT SIZE
 BSD .F              3320:   BIT SIZE AT DEPTH
 DFT .        POLYMER KCL:   DRILLING FLUID TYPE
 DFD .                9.1:   DRILLING FLUID DENSITY
 DFV .                 38:   DRILLING FLUID VISCOSITY
 DFPH.                 10:   DRILLING FLUID PH
 DFL .                8.5:   DRILLING FLUID LOSS
 MSS .           FLOWLINE:   MUD SAMPLE SOURCE
 RMS .OHMM           .435:   RESISTIVITY MUD SAMPLE
 MST .F                72:   MUD SAMPLE TEMPERATURE
 RMF .OHMM           .352:   RESISTIVITY MUD FILTRATE SAMPLE
 MFST.F                72:   MUD FILTRATE SAMPLE TEMPERATURE
 RMC .OHMM            .54:   RESISTIVITY MUD CAKE
 MCST.F                72:   MUD CAKE SAMPLE TEMPERATURE
 MFSS.               MEAS:   MUD FILTRATE SAMPLE SOURCE
 MCSS.               MEAS:   MUD CAKE SAMPLE SOURCE
 RMB .OHMM            .29:   RESISTIVITY MUD AT BHT
 BHT .F               108:   BOTTOM HOLE TEMPERATURE
 TCS .HRS               3:   TIME CURCULATED STOPPED
 MRT .F               108:   MAXIMUM RECORDED TEMPERATURE
 LUN .               6274:   LOGGING UNIT NUMBER
 LUL .               GLTE:   LOGGING UNIT LOCATION
 ENGI.             RAUTIO:   RECORDING ENGINEER
 WITN.             STRONG:   WITNESSED BY
 CLNT.            A2DTECH:   CLIENT CODE
 ORIG.       2", 5" PRINT:   ORIGIN OF DATA
 UWI .       490251104200:   UNIQUE WELL ID
 DICO. A2D Technologies, Inc.:   DIGITIZING COMPANY
~OTHER INFORMATION
~A    DEPT     SPR       RILD       RILM       RFOC         AC       CALD       CORR        DEN       PORD        CNC        GRR   
# ...
 2287.5000   -29.6899     5.6941     5.5674     7.2280  -999.2500  -999.2500  -999.2500  -999.2500  -999.2500  -999.2500    63.1241
 2288.0000   -29.8337     5.3132     5.3786     6.6985  -999.2500  -999.2500  -999.2500  -999.2500  -999.2500  -999.2500    59.8626
 2288.5000   -29.9775     5.0972     5.1962     6.8883  -999.2500  -999.2500  -999.2500  -999.2500  -999.2500  -999.2500    56.0065
 2289.0000   -29.9697     4.9929     5.0549     7.4359  -999.2500  -999.2500  -999.2500  -999.2500  -999.2500  -999.2500    57.0076
 2289.5000   -29.8094     4.9590     4.9863     7.8075  -999.2500  -999.2500  -999.2500  -999.2500  -999.2500  -999.2500    60.1174
 2290.0000   -29.6507     5.0993     5.1277     6.4755  -999.2500  -999.2500  -999.2500  -999.2500  -999.2500  -999.2500    61.1797
 2290.5000   -29.6432     5.2801     5.3892     4.9763    93.3897  -999.2500  -999.2500  -999.2500  -999.2500  -999.2500    59.5212
 2291.0000   -29.6357     5.4673     5.5806     5.3719    93.3759  -999.2500  -999.2500  -999.2500  -999.2500  -999.2500    58.3154
 2291.5000   -29.7796     5.5482     5.6941     6.6157    92.6201  -999.2500  -999.2500  -999.2500  -999.2500  -999.2500    56.6557
 2292.0000   -29.7721     5.5453     5.5779     8.0368    91.9532  -999.2500  -999.2500  -999.2500  -999.2500  -999.2500    55.7525
 2292.5000   -29.9178     5.2466     5.2777     7.8679    92.0626  -999.2500  -999.2500  -999.2500  -999.2500  -999.2500    55.4533
 2293.0000   -30.2110     4.8616     4.8569     7.7054    92.3696  -999.2500  -999.2500  -999.2500  -999.2500  -999.2500    55.7614
 2293.5000   -30.2036     4.5363     4.5638     7.5462    92.6765  -999.2500  -999.2500  -999.2500  -999.2500  -999.2500    56.5223
 2294.0000   -30.0448     4.2622     4.3182     7.1696    92.9835  -999.2500  -999.2500  -999.2500  -999.2500  -999.2500    57.7371
 2294.5000   -30.0373     4.0889     4.1142     6.3985    93.5912  -999.2500  -999.2500  -999.2500  -999.2500  -999.2500    59.5570
 2295.0000   -30.0299     3.9775     4.0864     5.8887    95.1011  -999.2500  -999.2500  -999.2500  -999.2500  -999.2500    60.6205
 2295.5000   -30.0224     4.0336     4.3208     4.5254    97.3630  -999.2500  -999.2500  -999.2500  -999.2500  -999.2500    60.6470
 2296.0000   -30.0150     4.1477     4.5055     3.9401    98.1962  -999.2500  -999.2500  -999.2500  -999.2500  -999.2500    55.4857
 2296.5000   -30.0075     4.2356     4.6655     3.8864    97.9768  -999.2500  -999.2500  -999.2500  -999.2500  -999.2500    53.5235
 2297.0000   -30.0000     4.2655     4.6709     4.7534    95.6522  -999.2500  -999.2500  -999.2500  -999.2500  -999.2500    53.2254
 2297.5000   -29.8412     4.0079     4.1769     6.4064    92.4253  -999.2500  -999.2500  -999.2500  -999.2500  -999.2500    53.3812
 2298.0000   -29.8336     3.7920     3.7856     8.8771    88.5969  -999.2500  -999.2500  -999.2500  -999.2500  -999.2500    54.3666
 2298.5000   -29.9776     3.6126     3.5309     9.9204    87.9264  -999.2500  -999.2500  -999.2500  -999.2500  -999.2500    57.0014
 2299.0000   -29.9683     3.3708     3.2555     8.1151    89.4364  -999.2500  -999.2500  -999.2500  -999.2500  -999.2500    59.7497
 2299.5000   -29.9608     3.1672     3.0803     5.6201    91.1719  -999.2500  -999.2500  -999.2500  -999.2500  -999.2500    58.5439
 2300.0000   -29.9534     3.0199     2.9964     4.3360    92.4563  -999.2500  -999.2500  -999.2500  -999.2500  -999.2500    56.2963
 2300.5000   -29.8953     2.9452     2.9886     3.4600    93.0640  -999.2500  -999.2500  -999.2500  -999.2500  -999.2500    54.6845
 2301.0000   -29.8258     2.8570     3.0187     3.3659    91.9424  -999.2500  -999.2500  -999.2500  -999.2500  -999.2500    53.4343
 2301.5000   -29.7716     2.7799     3.0616     3.7880    90.1388  -999.2500  -999.2500  -999.2500  -999.2500  -999.2500    52.3947
 2302.0000   -29.6097     2.7810     3.0835     4.5691    89.5438  -999.2500  -999.2500     2.4698  -999.2500  -999.2500    51.6552
 2302.5000   -29.4478     2.8211     3.1056     4.9368    89.4798     9.4545  -999.2500     2.4687     0.1044     0.3136    51.8460
 2303.0000   -29.4372     2.9422     3.1063     4.6348    90.2324     9.4370  -999.2500     2.4674     0.1056     0.3182    54.0034
 2303.5000   -29.4266     3.0900     3.1504     4.6037    92.2757     9.4729     0.0740     2.4312     0.1135     0.3209    56.3075
 2304.0000   -29.4160     3.2004     3.2173     4.1497    92.9586     9.4899     0.1326     2.3875     0.1303     0.3173    58.8806
 2304.5000   -29.4054     3.2465     3.2857     3.5123    92.9648     9.4136     0.1731     2.3905     0.1569     0.3067    60.2375
 2305.0000   -29.3949     3.3393     3.4024     3.5511    92.7454     9.3675     0.1445     2.4266     0.1597     0.3066    61.0136
 2305.5000   -29.3843     3.5560     3.5726     4.0759    92.3005     9.3215     0.0873     2.4552     0.1383     0.3119    61.1679
 2306.0000   -29.1984     3.8665     3.9107     4.2831    91.7803     9.3209     0.0376     2.4694     0.1126     0.3131    61.3736
 2306.5000   -28.9092     4.1750     4.4014     5.2205    91.5610     9.3203     0.0090     2.4784     0.1066     0.3035    62.9278
 2307.0000   -28.5961     4.6029     4.9881     6.1271    91.7927     9.3197    -0.0061     2.4912     0.1005     0.2785    64.2902
 2307.5000   -28.4321     5.1101     5.3850     6.2568    92.6260     9.3042    -0.0152     2.5115     0.0912     0.2697    64.1979
 2308.0000   -28.5728     5.4417     5.6543     5.7988    93.0081     9.3187     0.0073     2.5273     0.0830     0.2673    61.2643
 2308.5000   -28.7162     5.7150     5.8146     6.0046    93.0895     9.3179     0.0373     2.5250     0.0749     0.2731    59.2586
 2309.0000   -28.8719     5.9193     5.9796     6.8044    92.4942     9.3173     0.0553     2.5249     0.0755     0.2744    58.4198
 2309.5000   -29.1215     6.0463     6.0644     7.7108    91.0718     9.3167     0.0673     2.5264     0.0749     0.2722    59.1013
 2310.0000   -29.3711     6.0488     6.1505     8.5579    90.1758     9.3161     0.0522     2.5287     0.0740     0.2725    61.3349
 2310.5000   -29.4297     6.0513     6.1946     8.6188    89.5053     9.3307     0.0281     2.5276     0.0737     0.2787    63.4711
 2311.0000   -29.4190     6.0538     6.1959     7.9326    89.6619     9.3301     0.0145     2.5215     0.0752     0.2885    63.7917
 2311.5000   -29.4084     6.0985     6.2403     7.0518    90.7207     9.3446     0.0205     2.5146     0.0780     0.2885    63.6540
 2312.0000   -29.2466     6.2294     6.3289     6.6725    91.7043     9.3743     0.0183     2.5059     0.0816     0.2843    64.8870
 2312.5000   -29.2360     6.4520     6.5994     6.4913    92.6880     9.3737     0.0080     2.4960     0.0849     0.2726    65.6615
 2313.0000   -29.0741     6.7785     7.0262     6.7685    93.4461     9.3731     0.0097     2.4907     0.0949     0.2720    64.4693
 2313.5000   -28.9123     7.2239     7.5852     7.1562    92.9812     9.3725     0.0187     2.4915     0.0964     0.2674    59.6463
 2314.0000   -29.0531     8.0337     8.4193     8.2226    92.1605     9.3719     0.0246     2.4929     0.0946     0.2596    56.7899
 2314.5000   -29.3451     9.5170     9.2162     9.3827    91.5719     9.3711     0.0231     2.4921     0.0961     0.2590    56.1984
 2315.0000   -29.4858    11.6262    10.2295    10.1286    91.8934     9.3705     0.0110     2.4913     0.0961     0.2669    55.6159
 2315.5000   -29.4750    12.5206    11.1978    10.4157    98.0645     9.3699    -0.0071     2.4905     0.0961     0.2762    55.0288
 2316.0000   -29.4644    12.7918    11.6764    10.4904   104.5369     9.3693    -0.0162     2.4860     0.0964     0.2850    54.5886
 2316.5000   -29.4539    12.9602    12.0076    11.7239   106.0469     9.3687    -0.0208     2.4777     0.0970     0.3094    54.7625
 2317.0000   -29.2920    12.9655    12.1779    12.9245   106.1267     9.3682    -0.0148     2.4686     0.1040     0.3064    56.1422
 2317.5000   -29.1301    12.9709    12.0962    13.1052   104.4803     9.3676     0.0001     2.4565     0.1158     0.2986    58.7321
