~VERSION INFORMATION
 VERS.                2.0:   CWLS LOG ASCII STANDARD - VERSION 2.0
 WRAP.                 NO:   ONE LINE PER DEPTH STEP
~WELL INFORMATION
#MNEM.UNIT      DATA TYPE    INFORMATION
#----------   ------------   ------------------------------
 STRT.F           20.0000:   START DEPTH
 STOP.F          677.0000:   STOP DEPTH
 STEP.F            0.5000:   STEP LENGTH
 NULL.          -999.2500:   NO VALUE
 COMP. FENIX & SCISSON INC:   COMPANY
 WELL. 11 WI NPR 3 #36-26 SX:   WELL
 FLD .             TEAPOT:   FIELD
 LOC .      S11 T38N R78W:   LOCATION
 CNTY.            NATRONA:   COUNTY
 STAT.            WYOMING:   STATE
 CTRY. UNITED STATES OF AMERICA:   COUNTRY
 SRVC.      Dresser Atlas:   SERVICE COMPANY
 DATE.        06-AUG-1980:   LOGDATE
 API .       490251084100:   API NUMBER
~CURVE INFORMATION
#MNEM.UNIT       API CODE    CURVE DESCRIPTION
#----------   ------------   ------------------------------
 DEPT.F                  :   
 SPR .MV     07 010 01 00:   SPONTANEOUS POTENTIAL
 SFL .OHMM   07 220 01 00:   SHALLOW FOCUSED LOG RESISTIVITY
 ILD .OHMM   07 120 46 00:   INDUCTION LOG DEEP
 ILM .OHMM   07 120 44 00:   INDUCTION LOG MEDIUM
 GRD .GAPI   45 310 01 00:   GAMMA RAY FROM DENSITY LOG
 RHOB.G/C3   45 350 01 00:   BULK DENSITY
 CALD.IN     45 280 60 00:   CALIPER
 CORR.G/C3   45 356 01 00:   DENSITY CORRECTION
 DPOR.DEC    45 890 12 00:   DENSITY POROSITY SANDSTONE
 NPOR.DEC    42 890 03 00:   NEUTRON POROSITY SANDSTONE
~PARAMETER INFORMATION
#MNEM.UNIT          VALUE    DESCRIPTION
#----------   ------------   ------------------------------
 PD  .                 GL:   PERMANENT DATUM
 EPD .F              5191:   ELEVATION PERMANENT DATUM
 LMF .                 KB:   LOG MEASURED FROM
 DAPD.F                 5:   FEET ABOVE PERMANENT DATUM
 DMF .                 KB:   DRILLING MEASURED FROM
 EKB .F              5196:   KELLING BUSHING
 EGL .F              5191:   GROUND LEVEL
 DATE.             8-6-80:   RUN DATE
 RUN .                  1:   RUN NUMBER
 DD  .F               680:   DEPTH DRILLER
 DL  .F               679:   DEPTH LOGGER
 BLI .F               676:   BOTTOM LOG INTERVAL
 TLI .F                20:   TOP LOG INTERVAL
 BS  .IN            7.875:   BIT SIZE
 BSD .F               680:   BIT SIZE AT DEPTH
 DFT .                KCL:   DRILLING FLUID TYPE
 DFD .                9.4:   DRILLING FLUID DENSITY
 DFV .                 45:   DRILLING FLUID VISCOSITY
 DFPH.                 12:   DRILLING FLUID PH
 MSS .           FLOWLINE:   MUD SAMPLE SOURCE
 RMS .OHMM            .11:   RESISTIVITY MUD SAMPLE
 MST .F                65:   MUD SAMPLE TEMPERATURE
 RMF .OHMM             .1:   RESISTIVITY MUD FILTRATE SAMPLE
 MFST.F                60:   MUD FILTRATE SAMPLE TEMPERATURE
 RMC .OHMM            .17:   RESISTIVITY MUD CAKE
 MCST.F                65:   MUD CAKE SAMPLE TEMPERATURE
 MFSS.               MEAS:   MUD FILTRATE SAMPLE SOURCE
 MCSS.              CHART:   MUD CAKE SAMPLE SOURCE
 TCS .HRS              .5:   TIME CURCULATED STOPPED
 MRT .F               100:   MAXIMUM RECORDED TEMPERATURE
 LUN .               6240:   LOGGING UNIT NUMBER
 LUL .               RVTN:   LOGGING UNIT LOCATION
 ENGI.            K. RALL:   RECORDING ENGINEER
 WITN.     AMAND/MCINTYRE:   WITNESSED BY
 CLNT.            A2DTECH:   CLIENT CODE
 ORIG.        2" 5" PRINT:   ORIGIN OF DATA
 UWI .       490251084100:   UNIQUE WELL ID
 DICO. A2D Technologies, Inc.:   DIGITIZING COMPANY
~OTHER INFORMATION
~A   DEPT       SPR       SFL         ILD         ILM      GRD       RHOB       CALD       CORR       DPOR       NPOR   
# ...
  321.5000   -70.4466    10.7797    10.0287     9.5706   115.2819     2.5379     8.1538     0.0458     0.0855     0.2503
  322.0000   -70.3866    11.0954    10.1959     9.7893   112.7830     2.5406     8.1532     0.0518     0.0825     0.2579
  322.5000   -70.3265    11.0336    10.3659     9.9479   112.9070     2.5309     8.1527     0.0477     0.0869     0.2591
  323.0000   -70.2663    10.9974    10.5029    10.0359   111.6045     2.5227     8.1522     0.0402     0.0921     0.2502
  323.5000   -70.2066    10.9974    10.5029    10.0618   107.6606     2.5270     8.1517     0.0449     0.0926     0.2447
  324.0000   -70.0968    10.9974    10.5029    10.0870   104.5115     2.5260     8.1512     0.0505     0.0905     0.2469
  324.5000   -69.9521    10.9974    10.5029    10.1125   105.7234     2.5092     8.1507     0.0452     0.0961     0.2558
  325.0000   -69.8069    10.9974    10.5029    10.1381   107.6602     2.4825     8.1502     0.0277     0.1086     0.2601
  325.5000   -69.6615    10.9974    10.5029    10.1638   109.3650     2.4765     8.1497     0.0101     0.1217     0.2591
  326.0000   -69.5157    10.9974    10.5030    10.1896   108.2145     2.4945     8.1492     0.0140     0.1210     0.2556
  326.5000   -69.3800    10.9974    10.5028    10.2170   104.9236     2.4973     8.1485     0.0205     0.1118     0.2535
  327.0000   -69.3770    10.9974    10.5041    10.1541   101.8670     2.4832     8.1428     0.0269     0.1086     0.2564
  327.5000   -69.3766    10.9974    10.4393    10.0877   102.0290     2.4726     8.1368     0.0343     0.1140     0.2598
  328.0000   -69.3221    10.8734    10.3348    10.0217   104.5718     2.4688     8.1308     0.0416     0.1191     0.2632
  328.5000   -69.2627    10.7275    10.2312     9.9561   106.5937     2.4623     8.1249     0.0256     0.1243     0.2663
  329.0000   -69.2036    10.5831    10.1287     9.8456   108.1340     2.4500     8.1190     0.0076     0.1294     0.2686
  329.5000   -69.1444    10.4407    10.0272     9.7200   108.7335     2.4495     8.1130     0.0090     0.1345     0.2707
  330.0000   -69.0853    10.3004     9.9267     9.5961   108.2790     2.4916     8.1071     0.0312     0.1369     0.2640
  330.5000   -69.0262    10.1620     9.8272     9.4738   106.1647     2.5039     8.1011     0.0410     0.1202     0.2559
  331.0000   -68.9671    10.0942     9.7287     9.3530   103.4564     2.4810     8.0952     0.0405     0.1058     0.2638
  331.5000   -68.9080    10.0538     9.6682     9.2335   100.6724     2.4777     8.0889     0.0399     0.1058     0.2770
  332.0000   -68.8489    10.0136     9.7131     9.2335   101.2205     2.4765     8.0918     0.0394     0.1214     0.2901
  332.5000   -68.7898     9.9735     9.7458     9.2335   103.2524     2.4570     8.0976     0.0314     0.1190     0.2962
  333.0000   -68.7307     9.9388     9.7786     9.2335   104.8560     2.4404     8.1035     0.0210     0.1270     0.2878
  333.5000   -68.6715     9.9995     9.8114     9.2335   104.7213     2.4425     8.1077     0.0193     0.1409     0.2732
  334.0000   -68.6124    10.1094     9.8444     9.2335   105.4902     2.4665     8.1060     0.0194     0.1425     0.2599
  334.5000   -68.5533    10.2206     9.8775     9.2335   109.2676     2.4701     8.1043     0.0222     0.1341     0.2549
  335.0000   -68.4943    10.3330     9.9108     9.2335   112.6435     2.4731     8.1027     0.0250     0.1261     0.2494
  335.5000   -68.4355    10.4067     9.9388     9.2335   112.1368     2.4872     8.1011     0.0272     0.1244     0.2407
  336.0000   -68.3725    10.2627     9.8626     9.2335   106.8802     2.5009     8.0995     0.0345     0.1207     0.2414
  336.5000   -68.2180    10.1399     9.7656     9.2348   102.0724     2.5014     8.0979     0.0428     0.1117     0.2490
  337.0000   -68.0603    10.0187     9.6692     9.1731    99.4942     2.4803     8.0962     0.0292     0.1058     0.2602
  337.5000   -68.1601     9.8989     9.5738     9.1164    98.4125     2.4535     8.0946     0.0148     0.1146     0.2730
  338.0000   -68.5554     9.8447     9.4794     9.0600    98.7892     2.4457     8.0930     0.0061     0.1305     0.2854
  338.5000   -68.9505     9.8284     9.3860     9.0039   101.6205     2.4464     8.0914    -0.0007     0.1389     0.2751
  339.0000   -69.3310     9.8121     9.3188     8.9485   103.0187     2.4320     8.0898    -0.0005     0.1389     0.2675
  339.5000   -69.2979     9.7958     9.3188     8.8825   104.0553     2.4242     8.0882     0.0050     0.1459     0.2825
  340.0000   -69.2014     9.7793     9.3188     8.7487   105.9452     2.4411     8.0871     0.0174     0.1516     0.2932
  340.5000   -69.1048     9.7622     9.3188     8.6165   107.8905     2.4585     8.0863     0.0353     0.1399     0.2950
  341.0000   -69.0090     9.6785     9.3188     8.4867   107.6634     2.4622     8.0854     0.0372     0.1293     0.2837
  341.5000   -68.9136     9.5567     9.1954     8.4080   107.3834     2.4532     8.0846     0.0382     0.1305     0.2707
  342.0000   -68.8175     9.4365     9.0814     8.3815   107.0489     2.4442     8.0838     0.0400     0.1373     0.2577
  342.5000   -68.8084     9.3197     8.9688     8.3547   105.2056     2.4408     8.0830     0.0418     0.1417     0.2527
  343.0000   -68.8663     9.4315     8.8576     8.3279   103.3039     2.4608     8.0822     0.0417     0.1334     0.2637
  343.5000   -68.9257     9.4935     8.7362     8.3012   101.9489     2.4707     8.0814     0.0344     0.1250     0.2780
  344.0000   -68.9445     9.3169     8.7744     8.2746   101.4679     2.4613     8.0806     0.0273     0.1295     0.2926
  344.5000   -68.6626     9.1489     8.8280     8.2481   102.6771     2.4500     8.0798     0.0210     0.1377     0.2919
  345.0000   -68.3817     9.2584     8.8816     8.2217   104.8710     2.4512     8.0789     0.0203     0.1365     0.2787
  345.5000   -68.1681     9.3979     8.9349     8.1954   103.7476     2.4425     8.0781     0.0197     0.1406     0.2928
  346.0000   -68.1725     9.4910     8.9819     8.1691   102.1930     2.4314     8.0773     0.0096     0.1494     0.3122
  346.5000   -68.1733     9.2188     8.8297     8.1430   103.4228     2.4302     8.0765     0.0103     0.1454     0.3198
  347.0000   -68.1730     9.0157     8.6965     8.1169   106.3278     2.4527     8.0757     0.0208     0.1387     0.2920
  347.5000   -68.1159     8.9710     8.5654     8.0908   110.1302     2.4516     8.0749     0.0224     0.1346     0.2767
  348.0000   -67.8431     8.9576     8.4997     8.0651   112.9971     2.4585     8.0741     0.0262     0.1385     0.2774
  348.5000   -67.5780     8.9442     8.4994     8.0428   111.9453     2.4842     8.0733     0.0449     0.1236     0.2890
  349.0000   -67.4658     8.9309     8.4996     8.0431   110.1754     2.4989     8.0725     0.0587     0.1074     0.2830
  349.5000   -67.3783     8.9176     8.4997     8.0432   108.5155     2.4784     8.0717     0.0416     0.1154     0.2776
  350.0000   -67.5849     8.9043     8.4997     8.0433   108.0094     2.4615     8.0709     0.0242     0.1317     0.2834
  350.5000   -67.8666     8.8910     8.4997     8.0431   107.8996     2.4687     8.0700     0.0270     0.1310     0.2877
  351.0000   -68.5856     8.8778     8.5004     8.0459   107.9102     2.4711     8.0692     0.0314     0.1252     0.2713
  351.5000   -69.2500     8.8645     8.4997     7.9648   106.7706     2.4655     8.0684     0.0349     0.1269     0.2593
  352.0000   -69.5857     8.8514     8.4399     7.8296   104.9440     2.4641     8.0676     0.0323     0.1285     0.2616
  352.5000   -69.9299     8.8388     8.1657     7.6321   104.1272     2.4349     8.0680     0.0100     0.1406     0.2607
  353.0000   -70.2782     8.8168     7.9005     7.3671   104.7261     2.3963     8.0696    -0.0145     0.1628     0.2587
  353.5000   -70.3800     8.8197     7.6438     7.1093   105.3605     2.3663     8.0712    -0.0370     0.1850     0.2618
  354.0000   -70.4114     8.2152     7.3955     6.8614   104.9967     2.3614     8.0729    -0.0266     0.1895     0.2665
  354.5000   -70.6337     7.8350     7.1552     6.6216   104.7174     2.4014     8.0745    -0.0089     0.1678     0.2853
