~VERSION INFORMATION
 VERS.                2.0:   CWLS LOG ASCII STANDARD - VERSION 2.0
 WRAP.                 NO:   ONE LINE PER DEPTH STEP
~WELL INFORMATION
#MNEM.UNIT      DATA TYPE    INFORMATION
#----------   ------------   ------------------------------
 STRT.F            0.0000:   START DEPTH
 STOP.F         3024.5000:   STOP DEPTH
 STEP.F            0.5000:   STEP LENGTH
 NULL.          -999.2500:   NO VALUE
 COMP. LAWRENCE/ALLISON INC:   COMPANY
 WELL.   NPR 3 77X #77-28:   WELL
 FLD .           N.P.R. 3:   FIELD
 LOC .      S28 T39N R78W:   LOCATION
 CNTY.            NATRONA:   COUNTY
 STAT.            WYOMING:   STATE
 CTRY. UNITED STATES OF AMERICA:   COUNTRY
 SRVC.      Dresser Atlas:   SERVICE COMPANY
 DATE.        19-OCT-1986:   LOGDATE
 API .       490251110400:   API NUMBER
~CURVE INFORMATION
#MNEM.UNIT       API CODE    CURVE DESCRIPTION
#----------   ------------   ------------------------------
 DEPT.F                  :   
 PORD.DEC    45 890 12 00:   DENSITY POROSITY SANDSTONE
 CNC .DEC    42 890 03 00:   NEUTRON POROSITY SANDSTONE
 DEN .G/C3   45 350 01 00:   COMPENSATED BULK DENSTIY
 CORR.G/C3   45 356 01 00:   DENSITY CORRECTION
 CALD.IN     45 280 60 00:   CALIPER FROM DENSITY LOG
 GRR .GAPI   07 310 01 00:   GAMMA RAY FROM RES. LOG.
 RFOC.OHMM   07 220 04 00:   RESISTIVITY FOCUSED LOG
 RILD.OHMM   07 120 46 00:   INDUCTION LOG DEEP RESISTIVITY
 RILM.OHMM   07 120 44 00:   INDUCTION LOG MEDIUM RESISTIVITY
 SPR .MV     07 010 01 00:   SPONTANEOUS POTENTIAL
~PARAMETER INFORMATION
#MNEM.UNIT          VALUE    DESCRIPTION
#----------   ------------   ------------------------------
 PD  .                 GL:   PERMANENT DATUM
 EPD .F              5074:   ELEVATION PERMANENT DATUM
 LMF .                 KB:   LOG MEASURED FROM
 DAPD.F                12:   FEET ABOVE PERMANENT DATUM
 DMF .                 KB:   DRILLING MEASURED FROM
 EKB .F              5086:   KELLING BUSHING
 EGL .F              5074:   GROUND LEVEL
 DATE.           10-19-86:   RUN DATE
 RUN .                  1:   RUN NUMBER
 DD  .F              3021:   DEPTH DRILLER
 DL  .F              3025:   DEPTH LOGGER
 BLI .F              3023:   BOTTOM LOG INTERVAL
 CS  .IN            8.625:   CASING SIZE
 CBD .F               620:   CASING BOTTOM DRILLER
 CBL .F               615:   CASING BOTTOM LOGGER
 BS  .IN            7.875:   BIT SIZE
 BSD .F              3021:   BIT SIZE AT DEPTH
 DFT .        KCL POLYMER:   DRILLING FLUID TYPE
 DFD .                8.9:   DRILLING FLUID DENSITY
 DFV .                 38:   DRILLING FLUID VISCOSITY
 DFPH.                9.5:   DRILLING FLUID PH
 DFL .               11.2:   DRILLING FLUID LOSS
 MSS .           FLOWLINE:   MUD SAMPLE SOURCE
 RMS .OHMM            .25:   RESISTIVITY MUD SAMPLE
 MST .F                65:   MUD SAMPLE TEMPERATURE
 RMF .OHMM           .203:   RESISTIVITY MUD FILTRATE SAMPLE
 MFST.F                65:   MUD FILTRATE SAMPLE TEMPERATURE
 RMC .OHMM            .31:   RESISTIVITY MUD CAKE
 MCST.F                65:   MUD CAKE SAMPLE TEMPERATURE
 MFSS.               MEAS:   MUD FILTRATE SAMPLE SOURCE
 MCSS.               CALC:   MUD CAKE SAMPLE SOURCE
 RMB .OHMM           .136:   RESISTIVITY MUD AT BHT
 BHT .F               119:   BOTTOM HOLE TEMPERATURE
 TCS .HRS               5:   TIME CURCULATED STOPPED
 MRT .F               119:   MAXIMUM RECORDED TEMPERATURE
 LUN .               6274:   LOGGING UNIT NUMBER
 LUL .               GLTE:   LOGGING UNIT LOCATION
 ENGI.             RAUTIO:   RECORDING ENGINEER
 WITN.             STRONG:   WITNESSED BY
 CLNT.            A2DTECH:   CLIENT CODE
 ORIG.       2", 5" PRINT:   ORIGIN OF DATA
 UWI .       490251110400:   UNIQUE WELL ID
 DICO. A2D Technologies, Inc.:   DIGITIZING COMPANY
~OTHER INFORMATION
~A    DEPT    PORD        CNC        DEN       CORR       CALD        GRR       RFOC       RILD       RILM        SPR   
# ...
 2512.5000     0.1067     0.1942     2.4729     0.0270    10.1611   102.0636    12.4192    10.2405    11.7207   -66.5827
 2513.0000     0.1177     0.1933     2.4625     0.0277    10.1600   102.3405    12.7416    10.4067    12.2789   -66.8364
 2513.5000     0.1255     0.2006     2.4497     0.0166    10.1589   103.3502    12.1591    10.3456    11.8482   -67.0874
 2514.0000     0.1293     0.2064     2.4385     0.0055    10.1578   104.3423    11.6189    10.2536    11.3637   -67.3386
 2514.5000     0.1232     0.2133     2.4429    -0.0055    10.1567   105.3410    11.0999    10.1624    10.8914   -67.5897
 2515.0000     0.1169     0.2105     2.4530    -0.0014    10.1555   106.3352    10.9974    10.0720    10.7969   -67.8408
 2515.5000     0.1105     0.2060     2.4630     0.0101    10.1544   105.9706    11.1477     9.9824    10.8830   -68.0919
 2516.0000     0.1040     0.2013     2.4730     0.0209    10.1533   105.4487    11.4097     9.8936    10.9881   -68.3430
 2516.5000     0.1059     0.1991     2.4787     0.0185    10.1522   105.1685    11.0672     9.8055    11.0990   -68.5941
 2517.0000     0.1084     0.1968     2.4733    -0.0054    10.1511   105.1747    10.4474     9.7183    10.6644   -68.8452
 2517.5000     0.1092     0.1957     2.4695    -0.0283    10.1548   104.8898    10.2170     9.6682    10.1200   -69.0965
 2518.0000     0.1092     0.1946     2.4693    -0.0391    10.1588   104.5078    10.7645     9.6682     9.9388   -69.3474
 2518.5000     0.1121     0.1944     2.4647    -0.0177    10.1629   104.3186    11.1673     9.6934    10.7883   -69.6018
 2519.0000     0.1158     0.1978     2.4588     0.0054    10.1669   106.5655    11.5152     9.7434    11.3052   -69.6399
 2519.5000     0.1195     0.2012     2.4505     0.0146    10.1709   108.4179    11.1303     9.7937    10.9477   -69.5810
 2520.0000     0.1258     0.2033     2.4427     0.0056    10.1749   106.1556    10.7482     9.8442    10.5921   -69.5195
 2520.5000     0.1331     0.2033     2.4349    -0.0033    10.1790   103.2413    10.6980     9.8948    10.2170   -69.4584
 2521.0000     0.1361     0.2033     2.4271     0.0027    10.1830   100.2939    11.0092     9.9395    10.2170   -69.3975
 2521.5000     0.1351     0.2062     2.4255     0.0134    10.1870    98.3711    11.4588     9.9394    10.2170   -69.3366
 2522.0000     0.1303     0.2105     2.4338     0.0103    10.1911    98.7472    11.7290     9.8865    10.2170   -69.2756
 2522.5000     0.1256     0.2102     2.4421     0.0030    10.1951   101.3859    11.4965     9.8485    10.2170   -69.2147
 2523.0000     0.1208     0.2021     2.4503    -0.0032    10.1991   104.1204    11.3352     9.8107    10.1391   -69.1532
 2523.5000     0.1161     0.1920     2.4585    -0.0030    10.2031   106.8835    11.2016     9.7731    10.0518   -69.0884
 2524.0000     0.1113     0.1836     2.4666    -0.0030    10.2072   105.3756    11.2009     9.7206     9.9653   -69.2257
 2524.5000     0.1104     0.1891     2.4660    -0.0030    10.2112   103.9688    11.2041     9.6277     9.8795   -69.3869
 2525.0000     0.1136     0.1945     2.4611    -0.0030    10.2088   103.9790    11.0366     9.5357     9.7944   -69.5482
 2525.5000     0.1168     0.1961     2.4563    -0.0030    10.2060   103.9741    10.7900     9.4445     9.7101   -69.7089
 2526.0000     0.1200     0.1953     2.4515    -0.0030    10.2032   103.9708    10.5508     9.3542     9.6265   -69.8697
 2526.5000     0.1232     0.1939     2.4466    -0.0029    10.2004   104.3481    10.5029     9.2648     9.5437   -70.0304
 2527.0000     0.1256     0.1942     2.4439     0.0012    10.1976   104.5639    10.5027     9.1762     9.4615   -70.1911
 2527.5000     0.1256     0.1994     2.4414     0.0056    10.1948   105.8229    10.4272     9.0885     9.4050   -70.3519
 2528.0000     0.1240     0.2046     2.4415    -0.0066    10.1919   107.0589    10.2797     9.0651     9.5866   -70.5126
 2528.5000     0.1224     0.2065     2.4456    -0.0312    10.1913   107.5399    10.2139     9.0651     9.7524   -70.6734
 2529.0000     0.1162     0.2048     2.4565    -0.0280    10.1913   105.6745    10.5856     9.0377     9.8475   -70.8399
 2529.5000     0.1103     0.2022     2.4678    -0.0021    10.1913   103.8861    10.9974     9.0106     9.8126   -70.8560
 2530.0000     0.1056     0.1996     2.4756     0.0082    10.1913   103.2130    10.6622     8.9821     9.7875   -70.8312
 2530.5000     0.1076     0.1977     2.4721     0.0003    10.1913   104.5152    10.2067     8.9720     9.7577   -70.8054
 2531.0000     0.1088     0.2039     2.4713    -0.0052    10.1913   107.5759    10.0307     8.9585     9.7937   -70.7801
 2531.5000     0.1042     0.2107     2.4795     0.0074    10.1913   110.5874    10.1182     8.9451     9.8391   -70.7548
 2532.0000     0.0978     0.2121     2.4890     0.0254    10.1913   110.8769    10.3144     8.9317     9.8850   -70.7296
 2532.5000     0.0915     0.2127     2.4985     0.0438    10.1913   109.2362    10.4067     8.9184     9.9312   -70.7043
 2533.0000     0.0882     0.2149     2.5058     0.0569    10.1913   107.6212    10.4067     8.9047     9.9774   -70.6790
 2533.5000     0.0906     0.2128     2.5006     0.0611    10.1913   105.9441    10.4387     8.8644    10.0302   -70.6538
 2534.0000     0.0946     0.2090     2.4949     0.0446    10.1913   105.5318    10.5019     8.8067     9.9424   -70.6285
 2534.5000     0.0960     0.2077     2.4914     0.0281    10.1913   107.1557    10.3481     8.7497     9.8414   -70.6033
 2535.0000     0.0943     0.2102     2.4940     0.0190    10.1913   109.1172    10.2062     8.6931     9.7576   -70.5780
 2535.5000     0.0918     0.2130     2.4978     0.0189    10.1913   108.0560    10.1234     8.6369     9.7576   -70.5527
 2536.0000     0.0915     0.2126     2.4995     0.0140    10.1913   106.3982    10.2407     8.5807     9.8522   -70.5275
 2536.5000     0.0964     0.2089     2.4930     0.0001    10.1913   104.6856    10.4091     8.4999     9.9388   -70.5025
 2537.0000     0.1013     0.2052     2.4827    -0.0141    10.1913   105.6902    10.1287     8.5443     9.8450   -70.4756
 2537.5000     0.1056     0.2015     2.4753    -0.0170    10.1913   108.1423     9.8320     8.6309     9.7169   -70.4029
 2538.0000     0.1022     0.2001     2.4796    -0.0170    10.1913   110.3245     9.6682     8.7178     9.5904   -70.3286
 2538.5000     0.1000     0.1995     2.4790    -0.0199    10.1913   108.9902     9.7576     8.8059     9.4656   -70.2546
 2539.0000     0.1069     0.1928     2.4719    -0.0210    10.1913   106.3347    10.4819     8.8998     9.4050   -70.1806
 2539.5000     0.1116     0.1862     2.4649    -0.0213    10.1913   103.6768    11.1975     8.8998     9.4249   -70.1067
 2540.0000     0.1120     0.1825     2.4624    -0.0076    10.1913   101.1345    11.9469     9.0277     9.5437   -70.0326
 2540.5000     0.1127     0.1891     2.4625    -0.0108    10.1913   101.4140    11.5960     9.2471     9.6640   -69.9578
 2541.0000     0.1150     0.1943     2.4591    -0.0192    10.1913   104.0631    11.1890     9.4719     9.7859   -69.8845
 2541.5000     0.1172     0.1996     2.4545    -0.0127    10.1913   105.1499    10.9929     9.6682     9.9093   -69.9353
 2542.0000     0.1155     0.2005     2.4585    -0.0014    10.1913   105.2735    11.1598     9.6682     9.9388   -69.9947
 2542.5000     0.1086     0.1937     2.4708     0.0098    10.1915   105.8087    11.3761     9.5412     9.9388   -70.0535
 2543.0000     0.1017     0.1939     2.4830     0.0109    10.1901   105.9536    11.4097     9.3857     9.7910   -70.1121
 2543.5000     0.0948     0.1990     2.4953     0.0025    10.2125   106.3568    11.1009     9.2328     9.6193   -70.1707
 2544.0000     0.0933     0.2032     2.4966    -0.0066    10.2142   107.4698    10.8948     9.0823     9.4505   -70.2293
 2544.5000     0.0952     0.2042     2.4924    -0.0132    10.2183   108.9488    10.6925     8.9342     9.2848   -70.2880
 2545.0000     0.0972     0.2081     2.4895    -0.0056    10.2220   107.7780    10.4940     8.7883     9.1217   -70.3466
 2545.5000     0.0984     0.2092     2.4895     0.0082    10.2258   105.7088    10.2991     8.6455     8.9612   -70.4053
