~VERSION INFORMATION
 VERS.                2.0:   CWLS LOG ASCII STANDARD - VERSION 2.0
 WRAP.                 NO:   ONE LINE PER DEPTH STEP
~WELL INFORMATION
#MNEM.UNIT      DATA TYPE    INFORMATION
#----------   ------------   ------------------------------
 STRT.F            0.0000:   START DEPTH
 STOP.F          962.0000:   STOP DEPTH
 STEP.F            0.5000:   STEP LENGTH
 NULL.          -999.2500:   NO VALUE
 COMP. FENIX & SCISSON INC:   COMPANY
 WELL.      NPR #3 #51-14:   WELL
 FLD .             TEAPOT:   FIELD
 LOC .      S14 T38N R78W:   LOCATION
 CNTY.            NATRONA:   COUNTY
 STAT.            WYOMING:   STATE
 CTRY. UNITED STATES OF AMERICA:   COUNTRY
 SRVC.              Welex:   SERVICE COMPANY
 DATE.        03-MAR-1977:   LOGDATE
 API .       490251029700:   API NUMBER
~CURVE INFORMATION
#MNEM.UNIT       API CODE    CURVE DESCRIPTION
#----------   ------------   ------------------------------
 DEPT.F                  :   
 SGRD.OHMM   07 220 05 00:   SHALLOW RESISTIVITY
 ILM .OHMM   07 120 44 00:   INDUCTION LOG MEDIUM
 ILD .OHMM   07 120 46 00:   INDUCTION LOG DEEP
 SPR .MV     07 010 01 00:   SPONTANEOUS POTENTIAL
 DPHI.DEC    45 890 12 00:   DENSITY POROSITY SANDSTONE
 RHOB.G/C3   45 350 01 00:   BULK DENSITY
 CORR.G/C3   45 356 01 00:   DENSITY CORRECTION
 CALD.IN     45 280 60 00:   CALIPER
 GRD .GAPI   45 310 01 00:   GAMMA RAY FROM DENSITY LOG
~PARAMETER INFORMATION
#MNEM.UNIT          VALUE    DESCRIPTION
#----------   ------------   ------------------------------
 PD  .                 GL:   PERMANENT DATUM
 EPD .F            5221.8:   ELEVATION PERMANENT DATUM
 LMF .                 GL:   LOG MEASURED FROM
 DMF .                 GL:   DRILLING MEASURED FROM
 EGL .F            5221.8:   GROUND LEVEL
 DATE.             3-3-77:   RUN DATE
 RUN .                  1:   RUN NUMBER
 DD  .F               967:   DEPTH DRILLER
 DL  .F               964:   DEPTH LOGGER
 BLI .F               962:   BOTTOM LOG INTERVAL
 TLI .F                42:   TOP LOG INTERVAL
 CS  .IN            8.625:   CASING SIZE
 CBD .F                42:   CASING BOTTOM DRILLER
 CBL .F                42:   CASING BOTTOM LOGGER
 BS  .IN            7.875:   BIT SIZE
 BSD .F               967:   BIT SIZE AT DEPTH
 DFT .           CHEM-GEL:   DRILLING FLUID TYPE
 DFD .                8.7:   DRILLING FLUID DENSITY
 DFV .                 33:   DRILLING FLUID VISCOSITY
 DFPH.                7.2:   DRILLING FLUID PH
 DFL .                 10:   DRILLING FLUID LOSS
 MSS .          FLOW LINE:   MUD SAMPLE SOURCE
 RMS .OHMM           .422:   RESISTIVITY MUD SAMPLE
 MST .F                56:   MUD SAMPLE TEMPERATURE
 RMF .OHMM           .372:   RESISTIVITY MUD FILTRATE SAMPLE
 MFST.F                56:   MUD FILTRATE SAMPLE TEMPERATURE
 RMC .OHMM           .484:   RESISTIVITY MUD CAKE
 MCST.F                56:   MUD CAKE SAMPLE TEMPERATURE
 MFSS.           MEASURED:   MUD FILTRATE SAMPLE SOURCE
 MCSS.           MEASURED:   MUD CAKE SAMPLE SOURCE
 RMB .OHMM           .284:   RESISTIVITY MUD AT BHT
 BHT .F                83:   BOTTOM HOLE TEMPERATURE
 TCS .HRS               2:   TIME CURCULATED STOPPED
 MRT .F                83:   MAXIMUM RECORDED TEMPERATURE
 LUN .               8611:   LOGGING UNIT NUMBER
 LUL .           GILLETTE:   LOGGING UNIT LOCATION
 ENGI.          D. LAWSON:   RECORDING ENGINEER
 WITN.         STUEBINGER:   WITNESSED BY
 CLNT.            A2DTECH:   CLIENT CODE
 ORIG.        2" 5" PRINT:   ORIGIN OF DATA
 UWI .       490251029700:   UNIQUE WELL ID
 DICO. A2D Technologies, Inc.:   DIGITIZING COMPANY
~OTHER INFORMATION
~A    DEPT    SGRD        ILM        ILD        SPR       DPHI       RHOB       CORR       CALD        GRD   
# ...
  839.5000    17.5166    18.1772    13.7261   -31.1574     0.1782     2.3587     0.0557     8.0124    83.0013
  840.0000    17.6696    18.3150    13.5970   -31.0131     0.1746     2.3605     0.0557     8.0191    82.7472
  840.5000    17.8240    18.4136    13.4691   -30.8654     0.1738     2.3599     0.0557     8.0207    84.0918
  841.0000    17.9807    15.9443    13.3424   -30.7177     0.1774     2.3552     0.0557     8.0221    84.2556
  841.5000    18.0894    14.2388    13.2170   -30.5699     0.1795     2.3509     0.0557     8.0237    82.2057
  842.0000    18.1212    14.2388    13.0926   -30.4218     0.1741     2.3572     0.0557     8.0252    82.3552
  842.5000    18.1518    16.2052    12.9695   -30.2761     0.1695     2.3642     0.0557     8.0267    82.6337
  843.0000    18.1823    17.5872    12.8475   -30.1994     0.1650     2.3710     0.0557     8.0282    82.9109
  843.5000    18.2137    16.5143    12.7267   -30.2631     0.1637     2.3729     0.0557     8.0297    83.1753
  844.0000    18.2452    14.6365    12.6069   -30.3244     0.1714     2.3651     0.0557     8.0313    85.2598
  844.5000    17.8663    15.0716    12.4884   -30.3863     0.1658     2.3740     0.0557     8.0328    88.4381
  845.0000    17.2672    15.8102    12.3709   -30.4481     0.1584     2.3840     0.0560     8.0343    88.9879
  845.5000    17.5822    16.6444    12.2545   -30.5098     0.1542     2.3929     0.0569     8.0358    88.9482
  846.0000    18.2452    15.8025    12.1393   -30.5715     0.1503     2.4009     0.0578     8.0374    88.4664
  846.5000    18.0124    14.9276    12.0300   -30.6332     0.1463     2.4087     0.0587     8.0389    89.3045
  847.0000    17.6191    14.1045    11.9294   -30.6950     0.1476     2.4068     0.0597     8.0404    90.2411
  847.5000    17.2615    13.1770    11.8296   -30.7567     0.1446     2.4140     0.0623     8.0419    90.4609
  848.0000    18.0153    14.2546    11.7307   -30.8182     0.1323     2.4296     0.0663     8.0435    89.7400
  848.5000    19.4428    16.0770    11.6326   -30.8797     0.1200     2.4454     0.0713     8.0450    88.6886
  849.0000    20.9817    18.0957    11.5353   -30.9436     0.1148     2.4607     0.0762     8.0465    87.9175
  849.5000    22.6410    17.9201    11.4388   -31.0935     0.1161     2.4706     0.0793     8.0480    87.1513
  850.0000    24.2537    16.4746    11.3432   -31.3614     0.1285     2.4281     0.0774     8.0496    86.4131
  850.5000    17.6972    14.9078    11.2483   -31.2698     0.1397     2.4171     0.0756     8.0511    88.0691
  851.0000    16.4923    14.9723    11.1542   -31.1491     0.1419     2.4145     0.0727     8.0526    89.8474
  851.5000    16.4923    15.0876    11.0609   -31.0300     0.1444     2.4110     0.0699     8.0541    91.4354
  852.0000    16.4923    15.2038    10.9602   -30.9114     0.1469     2.4039     0.0671     8.0556    91.3750
  852.5000    16.4923    15.3210    10.8506   -30.7927     0.1493     2.4008     0.0642     8.0572    91.3022
  853.0000    16.4923    15.4651    10.7421   -30.6739     0.1457     2.4032     0.0619     8.0560    91.7605
  853.5000    16.4923    14.8804    10.6346   -30.5557     0.1391     2.4186     0.0660     8.0538    93.4775
  854.0000    16.4923    14.0798    10.5283   -30.4370     0.1325     2.4335     0.0702     8.0514    94.7754
  854.5000    16.1791    13.1093    10.4230   -30.4432     0.1259     2.4443     0.0743     8.0491    95.5548
  855.0000    15.8862    13.2493    10.3188   -30.5671     0.1273     2.4403     0.0762     8.0468    95.0286
  855.5000    15.5972    13.4492    10.2156   -30.6924     0.1301     2.4366     0.0770     8.0445    94.3335
  856.0000    15.3251    13.6522    10.1134   -30.8179     0.1316     2.4329     0.0776     8.0422    93.4060
  856.5000    15.4867    13.7253    10.0122   -30.9489     0.1312     2.4292     0.0756     8.0399    91.8921
  857.0000    15.6465    13.4105     9.9120   -30.9170     0.1309     2.4278     0.0734     8.0376    91.3511
  857.5000    15.7522    13.2303     9.8133   -30.8372     0.1305     2.4278     0.0713     8.0353    90.8957
  858.0000    15.3885    13.4145     9.7474   -30.7564     0.1348     2.4257     0.0692     8.0330    91.4084
  858.5000    15.1852    13.6088     9.7058   -30.6761     0.1401     2.4144     0.0671     8.0307    90.8202
  859.0000    15.3752    13.8059     9.6643   -30.5958     0.1454     2.4033     0.0650     8.0284    90.2129
  859.5000    15.5309    13.9797     9.6230   -30.5155     0.1530     2.3985     0.0642     8.0261    89.7060
  860.0000    15.7522    13.7253     9.5819   -30.4352     0.1497     2.4031     0.0657     8.0238    90.4944
  860.5000    15.6296    13.9496     9.5410   -30.3548     0.1464     2.4079     0.0671     8.0215    91.2918
  861.0000    15.4266    14.2392     9.5003   -30.2743     0.1481     2.4063     0.0685     8.0191    92.0935
  861.5000    15.2262    14.5027     9.4597   -30.1917     0.1497     2.4037     0.0699     8.0168    93.5692
  862.0000    15.0272    13.9755     9.4193   -30.2236     0.1488     2.4011     0.0715     8.0145    92.9375
  862.5000    14.9063    13.2789     9.3791   -30.2785     0.1494     2.3985     0.0702     8.0122    92.0460
  863.0000    14.9527    12.5210     9.3390   -30.3338     0.1530     2.3959     0.0682     8.0099    92.0543
  863.5000    14.9904    13.4015     9.3149   -30.3888     0.1548     2.3944     0.0661     8.0076    92.0453
  864.0000    15.0451    14.5160     9.2937   -30.4436     0.1494     2.4000     0.0680     8.0053    91.7659
  864.5000    14.9362    15.7522     9.2725   -30.4986     0.1450     2.4055     0.0711     8.0030    90.4038
  865.0000    14.7375    14.4884     9.2514   -30.5532     0.1406     2.4111     0.0742     8.0007    89.0772
  865.5000    14.5423    13.2999     9.2303   -30.6615     0.1393     2.4102     0.0744     7.9984    87.7505
  866.0000    14.3869    12.5227     9.2092   -30.8104     0.1516     2.4037     0.0719     7.9980    86.4980
  866.5000    14.5501    13.1593     9.1882   -30.9595     0.1541     2.3971     0.0699     7.9980    86.2452
  867.0000    14.7151    13.6744     9.1673   -31.1087     0.1502     2.3974     0.0724     7.9980    86.1679
  867.5000    14.9071    14.2399     9.1464   -31.2578     0.1462     2.4051     0.0750     7.9980    86.7456
  868.0000    14.7782    13.7787     9.1255   -31.4069     0.1422     2.4126     0.0775     7.9980    88.8090
  868.5000    14.6281    13.0888     9.1047   -31.5561     0.1382     2.4202     0.0799     7.9980    90.9286
  869.0000    14.4782    12.2932     9.0840   -31.7052     0.1342     2.4277     0.0809     7.9980    90.3788
  869.5000    14.3300    12.9229     9.0632   -31.8543     0.1339     2.4289     0.0768     7.9980    88.9735
  870.0000    14.1836    13.7758     9.0426   -32.0034     0.1362     2.4225     0.0729     7.9980    89.7321
  870.5000    14.1086    14.2388     9.0220   -32.1525     0.1384     2.4162     0.0690     7.9980    91.7181
  871.0000    14.1633    13.8158     9.0014   -32.3019     0.1401     2.4144     0.0693     7.9980    91.8765
  871.5000    14.2058    12.9734     8.9809   -32.4510     0.1378     2.4222     0.0720     7.9980    91.6327
  872.0000    14.2484    12.1823     8.9604   -32.5833     0.1341     2.4297     0.0802     7.9980    93.8709
  872.5000    14.2912    11.6342     8.9400   -32.6396     0.1305     2.4373     0.0815     7.9980    96.5804
  873.0000    14.3341    12.3217     8.9196   -32.6975     0.1269     2.4448     0.0829     7.9980    98.2375
  873.5000    14.3701    12.8923     8.9142   -32.7554     0.1236     2.4524     0.0831     7.9980    97.6104
  874.0000    14.2998    13.5998     8.9142   -32.8134     0.1203     2.4599     0.0815     7.9980    96.1935
  874.5000    14.2395    13.0757     8.9142   -32.8714     0.1170     2.4583     0.0799     7.9980    94.7696
  875.0000    14.1793    12.4598     8.9142   -32.9294     0.1173     2.4468     0.0782     7.9980    93.3482
  875.5000    14.1194    11.8531     8.9142   -32.9874     0.1214     2.4353     0.0766     7.9980    91.9268
