~VERSION INFORMATION
 VERS.                2.0:   CWLS LOG ASCII STANDARD - VERSION 2.0
 WRAP.                 NO:   ONE LINE PER DEPTH STEP
~WELL INFORMATION
#MNEM.UNIT      DATA TYPE    INFORMATION
#----------   ------------   ------------------------------
 STRT.F           30.0000:   START DEPTH
 STOP.F          744.0000:   STOP DEPTH
 STEP.F            0.5000:   STEP LENGTH
 NULL.          -999.2500:   NO VALUE
 COMP. FENIX & SCISSON INC:   COMPANY
 WELL.   NPR 3 #53 S - 34:   WELL
 FLD .             TEAPOT:   FIELD
 LOC .      S34 T39N R78W:   LOCATION
 CNTY.            NATRONA:   COUNTY
 STAT.            WYOMING:   STATE
 CTRY. UNITED STATES OF AMERICA:   COUNTRY
 SRVC.       Schlumberger:   SERVICE COMPANY
 DATE.        28-MAR-1977:   LOGDATE
 API .       490251031700:   API NUMBER
~CURVE INFORMATION
#MNEM.UNIT       API CODE    CURVE DESCRIPTION
#----------   ------------   ------------------------------
 DEPT.F                  :   
 CALD.IN     45 280 60 00:   CALIPER FROM DENSITY LOG
 GRD .GAPI   45 310 01 00:   GAMMA RAY FROM DENSITY LOG
 CORR.G/C3   45 356 01 00:   DENSITY CORRECTION
 DPHI.DEC    45 890 12 00:   DENSITY POROSITY SANDSTONE
 RHOB.G/C3   45 350 01 00:   BULK DENSITY
~PARAMETER INFORMATION
#MNEM.UNIT          VALUE    DESCRIPTION
#----------   ------------   ------------------------------
 PD  .                 GL:   PERMANENT DATUM
 EPD .F              5081:   ELEVATION PERMANENT DATUM
 LMF .                 GL:   LOG MEASURED FROM
 DAPD.F                 5:   FEET ABOVE PERMANENT DATUM
 DMF .                 KB:   DRILLING MEASURED FROM
 EKB .F              5086:   KELLING BUSHING
 EGL .F              5081:   GROUND LEVEL
 DATE.        20-MAR-1977:   RUN DATE
 RUN .                  1:   RUN NUMBER
 DD  .F               751:   DEPTH DRILLER
 DL  .F               745:   DEPTH LOGGER
 BLI .F               744:   BOTTOM LOG INTERVAL
 TLI .F                30:   TOP LOG INTERVAL
 CBL .F                38:   CASING BOTTOM LOGGER
 BS  .IN            7.875:   BIT SIZE
 BSD .F               751:   BIT SIZE AT DEPTH
 DFT .             5% KCL:   DRILLING FLUID TYPE
 MSS .           MUD TANK:   MUD SAMPLE SOURCE
 RMS .OHMM            .23:   RESISTIVITY MUD SAMPLE
 MST .F                68:   MUD SAMPLE TEMPERATURE
 RMF .OHMM            .18:   RESISTIVITY MUD FILTRATE SAMPLE
 MFST.F                68:   MUD FILTRATE SAMPLE TEMPERATURE
 RMC .OHMM            .35:   RESISTIVITY MUD CAKE
 MCST.F                68:   MUD CAKE SAMPLE TEMPERATURE
 MFSS.               MEAS:   MUD FILTRATE SAMPLE SOURCE
 MCSS.               CALC:   MUD CAKE SAMPLE SOURCE
 RMB .OHMM            .24:   RESISTIVITY MUD AT BHT
 BHT .F                60:   BOTTOM HOLE TEMPERATURE
 TCS .HRS            0300:   TIME CURCULATED STOPPED
 MRT .F                60:   MAXIMUM RECORDED TEMPERATURE
 LUN .               7680:   LOGGING UNIT NUMBER
 LUL .               CSPR:   LOGGING UNIT LOCATION
 ENGI.                FIX:   RECORDING ENGINEER
 WITN.              BURKE:   WITNESSED BY
 CLNT.            A2DTECH:   CLIENT CODE
 ORIG.           5" PRINT:   ORIGIN OF DATA
 UWI .       490251031700:   UNIQUE WELL ID
 DICO. A2D Technologies, Inc.:   DIGITIZING COMPANY
~OTHER INFORMATION
~A   DEPT     CALD        GRD       CORR       DPHI       RHOB   
# ...
  335.0000     8.3922    96.9207     0.0106     0.1107     2.4698
  335.5000     8.3783    97.5523     0.0053     0.1138     2.4629
  336.0000     8.3798    97.8719     0.0022     0.1156     2.4599
  336.5000     8.3813    93.5766     0.0202     0.1112     2.4716
  337.0000     8.3670    88.0449     0.0318     0.1034     2.4910
  337.5000     8.3844    83.5917     0.0149     0.1109     2.4709
  338.0000     8.3859    82.0661     0.0057     0.1217     2.4500
  338.5000     8.3874    82.6977    -0.0012     0.1210     2.4547
  339.0000     8.3890    88.1059     0.0020     0.1157     2.4703
  339.5000     8.3905    90.2783     0.0068     0.1113     2.4774
  340.0000     8.3920    91.0639     0.0109     0.1076     2.4836
  340.5000     8.3936    91.3873     0.0177     0.1041     2.4969
  341.0000     8.3951    91.7108     0.0256     0.0910     2.5003
  341.5000     8.3966    91.1097     0.0148     0.0870     2.5024
  342.0000     8.3981    89.5799     0.0133     0.0969     2.5088
  342.5000     8.3842    91.7616     0.0150     0.1034     2.4863
  343.0000     8.4012    93.6394     0.0135     0.1042     2.4871
  343.5000     8.4028    94.8686     0.0159     0.0964     2.5069
  344.0000     8.3888    89.8182     0.0013     0.1079     2.4757
  344.5000     8.3907    89.5062     0.0006     0.1129     2.4785
  345.0000     8.3923    90.7541     0.0154     0.1069     2.5013
  345.5000     8.3938    89.5405     0.0186     0.0969     2.4967
  346.0000     8.3953    88.9394     0.0139     0.1037     2.4851
  346.5000     8.3968    88.6465     0.0188     0.0989     2.5038
  347.0000     8.3984    88.1995     0.0150     0.1004     2.4923
  347.5000     8.3999    87.7525     0.0151     0.1066     2.4784
  348.0000     8.4014    87.3055     0.0144     0.1107     2.4738
  348.5000     8.4030    86.3962     0.0161     0.1113     2.4661
  349.0000     8.4045    83.4839     0.0184     0.1088     2.4785
  349.5000     8.4060    77.7980     0.0177     0.1115     2.4716
  350.0000     8.4075    76.2686     0.0147     0.1177     2.4515
  350.5000     8.4091    83.9919     0.0202     0.1149     2.4694
  351.0000     8.4102    87.2463     0.0141     0.1099     2.4656
  351.5000     8.4101    89.8826     0.0150     0.1182     2.4540
  352.0000     8.4100    91.4404     0.0243     0.1148     2.4696
  352.5000     8.4099    89.1460     0.0321     0.1129     2.4798
  353.0000     8.4098    87.9303     0.0291     0.1091     2.4907
  353.5000     8.4097    89.3339     0.0330     0.0995     2.5008
  354.0000     8.4096    90.2753     0.0130     0.1069     2.4792
  354.5000     8.4095    89.0596     0.0123     0.1094     2.4777
  355.0000     8.4108    86.6112     0.0116     0.1075     2.4816
  355.5000     8.3968    84.7748     0.0156     0.1031     2.4925
  356.0000     8.3832    85.4123     0.0280     0.0984     2.4988
  356.5000     8.3696    82.8098     0.0327     0.0934     2.4991
  357.0000     8.3719    80.2073     0.0200     0.1012     2.4903
  357.5000     8.3579    80.0411     0.0190     0.1039     2.4858
  358.0000     8.3602    81.1656     0.0238     0.1052     2.4928
  358.5000     8.3620    80.7203     0.0270     0.0942     2.5030
  359.0000     8.3638    78.7341     0.0301     0.0921     2.5062
  359.5000     8.3657    75.8234     0.0383     0.0954     2.5142
  360.0000     8.3830    73.8372     0.0286     0.0904     2.5024
  360.5000     8.3848    72.3133     0.0270     0.0929     2.4970
  361.0000     8.3866    72.6384     0.0224     0.1025     2.4831
  361.5000     8.3885    74.8125     0.0132     0.1124     2.4716
  362.0000     8.3903    76.2161     0.0050     0.1114     2.4771
  362.5000     8.3922    77.9279     0.0200     0.1080     2.4864
  363.0000     8.3940    79.8162     0.0294     0.1011     2.4958
  363.5000     8.3958    78.1158     0.0209     0.0993     2.4958
  364.0000     8.3977    77.9702     0.0076     0.1079     2.4866
  364.5000     8.3995    78.7660     0.0201     0.1069     2.4803
  365.0000     8.3855    79.7074     0.0193     0.1107     2.4680
  365.5000     8.4032    80.3406     0.0202     0.1088     2.4810
  366.0000     8.4051    78.8167     0.0343     0.1000     2.4948
  366.5000     8.4069    76.6764     0.0389     0.0895     2.5027
  367.0000     8.4087    77.1577     0.0282     0.0931     2.5048
  367.5000     8.4106    78.4078     0.0267     0.0963     2.4904
  368.0000     8.4124    79.5099     0.0276     0.1105     2.4750
  368.5000     8.4143    79.9812     0.0207     0.1130     2.4643
  369.0000     8.4161    79.9981     0.0176     0.1166     2.4616
  369.5000     8.4179    79.0905     0.0193     0.1129     2.4683
  370.0000     8.4198    77.4125     0.0279     0.1128     2.4750
  370.5000     8.4216    74.9641     0.0241     0.1107     2.4750
  371.0000     8.4235    72.0534     0.0242     0.1102     2.4813
  371.5000     8.4099    67.2938     0.0180     0.1048     2.4907
  372.0000     8.4117    63.7625     0.0088     0.0976     2.5039
  372.5000     8.4136    68.2521     0.0213     0.0876     2.5071
  373.0000     8.4154    75.0486     0.0337     0.1019     2.4870
  373.5000     8.4327    76.2982     0.0207     0.1138     2.4630
  374.0000     8.4191    77.3937     0.0107     0.1201     2.4506
  374.5000     8.4210    78.1810     0.0170     0.1135     2.4685
  375.0000     8.4228    78.3770     0.0248     0.1088     2.4818
  375.5000     8.4247    76.8281     0.0326     0.1100     2.4756
  376.0000     8.4269    77.8552     0.0272     0.1164     2.4633
  376.5000     8.4287    79.1717     0.0210     0.1179     2.4502
  377.0000     8.4306    77.0357     0.0181     0.1212     2.4471
  377.5000     8.4324    75.8200     0.0143     0.1193     2.4511
  378.0000     8.4343    75.0622     0.0121     0.1158     2.4597
  378.5000     8.4361    76.6242     0.0207     0.1127     2.4682
  379.0000     8.4380    77.2574     0.0254     0.1120     2.4714
  379.5000     8.4398    76.6580     0.0177     0.1160     2.4614
  380.0000     8.4257    75.9003     0.0031     0.1213     2.4490
  380.5000     8.4280    77.3081     0.0047     0.1172     2.4522
  381.0000     8.4140    76.7087     0.0156     0.1169     2.4600
  381.5000     8.4163    73.6440     0.0242     0.1194     2.4430
  382.0000     8.4022    70.1170     0.0220     0.1283     2.4313
  382.5000     8.4045    67.2063     0.0406     0.1174     2.4602
  383.0000     8.4064    68.7640     0.0368     0.1152     2.4649
  383.5000     8.4084    74.9443     0.0284     0.1149     2.4580
  384.0000     8.4101    78.0428     0.0316     0.1276     2.4363
  384.5000     8.4119    77.1352     0.0324     0.1189     2.4550
  385.0000     8.4137    76.0736     0.0255     0.1167     2.4481
  385.5000     8.4156    77.0150     0.0202     0.1232     2.4326
  386.0000     8.4174    78.8809     0.0303     0.1188     2.4474
  386.5000     8.4193    80.7468     0.0180     0.1312     2.4328
  387.0000     8.4211    81.3758     0.0127     0.1349     2.4297
  387.5000     8.4230    78.0071     0.0136     0.1274     2.4375
  388.0000     8.4248    78.1781     0.0214     0.1165     2.4586
  388.5000     8.4266    79.2736     0.0284     0.1112     2.4726
  389.0000     8.4285    80.3691     0.0200     0.1174     2.4452
  389.5000     8.4303    81.6186     0.0077     0.1338     2.4331
  390.0000     8.4322    81.9395    -0.0015     0.1409     2.4237
  390.5000     8.4340    80.5696    -0.0030     0.1474     2.4169
  391.0000     8.4360    81.5153     0.0033     0.1458     2.4115
  391.5000     8.4377    81.9944     0.0095     0.1393     2.4078
  392.0000     8.4395    81.7032     0.0181     0.1253     2.4239
  392.5000     8.4414    76.4812     0.0236     0.1215     2.4448
  393.0000     8.4432    73.5706     0.0275     0.1224     2.4475
  393.5000     8.4296    69.4272     0.0184     0.1333     2.4387
  394.0000     8.4315    74.0666     0.0146     0.1258     2.4402
  394.5000     8.4333    79.0142     0.0115     0.1202     2.4489
  395.0000     8.4352    83.3454     0.0201     0.1170     2.4571
  395.5000     8.4370    84.5950     0.0078     0.1145     2.4634
