~VERSION INFORMATION
 VERS.                2.0:   CWLS LOG ASCII STANDARD - VERSION 2.0
 WRAP.                 NO:   ONE LINE PER DEPTH STEP
~WELL INFORMATION
#MNEM.UNIT      DATA TYPE    INFORMATION
#----------   ------------   ------------------------------
 STRT.F           34.0000:   START DEPTH
 STOP.F          662.0000:   STOP DEPTH
 STEP.F            0.5000:   STEP LENGTH
 NULL.          -999.2500:   NO VALUE
 COMP. LAWRENCE/ALLISON INC:   COMPANY
 WELL.   68-66 STX #34-34:   WELL
 FLD .             TEAPOT:   FIELD
 LOC .      S34 T39N R78W:   LOCATION
 CNTY.            NATRONA:   COUNTY
 STAT.            WYOMING:   STATE
 CTRY. UNITED STATES OF AMERICA:   COUNTRY
 SRVC.           Gearhart:   SERVICE COMPANY
 DATE.        24-AUG-1987:   LOGDATE
 API .       490251115000:   API NUMBER
~CURVE INFORMATION
#MNEM.UNIT       API CODE    CURVE DESCRIPTION
#----------   ------------   ------------------------------
 DEPT.F                  :   
 GRR .GAPI   07 310 01 00:   GAMMA RAY FROM RES. LOG
 ILD .OHMM   07 120 46 00:   INDUCTION LOG DEEP
 ILM .OHMM   07 120 44 00:   INDUCTION LOG MEDIUM
~PARAMETER INFORMATION
#MNEM.UNIT          VALUE    DESCRIPTION
#----------   ------------   ------------------------------
 PD  .                 GL:   PERMANENT DATUM
 EPD .F              5089:   ELEVATION PERMANENT DATUM
 LMF .                 KB:   LOG MEASURED FROM
 DAPD.F                 8:   FEET ABOVE PERMANENT DATUM
 DMF .                 KB:   DRILLING MEASURED FROM
 EKB .F              5097:   KELLING BUSHING
 EDF .F              5095:   DRILLING FLOOR
 EGL .F              5089:   GROUND LEVEL
 DATE.            8-24-87:   RUN DATE
 RUN .                  1:   RUN NUMBER
 DD  .F               675:   DEPTH DRILLER
 DL  .F               670:   DEPTH LOGGER
 BLI .F               662:   BOTTOM LOG INTERVAL
 TLI .F                30:   TOP LOG INTERVAL
 CS  .IN            8.625:   CASING SIZE
 CBD .F                48:   CASING BOTTOM DRILLER
 CBL .F                48:   CASING BOTTOM LOGGER
 BS  .IN            7.875:   BIT SIZE
 BSD .F               675:   BIT SIZE AT DEPTH
 DFT .                AIR:   DRILLING FLUID TYPE
 TCS .HRS            1300:   TIME CURCULATED STOPPED
 TLAB.HRS            1712:   TIME LOGGER AT BOTTOM
 MRT .F                80:   MAXIMUM RECORDED TEMPERATURE
 LUN .               7597:   LOGGING UNIT NUMBER
 LUL .           GILLETTE:   LOGGING UNIT LOCATION
 ENGI.         WEATHERMON:   RECORDING ENGINEER
 WITN.             STRONG:   WITNESSED BY
 CLNT.            A2DTECH:   CLIENT CODE
 ORIG.       2", 5" PRINT:   ORIGIN OF DATA
 UWI .       490251115000:   UNIQUE WELL ID
 DICO. A2D Technologies, Inc.:   DIGITIZING COMPANY
~OTHER INFORMATION
~A   DEPT       GRR       ILD        ILM   
# ...
  398.0000   141.1165     4.9006     5.3115
  398.5000   137.7000     5.0334     5.5068
  399.0000   140.4065     5.2410     5.7213
  399.5000   143.6673     5.5589     5.9897
  400.0000   145.8057     5.8977     6.2707
  400.5000   141.8204     6.2566     6.5648
  401.0000   138.0076     6.6107     6.8755
  401.5000   134.9205     6.8481     7.1464
  402.0000   137.1685     7.0948     7.3795
  402.5000   140.4350     7.2781     7.5521
  403.0000   142.4711     7.2771     7.6225
  403.5000   140.3239     7.2771     7.5826
  404.0000   138.2208     7.1879     7.4596
  404.5000   136.1126     7.0374     7.3033
  405.0000   134.9990     6.8899     7.1502
  405.5000   135.0771     6.7456     7.0004
  406.0000   138.5307     6.6040     6.8536
  406.5000   141.6755     6.3663     6.6426
  407.0000   142.1984     6.1080     6.4180
  407.5000   142.7697     5.8602     6.2011
  408.0000   143.3487     5.6224     5.9915
  408.5000   143.9008     5.3942     5.7890
  409.0000   143.6444     5.1751     5.5933
  409.5000   142.6662     4.9654     5.4038
  410.0000   141.3348     4.7639     5.1611
  410.5000   140.8517     4.6623     5.1608
  411.0000   141.1270     4.9931     5.3768
  411.5000   141.4183     5.2122     5.5825
  412.0000   141.7097     5.4408     5.7950
  412.5000   141.9985     5.6795     6.0152
  413.0000   142.3086     5.9287     6.2439
  413.5000   143.1098     6.1888     6.4813
  414.0000   143.8830     6.4603     6.7284
  414.5000   143.1500     6.6749     6.9391
  415.0000   142.3458     6.7857     7.0874
  415.5000   142.2761     6.8984     7.2381
  416.0000   143.4149     7.0129     7.3743
  416.5000   144.9007     7.1294     7.4717
  417.0000   145.2672     7.2478     7.5707
  417.5000   145.4161     7.3681     7.6707
  418.0000   145.7000     7.4824     7.7653
  418.5000   146.8492     7.4378     7.7188
  419.0000   147.9671     7.3868     7.6659
  419.5000   148.5544     7.3361     7.6133
  420.0000   149.1122     7.2857     7.5611
  420.5000   149.6158     7.2358     7.5093
  421.0000   148.3036     7.1862     7.4579
  421.5000   146.0314     7.1370     7.4067
  422.0000   144.7113     7.0880     7.3560
  422.5000   146.1722     7.0395     7.3056
  423.0000   148.2559     6.9958     7.2771
  423.5000   149.3424     6.9587     7.2771
  424.0000   149.6615     6.9213     7.2771
  424.5000   149.9602     6.8850     7.2771
  425.0000   150.2590     6.6624     7.1177
  425.5000   150.9237     6.3864     6.8408
  426.0000   151.9278     6.1219     6.5587
  426.5000   152.9278     5.8683     6.2881
  427.0000   153.9337     5.6252     6.0287
  427.5000   154.6738     5.3922     5.8145
  428.0000   157.6763     5.2598     5.7710
  428.5000   161.6074     5.3582     5.8302
  429.0000   165.6077     5.4290     5.8793
  429.5000   167.1344     5.5008     5.9287
  430.0000   162.0823     5.5608     5.9891
  430.5000   156.3505     5.3188     5.8828
  431.0000   151.1963     5.1208     5.7177
  431.5000   149.4499     4.9302     5.4349
  432.0000   147.6231     4.7467     5.1794
  432.5000   145.8885     4.5701     4.9360
  433.0000   144.3438     4.4000     4.8836
  433.5000   139.8464     4.3692     4.9292
  434.0000   134.7937     4.4940     5.1833
  434.5000   136.1523     4.8238     5.4389
  435.0000   137.7350     5.1560     5.7071
  435.5000   139.1638     5.5095     5.9886
  436.0000   136.6890     5.8330     6.3025
  436.5000   135.4395     6.1761     6.6452
  437.0000   136.3746     6.5754     6.8691
  437.5000   137.8485     6.5735     7.0365
  438.0000   139.3393     6.2638     7.0774
  438.5000   140.8265     5.9539     6.5673
  439.0000   142.3137     5.6604     6.2180
  439.5000   143.7954     5.3814     5.8875
  440.0000   145.1919     5.1162     5.5751
  440.5000   146.3228     4.8640     5.2789
  441.0000   147.2533     4.6243     5.0682
  441.5000   148.1998     4.4510     5.0682
  442.0000   149.1574     4.5799     5.1813
  442.5000   149.9669     4.7801     5.3556
  443.0000   148.6810     4.9890     5.5359
  443.5000   145.7384     5.2112     5.8413
  444.0000   142.8278     5.6818     6.2549
  444.5000   139.9260     6.1919     6.6978
  445.0000   137.6141     6.6777     7.2099
  445.5000   136.6324     7.0352     7.4097
  446.0000   138.6746     7.4133     7.6325
  446.5000   141.4047     7.5075     7.7911
  447.0000   144.1295     7.5684     7.8545
  447.5000   145.5536     7.6291     7.9175
  448.0000   143.9821     7.6904     7.9811
  448.5000   140.9763     7.7527     8.0458
  449.0000   137.9424     7.7766     8.0705
  449.5000   136.7367     7.7912     8.0857
  450.0000   136.8964     7.8056     8.1007
  450.5000   138.6538     7.8201     8.1157
  451.0000   140.2886     7.8370     8.1333
  451.5000   139.0065     7.8255     8.1213
  452.0000   136.6021     7.8103     8.1056
  452.5000   136.3287     7.7952     8.0899
  453.0000   138.3986     7.7803     8.0744
  453.5000   140.3902     7.7663     8.0599
  454.0000   142.4213     7.6935     7.9843
  454.5000   141.8894     7.7628     8.0858
  455.0000   139.9710     7.8679     8.2405
  455.5000   138.1561     7.9745     8.3981
  456.0000   137.7803     8.0587     8.5587
  456.5000   136.9383     8.0587     8.6795
  457.0000   134.2131     7.1008     8.1629
  457.5000   131.5638     6.6448     7.6115
  458.0000   129.7135     6.3319     7.0974
  458.5000   130.7474     5.8203     6.6180
  459.0000   137.0321     5.3518     6.0399
  459.5000   143.2894     4.9751     6.0468
  460.0000   149.4915     4.9292     6.0436
  460.5000   154.5848     5.3932     6.2997
  461.0000   150.1168     5.9114     6.6948
  461.5000   141.7383     6.4794     7.1590
  462.0000   136.1909     7.1019     7.7336
  462.5000   132.8228     7.7842     8.5199
  463.0000   130.2208     8.5321     9.1430
  463.5000   127.8841     9.3518     9.2221
  464.0000   126.1042     9.7612     9.2764
  464.5000   124.2915     9.9784     9.3310
  465.0000   124.9895    10.1738     9.3859
  465.5000   126.0505    10.3545     9.4411
  466.0000   127.1266    10.6976     9.4967
  466.5000   127.7193    11.2283     9.6869
  467.0000   125.3243    12.0238    10.2904
  467.5000   117.5894    13.3048    11.4471
  468.0000   106.0575    14.7223    12.8853
  468.5000    92.8095    16.2907    14.7042
  469.0000    83.1602    17.9463    16.4637
  469.5000    79.9505    19.3293    17.8114
  470.0000    79.0819    20.8189    19.2693
  470.5000    78.7475    21.9954    20.4464
  471.0000    79.4709    22.1736    20.6954
  471.5000    81.7404    22.3533    20.9500
  472.0000    84.4651    22.5344    21.3449
  472.5000    85.8464    22.7170    22.2877
  473.0000    82.4906    23.6460    23.3775
  473.5000    79.0290    24.9636    25.4448
  474.0000    75.5510    26.3547    27.6722
  474.5000    72.5428    27.8233    30.1931
  475.0000    69.8017    29.5267    32.9180
  475.5000    67.0502    30.1807    35.8911
  476.0000    64.3045    30.4934    39.1184
  476.5000    62.0409    30.8049    40.8509
  477.0000    61.8727    31.2134    41.2315
  477.5000    62.7765    30.8328    37.5879
  478.0000    66.7219    30.2848    35.2736
  478.5000    71.3406    29.7466    33.6736
  479.0000    73.0842    29.2162    33.0120
  479.5000    74.5671    28.7025    32.3698
  480.0000    75.6996    28.4457    31.7379
  480.5000    76.8083    28.1935    31.1192
  481.0000    77.4085    27.9233    30.6397
  481.5000    77.0292    27.6677    30.6405
  482.0000    76.6643    27.1768    30.6454
  482.5000    76.2918    26.7230    29.7024
  483.0000    75.9335    26.2767    28.7127
  483.5000    76.5236    25.8377    27.7558
  484.0000    78.2620    25.6879    26.9111
  484.5000    79.8315    25.8370    26.9111
  485.0000    80.9732    26.1266    27.9283
  485.5000    82.1516    27.2902    29.5014
  486.0000    80.8071    28.3839    31.1964
  486.5000    77.9875    29.1577    32.9888
  487.0000    77.5002    29.5267    34.8842
  487.5000    78.9593    27.6902    37.2322
  488.0000    80.5218    26.1857    34.1092
  488.5000    81.6608    24.7199    29.5932
