~VERSION INFORMATION
 VERS.                2.0:   CWLS LOG ASCII STANDARD - VERSION 2.0
 WRAP.                 NO:   ONE LINE PER DEPTH STEP
~WELL INFORMATION
#MNEM.UNIT      DATA TYPE    INFORMATION
#----------   ------------   ------------------------------
 STRT.F            0.0000:   START DEPTH
 STOP.F         2660.0000:   STOP DEPTH
 STEP.F            0.5000:   STEP LENGTH
 NULL.          -999.2500:   NO VALUE
 COMP. FENIX & SCISSON INC:   COMPANY
 WELL.     101-20 #101-20:   WELL
 FLD .        TEAPOT DOME:   FIELD
 LOC .      S20 T39N R78W:   LOCATION
 CNTY.            NATRONA:   COUNTY
 STAT.            WYOMING:   STATE
 CTRY. UNITED STATES OF AMERICA:   COUNTRY
 SRVC.      NL McCullough:   SERVICE COMPANY
 DATE.        19-SEP-1965:   LOGDATE
 API .       490251022100:   API NUMBER
~CURVE INFORMATION
#MNEM.UNIT       API CODE    CURVE DESCRIPTION
#----------   ------------   ------------------------------
 DEPT.F                  :   
 GR  .GAPI   30 310 01 00:   GAMMA RAY
 CALI.IN     30 280 01 00:   CALIPER
~PARAMETER INFORMATION
#MNEM.UNIT          VALUE    DESCRIPTION
#----------   ------------   ------------------------------
 PD  .                 GL:   PERMANENT DATUM
 LMF .                 GL:   LOG MEASURED FROM
 DMF .                 GL:   DRILLING MEASURED FROM
 DATE.          9-19-1965:   RUN DATE
 RUN .                  1:   RUN NUMBER
 DD  .F              2661:   DEPTH DRILLER
 DL  .F              2659:   DEPTH LOGGER
 BLI .F              2657:   BOTTOM LOG INTERVAL
 TLI .F              2000:   TOP LOG INTERVAL
 CS  .IN              6.5:   CASING SIZE
 CBD .F              2619:   CASING BOTTOM DRILLER
 BSD .F              2661:   BIT SIZE AT DEPTH
 DFT .              WATER:   DRILLING FLUID TYPE
 TCS .HRS               1:   TIME CURCULATED STOPPED
 ENGI.        FITZSIMMONS:   RECORDING ENGINEER
 WITN.          JORGENSEN:   WITNESSED BY
 CLNT.            A2DTECH:   CLIENT CODE
 ORIG.           5" PRINT:   ORIGIN OF DATA
 UWI .       490251022100:   UNIQUE WELL ID
 DICO. A2D Technologies, Inc.:   DIGITIZING COMPANY
~OTHER INFORMATION
~A    DEPT      GR         CALI 
# ...
  850.5000  -999.2500     6.5564
  851.0000  -999.2500     6.5564
  851.5000  -999.2500     6.5564
  852.0000  -999.2500     6.5549
  852.5000  -999.2500     6.5475
  853.0000  -999.2500     6.5404
  853.5000  -999.2500     6.5333
  854.0000  -999.2500     6.5264
  854.5000  -999.2500     6.5243
  855.0000  -999.2500     6.5224
  855.5000  -999.2500     6.5205
  856.0000  -999.2500     6.5186
  856.5000  -999.2500     6.5158
  857.0000  -999.2500     6.5371
  857.5000  -999.2500     6.5262
  858.0000  -999.2500     6.5218
  858.5000  -999.2500     6.5176
  859.0000  -999.2500     6.5134
  859.5000  -999.2500     6.5092
  860.0000  -999.2500     6.5062
  860.5000  -999.2500     6.5127
  861.0000  -999.2500     6.5198
  861.5000  -999.2500     6.5269
  862.0000  -999.2500     6.5341
  862.5000  -999.2500     6.5367
  863.0000  -999.2500     6.5385
  863.5000  -999.2500     6.5402
  864.0000  -999.2500     6.5419
  864.5000  -999.2500     6.5435
  865.0000  -999.2500     6.5454
  865.5000  -999.2500     6.5610
  866.0000  -999.2500     6.6044
  866.5000  -999.2500     6.5753
  867.0000  -999.2500     6.5623
  867.5000  -999.2500     6.5557
  868.0000  -999.2500     6.5492
  868.5000  -999.2500     6.5427
  869.0000  -999.2500     6.5362
  869.5000  -999.2500     6.5297
  870.0000  -999.2500     6.5231
  870.5000  -999.2500     6.5166
  871.0000  -999.2500     6.5211
  871.5000  -999.2500     6.5263
  872.0000  -999.2500     6.5303
  872.5000  -999.2500     6.5341
  873.0000  -999.2500     6.5380
  873.5000  -999.2500     6.5418
  874.0000  -999.2500     6.5457
  874.5000  -999.2500     6.5469
  875.0000  -999.2500     6.5475
  875.5000  -999.2500     6.5480
  876.0000  -999.2500     6.5486
  876.5000  -999.2500     6.5492
  877.0000  -999.2500     6.5498
  877.5000  -999.2500     6.5504
  878.0000  -999.2500     6.5510
  878.5000  -999.2500     6.5516
  879.0000  -999.2500     6.5522
  879.5000  -999.2500     6.5528
  880.0000  -999.2500     6.5534
  880.5000  -999.2500     6.5540
  881.0000  -999.2500     6.5546
  881.5000  -999.2500     6.5552
  882.0000  -999.2500     6.5558
  882.5000  -999.2500     6.5563
  883.0000  -999.2500     6.5526
  883.5000  -999.2500     6.5485
  884.0000  -999.2500     6.5443
  884.5000  -999.2500     6.5401
  885.0000  -999.2500     6.5365
  885.5000  -999.2500     6.5392
  886.0000  -999.2500     6.5418
  886.5000  -999.2500     6.5444
  887.0000  -999.2500     6.5501
  887.5000  -999.2500     6.5682
  888.0000  -999.2500     6.5922
  888.5000  -999.2500     6.5537
  889.0000  -999.2500     6.5412
  889.5000  -999.2500     6.5363
  890.0000  -999.2500     6.5372
  890.5000  -999.2500     6.5379
  891.0000  -999.2500     6.5386
  891.5000  -999.2500     6.5393
  892.0000  -999.2500     6.5400
  892.5000  -999.2500     6.5406
  893.0000  -999.2500     6.5413
  893.5000  -999.2500     6.5420
  894.0000  -999.2500     6.5427
  894.5000  -999.2500     6.5434
  895.0000  -999.2500     6.5441
  895.5000  -999.2500     6.5448
  896.0000  -999.2500     6.5455
  896.5000  -999.2500     6.5462
  897.0000  -999.2500     6.5469
  897.5000  -999.2500     6.5476
  898.0000  -999.2500     6.5482
  898.5000  -999.2500     6.5489
  899.0000  -999.2500     6.5496
  899.5000  -999.2500     6.5503
  900.0000  -999.2500     6.5510
  900.5000  -999.2500     6.5517
  901.0000  -999.2500     6.5524
  901.5000  -999.2500     6.5531
  902.0000  -999.2500     6.5538
  902.5000  -999.2500     6.5545
  903.0000  -999.2500     6.5551
  903.5000  -999.2500     6.5558
  904.0000  -999.2500     6.5567
  904.5000  -999.2500     6.5587
  905.0000  -999.2500     6.5606
  905.5000  -999.2500     6.5625
  906.0000  -999.2500     6.5644
  906.5000  -999.2500     6.5663
  907.0000  -999.2500     6.5663
  907.5000  -999.2500     6.5656
  908.0000  -999.2500     6.6009
  908.5000  -999.2500     6.6365
  909.0000  -999.2500     6.5697
  909.5000  -999.2500     6.5623
  910.0000  -999.2500     6.5562
  910.5000  -999.2500     6.5499
  911.0000  -999.2500     6.5505
  911.5000  -999.2500     6.5592
  912.0000  -999.2500     6.5660
  912.5000  -999.2500     6.5616
  913.0000  -999.2500     6.5574
  913.5000  -999.2500     6.5533
  914.0000  -999.2500     6.5492
  914.5000  -999.2500     6.5471
  915.0000  -999.2500     6.5495
  915.5000  -999.2500     6.5519
  916.0000  -999.2500     6.5543
  916.5000  -999.2500     6.5563
  917.0000  -999.2500     6.5543
  917.5000  -999.2500     6.5524
  918.0000  -999.2500     6.5505
  918.5000  -999.2500     6.5485
  919.0000  -999.2500     6.5466
  919.5000  -999.2500     6.5452
  920.0000  -999.2500     6.5439
  920.5000  -999.2500     6.5426
  921.0000  -999.2500     6.5413
  921.5000  -999.2500     6.5400
  922.0000  -999.2500     6.5388
  922.5000  -999.2500     6.5374
  923.0000  -999.2500     6.5355
  923.5000  -999.2500     6.5298
  924.0000  -999.2500     6.5316
  924.5000  -999.2500     6.5447
  925.0000  -999.2500     6.5464
  925.5000  -999.2500     6.5464
  926.0000  -999.2500     6.5471
  926.5000  -999.2500     6.5492
  927.0000  -999.2500     6.5512
  927.5000  -999.2500     6.5534
  928.0000  -999.2500     6.5555
  928.5000  -999.2500     6.5692
  929.0000  -999.2500     6.5874
  929.5000  -999.2500     6.6187
  930.0000  -999.2500     6.5570
  930.5000  -999.2500     6.5545
  931.0000  -999.2500     6.5657
  931.5000  -999.2500     6.5589
  932.0000  -999.2500     6.5506
  932.5000  -999.2500     6.5424
  933.0000  -999.2500     6.5362
  933.5000  -999.2500     6.5363
  934.0000  -999.2500     6.5363
  934.5000  -999.2500     6.5363
  935.0000  -999.2500     6.5360
  935.5000  -999.2500     6.5507
  936.0000  -999.2500     6.5662
  936.5000  -999.2500     6.5642
  937.0000  -999.2500     6.5620
  937.5000  -999.2500     6.5599
  938.0000  -999.2500     6.5578
  938.5000  -999.2500     6.5556
  939.0000  -999.2500     6.5535
  939.5000  -999.2500     6.5514
  940.0000  -999.2500     6.5493
  940.5000  -999.2500     6.5471
  941.0000  -999.2500     6.5486
  941.5000  -999.2500     6.5520
  942.0000  -999.2500     6.5555
  942.5000  -999.2500     6.5589
  943.0000  -999.2500     6.5624
  943.5000  -999.2500     6.5658
  944.0000  -999.2500     6.5693
  944.5000  -999.2500     6.5728
  945.0000  -999.2500     6.5764
  945.5000  -999.2500     6.5842
  946.0000  -999.2500     6.5924
  946.5000  -999.2500     6.6006
  947.0000  -999.2500     6.6049
  947.5000  -999.2500     6.5971
  948.0000  -999.2500     6.5896
  948.5000  -999.2500     6.5929
  949.0000  -999.2500     6.6041
  949.5000  -999.2500     6.6172
  950.0000  -999.2500     6.5523
  950.5000  -999.2500     6.5172
  951.0000  -999.2500     6.5162
  951.5000  -999.2500     6.5162
  952.0000  -999.2500     6.5163
  952.5000  -999.2500     6.5163
  953.0000  -999.2500     6.5163
  953.5000  -999.2500     6.5161
  954.0000  -999.2500     6.5172
  954.5000  -999.2500     6.5382
  955.0000  -999.2500     6.5571
  955.5000  -999.2500     6.5580
  956.0000  -999.2500     6.5593
  956.5000  -999.2500     6.5606
  957.0000  -999.2500     6.5619
  957.5000  -999.2500     6.5633
  958.0000  -999.2500     6.5646
  958.5000  -999.2500     6.5660
  959.0000  -999.2500     6.5664
  959.5000  -999.2500     6.5664
  960.0000  -999.2500     6.5664
  960.5000  -999.2500     6.5664
  961.0000  -999.2500     6.5664
  961.5000  -999.2500     6.5673
  962.0000  -999.2500     6.5707
  962.5000  -999.2500     6.5739
  963.0000  -999.2500     6.5743
  963.5000  -999.2500     6.5637
  964.0000  -999.2500     6.5567
  964.5000  -999.2500     6.5584
  965.0000  -999.2500     6.5599
  965.5000  -999.2500     6.5613
  966.0000  -999.2500     6.5628
  966.5000  -999.2500     6.5644
  967.0000  -999.2500     6.5658
  967.5000  -999.2500     6.5773
  968.0000  -999.2500     6.5944
  968.5000  -999.2500     6.5748
  969.0000  -999.2500     6.5438
  969.5000  -999.2500     6.5375
  970.0000  -999.2500     6.5363
  970.5000  -999.2500     6.5345
  971.0000  -999.2500     6.5267
  971.5000  -999.2500     6.5191
