~VERSION INFORMATION
 VERS.                2.0:   CWLS LOG ASCII STANDARD - VERSION 2.0
 WRAP.                 NO:   ONE LINE PER DEPTH STEP
~WELL INFORMATION
#MNEM.UNIT      DATA TYPE    INFORMATION
#----------   ------------   ------------------------------
 STRT.F            0.0000:   START DEPTH
 STOP.F          601.0000:   STOP DEPTH
 STEP.F            0.5000:   STEP LENGTH
 NULL.          -999.2500:   NO VALUE
 COMP. Fluor Daniel (NPOSR) Inc:   COMPANY
 WELL.  NPR ##3 84-STX-33:   WELL
 FLD .          N.P.R. #3:   FIELD
 LOC .      S33 T39N R78W:   LOCATION
 CNTY.            NATRONA:   COUNTY
 STAT.            WYOMING:   STATE
 CTRY. UNITED STATES OF AMERICA:   COUNTRY
 SRVC.      Western Atlas:   SERVICE COMPANY
 DATE.        31-JAN-1995:   LOGDATE
 API .       490252269500:   API NUMBER
~CURVE INFORMATION
#MNEM.UNIT       API CODE    CURVE DESCRIPTION
#----------   ------------   ------------------------------
 DEPT.F                  :   
 GRR .GAPI   07 310 01 00:   GAMMA RAY FROM RES. LOG.
 RILD.OHMM   07 120 46 00:   INDUCTION LOG DEEP RESISTIVITY
 RILM.OHMM   07 120 44 00:   INDUCTION LOG MEDIUM RESISTIVITY
 RFOC.OHMM   07 220 04 00:   RESISTIVITY FOCUSED LOG
~PARAMETER INFORMATION
#MNEM.UNIT          VALUE    DESCRIPTION
#----------   ------------   ------------------------------
 PD  .                 GL:   PERMANENT DATUM
 EPD .F              5105:   ELEVATION PERMANENT DATUM
 LMF .                 KB:   LOG MEASURED FROM
 DAPD.F                10:   FEET ABOVE PERMANENT DATUM
 DMF .                 KB:   DRILLING MEASURED FROM
 EKB .F              5115:   KELLING BUSHING
 EDF .F              5114:   DRILLING FLOOR
 EGL .F              5105:   GROUND LEVEL
 DATE.        31-JAN-1995:   RUN DATE
 RUN .                  1:   RUN NUMBER
 DD  .F               615:   DEPTH DRILLER
 DL  .F               609:   DEPTH LOGGER
 BLI .F               601:   BOTTOM LOG INTERVAL
 CS  .IN            9.625:   CASING SIZE
 CBD .F                54:   CASING BOTTOM DRILLER
 CBL .F                52:   CASING BOTTOM LOGGER
 BS  .IN             8.75:   BIT SIZE
 BSD .F               615:   BIT SIZE AT DEPTH
 DFT .              WATER:   DRILLING FLUID TYPE
 MRT .F                92:   MAXIMUM RECORDED TEMPERATURE
 LUN .            HL-6274:   LOGGING UNIT NUMBER
 LUL .             CASPER:   LOGGING UNIT LOCATION
 ENGI.             RAUTIO:   RECORDING ENGINEER
 WITN.             STRONG:   WITNESSED BY
 CLNT.            A2DTECH:   CLIENT CODE
 ORIG.       2", 5" PRINT:   ORIGIN OF DATA
 UWI .       490252269500:   UNIQUE WELL ID
 DICO. A2D Technologies, Inc.:   DIGITIZING COMPANY
~OTHER INFORMATION
~A    DEPT      GRR      RILD       RILM       RFOC   
# ...
   73.0000    89.7801     9.2204    10.1496    21.5710
   73.5000    91.4588     9.1930    10.0381    26.1288
   74.0000    92.2374     9.1645    10.0379    26.1288
   74.5000    91.1088     9.1392     9.9441    19.9064
   75.0000    88.9090     9.3451    10.2279    20.0940
   75.5000    86.2208     9.6092    10.8535    24.8394
   76.0000    83.0797     9.9131    11.5868    26.8745
   76.5000    80.3882    10.6228    12.7745    24.0137
   77.0000    78.6333    11.4317    14.1337    23.7896
   77.5000    76.9541    12.2231    15.6482    42.5632
   78.0000    73.5767    12.9671    17.1851   108.5728
   78.5000    69.7986    13.7145    18.4674   245.8346
   79.0000    68.2755    13.9382    18.2362   205.3059
   79.5000    69.5589    13.5639    17.2322   183.8679
   80.0000    69.9482    12.9493    15.5893   139.4133
   80.5000    69.2516    12.2700    13.6125    87.0971
   81.0000    70.5273    11.6631    12.1835    45.0615
   81.5000    78.0723    10.4453    11.1672    24.8734
   82.0000    85.5239     9.4119    10.2309    18.1243
   82.5000    91.6266     8.7298     9.3777    17.2939
   83.0000    92.5739     8.3916     8.6391    19.8616
   83.5000    91.9560     8.0664     8.4785    23.6324
   84.0000    91.3754     7.9109     8.3764    25.4290
   84.5000    91.0395     7.7887     8.2433    23.6921
   85.0000    91.0376     7.7145     8.2702    19.3352
   85.5000    90.7342     7.7029     8.3132    14.8840
   86.0000    89.1270     7.6912     8.3565    15.0243
   86.5000    88.0118     7.6798     8.3999    17.4096
   87.0000    87.6250     7.6684     8.4436    21.7092
   87.5000    88.0363     7.6564     8.4785    34.2962
   88.0000    90.0843     7.6116     8.4785    34.6194
   88.5000    93.6938     7.4360     8.2346    33.3446
   89.0000    97.3161     7.2643     7.9164    63.0974
   89.5000    98.6591     7.0120     7.4913    60.2774
   90.0000    98.5177     6.6531     7.0814    36.4602
   90.5000    98.4266     6.3155     6.6619    24.6990
   91.0000   100.6957     6.0160     6.2672    25.6432
   91.5000   105.1574     5.8316     6.0028    39.9070
   92.0000   110.6741     5.6528     5.8271    48.9815
   92.5000   115.6441     5.4982     5.7163    24.6069
   93.0000   116.1179     5.3900     5.7184    12.6585
   93.5000   115.4413     5.3482     5.7178     7.4133
   94.0000   114.8020     5.3046     5.7183     7.4352
   94.5000   113.8549     5.3893     5.7448     8.2369
   95.0000   111.0627     5.4800     5.7731     9.6928
   95.5000   108.9277     5.5644     5.8015    10.4012
   96.0000   109.1413     5.6017     5.8384    11.2259
   96.5000   110.7867     5.6526     5.9366    13.2535
   97.0000   112.6386     5.7088     5.9692    14.4711
   97.5000   114.2937     5.7657     6.0037    12.9498
   98.0000   113.5792     5.8231     6.0392    11.4464
   98.5000   111.3124     5.8810     6.0895    12.1090
   99.0000   109.8027     5.9396     6.1467    13.9382
   99.5000   110.1186     5.9925     6.2216    13.5480
  100.0000   109.8727     5.8776     6.1706    12.8099
  100.5000   109.4458     5.8036     6.0990    13.7077
  101.0000   108.9789     5.7585     6.0280    15.4530
  101.5000   110.3843     5.7138     5.9578    15.8940
  102.0000   112.4134     5.6694     5.8885    15.7076
  102.5000   115.4541     5.6253     5.8201    20.3708
  103.0000   115.4235     5.5816     5.7713    20.5516
  103.5000   113.1127     5.5594     5.7397    14.4158
  104.0000   110.6129     5.5796     5.7186    11.7850
  104.5000   110.3317     5.5934     5.8520    10.8837
  105.0000   109.6325     5.6073     5.9580    10.6079
  105.5000   107.2776     5.6615     6.0555    10.4642
  106.0000   105.1339     5.7668     6.1892    10.4216
  106.5000   105.7717     5.8741     6.3259    10.7190
  107.0000   108.6068     5.9834     6.4120    11.5976
  107.5000   110.8381     6.0947     6.4394    13.9382
  108.0000   110.6496     6.2082     6.5411    18.9944
  108.5000   103.8608     6.3237     6.8545    30.0760
  109.0000   103.1228     6.4421     7.0284    30.0760
  109.5000   106.4313     6.5356     6.9935    22.6269
  110.0000   109.7632     6.6438     6.9608    16.8141
  110.5000   109.9075     6.5752     6.9283    13.7874
  111.0000   108.9026     6.4962     6.8978    13.1755
  111.5000   108.1116     6.4182     6.7057    13.8078
  112.0000   108.2865     6.3412     6.5287    14.4130
  112.5000   111.3587     6.2651     6.3825    14.8840
  113.0000   111.6567     6.1896     6.3165    14.7119
  113.5000   111.4827     6.1237     6.2511    12.5719
  114.0000   110.9613     6.0625     6.1861    10.7883
  114.5000   110.2844     5.9925     6.1634     9.7593
  115.0000   110.1823     6.0364     6.2230    10.2519
  115.5000   110.1781     6.0888     6.2648    10.7190
  116.0000   110.3118     6.1419     6.3074    10.1312
  116.5000   110.4717     6.1954     6.3748     8.9714
  117.0000   110.7168     6.2493     6.5343     8.8027
  117.5000   112.5303     6.3439     6.6963     9.0107
  118.0000   115.8302     6.4941     6.8632     9.2673
  118.5000   118.1396     6.6478     7.0261     9.9461
  119.0000   119.1701     6.8052     7.2444    10.7623
  119.5000   119.6689     6.9880     7.5046    12.1767
  120.0000   117.3823     7.1806     7.6098    13.8896
  120.5000   112.6079     7.3784     7.8268    15.8387
  121.0000   108.4692     7.5816     8.1254    16.6571
  121.5000   106.0859     7.7905     8.4354    14.9164
  122.0000   104.3645     8.0051     8.6365    13.8081
  122.5000   101.3137     8.1535     8.7630    14.8352
  123.0000    99.3105     8.2582     8.8925    16.1950
  123.5000   101.6031     8.3645     8.9786    16.3526
  124.0000   106.6440     8.4715     9.0025    14.6832
  124.5000   111.7343     8.5580     9.0257    14.0872
  125.0000   112.6452     8.4984     9.0539    16.2457
  125.5000   111.9363     8.4490     8.9943    19.1734
  126.0000   110.8709     8.3996     8.9203    18.5595
  126.5000   109.7362     8.3506     8.8469    16.3614
  127.0000   110.4706     8.3174     8.7946    14.7451
  127.5000   112.0393     8.3084     8.7740    14.7451
  128.0000   112.5291     8.2994     8.7535    16.4013
  128.5000   111.5674     8.2903     8.7331    17.4569
  129.0000   112.7577     8.2813     8.7205    15.3088
  129.5000   113.9171     8.2723     8.8208    15.3088
  130.0000   115.0697     8.2633     8.8940    19.7041
  130.5000   113.4735     8.2543     8.9693    21.6088
  131.0000   111.4121     8.2452     8.8988    24.5829
  131.5000   111.1844     8.2369     8.8263    26.6686
  132.0000   112.1561     8.2287     8.7546    23.3653
  132.5000   112.2129     8.2205     8.6836    17.7434
  133.0000   109.8359     8.2124     8.6306    16.2265
  133.5000   109.6599     8.2042     8.5802    15.6835
  134.0000   110.5079     8.1960     8.5584    14.7123
  134.5000   111.4393     8.1879     8.5586    13.6792
  135.0000   112.8286     8.1797     8.5585    13.9043
  135.5000   116.6971     8.1716     8.5584    14.0696
  136.0000   120.2280     8.1635     8.5584    13.4178
  136.5000   120.3721     8.1553     8.5584    12.9423
  137.0000   120.3744     8.1472     8.5584    12.5324
  137.5000   120.7908     8.1391     8.5585    12.1356
  138.0000   121.4073     8.1310     8.5586    11.8840
  138.5000   123.6223     8.1229     8.5585    13.4489
  139.0000   127.3092     8.1148     8.5437    15.4325
  139.5000   128.3027     8.1067     8.4716    14.9122
  140.0000   125.7198     8.0984     8.4489    12.4685
  140.5000   121.1022     8.0906     8.4271    12.1090
  141.0000   118.2894     8.0144     8.4054    13.2669
  141.5000   116.4976     7.9133     8.3229    14.4757
  142.0000   115.9013     7.7543     8.2198    15.8343
  142.5000   119.4916     7.5563     8.1172    16.8141
  143.0000   122.2904     7.4062     7.9402    15.0530
  143.5000   123.4358     7.2583     7.7379    13.4431
  144.0000   124.4630     7.1130     7.5412    12.2231
  144.5000   126.9717     6.9629     7.3496    12.4327
  145.0000   128.4420     6.8257     7.0946    16.4738
  145.5000   130.0805     6.7621     7.0271    24.1011
