~VERSION INFORMATION
 VERS.                2.0:   CWLS LOG ASCII STANDARD - VERSION 2.0
 WRAP.                 NO:   ONE LINE PER DEPTH STEP
~WELL INFORMATION
#MNEM.UNIT      DATA TYPE    INFORMATION
#----------   ------------   ------------------------------
 STRT.F          660.0000:   START DEPTH
 STOP.F         2899.5000:   STOP DEPTH
 STEP.F            0.5000:   STEP LENGTH
 NULL.          -999.2500:   NO VALUE
 COMP. LAWRENCE/ALLISON INC:   COMPANY
 WELL. NPR #3 22 X 10 #22-10:   WELL
 FLD .             TEAPOT:   FIELD
 LOC .      S10 T38N R78W:   LOCATION
 CNTY.            NATRONA:   COUNTY
 STAT.            WYOMING:   STATE
 CTRY. UNITED STATES OF AMERICA:   COUNTRY
 SRVC.            Unknown:   SERVICE COMPANY
 DATE.        11-SEP-1986:   LOGDATE
 API .       490251106200:   API NUMBER
~CURVE INFORMATION
#MNEM.UNIT       API CODE    CURVE DESCRIPTION
#----------   ------------   ------------------------------
 DEPT.F                  :   
 ROP .MIN/FT 91 810 01 00:   RATE OF DRILLING PENETRATION
 TGAS.UNITS  91 830 01 00:   TOTAL GAS FROM HOTWIRE
~PARAMETER INFORMATION
#MNEM.UNIT          VALUE    DESCRIPTION
#----------   ------------   ------------------------------
 DATE.          9-11-1986:   RUN DATE
 DD  .F              2900:   DEPTH DRILLER
 TLI .F              1380:   TOP LOG INTERVAL
 WITN. R. HUSK/K. FREDERICK:   WITNESSED BY
 CLNT.            A2DTECH:   CLIENT CODE
 ORIG.           5" PRINT:   ORIGIN OF DATA
 UWI .       490251106200:   UNIQUE WELL ID
 DICO. A2D Technologies, Inc.:   DIGITIZING COMPANY
~OTHER INFORMATION
~A   DEPT      ROP         TGAS 
# ...
 2725.5000     1.9826    81.4347
 2726.0000     1.9823    81.1244
 2726.5000     1.9859    80.8140
 2727.0000     1.9922    80.5037
 2727.5000     2.0066    80.1933
 2728.0000     2.0873    79.8829
 2728.5000     2.2530    79.5726
 2729.0000     2.3979    79.2622
 2729.5000     2.5065    78.9519
 2730.0000     2.4311    78.6415
 2730.5000     2.2989    78.3312
 2731.0000     2.0836    78.0208
 2731.5000     2.0210    77.7104
 2732.0000     2.0208    77.4001
 2732.5000     2.0101    77.0897
 2733.0000     2.0099    76.7794
 2733.5000     2.0092    76.4690
 2734.0000     1.9990    76.1587
 2734.5000     2.1305    75.8483
 2735.0000     2.2609    75.5379
 2735.5000     2.3938    75.2276
 2736.0000     2.4704    74.9172
 2736.5000     2.3480    74.6069
 2737.0000     2.1971    74.2965
 2737.5000     2.0835    73.9862
 2738.0000     2.0572    73.6758
 2738.5000     2.1821    73.3654
 2739.0000     2.3333    73.0551
 2739.5000     2.4618    72.7447
 2740.0000     2.5156    72.4097
 2740.5000     2.3977    72.5052
 2741.0000     2.2885    72.6089
 2741.5000     2.1699    72.7127
 2742.0000     2.0858    72.8165
 2742.5000     2.2045    72.9202
 2743.0000     2.3459    73.0240
 2743.5000     2.4611    73.1277
 2744.0000     2.4449    73.2315
 2744.5000     2.3139    73.3352
 2745.0000     2.2005    73.4390
 2745.5000     2.1022    73.5428
 2746.0000     2.1202    73.6465
 2746.5000     2.2879    73.7503
 2747.0000     2.4711    73.8540
 2747.5000     2.5844    73.9578
 2748.0000     2.5842    74.0615
 2748.5000     2.5839    74.1653
 2749.0000     2.5837    74.2691
 2749.5000     2.5834    74.3728
 2750.0000     2.4511    74.4766
 2750.5000     2.2684    74.5803
 2751.0000     2.1128    74.6841
 2751.5000     1.9421    74.7878
 2752.0000     1.7869    74.8916
 2752.5000     1.6349    74.9954
 2753.0000     1.5388    75.0991
 2753.5000     1.5107    75.2029
 2754.0000     1.5104    75.3066
 2754.5000     1.5101    75.4104
 2755.0000     1.5099    75.5142
 2755.5000     1.5096    75.6179
 2756.0000     1.5094    75.7217
 2756.5000     1.5091    75.8254
 2757.0000     1.5088    75.9292
 2757.5000     1.5955    76.0329
 2758.0000     1.7785    76.1367
 2758.5000     1.8926    76.2405
 2759.0000     1.9591    76.3442
 2759.5000     1.9961    76.4480
 2760.0000     1.5280    76.5517
 2760.5000     1.5376    76.3966
 2761.0000     1.5369    76.2414
 2761.5000     1.5881    76.0862
 2762.0000     1.7355    75.9310
 2762.5000     1.8937    75.7759
 2763.0000     2.0230    75.6207
 2763.5000     2.0320    75.4655
 2764.0000     2.0313    75.3103
 2764.5000     2.0409    75.1552
 2765.0000     2.0400    75.0000
 2765.5000     2.0213    74.8448
 2766.0000     1.9089    74.6896
 2766.5000     1.7502    74.5345
 2767.0000     1.6350    74.3793
 2767.5000     1.5519    74.2241
 2768.0000     1.5331    74.0689
 2768.5000     1.5252    73.9138
 2769.0000     1.5321    73.7586
 2769.5000     1.5852    73.6034
 2770.0000     1.7169    73.4483
 2770.5000     1.8636    73.2931
 2771.0000     1.9801    73.1379
 2771.5000     2.0301    72.9827
 2772.0000     1.9704    72.8276
 2772.5000     1.8625    72.6724
 2773.0000     1.7445    72.5172
 2773.5000     1.6572    72.3620
 2774.0000     1.6951    72.2069
 2774.5000     1.8142    72.0517
 2775.0000     1.9343    71.8965
 2775.5000     2.0220    71.7413
 2776.0000     1.9394    71.5862
 2776.5000     1.8280    71.4310
 2777.0000     1.7154    71.2758
 2777.5000     1.6056    71.1207
 2778.0000     1.5207    70.9655
 2778.5000     1.5095    70.8103
 2779.0000     1.5087    70.6551
 2779.5000     1.5080    70.5000
 2780.0000     1.5072    70.3448
 2780.5000     1.5102    70.3965
 2781.0000     1.5135    70.4482
 2781.5000     1.5385    70.5000
 2782.0000     1.6542    70.5517
 2782.5000     1.7615    70.6034
 2783.0000     1.8721    70.6551
 2783.5000     1.9686    70.7069
 2784.0000     1.9622    70.7586
 2784.5000     1.8582    70.8103
 2785.0000     1.7606    70.8620
 2785.5000     1.6424    70.9138
 2786.0000     1.5516    70.9655
 2786.5000     1.5258    71.0172
 2787.0000     1.5208    71.0689
 2787.5000     1.5203    71.1207
 2788.0000     1.5126    71.1724
 2788.5000     1.5088    71.2241
 2789.0000     1.5083    71.2758
 2789.5000     1.5805    71.3276
 2790.0000     1.7567    71.3793
 2790.5000     1.8913    71.4310
 2791.0000     2.0155    71.4827
 2791.5000     1.9839    71.5345
 2792.0000     1.9002    71.5862
 2792.5000     1.8146    71.6379
 2793.0000     1.7164    71.6896
 2793.5000     1.6120    71.7414
 2794.0000     1.5537    71.7931
 2794.5000     1.5442    71.8448
 2795.0000     1.5437    71.8965
 2795.5000     1.5431    71.9483
 2796.0000     1.5426    72.0000
 2796.5000     1.5388    72.0517
 2797.0000     1.5498    72.1034
 2797.5000     1.6155    72.1552
 2798.0000     1.6968    72.2069
 2798.5000     1.7767    72.2586
 2799.0000     1.8624    72.3103
 2799.5000     1.9312    72.3621
 2800.0000     2.0062    72.4138
 2800.5000     2.0683    72.6848
 2801.0000     2.1304    72.9558
 2801.5000     2.1822    73.2268
 2802.0000     2.2445    73.4978
 2802.5000     2.2544    73.7688
 2803.0000     2.2081    74.0398
 2803.5000     2.1643    74.3108
 2804.0000     2.1206    74.5818
 2804.5000     2.0845    74.8528
 2805.0000     2.0734    75.1238
 2805.5000     2.0693    75.3948
 2806.0000     2.0958    75.6658
 2806.5000     2.1454    75.9368
 2807.0000     2.1985    76.2078
 2807.5000     2.2527    76.4788
 2808.0000     2.2841    76.7497
 2808.5000     2.3056    77.0207
 2809.0000     2.3134    77.2917
 2809.5000     2.3131    79.1880
 2810.0000     2.2739    92.4113
 2810.5000     1.9488   107.0147
 2811.0000     1.7406   119.8936
 2811.5000     1.6468   131.1190
 2812.0000     1.6466   130.1436
 2812.5000     1.7399   110.9545
 2813.0000     1.8360    92.5234
 2813.5000     1.9531    80.4327
 2814.0000     2.0302    77.1039
 2814.5000     2.0299    75.7362
 2815.0000     2.0296    75.2421
 2815.5000     2.0294    74.7479
 2816.0000     2.0322    74.2538
 2816.5000     2.0392    73.7596
 2817.0000     2.0390    73.2655
 2817.5000     2.0342    72.7713
 2818.0000     1.9828    72.2772
 2818.5000     1.8738    71.7830
 2819.0000     1.7718    71.2889
 2819.5000     1.6910    70.7947
 2820.0000     1.6216    72.4138
 2820.5000     1.7809    76.4506
 2821.0000     1.9178    76.3495
 2821.5000     2.0159    78.4520
 2822.0000     2.0167    80.6541
 2822.5000     2.0258    84.5470
 2823.0000     2.0255    86.2897
 2823.5000     2.0252    86.1724
 2824.0000     2.0272    86.4480
 2824.5000     2.0325    88.0345
 2825.0000     2.0132    88.4054
 2825.5000     1.9361    89.8966
 2826.0000     1.7960    89.7931
 2826.5000     1.6997    89.6896
 2827.0000     1.6033    88.2579
 2827.5000     1.6083    85.3448
 2828.0000     1.8808    84.4828
 2828.5000     2.3746    81.4568
 2829.0000     2.8445    77.9739
 2829.5000     2.9612    75.7540
 2830.0000     2.7589    75.4310
 2830.5000     2.4574    83.4148
 2831.0000     2.1554    97.0841
 2831.5000     2.0159   108.5894
 2832.0000     1.9932   117.9306
 2832.5000     1.9893   125.1078
 2833.0000     1.9891   131.3521
 2833.5000     1.9888   133.7586
 2834.0000     2.0043   134.9828
 2834.5000     2.1152   135.6207
 2835.0000     2.3622   135.5172
 2835.5000     2.5179   135.4138
 2836.0000     2.3929   135.3104
 2836.5000     2.2783   135.2069
 2837.0000     2.1429   135.1035
 2837.5000     1.9971   137.0490
 2838.0000     2.5790   139.0168
 2838.5000     2.9434   140.9846
 2839.0000     3.3544   140.8835
 2839.5000     3.5762   142.8513
 2840.0000     3.2797   144.8192
 2840.5000     2.7430   146.9483
 2841.0000     2.5566   146.5520
 2841.5000     2.5572   142.6641
 2842.0000     2.5572   140.0682
 2842.5000     2.5572   133.8363
 2843.0000     2.5572   127.9317
 2843.5000     2.5572   124.1470
 2844.0000     2.5572   122.4734
 2844.5000     2.5572   122.9395
 2845.0000     2.5572   125.0857
 2845.5000     2.5572   127.2322
 2846.0000     2.8482   129.3795
 2846.5000     3.2952   131.5266
