~VERSION INFORMATION
 VERS.                2.0:   CWLS LOG ASCII STANDARD - VERSION 2.0
 WRAP.                 NO:   ONE LINE PER DEPTH STEP
~WELL INFORMATION
#MNEM.UNIT      DATA TYPE    INFORMATION
#----------   ------------   ------------------------------
 STRT.F           38.5000:   START DEPTH
 STOP.F          606.0000:   STOP DEPTH
 STEP.F            0.5000:   STEP LENGTH
 NULL.          -999.2500:   NO VALUE
 COMP. FENIX & SCISSON INC:   COMPANY
 WELL.      NPR-X3 #185-2:   WELL
 FLD .             TEAPOT:   FIELD
 LOC .       S2 T38N R78W:   LOCATION
 CNTY.            NATRONA:   COUNTY
 STAT.            WYOMING:   STATE
 CTRY. UNITED STATES OF AMERICA:   COUNTRY
 SRVC.            Unknown:   SERVICE COMPANY
 DATE.        30-JAN-1978:   LOGDATE
 API .       490251056200:   API NUMBER
~CURVE INFORMATION
#MNEM.UNIT       API CODE    CURVE DESCRIPTION
#----------   ------------   ------------------------------
 DEPT.F                  :   
 CALD.IN     45 280 60 00:   CALIPER
 GRD .GAPI   45 310 01 00:   GAMMA RAY FROM DENSITY LOG
 CORR.G/C3   45 356 01 00:   DENSITY CORRECTION
 RHOB.G/C3   45 350 01 00:   BULK DENSITY
 DPHI.DEC    45 890 12 00:   DENSITY POROSITY SANDSTONE
 SPR .MV     05 010 01 00:   SPONTANEOUS POTENTIAL FROM RES.
 SN  .OHMM   05 040 16 00:   SHORT NORMAL 16"
 ILD .OHMM   05 120 46 00:   INDUCTION LOG DEEP
~PARAMETER INFORMATION
#MNEM.UNIT          VALUE    DESCRIPTION
#----------   ------------   ------------------------------
 PD  .                 GL:   PERMANENT DATUM
 EPD .F              5134:   ELEVATION PERMANENT DATUM
 LMF .                 KB:   LOG MEASURED FROM
 DAPD.F                 4:   FEET ABOVE PERMANENT DATUM
 DMF .                 KB:   DRILLING MEASURED FROM
 EKB .F              5138:   KELLING BUSHING
 EGL .F              5134:   GROUND LEVEL
 DATE.            1-30-78:   RUN DATE
 RUN .                  1:   RUN NUMBER
 DD  .F               600:   DEPTH DRILLER
 DL  .F               604:   DEPTH LOGGER
 BLI .F               598:   BOTTOM LOG INTERVAL
 TLI .F                40:   TOP LOG INTERVAL
 CS  .IN            8.625:   CASING SIZE
 CBD .F                40:   CASING BOTTOM DRILLER
 CBL .F                41:   CASING BOTTOM LOGGER
 BS  .IN            7.875:   BIT SIZE
 BSD .F               600:   BIT SIZE AT DEPTH
 DFT .                KCL:   DRILLING FLUID TYPE
 DFD .                8.6:   DRILLING FLUID DENSITY
 DFV .                 34:   DRILLING FLUID VISCOSITY
 DFPH.                 10:   DRILLING FLUID PH
 DFL .                  7:   DRILLING FLUID LOSS
 MSS .                PIT:   MUD SAMPLE SOURCE
 RMS .OHMM            .65:   RESISTIVITY MUD SAMPLE
 MST .F                70:   MUD SAMPLE TEMPERATURE
 RMF .OHMM            1.2:   RESISTIVITY MUD FILTRATE SAMPLE
 MFST.F                64:   MUD FILTRATE SAMPLE TEMPERATURE
 MFSS.               MEAS:   MUD FILTRATE SAMPLE SOURCE
 RMB .OHMM            .64:   RESISTIVITY MUD AT BHT
 BHT .F                71:   BOTTOM HOLE TEMPERATURE
 TCS .HRS               3:   TIME CURCULATED STOPPED
 MRT .F                71:   MAXIMUM RECORDED TEMPERATURE
 LUN .               2958:   LOGGING UNIT NUMBER
 LUL .                CAS:   LOGGING UNIT LOCATION
 ENGI.           REYNOLDS:   RECORDING ENGINEER
 WITN.         HARRINGTON:   WITNESSED BY
 CLNT.            A2DTECH:   CLIENT CODE
 ORIG.        2" 5" PRINT:   ORIGIN OF DATA
 UWI .       490251056200:   UNIQUE WELL ID
 DICO. A2D Technologies, Inc.:   DIGITIZING COMPANY
~OTHER INFORMATION
~A   DEPT     CALD        GRD        CORR      RHOB       DPHI        SPR         SN        ILD   
# ...
  443.5000     7.9363    96.0115     0.2146     2.4533     0.1137   -59.2314    12.9053    12.0695
  444.0000     7.9383    97.8651     0.1434     2.4907     0.1336   -59.1974    12.8215    12.0695
  444.5000     7.9403   100.9735     0.0895     2.5169     0.1000   -59.1656    12.7536    12.0694
  445.0000     7.9406   106.7264     0.0895     2.4976     0.1417   -59.2459    12.8968    12.0695
  445.5000     7.9406   113.2511     0.0831     2.4382     0.1462   -59.4735    13.0191    12.0691
  446.0000     7.9406   120.0040     0.0835     2.4222     0.1425   -59.7018    13.1426    12.0959
  446.5000     7.9406   121.8209     0.0895     2.4133     0.1598   -59.9317    13.2303    12.1371
  447.0000     7.9406   116.7094     0.0936     2.3917     0.1622   -59.8794    13.2621    12.1814
  447.5000     7.9406   117.4733     0.0993     2.3872     0.1650   -59.4385    13.3614    12.1808
  448.0000     7.9406   116.6560     0.1147     2.3906     0.1730   -59.0045    13.4616    12.1809
  448.5000     7.9406   116.4314     0.1400     2.3711     0.1813   -58.8056    13.5997    12.1810
  449.0000     7.9406   124.9784     0.2023     2.3527     0.1955   -58.9534    13.5558    12.1820
  449.5000     7.9406   131.0405     0.2387     2.3326     0.2036   -59.1051    13.4869    12.1808
  450.0000     7.9407   132.3538     0.2472     2.3233     0.1972   -58.8482    13.2532    12.0238
  450.5000     7.9407   120.9859     0.2562     2.3808     0.1618   -58.4316    13.0060    11.8789
  451.0000     7.9350   116.6632     0.2513     2.3916     0.1602   -58.1161    12.7624    11.7358
  451.5000     7.8943   114.9211     0.2465     2.3945     0.1579   -58.0029    12.5210    11.5944
  452.0000     7.8613   114.9737     0.2526     2.3990     0.1572   -58.2816    12.5798    11.4546
  452.5000     7.8899   115.1922     0.2756     2.3992     0.1563   -58.4602    12.6365    11.3167
  453.0000     7.8930   115.4426     0.2735     2.3958     0.1494   -58.6305    12.4809    11.1803
  453.5000     7.8534   114.0848     0.2706     2.4163     0.1380   -58.8014    12.4066    11.1121
  454.0000     7.8134   112.2737     0.2662     2.4317     0.1404   -58.9734    12.4690    11.1121
  454.5000     7.8292   110.4265     0.2577     2.4252     0.1355   -59.1399    12.5116    11.1121
  455.0000     7.8674   109.1268     0.2348     2.4372     0.1223   -59.1463    12.5515    11.1121
  455.5000     7.9021   118.1588     0.1392     2.4550     0.1090   -59.1453    12.5914    11.1120
  456.0000     7.9111   133.0663     0.1685     2.4852     0.1046   -59.1451    12.6311    11.1111
  456.5000     7.9218   140.4814     0.1913     2.4512     0.1782   -59.1451    12.8974    11.1099
  457.0000     7.9324   139.6449     0.1985     2.3548     0.1819   -59.1451    13.2049    11.1044
  457.5000     7.9315   137.4278     0.2519     2.3819     0.1700   -59.1454    13.5210    11.6461
  458.0000     7.8844   135.4733     0.2505     2.3507     0.1805   -59.1446    14.1396    12.3993
  458.5000     7.8439   129.9867     0.2491     2.3391     0.1920   -59.1489    14.8904    13.6721
  459.0000     7.8380   127.0869     0.2457     2.3535     0.1963   -58.8820    15.8504    15.0898
  459.5000     7.8717   121.9581     0.2418     2.3326     0.2079   -58.4914    16.9847    16.7829
  460.0000     7.9130   113.7004     0.1601     2.3110     0.2125   -58.1413    18.0945    18.7872
  460.5000     7.9352   102.1822     0.1491     2.3051     0.2079   -58.1499    20.2528    21.0204
  461.0000     7.8951    99.9093     0.1930     2.3102     0.2456   -58.1511    22.4858    23.5190
  461.5000     7.8555    92.7245     0.2071     2.2292     0.2712   -58.1512    24.9518    26.3186
  462.0000     7.8171    86.0420     0.1998     2.2094     0.2697   -58.1505    27.6877    29.4584
  462.5000     7.7811    79.8142     0.1904     2.2133     0.2636   -58.1182    30.7235    31.6811
  463.0000     7.7820    74.9604     0.1868     2.2189     0.2555   -58.0494    33.4472    30.7718
  463.5000     7.7842    74.7492     0.1929     2.2332     0.2493   -57.9827    34.3832    29.4413
  464.0000     7.8260    75.9685     0.2068     2.2442     0.2449   -57.7538    33.9673    28.2000
  464.5000     7.8669    77.2166     0.2174     2.2501     0.2339   -57.4133    33.1447    27.1103
  465.0000     7.9074    78.4808     0.2188     2.2712     0.2242   -57.0709    32.1872    26.0626
  465.5000     7.9422    78.5534     0.2175     2.2944     0.2037   -56.7257    31.2329    25.0555
  466.0000     7.9459    77.7851     0.1830     2.3265     0.1932   -56.3780    30.3738    24.4775
  466.5000     7.9502    76.9999     0.1297     2.3347     0.1974   -56.4180    29.5511    23.6694
  467.0000     7.9546    76.2219     0.1288     2.3283     0.2080   -56.4844    28.7507    23.0927
  467.5000     7.9590    75.6464     0.1884     2.3084     0.2420   -56.5448    27.9714    22.8391
  468.0000     7.9604    75.6237     0.2844     2.2515     0.2652   -56.7171    27.2143    22.5971
  468.5000     7.9604    76.0145     0.2963     2.2211     0.2568   -57.2371    26.4771    22.3555
  469.0000     7.9555    77.2968     0.2951     2.2437     0.2345   -57.8190    26.3136    22.1258
  469.5000     7.9502    79.1501     0.2874     2.2754     0.2270   -57.9521    26.2658    21.7664
  470.0000     7.9448    79.3794     0.2654     2.2796     0.2240   -57.9541    26.2181    21.4260
  470.5000     7.9400    81.1345     0.2514     2.2869     0.2199   -57.9525    26.1704    21.1329
  471.0000     7.9453    84.5662     0.2927     2.2935     0.2163   -57.9523    26.1041    21.2354
  471.5000     7.9637    86.7034     0.3130     2.2807     0.2345   -57.9524    26.1218    21.3278
  472.0000     7.9689    87.2612     0.2667     2.2448     0.2476   -57.9537    26.1553    21.9356
  472.5000     7.9733    87.1560     0.2702     2.2820     0.2073   -57.9531    26.1885    22.5359
  473.0000     7.9776    87.7096     0.2699     2.3480     0.1730   -57.8635    26.2220    22.3768
  473.5000     7.9850    89.6751     0.2519     2.3319     0.1591   -57.2930    26.2556    22.1651
  474.0000     7.9995    90.8171     0.2486     2.3269     0.1758   -57.0576    26.2889    21.9281
  474.5000     8.0002    84.5101     0.2268     2.3561     0.1658   -57.3062    26.3223    21.6937
  475.0000     8.0014    81.7442     0.1896     2.3912     0.1506   -57.5494    26.3427    21.4618
  475.5000     8.0048    78.6274     0.1748     2.4279     0.1354   -57.7932    26.3431    21.3264
  476.0000     8.0082    75.8056     0.1438     2.4376     0.1296   -58.0431    25.6863    20.8675
  476.5000     8.0116    76.2459     0.1002     2.4070     0.1551   -58.3049    24.7997    20.4268
  477.0000     8.0151    79.0109     0.1013     2.3995     0.1492   -58.3210    23.9329    19.9963
  477.5000     8.0185    81.5568     0.1014     2.4069     0.1900   -58.2847    23.0989    19.5416
  478.0000     8.0219    82.3861     0.1014     2.3390     0.1905   -58.2473    22.2940    18.9053
  478.5000     8.0253    82.6967     0.0999     2.3385     0.1908   -58.2106    21.5246    18.2452
  479.0000     8.0288    81.2022     0.0982     2.3375     0.1911   -58.1740    21.0726    18.0092
  479.5000     8.0322    79.6328     0.0964     2.3367     0.1912   -58.1373    20.6343    17.7784
  480.0000     8.0357    78.2088     0.0947     2.3378     0.1882   -58.1007    20.2051    17.4077
  480.5000     8.0391    78.9048     0.0924     2.3473     0.1782   -58.0640    19.7849    17.0239
  481.0000     8.0398    81.1638     0.0890     2.3583     0.1785   -58.0274    19.3734    16.6512
  481.5000     8.0281    82.9929     0.0857     2.3618     0.1758   -57.9905    18.9704    16.4676
  482.0000     8.0198    82.6213     0.0861     2.3663     0.1750   -57.9538    18.5834    16.4311
  482.5000     8.0231    81.5239     0.0936     2.3642     0.1810   -57.9520    18.4458    16.3923
  483.0000     8.0294    80.5704     0.1011     2.3535     0.1885   -57.9524    18.2804    16.3536
  483.5000     8.0357    80.7103     0.1074     2.3435     0.1889   -57.9525    18.1164    16.2832
