~VERSION INFORMATION
 VERS.                2.0:   CWLS LOG ASCII STANDARD - VERSION 2.0
 WRAP.                 NO:   ONE LINE PER DEPTH STEP
~WELL INFORMATION
#MNEM.UNIT      DATA TYPE    INFORMATION
#----------   ------------   ------------------------------
 STRT.F            3.0000:   START DEPTH
 STOP.F         1011.0000:   STOP DEPTH
 STEP.F            0.5000:   STEP LENGTH
 NULL.          -999.2500:   NO VALUE
 COMP. BROWN JOHN E&C INC:   COMPANY
 WELL. NPR 3 SHX-38 #2-35:   WELL
 FLD .             TEAPOT:   FIELD
 LOC .      S35 T39N R78W:   LOCATION
 CNTY.            NATRONA:   COUNTY
 STAT.            WYOMING:   STATE
 CTRY. UNITED STATES OF AMERICA:   COUNTRY
 SRVC.     Atlas Wireline:   SERVICE COMPANY
 DATE.        15-NOV-1991:   LOGDATE
 API .       490252248100:   API NUMBER
~CURVE INFORMATION
#MNEM.UNIT       API CODE    CURVE DESCRIPTION
#----------   ------------   ------------------------------
 DEPT.F                  :   
 GRR .GAPI   07 310 01 00:   GAMMA RAY
 RILD.OHMM   07 120 46 00:   INDUCTION LOG DEEP RESISTIVITY
 RILM.OHMM   07 120 44 00:   INDUCTION LOG MEDIUM RESISTIVITY
~PARAMETER INFORMATION
#MNEM.UNIT          VALUE    DESCRIPTION
#----------   ------------   ------------------------------
 PD  .                 GL:   PERMANENT DATUM
 EPD .F              5119:   ELEVATION PERMANENT DATUM
 LMF .                 KB:   LOG MEASURED FROM
 DAPD.F                11:   FEET ABOVE PERMANENT DATUM
 DMF .                 KB:   DRILLING MEASURED FROM
 EKB .F              5120:   KELLING BUSHING
 EGL .F              5119:   GROUND LEVEL
 DATE.        15-NOV-1991:   RUN DATE
 RUN .                  1:   RUN NUMBER
 DD  .F              1015:   DEPTH DRILLER
 DL  .F              1017:   DEPTH LOGGER
 BLI .F              1015:   BOTTOM LOG INTERVAL
 CS  .IN            8.625:   CASING SIZE
 CBD .F                60:   CASING BOTTOM DRILLER
 CBL .F                60:   CASING BOTTOM LOGGER
 BS  .IN            7.875:   BIT SIZE
 BSD .F              1015:   BIT SIZE AT DEPTH
 DFT .                AIR:   DRILLING FLUID TYPE
 LUN .            HL-6272:   LOGGING UNIT NUMBER
 LUL .         CASPER, WY:   LOGGING UNIT LOCATION
 ENGI.             ZIFGER:   RECORDING ENGINEER
 WITN.         MR. STRONG:   WITNESSED BY
 CLNT.            A2DTECH:   CLIENT CODE
 ORIG.           5" PRINT:   ORIGIN OF DATA
 UWI .       490252248100:   UNIQUE WELL ID
 DICO. A2D Technologies, Inc.:   DIGITIZING COMPANY
~OTHER INFORMATION
~A    DEPT      GRR      RILD       RILM   
# ...
  458.0000   139.9090     6.4826     6.5109
  458.5000   146.2822     6.4238     6.4660
  459.0000   146.8892     6.3490     6.3768
  459.5000   140.5159     6.2614     6.2889
  460.0000   140.8194     6.1750     6.2021
  460.5000   142.3369     6.1326     6.1595
  461.0000   143.8543     6.1760     6.1599
  461.5000   144.7648     6.1764     6.1604
  462.0000   143.8543     6.2213     6.2039
  462.5000   141.4264     6.3080     6.2514
  463.0000   141.7299     6.3527     6.2920
  463.5000   141.7633     6.4425     6.3366
  464.0000   140.8194     6.4881     6.4261
  464.5000   138.3915     6.5340     6.4715
  465.0000   134.1426     6.5400     6.5173
  465.5000   132.1236     6.6269     6.5633
  466.0000   137.7845     6.6737     6.6560
  466.5000   142.6404     6.6867     6.6565
  467.0000   138.6808     6.7214     6.7036
  467.5000   138.6950     6.7690     6.7510
  468.0000   139.6055     6.8169     6.7987
  468.5000   140.2124     6.8651     6.8468
  469.0000   140.2124     6.9137     6.8952
  469.5000   138.9985     6.9627     6.9440
  470.0000   137.4810     7.0119     7.0420
  470.5000   136.5706     7.1110     7.0918
  471.0000   135.9636     7.1637     7.1420
  471.5000   133.5357     7.2626     7.1476
  472.0000   130.8042     7.3140     7.1930
  472.5000   128.9833     7.3657     7.1936
  473.0000   130.5008     7.2136     7.1941
  473.5000   132.6252     7.0154     7.1444
  474.0000   134.1507     6.8227     6.8044
  474.5000   135.0531     6.7284     6.6175
  475.0000   133.0804     6.6355     6.5262
  475.5000   131.7147     6.6361     6.5268
  476.0000   132.3217     6.5903     6.5272
  476.5000   132.3217     6.5908     6.5277
  477.0000   132.0182     6.5913     6.5281
  477.5000   131.1077     6.5917     6.4832
  478.0000   127.4659     6.5922     6.4836
  478.5000   122.6100     6.5926     6.4390
  479.0000   115.6297     6.5472     6.3947
  479.5000   116.5402     6.5021     6.3506
  480.0000   124.1275     6.4995     6.3511
  480.5000   129.2868     6.4578     6.3515
  481.0000   132.3258     6.4133     6.3078
  481.5000   135.1230     6.3691     6.3083
  482.0000   137.4810     6.3696     6.3529
  482.5000   138.0880     6.3701     6.3534
  483.0000   136.8741     6.4151     6.3538
  483.5000   131.4112     6.4156     6.3543
  484.0000   130.1973     6.4727     6.3991
  484.5000   130.1973     6.5523     6.4444
  485.0000   134.1426     6.5527     6.4900
  485.5000   137.4810     6.5991     6.5359
  486.0000   138.3915     6.6458     6.5363
  486.5000   136.2671     6.6463     6.5826
  487.0000   134.7496     6.6467     6.5830
  487.5000   133.2322     6.6009     6.5835
  488.0000   132.0182     6.5554     6.5839
  488.5000   131.7147     6.5089     6.4931
  489.0000   131.7532     6.4654     6.4484
  489.5000   133.8392     6.4209     6.4040
  490.0000   139.6055     6.3767     6.3599
  490.5000   141.1229     6.3772     6.3161
  491.0000   139.9090     6.3776     6.2727
  491.5000   138.3915     6.3781     6.2732
  492.0000   138.9985     6.3785     6.3176
  492.5000   139.9090     6.4236     6.3622
  493.0000   140.2124     6.4691     6.4973
  493.5000   140.2124     6.5605     6.5432
  494.0000   139.9090     6.6070     6.5895
  494.5000   138.0880     6.6537     6.6825
  495.0000   132.6252     6.7008     6.7298
  495.5000   134.1873     6.7482     6.7774
  496.0000   137.4810     6.7487     6.7987
  496.5000   136.5169     6.8113     6.8258
  497.0000   135.0531     6.8445     6.9222
  497.5000   135.0531     6.8942     6.9711
  498.0000   135.0531     6.9418     6.9768
  498.5000   135.3566     6.9909     7.0701
  499.0000   137.1775     7.0405     7.0707
  499.5000   143.2473     7.0903     7.0711
  500.0000   145.6753     7.0908     7.0225
  500.5000   140.8194     7.0418     6.9741
  501.0000   142.0334     6.9933     6.9261
  501.5000   145.0683     6.9451     6.8784
  502.0000   147.9930     6.9457     6.8654
  502.5000   150.5776     6.8871     6.7840
  503.0000   149.3728     6.8169     6.7372
  503.5000   143.0086     6.7468     6.7378
  504.0000   137.8584     6.6767     6.5599
  504.5000   138.4745     6.7097     6.5616
  505.0000   141.8221     6.7650     6.5630
  505.5000   142.7394     6.8527     6.6103
  506.0000   140.0194     6.8531     6.6580
  506.5000   133.6553     6.8536     6.6594
  507.0000   132.1447     6.8541     6.7075
  507.5000   138.8329     6.8546     6.7087
  508.0000   142.7874     6.9031     6.7103
  508.5000   143.4012     6.9036     6.7587
  509.0000   137.9498     6.9041     6.7601
  509.5000   136.7428     6.9045     6.7615
  510.0000   139.1821     6.9050     6.8103
  510.5000   139.4924     6.9539     6.8118
  511.0000   136.1655     6.9544     6.8132
  511.5000   137.0851     6.9549     6.8146
  512.0000   140.1291     6.9554     6.8635
  512.5000   142.5662     6.9558     6.8649
  513.0000   143.7893     6.9079     6.9144
  513.5000   141.3705     6.9084     6.9159
  514.0000   141.0739     6.9573     6.9658
  514.5000   142.0496     7.0556     7.0160
  515.0000   143.6719     7.2055     7.1194
  515.5000   144.1362     7.4101     7.2223
  516.0000   140.7668     7.6206     7.4248
  516.5000   140.8518     7.7283     7.5824
  517.0000   142.1002     7.8375     7.7441
  517.5000   144.5522     7.8381     7.7999
  518.0000   151.7707     7.8386     7.8562
  518.5000   154.2078     7.8941     7.8579
  519.0000   155.4309     7.8946     7.8048
  519.5000   141.1760     7.8952     7.8065
  520.0000   138.1479     7.8958     7.8628
  520.5000   139.0698     7.9516     7.8645
  521.0000   141.8104     7.9522     7.8661
  521.5000   145.1579     8.0646     7.9229
  522.0000   149.7194     8.1217     7.9800
  522.5000   151.8530     8.1792     8.0376
  523.0000   152.4691     8.2948     8.0956
  523.5000   145.8015     8.4120     8.2111
  524.0000   139.3747     8.5907     8.2703
  524.5000   139.8593     8.7732     8.4470
  525.0000   143.3486     8.8972     8.6275
  525.5000   153.5143     9.0862     8.8736
  526.0000   154.3427     9.1505     9.0632
  526.5000   153.0672     9.2798     9.3217
  527.0000   147.6991     9.4110     9.5209
  527.5000   138.4873     9.5440     9.6567
  528.0000   135.8663     9.6116     9.7944
  528.5000   141.0957     9.6796     9.7965
  529.0000   144.0788     9.7481     9.7986
  529.5000   142.8690     9.8171     9.7325
  530.0000   140.7587     9.8178     9.5996
  530.5000   136.2155     9.6823     9.4686
  531.0000   134.4037     9.4822     9.3388
  531.5000   137.4478     9.3512     9.2118
  532.0000   139.5813     9.2223     9.1497
  532.5000   141.4114     9.1587     9.0875
  533.0000   142.0275     9.0956     9.0267
  533.5000   135.3599     9.0329     9.0286
  534.0000   133.7704     9.0336     8.9674
  534.5000   139.3236     8.9713     8.9696
  535.0000   143.5816     9.0348     8.8472
  535.5000   140.5558     9.0988     8.8487
  536.0000   139.9575     9.0994     8.8509
  536.5000   140.5741     9.1638     8.8524
  537.0000   141.4937     9.1645     8.8658
  537.5000   141.8063     9.1651     8.9805
  538.0000   142.1190     9.1657     9.0453
  538.5000   142.4316     9.1680     9.0472
  539.0000   141.5303     9.2312     9.1125
  539.5000   135.1661     9.2319     9.1144
  540.0000   125.7671     9.1683     9.1163
  540.5000   124.5600     9.1689     9.0548
  541.0000   129.7307     9.1696     9.0567
  541.5000   138.2376     9.1064     8.9956
  542.0000   150.3863     9.0437     8.8728
  542.5000   154.9478     8.9814     8.8747
  543.0000   152.5291     8.9195     8.7535
  543.5000   150.1080     8.8580     8.6945
  544.0000   150.7264     8.7705     8.6358
  544.5000   151.6460     8.6756     8.5776
  545.0000   153.4761     8.6159     8.5197
  545.5000   156.3517     8.5565     8.4035
  546.0000   160.8983     8.4385     8.3467
  546.5000   164.1597     8.2641     8.1756
  547.0000   164.0727     8.0933     8.0079
  547.5000   161.5625     7.8162     7.7891
  548.0000   152.8620     7.4960     7.5763
  548.5000   150.5037     7.2393     7.3694
