~VERSION INFORMATION
 VERS.                2.0:   CWLS LOG ASCII STANDARD - VERSION 2.0
 WRAP.                 NO:   ONE LINE PER DEPTH STEP
~WELL INFORMATION
#MNEM.UNIT      DATA TYPE    INFORMATION
#----------   ------------   ------------------------------
 STRT.F           24.0000:   START DEPTH
 STOP.F          609.0000:   STOP DEPTH
 STEP.F            0.5000:   STEP LENGTH
 NULL.          -999.2500:   NO VALUE
 COMP. FENIX & SCISSON INC:   COMPANY
 WELL.        S 34 #48-34:   WELL
 FLD .            NPR - 3:   FIELD
 LOC .      S34 T39N R78W:   LOCATION
 CNTY.            NATRONA:   COUNTY
 STAT.            WYOMING:   STATE
 CTRY. UNITED STATES OF AMERICA:   COUNTRY
 SRVC.              Welex:   SERVICE COMPANY
 DATE.        03-MAY-1977:   LOGDATE
 API .       490251035700:   API NUMBER
~CURVE INFORMATION
#MNEM.UNIT       API CODE    CURVE DESCRIPTION
#----------   ------------   ------------------------------
 DEPT.F                  :   
 CALD.IN     45 280 60 00:   CALIPER FROM DENSITY LOG
 CORR.G/C3   45 356 01 00:   DENSITY CORRECTION
 DPHI.DEC    45 890 12 00:   DENSITY POROSITY SANDSTONE
 GRD .GAPI   45 310 01 00:   GAMMA RAY FROM DENSITY LOG
 RHOB.G/C3   45 350 01 00:   BULK DENSITY
 GURD.OHMM   07 220 05 00:   SHALLOW GUARD RESISTIVITY
 ILD .OHMM   07 120 46 00:   INDUCTION LOG DEEP
 ILM .OHMM   07 120 44 00:   INDUCTION LOG MEDIUM
 SPR .MV     07 010 01 00:   SPONTANEOUS POTENTIAL FROM RES.
~PARAMETER INFORMATION
#MNEM.UNIT          VALUE    DESCRIPTION
#----------   ------------   ------------------------------
 PD  .                 GL:   PERMANENT DATUM
 EPD .F              5160:   ELEVATION PERMANENT DATUM
 LMF .                 GL:   LOG MEASURED FROM
 DMF .                 GL:   DRILLING MEASURED FROM
 EGL .F              5160:   GROUND LEVEL
 DATE.        03-MAY-1977:   RUN DATE
 RUN .                  1:   RUN NUMBER
 DD  .F               610:   DEPTH DRILLER
 DL  .F               611:   DEPTH LOGGER
 BLI .F               609:   BOTTOM LOG INTERVAL
 TLI .F                30:   TOP LOG INTERVAL
 CS  .IN            8.625:   CASING SIZE
 CBD .F                40:   CASING BOTTOM DRILLER
 CBL .F                32:   CASING BOTTOM LOGGER
 BS  .IN            7.875:   BIT SIZE
 BSD .F               610:   BIT SIZE AT DEPTH
 DFT .            KCL GEL:   DRILLING FLUID TYPE
 DFD .                8.9:   DRILLING FLUID DENSITY
 DFV .                 33:   DRILLING FLUID VISCOSITY
 DFPH.                8.0:   DRILLING FLUID PH
 DFL .                7.2:   DRILLING FLUID LOSS
 MSS .            MUD PIT:   MUD SAMPLE SOURCE
 RMS .OHMM           0.19:   RESISTIVITY MUD SAMPLE
 MST .F                65:   MUD SAMPLE TEMPERATURE
 RMF .OHMM           0.16:   RESISTIVITY MUD FILTRATE SAMPLE
 MFST.F                65:   MUD FILTRATE SAMPLE TEMPERATURE
 RMC .OHMM           0.24:   RESISTIVITY MUD CAKE
 MCST.F                65:   MUD CAKE SAMPLE TEMPERATURE
 MFSS.               MEAS:   MUD FILTRATE SAMPLE SOURCE
 MCSS.               MEAS:   MUD CAKE SAMPLE SOURCE
 RMB .OHMM           0.17:   RESISTIVITY MUD AT BHT
 BHT .F                72:   BOTTOM HOLE TEMPERATURE
 TCS .HRS               2:   TIME CURCULATED STOPPED
 MRT .F                72:   MAXIMUM RECORDED TEMPERATURE
 LUN .               8766:   LOGGING UNIT NUMBER
 LUL .             CASPER:   LOGGING UNIT LOCATION
 ENGI.          T. JOYNER:   RECORDING ENGINEER
 WITN.           ROB LYON:   WITNESSED BY
 CLNT.            A2DTECH:   CLIENT CODE
 ORIG.           5" PRINT:   ORIGIN OF DATA
 UWI .       490251035700:   UNIQUE WELL ID
 DICO. A2D Technologies, Inc.:   DIGITIZING COMPANY
~OTHER INFORMATION
~A   DEPT       CALD      CORR        DPHI      GRD         RHOB     GURD        ILD        ILM        SPR   
# ...
   60.5000     7.8941     0.0440     0.1122   107.8183     2.4943    12.8378     6.4920     8.8759   -29.2413
   61.0000     7.8951     0.0487     0.1107   108.4234     2.4983    12.5779     6.6784     9.0673   -29.3680
   61.5000     7.8961     0.0548     0.1095   109.0284     2.5026    12.3442     6.8700     9.2627   -29.5000
   62.0000     7.8972     0.0609     0.1092   110.2270     2.5042    12.1827     6.9700     8.9524   -29.6310
   62.5000     7.8984     0.0655     0.1133   112.7608     2.4923    12.1049     6.9743     8.4746   -29.7619
   63.0000     7.8994     0.0611     0.1193   115.5915     2.4706    12.4555     6.9786     8.1907   -29.7439
   63.5000     7.9004     0.0507     0.1373   117.0867     2.4489    12.9928     6.8859     8.0267   -29.7262
   64.0000     7.9015     0.0374     0.1397   118.4337     2.4415    13.3669     6.7496     7.9746   -29.7083
   64.5000     7.9025     0.0195     0.1451   119.1871     2.4446    13.1898     6.6150     8.0913   -29.6905
   65.0000     7.9332     0.0136     0.1409   119.3472     2.4529    12.4896     6.5281     8.4393   -29.8222
   65.5000     7.9342     0.0137     0.1354   119.2103     2.4552    12.1546     6.4423     8.9249   -29.8001
   66.0000     7.8907     0.0168     0.1330   115.9607     2.4553    11.9471     6.3138     9.3087   -29.9357
   66.5000     7.8323     0.0200     0.1321   111.8180     2.4570    11.5979     6.2741     9.1223   -29.9137
   67.0000     7.7887     0.0201     0.1312   112.7199     2.4647    11.3672     6.2780     8.2268   -29.8960
   67.5000     7.7897     0.0217     0.1284   119.2597     2.4735    11.2186     6.1955     7.9512   -29.8784
   68.0000     7.7908     0.0233     0.1245   116.4523     2.4803    11.1487     6.1141     7.8461   -29.8607
   68.5000     7.7920     0.0235     0.1215   111.8645     2.4842    11.1564     6.0347     8.0153   -29.8431
   69.0000     7.7930     0.0236     0.1187   111.5764     2.4865    11.1640     5.9554     8.3030   -29.6767
   69.5000     7.7940     0.0237     0.1172   113.2230     2.4873    11.2493     5.9591     8.5425   -29.6590
   70.0000     7.7950     0.0238     0.1175   116.4987     2.4844    11.4139     5.8808     8.5448   -29.4926
   70.5000     7.7663     0.0239     0.1190   119.7779     2.4800    11.4217     5.8429     8.3737   -29.4749
   71.0000     7.7674     0.0240     0.1205   120.8586     2.4815    11.4296     5.8062     8.3785   -29.4573
   71.5000     7.7684     0.0242     0.1219   122.3228     2.4777    11.2800     5.8107     8.3168   -29.4888
   72.0000     7.7545     0.0213     0.1228   125.3018     2.4755    11.2878     5.7733     8.1584   -29.5405
   72.5000     7.7407     0.0214     0.1242   125.4588     2.4728    11.2955     5.7777     8.0506   -29.5922
   73.0000     7.7418     0.0215     0.1254   122.2092     2.4706    10.9007     5.8214     8.3400   -29.6439
   73.5000     7.7430     0.0216     0.1263   119.6986     2.4692    10.7013     5.8250     8.5186   -29.8141
   74.0000     7.7589     0.0218     0.1271   117.0396     2.4700    10.7849     5.8690     8.4061   -29.7964
   74.5000     7.7448     0.0189     0.1268   113.6387     2.4716    11.0188     5.9134     8.4118   -29.9320
   75.0000     7.7758     0.0160     0.1253   110.5346     2.4739    11.2578     5.9581     8.6529   -29.9100
   75.5000     7.7617     0.0161     0.1229   107.5789     2.4762    11.6624     6.0055     8.8394   -30.1900
   76.0000     7.7927     0.0163     0.1210   104.4688     2.4800    11.9982     6.1375     8.9057   -30.3214
   76.5000     7.7937     0.0164     0.1204   102.2409     2.4839    12.2585     6.3160     8.9725   -30.4524
   77.0000     7.8095     0.0225     0.1198    97.0825     2.4847    12.0146     6.5360     9.0399   -30.7323
   77.5000     7.8106     0.0226     0.1215    96.3493     2.4825    11.6137     6.7236     8.9812   -30.8635
   78.0000     7.8116     0.0197     0.1239   103.4855     2.4773    11.8656     6.8215     9.9711   -30.9946
   78.5000     7.8126     0.0168     0.1251   107.0579     2.4714    15.2355     6.9208    10.1144   -30.9762
   79.0000     7.8436     0.0140     0.1286   110.4820     2.4677    20.1119     7.0215     9.5759   -31.1082
   79.5000     7.8743     0.0111     0.1322   112.2740     2.4618    20.6280     7.0259     9.0648   -31.2393
   80.0000     7.8753     0.0112     0.1316   110.9503     2.4611    13.1094     6.9336     8.7611   -31.2173
   80.5000     7.9061     0.0098     0.1310   110.0712     2.4612    12.4113     6.7474     8.6453   -31.1997
   81.0000     7.9368     0.0067     0.1357   109.9350     2.4560    12.0804     6.6138     8.5892   -31.1820
   81.5000     7.9378     0.0056     0.1429   112.0272     2.4411    11.8381     6.4819     8.5346   -31.1644
   82.0000     7.9388     0.0057     0.1470   114.8685     2.4352    11.7602     6.3958     8.3649   -31.3000
   82.5000     7.8953     0.0028     0.1479   116.3525     2.4330    11.5325     6.2260     8.3106   -31.4311
   83.0000     7.8814     0.0014     0.1482   118.4413     2.4323    11.4463     6.0597     8.3741   -31.5623
   83.5000     7.8230     0.0000     0.1469   119.0435     2.4362    11.3108     5.9800     8.4956   -31.6935
   84.0000     7.7926     0.0002     0.1451   114.9037     2.4400    11.2404     5.9425     8.5003   -31.6714
   84.5000     7.7656     0.0003     0.1430   113.7254     2.4446    11.1705     5.9875     8.4462   -31.6538
   85.0000     7.7669     0.0004     0.1391   113.7399     2.4506    11.1800     5.9912     8.0510   -31.6362
   85.5000     7.7679     0.0065     0.1345   113.7515     2.4567    10.9558     6.0416     8.0554   -31.6185
   86.0000     7.7689     0.0186     0.1309   119.1044     2.4628    10.8876     6.1319     8.4018   -31.6009
   86.5000     7.7699     0.0218     0.1279   115.5552     2.4681    11.0489     6.2576     8.7026   -31.5833
   87.0000     7.7710     0.0234     0.1255   112.5994     2.4719    11.2106     6.3928     8.3530   -31.4167
   87.5000     7.7720     0.0235     0.1239   109.0876     2.4743    11.5334     6.5309     8.5331   -31.3988
   88.0000     7.7879     0.0236     0.1233   105.5010     2.4758    11.7836     6.6720     8.7776   -31.3810
   88.5000     7.8037     0.0237     0.1263   109.0763     2.4736    12.2070     6.8162     8.7857   -31.3631
   89.0000     7.8048     0.0194     0.1311   112.6488     2.4638    12.5585     7.0118     9.0341   -31.3419
   89.5000     7.7909     0.0195     0.1353   112.0669     2.4548    12.9201     7.1632     9.1020   -31.3242
   90.0000     7.7922     0.0136     0.1391   107.9242     2.4497    13.3844     7.2675     9.1070   -31.3066
   90.5000     7.7781     0.0077     0.1415   105.2623     2.4455    13.6747     7.3225     9.0490   -31.4422
   91.0000     7.7794     0.0019     0.1433   107.9474     2.4424    13.4922     7.2754     8.7842   -31.4201
   91.5000     7.7804     0.0035     0.1447   109.7394     2.4389    13.0289     7.2296     8.2802   -31.5557
   92.0000     7.7814     0.0081     0.1410   111.5315     2.4419    12.2411     7.0377     7.9476   -31.6825
   92.5000     7.8121     0.0142     0.1380   113.3235     2.4488    11.7764     6.8497     8.1753   -31.6648
   93.0000     7.8131     0.0203     0.1350   114.5658     2.4533    11.5422     6.6668     8.2355   -31.8004
   93.5000     7.8141     0.0204     0.1326   117.3502     2.4549    11.3126     6.3996     7.7432   -31.9316
   94.0000     7.8300     0.0206     0.1301   121.2247     2.4580    11.1646     6.1847     7.4838   -32.2116
   94.5000     7.8311     0.0207     0.1280   123.1651     2.4626    11.0167     5.9791     7.5399   -32.3427
   95.0000     7.8321     0.0208     0.1265   123.3222     2.4679    11.0261     5.9415     7.9188   -32.4702
   95.5000     7.8333     0.0209     0.1247   120.5177     2.4732    11.1103     5.9454     8.2593   -32.4519
   96.0000     7.8344     0.0163     0.1231   118.7489     2.4770    11.1952     5.9911     8.5550   -32.4342
   96.5000     7.8354     0.0122     0.1216   115.0513     2.4794    11.3591     5.9948     8.7394   -32.4166
