~VERSION INFORMATION
 VERS.                2.0:   CWLS LOG ASCII STANDARD - VERSION 2.0
 WRAP.                 NO:   ONE LINE PER DEPTH STEP
~WELL INFORMATION
#MNEM.UNIT      DATA TYPE    INFORMATION
#----------   ------------   ------------------------------
 STRT.F            8.5000:   START DEPTH
 STOP.F          642.0000:   STOP DEPTH
 STEP.F            0.5000:   STEP LENGTH
 NULL.          -999.2500:   NO VALUE
 COMP. FENIX & SCISSON INC:   COMPANY
 WELL. 26-36 S11 W1 #26-36 SX11:   WELL
 FLD .             TEAPOT:   FIELD
 LOC .      S11 T38N R78W:   LOCATION
 CNTY.            NATRONA:   COUNTY
 STAT.            WYOMING:   STATE
 CTRY. UNITED STATES OF AMERICA:   COUNTRY
 SRVC.      Dresser Atlas:   SERVICE COMPANY
 DATE.        16-JUL-1980:   LOGDATE
 API .       490251083500:   API NUMBER
~CURVE INFORMATION
#MNEM.UNIT       API CODE    CURVE DESCRIPTION
#----------   ------------   ------------------------------
 DEPT.F                  :   
 NPHI.DEC    42 890 03 00:   NEUTRON POROSITY SANDSTONE
 RHOB.G/C3   45 350 01 00:   BULK DENSITY
 CORR.G/C3   45 356 01 00:   DENSITY CORRECTION
 GRD .GAPI   45 310 01 00:   GAMMA RAY FROM DENSITY LOG
 CALD.IN     45 280 60 00:   CALIPER
 SPR .MV     07 010 01 00:   SPONTANEOUS POTENTIAL
 SFL .OHMM   07 220 01 00:   SHALLOW FOCUSED LOG RESISTIVITY
 ILD .OHMM   07 120 46 00:   INDUCTION LOG DEEP
 ILM .OHMM   07 120 44 00:   INDUCTION LOG MEDIUM
 DPHI.DEC    45 890 12 00:   DENSITY POROSITY SANDSTONE
~PARAMETER INFORMATION
#MNEM.UNIT          VALUE    DESCRIPTION
#----------   ------------   ------------------------------
 PD  .                 GL:   PERMANENT DATUM
 EPD .F              5184:   ELEVATION PERMANENT DATUM
 LMF .                 KB:   LOG MEASURED FROM
 DAPD.F                 5:   FEET ABOVE PERMANENT DATUM
 DMF .                 KB:   DRILLING MEASURED FROM
 EKB .F              5189:   KELLING BUSHING
 EGL .F              5184:   GROUND LEVEL
 DATE.            7-16-80:   RUN DATE
 RUN .                  1:   RUN NUMBER
 DD  .F               630:   DEPTH DRILLER
 DL  .F               637:   DEPTH LOGGER
 BLI .F               635:   BOTTOM LOG INTERVAL
 TLI .F                 8:   TOP LOG INTERVAL
 BS  .IN            7.875:   BIT SIZE
 BSD .F               630:   BIT SIZE AT DEPTH
 DFT .           CHEM GEL:   DRILLING FLUID TYPE
 DFD .                9.2:   DRILLING FLUID DENSITY
 DFV .                 65:   DRILLING FLUID VISCOSITY
 DFPH.                 10:   DRILLING FLUID PH
 DFL .                  8:   DRILLING FLUID LOSS
 MSS .           FLOWLINE:   MUD SAMPLE SOURCE
 RMS .OHMM            .61:   RESISTIVITY MUD SAMPLE
 MST .F                60:   MUD SAMPLE TEMPERATURE
 RMC .OHMM            .62:   RESISTIVITY MUD CAKE
 MCST.F                58:   MUD CAKE SAMPLE TEMPERATURE
 MFSS.               MEAS:   MUD FILTRATE SAMPLE SOURCE
 MCSS.               MEAS:   MUD CAKE SAMPLE SOURCE
 RMB .OHMM            .41:   RESISTIVITY MUD AT BHT
 BHT .F                90:   BOTTOM HOLE TEMPERATURE
 TCS .HRS               5:   TIME CURCULATED STOPPED
 MRT .F                90:   MAXIMUM RECORDED TEMPERATURE
 LUN .               6109:   LOGGING UNIT NUMBER
 LUL .              GLTTE:   LOGGING UNIT LOCATION
 ENGI.            GARONER:   RECORDING ENGINEER
 WITN.              AMEND:   WITNESSED BY
 CLNT.            A2DTECH:   CLIENT CODE
 ORIG.           5" PRINT:   ORIGIN OF DATA
 UWI .       490251083500:   UNIQUE WELL ID
 DICO. A2D Technologies, Inc.:   DIGITIZING COMPANY
~OTHER INFORMATION
~A    DEPT    NPHI       RHOB       CORR        GRD       CALD        SPR        SFL          ILD      ILM       DPHI   
# ...
  578.0000     0.2364     2.5309     0.0858    74.9165     7.5037   -33.2828    16.9389    11.5669    11.5776     0.1230
  578.5000     0.2433     2.5046     0.0715    76.4689     7.5099   -33.5884    16.3806    11.4286    11.4961     0.1171
  579.0000     0.2453     2.4858     0.0543    77.0407     7.5100   -33.8693    15.7334    11.2916    11.4961     0.1131
  579.5000     0.2428     2.4747     0.0432    76.7669     7.5165   -34.1710    15.7334    11.1560    11.5234     0.1070
  580.0000     0.2475     2.4881     0.0359    77.1349     7.5561   -34.3560    15.7334    11.0219    11.5746     0.0982
  580.5000     0.2518     2.4952     0.0285    78.1281     7.5952   -34.3354    14.9657    10.8895    11.6261     0.0920
  581.0000     0.2540     2.5043     0.0264    77.5197     7.6342   -34.3375    14.3463    10.7589    11.6776     0.1030
  581.5000     0.2559     2.5178     0.0291    76.6647     7.6736   -34.3404    14.3463    10.6758    11.7108     0.1115
  582.0000     0.2480     2.5259     0.0317    77.2944     7.6897   -34.3377    14.3984    10.6779    11.7108     0.1199
  582.5000     0.2503     2.5121     0.0339    78.0601     7.6870   -34.3382    14.6529    10.6779    11.7107     0.1212
  583.0000     0.2574     2.4987     0.0286    78.7200     7.6839   -34.3384    14.9118    10.6779    11.7105     0.1255
  583.5000     0.2625     2.4854     0.0206    78.3462     7.6807   -34.3379    15.1754    10.6779    11.7102     0.1270
  584.0000     0.2639     2.4765     0.0125    77.7229     7.6776   -34.3362    15.4456    10.6779    11.7104     0.1096
  584.5000     0.2513     2.4712     0.0056    77.0992     7.6745   -34.3373    15.3279    10.6779    11.7104     0.1154
  585.0000     0.2388     2.4852     0.0127    76.4734     7.6714   -34.2755    15.2102    10.6779    11.7104     0.1226
  585.5000     0.2372     2.4969     0.0208    75.8298     7.6700   -34.1731    15.0935    10.6779    11.7108     0.1255
  586.0000     0.2382     2.4832     0.0154    75.7077     7.6811   -34.0823    14.9776    10.6771    11.7106     0.1216
  586.5000     0.2411     2.4736     0.0078    76.1730     7.7011   -33.9973    14.8622    10.6778    11.7105     0.1332
  587.0000     0.2440     2.4771     0.0019    76.3198     7.7083   -33.8879    14.7479    10.6778    11.7124     0.1300
  587.5000     0.2440     2.4718     0.0020    75.8103     7.7039   -34.2659    14.6343    10.6810    11.7095     0.1301
  588.0000     0.2439     2.4630     0.0020    75.8506     7.6993   -34.3321    14.5216    10.6723    11.7095     0.1203
  588.5000     0.2489     2.4628     0.0019    76.2979     7.6947   -34.3471    14.4099    10.5346    11.5711     0.1227
  589.0000     0.2540     2.4705     0.0024    76.4951     7.6902   -34.3319    14.3450    10.3912    11.4267     0.1102
  589.5000     0.2500     2.4776     0.0109    76.5036     7.6923   -34.3437    14.3453    10.2468    11.2842     0.0980
  590.0000     0.2517     2.4834     0.0194    76.7745     7.6948   -34.4484    14.3459    10.1045    11.1435     0.0997
  590.5000     0.2537     2.5101     0.0279    77.6148     7.6973   -34.5475    14.2207     9.9642    11.0046     0.1025
  591.0000     0.2580     2.5163     0.0356    78.4474     7.6998   -34.6544    14.0513     9.8258    10.8670     0.1129
  591.5000     0.2620     2.5159     0.0337    79.3086     7.7023   -34.7576    13.8841     9.6893    10.7313     0.1199
  592.0000     0.2646     2.5007     0.0241    79.4959     7.7048   -34.8616    13.7189     9.5547    10.5973     0.1137
  592.5000     0.2633     2.4837     0.0148    79.5088     7.7074   -34.9660    13.5699     9.4220    10.4826     0.1115
  593.0000     0.2583     2.4836     0.0099    79.9657     7.7099   -35.0700    13.5780     9.2912    10.4826     0.1085
  593.5000     0.2555     2.4957     0.0099    80.4731     7.7081   -35.1749    13.4131     9.1621    10.4403     0.0993
  594.0000     0.2643     2.5018     0.0127    80.5090     7.7061   -35.2783    13.1397     9.0436    10.2486     0.0894
  594.5000     0.2671     2.5072     0.0166    80.9656     7.7040   -35.3822    12.8758     8.8390    10.0605     0.0829
  595.0000     0.2671     2.5230     0.0206    82.4885     7.7020   -35.4913    12.6173     8.6517     9.8758     0.0900
  595.5000     0.2704     2.5385     0.0246    84.0697     7.7000   -35.5492    12.3640     8.4684     9.6945     0.0988
  596.0000     0.2709     2.5424     0.0258    84.5239     7.6979   -35.5411    12.1157     8.0315     9.5585     0.1076
  596.5000     0.2655     2.5214     0.0229    84.8260     7.6959   -35.5364    11.8724     7.4716     9.3837     0.1112
  597.0000     0.2651     2.5043     0.0167    85.3287     7.6939   -35.4427    11.7102     6.9508     8.4867     0.1048
  597.5000     0.2772     2.4954     0.0105    87.2373     7.6918   -35.3594    11.7057     6.4675     7.7382     0.1100
  598.0000     0.2897     2.5001     0.0152    89.1431     7.6895   -35.2716    11.7164     6.0156     7.0557     0.1259
  598.5000     0.2990     2.5059     0.0217    90.5426     7.6860   -35.1850    10.4686     5.7005     6.4334     0.1492
  599.0000     0.3088     2.4791     0.0188    89.9172     7.6824   -35.0992     9.2971     5.6987     6.1377     0.1664
  599.5000     0.3118     2.4504     0.0125    87.1678     7.6787   -35.0126     8.2544     5.7005     6.2284     0.1746
  600.0000     0.2935     2.4216     0.0063    84.1522     7.6751   -34.9246     7.3245     5.6986     6.5022     0.1472
  600.5000     0.2763     2.3919     0.0019    81.4080     7.6715   -34.8421     6.4993     6.0206     6.7881     0.1115
  601.0000     0.2658     2.4117     0.0080    80.3199     7.6678   -34.7453     9.6060     6.4453     7.0865     0.0988
  601.5000     0.2530     2.4853     0.0189    79.0726     7.6642   -34.7398    14.0870     6.9008     7.3980     0.1012
  602.0000     0.2563     2.5026     0.0237    78.2746     7.6606   -34.7339    13.5467     7.3878     7.7233     0.1028
  602.5000     0.2583     2.5137     0.0175    78.9417     7.6569   -34.7739    13.1053     7.9093     8.0628     0.1116
  603.0000     0.2570     2.5085     0.0160    79.7277     7.6533   -34.8614    12.6075     8.4675     8.4172     0.0967
  603.5000     0.2588     2.5006     0.0115    80.3393     7.6498   -34.9456    12.6075     9.0436     8.7873     0.0795
  604.0000     0.2608     2.4951     0.0120    79.3905     7.6579   -35.0291    12.6425     9.0436     9.1736     0.0741
  604.5000     0.2622     2.5322     0.0230    79.0263     7.6668   -35.1153    12.7899     9.1960     9.5585     0.0723
  605.0000     0.2631     2.5576     0.0321    79.9001     7.6758   -35.1424    12.8424     9.3806     9.6967     0.0727
  605.5000     0.2631     2.5573     0.0293    80.7889     7.6846   -35.1407    12.8424     9.5585     9.8308     0.0735
  606.0000     0.2668     2.5607     0.0279    81.6783     7.6895   -35.1405    12.8424     9.6480     9.9669     0.0748
  606.5000     0.2695     2.5573     0.0277    82.5748     7.6866   -35.1410    12.8424     9.7336    10.1048     0.0738
  607.0000     0.2652     2.5603     0.0335    82.3988     7.6837   -35.1397    13.4370     9.8199    10.2446     0.0755
  607.5000     0.2582     2.5532     0.0354    81.9518     7.6809   -35.1412    14.0205     9.9070    10.3863     0.0904
  608.0000     0.2571     2.5594     0.0272    81.9000     7.6780   -35.1432    14.6293     9.9949    10.5300     0.0964
  608.5000     0.2493     2.5411     0.0190    81.9071     7.6751   -35.2060    15.5926    10.0836    10.6757     0.1010
  609.0000     0.2507     2.5215     0.0110    81.5411     7.6723   -35.2723    15.4456    10.1731    10.8234     0.1048
  609.5000     0.2504     2.5165     0.0048    81.0663     7.6699   -35.3407    14.0216    10.2633    10.9731     0.1022
  610.0000     0.2477     2.5091     0.0040    80.7185     7.6700   -35.4095    14.0840    10.3599    11.1073     0.0925
  610.5000     0.2464     2.5019     0.0041    81.4814     7.6700   -35.4758    14.2823    10.4598    11.2014     0.0856
  611.0000     0.2481     2.5136     0.0091    82.2662     7.6700   -35.5395    14.6853    10.5606    11.2962     0.0947
