~VERSION INFORMATION
 VERS.                2.0:   CWLS LOG ASCII STANDARD - VERSION 2.0
 WRAP.                 NO:   ONE LINE PER DEPTH STEP
~WELL INFORMATION
#MNEM.UNIT      DATA TYPE    INFORMATION
#----------   ------------   ------------------------------
 STRT.F          906.5000:   START DEPTH
 STOP.F         2710.5000:   STOP DEPTH
 STEP.F            0.5000:   STEP LENGTH
 NULL.          -999.2500:   NO VALUE
 COMP.   FLUOR DANIEL INC:   COMPANY
 WELL. NAVAL PETROLEUM RESERVE 3 X-4 #77-4:   WELL
 FLD .             TEAPOT:   FIELD
 LOC .       S4 T38N R78W:   LOCATION
 CNTY.            NATRONA:   COUNTY
 STAT.            WYOMING:   STATE
 CTRY. UNITED STATES OF AMERICA:   COUNTRY
 SRVC.            Unknown:   SERVICE COMPANY
 DATE.        21-JUN-1995:   LOGDATE
 API .       490252273600:   API NUMBER
~CURVE INFORMATION
#MNEM.UNIT       API CODE    CURVE DESCRIPTION
#----------   ------------   ------------------------------
 DEPT.F                  :   
 TGAS.UNITS  91 830 01 00:   TOTAL GAS FROM HOTWIRE
 ROP .MIN/FT 91 810 01 00:   RAT OF DRILLING PENETRATION
~PARAMETER INFORMATION
#MNEM.UNIT          VALUE    DESCRIPTION
#----------   ------------   ------------------------------
 EKB .F              5291:   KELLING BUSHING
 EGL .F              5281:   GROUND LEVEL
 DATE.            6-21-95:   RUN DATE
 DD  .F              2711:   DEPTH DRILLER
 CBD .F               893:   CASING BOTTOM DRILLER
 ENGI.               HUSK:   RECORDING ENGINEER
 WITN.              TOWER:   WITNESSED BY
 CLNT.            A2DTECH:   CLIENT CODE
 ORIG.           5" PRINT:   ORIGIN OF DATA
 UWI .       490252273600:   UNIQUE WELL ID
 DICO. A2D Technologies, Inc.:   DIGITIZING COMPANY
~OTHER INFORMATION
~A   DEPT      TGAS         ROP 
# ...
 1514.0000   232.5678     0.6814
 1514.5000   232.5700     0.6808
 1515.0000   232.5723     0.6916
 1515.5000   232.5745     0.6796
 1516.0000   232.5767     0.6790
 1516.5000   232.5790     0.6785
 1517.0000   232.5812     0.6779
 1517.5000   232.5834     0.6774
 1518.0000   232.5857     0.6768
 1518.5000   232.5879     0.6877
 1519.0000   232.5901     0.6984
 1519.5000   232.5924     0.6978
 1520.0000   232.5946     0.6746
 1520.5000   232.5968     0.6740
 1521.0000   232.5990     0.6734
 1521.5000   232.6013     0.6729
 1522.0000   232.6035     0.6722
 1522.5000   232.6057     0.6603
 1523.0000   232.6080     0.6599
 1523.5000   232.6102     0.6593
 1524.0000   232.6124     0.6587
 1524.5000   232.6147     0.6582
 1525.0000   232.6169     0.6576
 1525.5000   232.6191     0.6570
 1526.0000   232.6214     0.6564
 1526.5000   232.6236     0.8828
 1527.0000   232.6258     0.8594
 1527.5000   232.6281     0.8634
 1528.0000   232.6303     0.8673
 1528.5000   232.6325     0.7216
 1529.0000   232.6348     0.7223
 1529.5000   232.6370     0.7234
 1530.0000   232.6392     0.7245
 1530.5000   232.6414     0.7256
 1531.0000   232.6437     0.7267
 1531.5000   232.6459     0.7278
 1532.0000   232.6481     0.7290
 1532.5000   232.6504     0.9666
 1533.0000   232.6526     0.9659
 1533.5000   232.6548     0.9654
 1534.0000   232.6571     0.7381
 1534.5000   232.6593     0.7488
 1535.0000   232.6615     0.7482
 1535.5000   232.6638     0.7477
 1536.0000   232.6660     0.9738
 1536.5000   232.6682     1.0982
 1537.0000   232.6705     1.0974
 1537.5000   232.6727     1.1083
 1538.0000   232.6749     1.1077
 1538.5000   232.6772     0.9597
 1539.0000   232.6794     0.9591
 1539.5000   232.6816     0.9585
 1540.0000   232.6839     0.9806
 1540.5000   232.6861     0.9801
 1541.0000   232.6883     0.9795
 1541.5000   232.6906     0.9790
 1542.0000   232.6928     0.9784
 1542.5000   232.6950     1.5901
 1543.0000   232.6972     1.5896
 1543.5000   232.6995     1.5890
 1544.0000   232.7017     1.5249
 1544.5000   232.7039     1.4065
 1545.0000   232.7062     1.4286
 1545.5000   232.7084     1.4279
 1546.0000   232.7106     1.4388
 1546.5000   232.7129     1.4381
 1547.0000   232.7151     1.4263
 1547.5000   232.7173     1.4372
 1548.0000   232.7196     1.4365
 1548.5000   232.7218     1.4473
 1549.0000   232.7240     1.4467
 1549.5000   232.7263     1.4209
 1550.0000   232.7285     0.7615
 1550.5000   232.7307     0.7420
 1551.0000   232.7329     0.7414
 1551.5000   232.7352     0.7409
 1552.0000   232.7374     0.9671
 1552.5000   232.7396     0.9665
 1553.0000   232.7419     0.9659
 1553.5000   232.7441     1.7590
 1554.0000   232.7463     1.8039
 1554.5000   232.7486     1.8033
 1555.0000   232.7508     1.8027
 1555.5000   232.7530     1.8601
 1556.0000   232.7553     1.9830
 1556.5000   232.7575     2.0052
 1557.0000   232.7597     2.0045
 1557.5000   232.7620     2.0039
 1558.0000   232.7642     2.0034
 1558.5000   232.7664     0.8690
 1559.0000   232.7686     0.8685
 1559.5000   232.7709     0.8679
 1560.0000   232.7731     0.8560
 1560.5000   232.7753     0.8560
 1561.0000   232.7776     0.8560
 1561.5000   232.7798     0.8560
 1562.0000   232.7820     0.8673
 1562.5000   232.7843     0.8673
 1563.0000   232.7865     0.8560
 1563.5000   232.7887     0.8447
 1564.0000   232.7910     0.6859
 1564.5000   232.7932     0.6859
 1565.0000   232.7954     0.6859
 1565.5000   232.7977     0.6859
 1566.0000   232.7999     0.6976
 1566.5000   232.8021     0.9467
 1567.0000   232.8044     0.9580
 1567.5000   232.8066     0.9580
 1568.0000   232.8088     0.9580
 1568.5000   232.8111     0.9580
 1569.0000   232.8133     0.9467
 1569.5000   232.8155     0.8673
 1570.0000   232.8177     0.7313
 1570.5000   232.8200     0.7313
 1571.0000   232.8222     0.7426
 1571.5000   232.8244     0.7426
 1572.0000   232.8267     1.2755
 1572.5000   232.8289     1.2755
 1573.0000   232.8311     1.2755
 1573.5000   232.8334     1.2755
 1574.0000   232.8356     1.4796
 1574.5000   232.8378     1.4796
 1575.0000   232.8401     1.4796
 1575.5000   232.8423     1.4458
 1576.0000   232.8445     1.2302
 1576.5000   232.8468     1.2302
 1577.0000   232.8490     1.2302
 1577.5000   232.8512     1.0941
 1578.0000   232.8535     0.9580
 1578.5000   232.8557     0.9580
 1579.0000   232.8579     0.9580
 1579.5000   232.8602     0.7653
 1580.0000   232.8624     0.7086
 1580.5000   232.8646     0.7311
 1581.0000   232.8669     0.7307
 1581.5000   232.8691     0.7304
 1582.0000   232.8713     0.7188
 1582.5000   232.8735     0.7185
 1583.0000   232.8758     0.7183
 1583.5000   232.8780     0.7066
 1584.0000   232.8802     0.7177
 1584.5000   232.8825     0.7174
 1585.0000   232.8847     0.7284
 1585.5000   232.8869     0.7281
 1586.0000   232.8892     0.7279
 1586.5000   232.8914     0.7162
 1587.0000   232.8936     0.7046
 1587.5000   232.8959     0.7043
 1588.0000   232.8981     0.7041
 1588.5000   232.9003     0.7038
 1589.0000   232.9026     0.7148
 1589.5000   232.9048     0.7146
 1590.0000   232.9070     0.7937
 1590.5000   232.9092     0.7926
 1591.0000   232.9115     0.7802
 1591.5000   232.9137     0.7701
 1592.0000   232.9159     0.7698
 1592.5000   232.9182     0.7695
 1593.0000   232.9204     0.7806
 1593.5000   232.9226     0.7803
 1594.0000   232.9249     0.7687
 1594.5000   232.9271     0.7684
 1595.0000   232.9293     0.7681
 1595.5000   232.9316     0.7678
 1596.0000   232.9338     0.7676
 1596.5000   232.9360     0.7673
 1597.0000   232.9383     0.7783
 1597.5000   232.9405     0.7781
 1598.0000   232.9427     0.8375
 1598.5000   232.9449     0.9022
 1599.0000   232.9472     0.9133
 1599.5000   232.9494     0.7202
 1600.0000   232.9516     0.6746
 1600.5000   232.9539     0.6702
 1601.0000   232.9561     0.6651
 1601.5000   232.9583     0.6599
 1602.0000   232.9606     0.6548
 1602.5000   232.9628     0.6496
 1603.0000   232.9650     0.6445
 1603.5000   232.9673     0.6393
 1604.0000   232.9695     1.0670
 1604.5000   232.9717     1.0663
 1605.0000   232.9740     1.0657
 1605.5000   232.9762     1.0652
 1606.0000   232.9784     0.9059
 1606.5000   232.9807     0.8713
 1607.0000   232.9829     0.8821
 1607.5000   232.9851     0.8247
 1608.0000   232.9874     0.7335
 1608.5000   232.9896     0.7444
 1609.0000   232.9918     0.7437
 1609.5000   232.9940     0.7431
 1610.0000   232.9963     0.7426
 1610.5000   232.9985     0.7420
 1611.0000   233.0007     0.7415
 1611.5000   233.0030     0.7409
 1612.0000   233.0052     0.7404
 1612.5000   233.0074     0.7398
 1613.0000   233.0097     0.7392
 1613.5000   233.0119     0.7272
 1614.0000   233.0141     0.7267
 1614.5000   233.0164     0.9642
 1615.0000   233.0186     0.9636
 1615.5000   233.0208     0.9631
 1616.0000   233.0231     0.9625
 1616.5000   233.0253     0.9620
 1617.0000   233.0275     0.9614
 1617.5000   233.0298     0.9382
 1618.0000   233.0320     0.6655
 1618.5000   233.0342     0.6763
 1619.0000   233.0365     0.6871
 1619.5000   233.0387     0.6864
 1620.0000   233.0409     0.6858
 1620.5000   233.0431     0.6853
 1621.0000   233.0454     0.6872
 1621.5000   233.0476     0.6991
 1622.0000   233.0498     0.6996
 1622.5000   233.0521     0.7002
 1623.0000   233.0543     0.7007
 1623.5000   233.0565     0.7013
 1624.0000   233.0588     0.7018
 1624.5000   233.0610     0.7024
 1625.0000   233.0632     0.7029
 1625.5000   233.0655     0.7036
 1626.0000   233.0677     0.7042
 1626.5000   233.0699     0.7047
 1627.0000   233.0722     0.7053
 1627.5000   233.0744     0.7172
 1628.0000   233.0766     0.7177
 1628.5000   233.0788     0.7296
 1629.0000   233.0811     0.7415
 1629.5000   233.0833     0.7421
 1630.0000   233.0855     0.7427
 1630.5000   233.0878     2.2626
 1631.0000   233.0900     2.2631
 1631.5000   233.0922     2.2522
 1632.0000   233.0945     2.2189
 1632.5000   233.0967     1.2897
 1633.0000   233.0989     1.1769
 1633.5000   233.1012     1.1774
 1634.0000   233.1034     0.8832
 1634.5000   233.1056     0.8839
 1635.0000   233.1079     0.8844
