~VERSION INFORMATION
 VERS.                2.0:   CWLS LOG ASCII STANDARD - VERSION 2.0
 WRAP.                 NO:   ONE LINE PER DEPTH STEP
~WELL INFORMATION
#MNEM.UNIT      DATA TYPE    INFORMATION
#----------   ------------   ------------------------------
 STRT.F            0.0000:   START DEPTH
 STOP.F          469.0000:   STOP DEPTH
 STEP.F            0.5000:   STEP LENGTH
 NULL.          -999.2500:   NO VALUE
 COMP. BROWN JOHN E&C INC:   COMPANY
 WELL. NPR 3 SX-10 4 #54-10:   WELL
 FLD .             TEAPOT:   FIELD
 LOC .      S10 T38N R78W:   LOCATION
 CNTY.            NATRONA:   COUNTY
 STAT.            WYOMING:   STATE
 CTRY. UNITED STATES OF AMERICA:   COUNTRY
 SRVC.     Atlas Wireline:   SERVICE COMPANY
 DATE.        25-APR-1991:   LOGDATE
 API .       490251133500:   API NUMBER
~CURVE INFORMATION
#MNEM.UNIT       API CODE    CURVE DESCRIPTION
#----------   ------------   ------------------------------
 DEPT.F                  :   
 RILD.OHMM   07 120 46 00:   INDUCTION LOG DEEP RESISTIVITY
 RILM.OHMM   07 120 44 00:   INDUCTION LOG MEDIUM RESISTIVITY
 GRD .GAPI   45 310 01 00:   GAMMA RAY FROM DENSITY LOG
 CALD.IN     45 280 60 00:   CALIPER FROM DENSITY LOG
 CORR.G/C3   45 356 01 00:   DENSITY CORRECTION
 PORD.DEC    45 890 12 00:   POROSITY DENSITY SANDSTONE
 DEN .G/C3   45 350 01 00:   COMPENSATED BULK DENSTIY
~PARAMETER INFORMATION
#MNEM.UNIT          VALUE    DESCRIPTION
#----------   ------------   ------------------------------
 PD  .                 GL:   PERMANENT DATUM
 EPD .F              5182:   ELEVATION PERMANENT DATUM
 LMF .                 KB:   LOG MEASURED FROM
 DAPD.F                10:   FEET ABOVE PERMANENT DATUM
 DMF .                 KB:   DRILLING MEASURED FROM
 EKB .F              5172:   KELLING BUSHING
 EGL .F              5182:   GROUND LEVEL
 DATE.        25-APR-1991:   RUN DATE
 RUN .                  1:   RUN NUMBER
 DD  .F               471:   DEPTH DRILLER
 DL  .F               471:   DEPTH LOGGER
 BLI .F               469:   BOTTOM LOG INTERVAL
 CS  .IN            8.625:   CASING SIZE
 CBD .F                44:   CASING BOTTOM DRILLER
 CBL .F                44:   CASING BOTTOM LOGGER
 BS  .IN            7.875:   BIT SIZE
 BSD .F               471:   BIT SIZE AT DEPTH
 DFT .                AIR:   DRILLING FLUID TYPE
 LUN .           HL- 6307:   LOGGING UNIT NUMBER
 LUL .             CASPER:   LOGGING UNIT LOCATION
 ENGI.    KINNETT/ ZIEGER:   RECORDING ENGINEER
 WITN.             STRONG:   WITNESSED BY
 CLNT.            A2DTECH:   CLIENT CODE
 ORIG.        2" 5" PRINT:   ORIGIN OF DATA
 UWI .       490251133500:   UNIQUE WELL ID
 DICO. A2D Technologies, Inc.:   DIGITIZING COMPANY
~OTHER INFORMATION
~A    DEPT    RILD       RILM         GRD      CALD       CORR       PORD        DEN   
# ...
  182.0000     7.9489     8.2678   146.4666     8.5483     0.0049     0.1204     2.4500
  182.5000     8.1154     8.3846   146.9162     8.5631     0.0034     0.1192     2.4523
  183.0000     8.1147     8.4955   148.7212     8.5628     0.0034     0.1171     2.4576
  183.5000     8.1142     8.5522   148.7190     8.5475     0.0049     0.1168     2.4591
  184.0000     8.1701     8.5494   144.4247     8.5472     0.0094     0.1171     2.4591
  184.5000     8.1695     8.5471   141.4691     8.5468     0.0094     0.1171     2.4584
  185.0000     8.1688     8.5448   139.6758     8.5465     0.0064     0.1168     2.4599
  185.5000     8.1119     8.5425   138.7700     8.5462     0.0094     0.1147     2.4704
  186.0000     8.1113     8.5397   140.5750     8.5459     0.0094     0.1120     2.4772
  186.5000     8.1108     8.4785   145.7686     8.5456     0.0079     0.1105     2.4802
  187.0000     8.0542     8.4762   145.9929     8.5604     0.0079     0.1117     2.4795
  187.5000     8.0537     8.4155   145.7642     8.5601     0.0070     0.1120     2.4712
  188.0000     7.9976     8.4133   148.2064     8.5597     0.0124     0.1120     2.4705
  188.5000     7.9969     8.4110   153.0082     8.5594     0.0109     0.1067     2.4796
  189.0000     7.9411     8.4087   153.2125     8.5591     0.0109     0.1023     2.4810
  189.5000     7.9406     8.4060   152.5320     8.5588     0.0094     0.1023     2.4810
  190.0000     7.9954     8.4038   153.2075     8.5435     0.0049     0.1096     2.4712
  190.5000     7.9948     8.4015   155.0126     8.5432    -0.0011     0.1138     2.4645
  191.0000     7.9942     8.3993   155.9140     8.5429    -0.0011     0.1144     2.4652
  191.5000     7.9936     8.4554   155.2341     8.5276    -0.0071     0.1144     2.4652
  192.0000     7.9930     8.4530   152.0693     8.5424    -0.0026     0.1153     2.4622
  192.5000     7.9925     8.4503   150.2598     8.5420     0.0019     0.1160     2.4585
  193.0000     7.8820     8.2744   152.0643     8.5568     0.0095     0.1168     2.4592
  193.5000     7.5604     8.0462   154.9989     8.5564     0.0079     0.1168     2.4592
  194.0000     7.1862     7.4540   158.0076     8.5561     0.0034     0.1168     2.4585
  194.5000     6.3568     6.7168   160.1901     8.5408    -0.0011     0.1171     2.4562
  195.0000     6.1826     6.3064   158.6066     8.5105    -0.0071     0.1189     2.4502
  195.5000     6.0549     6.2204   154.9900     8.5102    -0.0087     0.1298     2.4329
  196.0000     6.0127     6.2188   154.7619     8.5099    -0.0026     0.1447     2.3861
  196.5000     5.8886     6.3917   164.9253     8.5247     0.0232     0.1653     2.3746
  197.0000     5.7256     6.4349   175.7665     8.5243     0.0305     0.1687     2.3772
  197.5000     5.5317     6.4327   177.1198     8.5091     0.0109     0.1470     2.4021
  198.0000     5.4175     6.2965   167.1144     8.5238    -0.0011     0.1289     2.4330
  198.5000     5.3798     5.9162   157.9130     8.5384    -0.0071     0.1205     2.4495
  199.0000     5.3423     5.5959   156.7818     8.5392    -0.0041     0.1205     2.4510
  199.5000     5.3790     5.4415   160.3936     8.5529    -0.0041     0.1301     2.4352
  200.0000     5.3787     5.4779   161.9733     8.5519     0.0019     0.1488     2.3923
  200.5000     5.3774     5.5528   154.9675     8.5436     0.0109     0.1843     2.3434
  201.0000     5.4516     6.0749   151.2987     8.5372     0.0169     0.1952     2.3298
  201.5000     5.4884     6.3739   149.5332     8.5371     0.0154     0.1807     2.3403
  202.0000     5.6413     6.5967   149.3401     8.5369     0.0109     0.1410     2.3848
  202.5000     5.8796     6.8748   149.5714     8.5518     0.0049     0.1295     2.4262
  203.0000     6.3548     7.1645   149.8017     8.5817     0.0004     0.1235     2.4383
  203.5000     6.8450     7.4666   149.8060     8.5515     0.0049     0.1205     2.4473
  204.0000     7.1342     7.6770   149.7013     8.4913     0.0109     0.1180     2.4556
  204.5000     7.3842     7.8327   149.5888     8.4761     0.0079     0.1171     2.4602
  205.0000     7.3828     7.9403   153.2087     8.4910    -0.0011     0.1183     2.4594
  205.5000     7.2294     7.7208   154.1167     8.5058    -0.0026     0.1192     2.4579
  206.0000     6.8705     7.3535   154.1210     8.5358    -0.0071     0.1192     2.4557
  206.5000     6.2909     6.7187   153.8995     8.5506    -0.0011     0.1192     2.4534
  207.0000     5.8280     6.2594   149.8379     8.5504     0.0049     0.1195     2.4519
  207.5000     5.5895     5.7260   147.8091     8.5503     0.0034     0.1289     2.4408
  208.0000     5.4734     5.4915   148.2653     8.5502    -0.0087     0.1481     2.3902
  208.5000     5.3947     5.4525   149.8510     8.5500     0.0034     0.1734     2.3510
  209.0000     5.2846     5.5651   149.6085     8.5498     0.0290     0.1855     2.3450
  209.5000     5.2109     5.7997   146.9229     8.5497     0.0350     0.1698     2.3631
  210.0000     5.2461     6.0079   148.9158     8.5495     0.0049     0.1319     2.4053
  210.5000     5.3924     6.2118   151.4504     8.5477     0.0034     0.1219     2.4486
  211.0000     5.7383     6.7017   149.8738     8.5493     0.0094     0.1204     2.4520
  211.5000     6.2038     7.1308   147.8450     8.5791     0.0049     0.1195     2.4520
  212.0000     6.6805     7.5350   148.0843     8.5639     0.0049     0.1162     2.4565
  212.5000     7.0112     7.7446   149.6612     8.5938     0.0049     0.1075     2.4716
  213.0000     7.3074     8.1266   149.6664     8.6087     0.0049     0.1023     2.4806
  213.5000     7.5635     8.3526   146.9599     8.5635     0.0049     0.1014     2.4836
  214.0000     7.8287     8.5257   142.4462     8.5333     0.0034     0.1017     2.4836
  214.5000     8.0471     8.6423   141.3199     8.4881     0.0034     0.1023     2.4837
  215.0000     8.2712     8.8215   142.4549     8.5030     0.0049     0.1035     2.4822
  215.5000     8.3850     8.8828   145.8479     8.5028     0.0049     0.1044     2.4799
  216.0000     8.5008     8.9397   145.8532     8.5177     0.0049     0.1050     2.4777
  216.5000     8.5578     8.9367   145.6306     8.5326     0.0049     0.1047     2.4787
  217.0000     8.6156     8.9343   150.3800     8.5324     0.0064     0.1038     2.4807
  217.5000     8.7336     8.9946   153.3215     8.5323     0.0079     0.1035     2.4807
  218.0000     8.7319     8.9916   150.8409     8.5321     0.0080     0.1047     2.4784
  218.5000     8.7302     8.9893   144.0681     8.5320     0.0099     0.1059     2.4769
  219.0000     8.7284     8.9243   137.9731     8.5469     0.0109     0.1059     2.4762
  219.5000     8.7267     8.9219   138.8810     8.5467     0.0064     0.1059     2.4754
  220.0000     8.7245     8.8580   140.6926     8.5465     0.0049     0.1059     2.4770
  220.5000     8.7228     8.8556   140.4711     8.5464     0.0064     0.1071     2.4747
  221.0000     8.7211     8.8533   143.4133     8.5462     0.0049     0.1095     2.4709
  221.5000     8.7193     8.8508   145.2248     8.5461    -0.0011     0.1098     2.4695
  222.0000     8.7782     8.8480   146.3587     8.5309    -0.0087     0.1098     2.4687
  222.5000     8.7826     8.8456   149.7523     8.5308    -0.0070     0.1107     2.4680
  223.0000     9.0209     9.0917   148.8531     8.5306    -0.0011     0.1113     2.4657
  223.5000     9.1455     9.4749   143.4357     8.5455     0.0034     0.1119     2.4680
  224.0000     9.2072     9.8061   138.0184     8.5453     0.0004     0.1080     2.4725
  224.5000     9.1414    10.0093   133.7306     8.5302    -0.0011     0.1044     2.4778
  225.0000     8.8897     9.5325   131.7018     8.5300     0.0004     0.1023     2.4798
  225.5000     8.1218     8.5304   130.8026     8.5299     0.0034     0.1007     2.4827
  226.0000     7.1678     7.5287   136.4556     8.5297     0.0034     0.0998     2.4861
  226.5000     6.6866     6.7373   144.1407     8.5296    -0.0011     0.1026     2.4861
  227.0000     6.5477     6.0687   153.4074     8.5294    -0.0026     0.1229     2.4394
