~VERSION INFORMATION
 VERS.                2.0:   CWLS LOG ASCII STANDARD - VERSION 2.0
 WRAP.                 NO:   ONE LINE PER DEPTH STEP
~WELL INFORMATION
#MNEM.UNIT      DATA TYPE    INFORMATION
#----------   ------------   ------------------------------
 STRT.F           24.0000:   START DEPTH
 STOP.F          609.0000:   STOP DEPTH
 STEP.F            0.5000:   STEP LENGTH
 NULL.          -999.2500:   NO VALUE
 COMP. FENIX & SCISSON INC:   COMPANY
 WELL.        S 34 #48-34:   WELL
 FLD .            NPR - 3:   FIELD
 LOC .      S34 T39N R78W:   LOCATION
 CNTY.            NATRONA:   COUNTY
 STAT.            WYOMING:   STATE
 CTRY. UNITED STATES OF AMERICA:   COUNTRY
 SRVC.              Welex:   SERVICE COMPANY
 DATE.        03-MAY-1977:   LOGDATE
 API .       490251035700:   API NUMBER
~CURVE INFORMATION
#MNEM.UNIT       API CODE    CURVE DESCRIPTION
#----------   ------------   ------------------------------
 DEPT.F                  :   
 CALD.IN     45 280 60 00:   CALIPER FROM DENSITY LOG
 CORR.G/C3   45 356 01 00:   DENSITY CORRECTION
 DPHI.DEC    45 890 12 00:   DENSITY POROSITY SANDSTONE
 GRD .GAPI   45 310 01 00:   GAMMA RAY FROM DENSITY LOG
 RHOB.G/C3   45 350 01 00:   BULK DENSITY
 GURD.OHMM   07 220 05 00:   SHALLOW GUARD RESISTIVITY
 ILD .OHMM   07 120 46 00:   INDUCTION LOG DEEP
 ILM .OHMM   07 120 44 00:   INDUCTION LOG MEDIUM
 SPR .MV     07 010 01 00:   SPONTANEOUS POTENTIAL FROM RES.
~PARAMETER INFORMATION
#MNEM.UNIT          VALUE    DESCRIPTION
#----------   ------------   ------------------------------
 PD  .                 GL:   PERMANENT DATUM
 EPD .F              5160:   ELEVATION PERMANENT DATUM
 LMF .                 GL:   LOG MEASURED FROM
 DMF .                 GL:   DRILLING MEASURED FROM
 EGL .F              5160:   GROUND LEVEL
 DATE.        03-MAY-1977:   RUN DATE
 RUN .                  1:   RUN NUMBER
 DD  .F               610:   DEPTH DRILLER
 DL  .F               611:   DEPTH LOGGER
 BLI .F               609:   BOTTOM LOG INTERVAL
 TLI .F                30:   TOP LOG INTERVAL
 CS  .IN            8.625:   CASING SIZE
 CBD .F                40:   CASING BOTTOM DRILLER
 CBL .F                32:   CASING BOTTOM LOGGER
 BS  .IN            7.875:   BIT SIZE
 BSD .F               610:   BIT SIZE AT DEPTH
 DFT .            KCL GEL:   DRILLING FLUID TYPE
 DFD .                8.9:   DRILLING FLUID DENSITY
 DFV .                 33:   DRILLING FLUID VISCOSITY
 DFPH.                8.0:   DRILLING FLUID PH
 DFL .                7.2:   DRILLING FLUID LOSS
 MSS .            MUD PIT:   MUD SAMPLE SOURCE
 RMS .OHMM           0.19:   RESISTIVITY MUD SAMPLE
 MST .F                65:   MUD SAMPLE TEMPERATURE
 RMF .OHMM           0.16:   RESISTIVITY MUD FILTRATE SAMPLE
 MFST.F                65:   MUD FILTRATE SAMPLE TEMPERATURE
 RMC .OHMM           0.24:   RESISTIVITY MUD CAKE
 MCST.F                65:   MUD CAKE SAMPLE TEMPERATURE
 MFSS.               MEAS:   MUD FILTRATE SAMPLE SOURCE
 MCSS.               MEAS:   MUD CAKE SAMPLE SOURCE
 RMB .OHMM           0.17:   RESISTIVITY MUD AT BHT
 BHT .F                72:   BOTTOM HOLE TEMPERATURE
 TCS .HRS               2:   TIME CURCULATED STOPPED
 MRT .F                72:   MAXIMUM RECORDED TEMPERATURE
 LUN .               8766:   LOGGING UNIT NUMBER
 LUL .             CASPER:   LOGGING UNIT LOCATION
 ENGI.          T. JOYNER:   RECORDING ENGINEER
 WITN.           ROB LYON:   WITNESSED BY
 CLNT.            A2DTECH:   CLIENT CODE
 ORIG.           5" PRINT:   ORIGIN OF DATA
 UWI .       490251035700:   UNIQUE WELL ID
 DICO. A2D Technologies, Inc.:   DIGITIZING COMPANY
~OTHER INFORMATION
~A   DEPT       CALD      CORR        DPHI      GRD         RHOB     GURD        ILD        ILM        SPR   
# ...
  133.5000     7.7588     0.0280     0.1090   119.4693     2.5004    15.1673     9.4213    12.9922   -29.8045
  134.0000     7.7599     0.0267     0.1105   123.0201     2.4951    15.9339     9.5611    13.0909   -29.7852
  134.5000     7.7611     0.0268     0.1131   120.6679     2.4899    16.3951     9.7031    13.1909   -29.7659
  135.0000     7.7623     0.0270     0.1158   120.6852     2.4849    16.2955     9.7793    12.8278   -29.7465
  135.5000     7.7634     0.0271     0.1176   124.4118     2.4834    15.9737     9.7880    12.4972   -29.7272
  136.0000     7.7646     0.0272     0.1188   123.6873     2.4820    15.7638     9.7968    13.0757   -29.8571
  136.5000     7.7660     0.0259     0.1190   121.3307     2.4836    15.4558     9.8056    13.9092   -29.9862
  137.0000     7.7672     0.0260     0.1190   118.9741     2.4837    15.1506     9.7468    13.9904   -29.9668
  137.5000     7.7683     0.0201     0.1190   116.4692     2.4837    14.8514     9.6882    13.4303   -30.2451
  138.0000     7.7695     0.0169     0.1193   120.8210     2.4830    14.7581     9.4974    13.0559   -30.3746
  138.5000     7.7706     0.0129     0.1204   121.9935     2.4816    14.7734     9.3756    12.3785   -30.5045
  139.0000     7.7569     0.0085     0.1210   120.0863     2.4794    15.2010     9.2547    12.2994   -30.4848
  139.5000     7.7581     0.0072     0.1216   118.7684     2.4765    15.6409     9.1358    12.7437   -30.4654
  140.0000     7.7593     0.0073     0.1222   118.3363     2.4751    15.7595     9.0809    13.1107   -30.5952
  140.5000     7.7756     0.0074     0.1221   120.5834     2.4752    15.2389     9.0264    13.1197   -30.5756
  141.0000     7.7767     0.0076     0.1215   124.3100     2.4782    15.0387     9.0975    12.7701   -30.5563
  141.5000     7.7779     0.0092     0.1215   120.7665     2.4790    15.2643     9.1057    12.4276   -30.5369
  142.0000     7.7790     0.0125     0.1224   122.1191     2.4769    15.0637     9.1139    12.2652   -30.5176
  142.5000     7.7802     0.0155     0.1238   125.1038     2.4747    14.7693     9.0590    12.3610   -30.4983
  143.0000     7.7813     0.0216     0.1247   124.1939     2.4740    14.5753     9.0673    12.7170   -30.3301
  143.5000     7.7825     0.0278     0.1226   120.8401     2.4801    15.0002     9.0457    13.0832   -30.3108
  144.0000     7.7837     0.0279     0.1202   119.6662     2.4846    15.9781     8.9242    12.1319   -30.2915
  144.5000     7.7997     0.0280     0.1196   122.8035     2.4840    15.1296     8.8429    11.8886   -30.2721
  145.0000     7.8026     0.0237     0.1207   124.8980     2.4795    14.5259     8.8528    12.1487   -30.2528
  145.5000     7.8169     0.0223     0.1225   126.9925     2.4759    14.1408     8.8608    12.5832   -30.2335
  146.0000     7.8183     0.0164     0.1240   129.3837     2.4729    13.7659     8.8687    11.8331   -30.2142
  146.5000     7.8194     0.0165     0.1252   132.9619     2.4708    13.9695     8.9383    11.5157   -30.1948
  147.0000     7.8055     0.0122     0.1257   134.9100     2.4701    14.2746     8.8827    11.4441   -30.0267
  147.5000     7.8069     0.0108     0.1260   135.2220     2.4702    14.7898     8.7704    11.8575   -30.0074
  148.0000     7.8081     0.0110     0.1266   134.2051     2.4710    14.8021     8.4798    11.7025   -29.9880
  148.5000     7.8241     0.0111     0.1275   132.4420     2.4688    14.4097     8.4270    11.6278   -30.1176
  149.0000     7.8253     0.0112     0.1286   131.2724     2.4659    14.4217     8.6732    12.1315   -30.0982
  149.5000     7.8267     0.0114     0.1295   130.0985     2.4644    14.6349     8.8000    12.1399   -30.2277
  150.0000     7.8278     0.0115     0.1301   123.5876     2.4630    14.4456     8.4516    11.5734   -30.3571
  150.5000     7.8290     0.0116     0.1307   123.4566     2.4631    13.3048     8.1152    11.5015   -30.7477
  151.0000     7.8301     0.0118     0.1294   124.2201     2.4662    13.1300     7.9007    11.3511   -31.1382
  151.5000     7.8313     0.0149     0.1264   128.0950     2.4722    13.1436     7.6920    11.1234   -31.4976
  152.0000     7.8325     0.0181     0.1228   130.2374     2.4783    13.2459     7.5913    10.8289   -31.6310
  152.5000     7.8485     0.0242     0.1204   130.8002     2.4829    13.5352     7.4954    10.2523   -31.4652
  153.0000     7.8496     0.0288     0.1182   130.2241     2.4874    13.6406     7.3480    10.7690   -31.4489
  153.5000     7.8508     0.0305     0.1167   130.2458     2.4905    13.3260     7.1045    10.8655   -31.5815
  154.0000     7.8671     0.0301     0.1155   129.2245     2.4928    12.9329     6.9648    10.3449   -31.7141
  154.5000     7.8682     0.0291     0.1143   127.3131     2.4920    12.5907     6.8263     9.8622   -31.6979
  155.0000     7.8692     0.0248     0.1143   125.9951     2.4892    12.1728     6.6474     9.2087   -31.6815
  155.5000     7.8704     0.0250     0.1154   124.5287     2.4893    11.8509     6.5604     8.9633   -31.6652
  156.0000     7.8717     0.0191     0.1157   123.5075     2.4901    11.5374     6.4761     9.0471   -31.6488
  156.5000     7.8729     0.0178     0.1157   122.0129     2.4872    11.2321     6.3502     9.1609   -31.4836
  157.0000     7.8740     0.0134     0.1184   117.9079     2.4805    11.1645     6.3106     9.2804   -31.3185
  157.5000     7.8752     0.0135     0.1216   114.9534     2.4776    11.2546     6.3177     9.2212   -31.1501
  158.0000     7.8764     0.0137     0.1207   114.5255     2.4799    11.7425     6.4560     9.0994   -30.8363
  158.5000     7.8778     0.0138     0.1198   114.3943     2.4822    12.2515     6.6893     9.2315   -30.5224
  159.0000     7.8638     0.0139     0.1204   114.1191     2.4823    12.6068     6.8358     9.9718   -30.3574
  159.5000     7.8501     0.0066     0.1239   113.8230     2.4764    12.9724     6.9854    10.3963   -30.1964
  160.0000     7.8367     0.0007     0.1272   113.1192     2.4674    13.3486     7.0891    10.3208   -30.4778
  160.5000     7.8378    -0.0037     0.1299   114.3233     2.4644    13.5468     6.8542    10.1246   -30.4575
  161.0000     7.8239    -0.0035     0.1313   119.8258     2.4623    13.7479     7.1512     9.9205   -30.2925
  161.5000     7.8253     0.0026     0.1295   114.5060     2.4669    13.7601     7.4611     9.8588   -30.2763
  162.0000     7.8265     0.0028     0.1244   116.6004     2.4782    13.4891     7.5718     9.8642   -30.2601
  162.5000     7.8276     0.0059     0.1193   121.6621     2.4873    13.3154     7.5786     9.8001   -30.0950
  163.0000     7.8291     0.0090     0.1157   121.8276     2.4949    12.6966     7.5314     9.8750   -29.9300
  163.5000     7.8151     0.0091     0.1129   117.3981     2.4994    12.3605     7.4346     9.9490   -29.9138
  164.0000     7.8271     0.0093     0.1123   121.1245     2.4980    12.1162     7.3756     9.9544   -29.7528
  164.5000     7.8281     0.0094     0.1127   120.2514     2.4950    12.0443     7.2946     9.8898   -29.8854
  165.0000     7.8142     0.0096     0.1144   116.1143     2.4906    12.1391     7.1527     9.8966   -29.8651
  165.5000     7.8155     0.0097     0.1158   114.6435     2.4877    12.4936     7.0604     9.9708   -29.8489
  166.0000     7.8014     0.0068     0.1167   115.8520     2.4863    12.7672     7.1654     9.9762   -29.9821
  166.5000     7.8026     0.0040     0.1176   117.6874     2.4856    12.8673     7.2215    10.1209   -30.2634
  167.0000     7.7888     0.0041     0.1185   119.4515     2.4864    12.9682     7.3307    10.1264   -30.2467
  167.5000     7.7898     0.0042     0.1199   120.2062     2.4862    13.0699     7.3862    10.2023   -30.3795
  168.0000     7.7759     0.0029     0.1211   116.5185     2.4761    13.1724     7.4525    10.2080   -30.5119
  168.5000     7.7770     0.0030     0.1223   113.5640     2.4746    13.3680     7.6072    10.2846   -30.4955
  169.0000     7.7780     0.0031     0.1232   115.5143     2.4762    13.4728     7.4588    10.2903   -30.4792
  169.5000     7.7792     0.0033     0.1243   120.5760     2.4755    13.3887     7.5173    10.2971   -30.4628
