~VERSION INFORMATION
 VERS.                2.0:   CWLS LOG ASCII STANDARD - VERSION 2.0
 WRAP.                 NO:   ONE LINE PER DEPTH STEP
~WELL INFORMATION
#MNEM.UNIT      DATA TYPE    INFORMATION
#----------   ------------   ------------------------------
 STRT.F           36.0000:   START DEPTH
 STOP.F          442.0000:   STOP DEPTH
 STEP.F            0.5000:   STEP LENGTH
 NULL.          -999.2500:   NO VALUE
 COMP.    FENIX & SCISSON:   COMPANY
 WELL.      NPR #66-SX-10:   WELL
 FLD .             TEAPOT:   FIELD
 LOC .      S10 T38N R78W:   LOCATION
 CNTY.            NATRONA:   COUNTY
 STAT.            WYOMING:   STATE
 CTRY. UNITED STATES OF AMERICA:   COUNTRY
 SRVC.              Welex:   SERVICE COMPANY
 DATE.        19-APR-1977:   LOGDATE
 API .       490251036100:   API NUMBER
~CURVE INFORMATION
#MNEM.UNIT       API CODE    CURVE DESCRIPTION
#----------   ------------   ------------------------------
 DEPT.F                  :   
 CALD.IN     45 280 60 00:   CALIPER FROM DENSITY LOG
 DPHI.DEC    45 890 12 00:   DENSITY POROSITY SANDSTONE
 DRHO.G/C3   45 356 01 00:   DENSITY CORRECTION
 GRD .GAPI   45 310 01 00:   GAMMA RAY FROM DENSITY LOG
 RHOB.G/C3   45 350 01 00:   BULK DENSITY
 ILD .OHMM   07 120 46 00:   INDUCTION LOG DEEP
 ILM .OHMM   07 120 44 00:   INDUCTION LOG MEDIUM
 SGRD.OHMM   07 221 05 00:   SHALLOW SHORT GUARD RESISTIVITY
 SPR .MV     07 010 01 00:   SPONTANEOUS POTENTIAL
~PARAMETER INFORMATION
#MNEM.UNIT          VALUE    DESCRIPTION
#----------   ------------   ------------------------------
 PD  .                 GL:   PERMANENT DATUM
 EPD .F              5200:   ELEVATION PERMANENT DATUM
 LMF .                 GL:   LOG MEASURED FROM
 DMF .                 GL:   DRILLING MEASURED FROM
 EGL .F              5200:   GROUND LEVEL
 DATE.        19-APR-1977:   RUN DATE
 RUN .                  1:   RUN NUMBER
 DD  .F               476:   DEPTH DRILLER
 DL  .F               447:   DEPTH LOGGER
 BLI .F               445:   BOTTOM LOG INTERVAL
 TLI .F                35:   TOP LOG INTERVAL
 CS  .IN            8.625:   CASING SIZE
 CBD .F                42:   CASING BOTTOM DRILLER
 CBL .F                42:   CASING BOTTOM LOGGER
 BS  .IN            7.875:   BIT SIZE
 BSD .F               476:   BIT SIZE AT DEPTH
 DFT .            KCL MUD:   DRILLING FLUID TYPE
 DFD .                8.8:   DRILLING FLUID DENSITY
 DFV .                 37:   DRILLING FLUID VISCOSITY
 MSS .           FLOWLINE:   MUD SAMPLE SOURCE
 RMS .OHMM           1.06:   RESISTIVITY MUD SAMPLE
 MST .F                48:   MUD SAMPLE TEMPERATURE
 RMF .OHMM           1.03:   RESISTIVITY MUD FILTRATE SAMPLE
 MFST.F                48:   MUD FILTRATE SAMPLE TEMPERATURE
 RMC .OHMM           1.18:   RESISTIVITY MUD CAKE
 MCST.F                48:   MUD CAKE SAMPLE TEMPERATURE
 MFSS.               MEAS:   MUD FILTRATE SAMPLE SOURCE
 MCSS.               MEAS:   MUD CAKE SAMPLE SOURCE
 RMB .OHMM           0.86:   RESISTIVITY MUD AT BHT
 BHT .F                59:   BOTTOM HOLE TEMPERATURE
 TCS .HRS               5:   TIME CURCULATED STOPPED
 MRT .F                59:   MAXIMUM RECORDED TEMPERATURE
 LUN .               8611:   LOGGING UNIT NUMBER
 LUL .             CASPER:   LOGGING UNIT LOCATION
 ENGI.               DOAK:   RECORDING ENGINEER
 WITN.        MR. R. LYON:   WITNESSED BY
 CLNT.            A2DTECH:   CLIENT CODE
 ORIG.      2.5" 5" PRINT:   ORIGIN OF DATA
 UWI .       490251036100:   UNIQUE WELL ID
 DICO. A2D Technologies, Inc.:   DIGITIZING COMPANY
~OTHER INFORMATION
~A   DEPT     CALD       DPHI       DRHO         GRD      RHOB        ILD        ILM       SGRD        SPR   
# ...
   72.5000     7.8581     0.1171    -0.0034   106.6949     2.4524     7.6329     8.4443    10.9643   -36.8684
   73.0000     7.8594     0.1153    -0.0018   111.0811     2.4569     7.6266     8.6700    11.3515   -36.8842
   73.5000     7.8456     0.1075     0.0029   114.3535     2.4659     7.6204     8.7821    11.4220   -36.9000
   74.0000     7.8472     0.0947     0.0078   114.8134     2.4816     7.5111     8.9138    11.4118   -36.9159
   74.5000     7.8485     0.0911     0.0226   114.0891     2.4899     7.4593     9.1344    11.3999   -36.9317
   75.0000     7.8498     0.0916     0.0241   112.3286     2.4899     7.3473     9.2525    11.5481   -37.2425
   75.5000     7.8511     0.0944     0.0182   109.5320     2.4839     7.2913     9.2440    11.5365   -37.2584
   76.0000     7.8527     0.0979     0.0152   111.7682     2.4818     7.1856     9.3646    11.6860   -36.9792
   76.5000     7.8540     0.1017     0.0108   114.4485     2.4782     6.9869     9.2289    11.6747   -36.9956
   77.0000     7.8553     0.1065     0.0063   114.3079     2.4745     6.8868     9.0963    11.6646   -37.0118
   77.5000     7.8565     0.1095     0.0049   113.7440     2.4671     6.7882     8.9060    11.4965   -36.7318
   78.0000     7.8578     0.1130     0.0110   111.2394     2.4634     6.7828     8.6534    11.1773   -36.7493
   78.5000     7.8591     0.1154     0.0141   113.9237     2.4597     6.7774     8.5920    11.0163   -36.7655
   79.0000     7.8456     0.1166     0.0173   112.0152     2.4560     6.7720     8.5838    10.8515   -36.7817
   79.5000     7.8469     0.1166     0.0188   109.2185     2.4538     6.7666     8.5769    10.5558   -36.7979
   80.0000     7.8483     0.1115     0.0068   106.5699     2.4636     6.8540     8.6878    10.5464   -37.1091
   80.5000     7.8351     0.1001     0.0023   103.6252     2.4757     6.9424     8.8001    10.5370   -37.5526
   81.0000     7.8364     0.0995    -0.0006   102.2970     2.4779     7.0321     8.9139    10.5605   -38.1731
   81.5000     7.8226     0.1036    -0.0051    99.9360     2.4690     7.1228     9.0296    10.8499   -38.4985
   82.0000     7.8242     0.1066    -0.0065   106.7852     2.4668     7.2148     9.1461    10.9963   -38.9472
   82.5000     7.8255     0.1051    -0.0049   107.2411     2.4698     7.3079     9.2641    11.3551   -39.2580
   83.0000     7.8268     0.1024    -0.0003   104.7445     2.4743     7.4319     9.2566    11.7668   -39.2738
   83.5000     7.8428     0.0982    -0.0017   103.1320     2.4796     7.4979     9.2490    11.9255   -39.2897
   84.0000     7.8743     0.0952    -0.0047    99.8913     2.4856     7.5318     9.2415    12.0863   -39.3055
   84.5000     7.9216     0.0937    -0.0061    97.0946     2.4865     7.6341     9.2339    12.1569   -39.3214
   85.0000     7.9653     0.0961    -0.0060    98.4427     2.4820     7.7377     9.2264    12.1440   -39.3372
   85.5000     7.9813     0.0990    -0.0059   107.4024     2.4775     7.8428     9.2989    12.3021   -39.0575
   86.0000     7.9972     0.1017    -0.0074   110.9566     2.4739     7.8844     9.3780    12.4600   -39.0739
   86.5000     8.0135     0.1029    -0.0073   111.6685     2.4732     7.9860     9.4597    12.6200   -39.0900
   87.0000     7.9997     0.1020    -0.0042   110.9442     2.4755     7.9786     9.4506    12.6077   -39.1062
   87.5000     7.9865     0.0995     0.0004   108.5877     2.4793     8.0824     9.4429    12.4260   -39.1224
   88.0000     7.9730     0.0888     0.0065   109.6436     2.5002     8.0751     9.4351    12.0810   -39.4336
   88.5000     7.9439     0.0879     0.0126   111.4358     2.5010     8.0692     9.4274    11.9070   -39.4499
   89.0000     7.8869     0.0911     0.0157   112.6358     2.4884     8.0623     9.4182    11.8967   -39.4661
   89.5000     7.8735     0.0995     0.0097   113.5398     2.4735     8.0558     9.4107    12.2184   -39.4823
   90.0000     7.8751     0.1007     0.0038   114.2961     2.4736     8.0494     9.4032    12.5423   -39.4985
   90.5000     7.8764     0.0983     0.0099   113.2794     2.4865     8.0428     9.3957    12.1747   -39.8097
   91.0000     7.8777     0.0958     0.0145   113.1432     2.4894     8.0363     9.5179    11.8290   -39.8260
   91.5000     7.8790     0.0940     0.0146   114.9394     2.4879     8.0297     9.5095    11.5263   -39.8422
   92.0000     7.8802     0.0925     0.0161   114.0670     2.4902     8.0231     9.5023    12.0380   -40.1534
   92.5000     7.8815     0.0913     0.0162   112.4546     2.4925     8.0166     9.4943    12.5379   -40.1727
   93.0000     7.8976     0.0892     0.0163   111.2862     2.4963     8.0100     9.6171    12.6486   -40.1886
   93.5000     7.8992     0.0847     0.0164   110.2659     2.5068     8.0035     9.6094    12.1014   -40.2044
   94.0000     7.9153     0.0832     0.0134   110.1336     2.5106     8.1079     9.8674    11.4059   -40.2202
   94.5000     7.9166     0.0930     0.0090   111.0508     2.4972     8.2111     9.9949    11.3844   -39.9411
   95.0000     7.9179     0.1041    -0.0047   112.8338     2.4689     8.2607     9.8264    12.2895   -39.9569
   95.5000     7.9192     0.1139    -0.0137   114.0298     2.4545     8.3729     9.5478    13.2971   -39.6778
   96.0000     7.9205     0.1169    -0.0164   111.5332     2.4414     8.6484     9.3124    13.6506   -39.6936
   96.5000     7.9218     0.1171    -0.0148   111.2490     2.4429     9.0021     9.3047    13.8262   -39.4145
   97.0000     7.9231     0.1165    -0.0102   111.1168     2.4489     9.2434     9.3452    14.0040   -39.1354
   97.5000     7.9539     0.1126    -0.0072   110.8406     2.4550     9.6213     9.6587    13.9918   -38.8562
   98.0000     7.9555     0.1060    -0.0041   109.8202     2.4632     9.6137    10.0019    14.1718   -38.8732
   98.5000     7.9568     0.0995    -0.0025   106.8755     2.4737     9.4760    10.4181    14.1595   -38.8338
   99.0000     7.9581     0.0923    -0.0039   103.8681     2.4835     9.3403    10.7890    14.3416   -38.6087
   99.5000     7.9594     0.0875    -0.0008   100.5460     2.4992     9.3329    11.2064    14.5260   -38.6268
  100.0000     7.9607     0.0863     0.0023    97.6013     2.5030     9.3254    11.5073    18.0545   -38.6431
  100.5000     7.9620     0.0866     0.0069    96.2849     2.5000     9.4521    11.6574    19.3125   -38.6593
  101.0000     7.9633     0.0877     0.0085    95.1165     2.4986     9.5805    11.9689    17.9116   -38.6755
  101.5000     7.9646     0.0889     0.0085    94.0962     2.4987     9.8439    12.1246    15.4385   -38.6917
  102.0000     7.9509     0.0895     0.0101    96.1844     2.4957    10.1144    12.2811    15.5229   -38.7080
  102.5000     7.9670     0.0901     0.0087    96.3627     2.4950    10.3924    12.4392    16.1675   -38.7242
  103.0000     7.9535     0.0942     0.0057    95.9200     2.4936    10.6356    12.4292    16.5490   -38.7434
  103.5000     7.9403     0.1011    -0.0002    97.6771     2.4847    10.6256    12.2510    16.4592   -38.7592
  104.0000     7.9269     0.1064    -0.0047   105.8489     2.4744    10.6170    12.0751    16.2938   -38.7751
  104.5000     7.9134     0.1127    -0.0106   106.4508     2.4588    10.5437    11.8853    16.1867   -39.0859
  105.0000     7.8990     0.1180    -0.0136   102.6184     2.4477    10.2449    11.5483    16.0445   -39.1017
  105.5000     7.8717     0.1192    -0.0074    99.3749     2.4366    10.0292    11.2208    16.0303   -39.1176
  106.0000     7.8583     0.1177    -0.0029   100.8682     2.4381     9.7501    10.9026    15.7990   -39.1334
  106.5000     7.8448     0.1162    -0.0043   103.1016     2.4451     9.7423    10.5935    15.7823   -39.4443
  107.0000     7.8464     0.1150    -0.0057   106.2232     2.4537    10.0034    10.4833    15.5549   -39.7552
  107.5000     7.8326     0.1091    -0.0026   106.0883     2.4667    10.1326    10.5310    15.3308   -39.7886
  108.0000     7.8342     0.1037     0.0050   101.9566     2.4712    10.2634    10.6740    14.9052   -40.0826
  108.5000     7.8356     0.0995     0.0126    97.6525     2.4803    10.3965    10.7469    14.6905   -40.0988
