~VERSION INFORMATION
 VERS.                2.0:   CWLS LOG ASCII STANDARD - VERSION 2.0
 WRAP.                 NO:   ONE LINE PER DEPTH STEP
~WELL INFORMATION
#MNEM.UNIT      DATA TYPE    INFORMATION
#----------   ------------   ------------------------------
 STRT.F           17.0000:   START DEPTH
 STOP.F          565.5000:   STOP DEPTH
 STEP.F            0.5000:   STEP LENGTH
 NULL.          -999.2500:   NO VALUE
 COMP. LAWRENCE/ALLISON INC:   COMPANY
 WELL. NPR 3 #83-56 SX 10:   WELL
 FLD .             TEAPOT:   FIELD
 LOC .      S10 T38N R78W:   LOCATION
 CNTY.            NATRONA:   COUNTY
 STAT.            WYOMING:   STATE
 CTRY. UNITED STATES OF AMERICA:   COUNTRY
 SRVC.           Gearhart:   SERVICE COMPANY
 DATE.        11-JUN-1986:   LOGDATE
 API .       490251108300:   API NUMBER
~CURVE INFORMATION
#MNEM.UNIT       API CODE    CURVE DESCRIPTION
#----------   ------------   ------------------------------
 DEPT.F                  :   
 GRR .GAPI   07 310 01 00:   GAMMA RAY FROM RES. LOG.
 RILD.OHMM   07 120 46 00:   INDUCTION LOG DEEP RESISTIVITY
 RILM.OHMM   07 120 44 00:   INDUCTION LOG MEDIUM RESISTIVITY
~PARAMETER INFORMATION
#MNEM.UNIT          VALUE    DESCRIPTION
#----------   ------------   ------------------------------
 PD  .                 GL:   PERMANENT DATUM
 EPD .F              5174:   ELEVATION PERMANENT DATUM
 LMF .                 KB:   LOG MEASURED FROM
 DMF .                 KB:   DRILLING MEASURED FROM
 EKB .F              5174:   KELLING BUSHING
 EGL .F              5174:   GROUND LEVEL
 DATE.            6-11-86:   RUN DATE
 RUN .                  1:   RUN NUMBER
 DD  .F               580:   DEPTH DRILLER
 DL  .F               576:   DEPTH LOGGER
 BLI .F               565:   BOTTOM LOG INTERVAL
 TLI .F                15:   TOP LOG INTERVAL
 CS  .IN            8.625:   CASING SIZE
 CBD .F                42:   CASING BOTTOM DRILLER
 CBL .F                42:   CASING BOTTOM LOGGER
 BS  .IN            7.875:   BIT SIZE
 BSD .F               580:   BIT SIZE AT DEPTH
 DFT .                AIR:   DRILLING FLUID TYPE
 TCS .HRS            0300:   TIME CURCULATED STOPPED
 TLAB.HRS            0445:   TIME LOGGER AT BOTTOM
 MRT .F                95:   MAXIMUM RECORDED TEMPERATURE
 LUN .               7609:   LOGGING UNIT NUMBER
 LUL .           GILLETTE:   LOGGING UNIT LOCATION
 ENGI.              BAUER:   RECORDING ENGINEER
 WITN.           JENNINGS:   WITNESSED BY
 CLNT.            A2DTECH:   CLIENT CODE
 ORIG.       2", 5" PRINT:   ORIGIN OF DATA
 UWI .       490251108300:   UNIQUE WELL ID
 DICO. A2D Technologies, Inc.:   DIGITIZING COMPANY
~OTHER INFORMATION
~A   DEPT       GRR      RILD       RILM   
# ...
  290.0000   153.3849     8.2041    19.3828
  290.5000   150.7002     8.1858    27.1733
  291.0000   148.0324     8.1700    39.3450
  291.5000   146.4859     8.1494    57.3143
  292.0000   145.8839     8.1287   150.4635
  292.5000   148.1530     8.1073   625.1724
  293.0000   149.9298     8.0615   648.7784
  293.5000   153.6526     7.9878   612.7844
  294.0000   156.7661     7.9150   262.1411
  294.5000   154.9621     7.8430    36.0852
  295.0000   151.1985     7.7310    22.9234
  295.5000   151.9071     7.5840    13.9634
  296.0000   156.5417     7.4397     9.8881
  296.5000   161.2950     7.2983     7.7871
  297.0000   160.8867     7.0863     7.2469
  297.5000   158.0309     6.8442     7.2490
  298.0000   152.3338     6.6104     7.2516
  298.5000   146.5504     6.3845     6.6431
  299.0000   140.8042     6.1667     6.2258
  299.5000   139.4870     5.9679     6.0093
  300.0000   143.3418     5.8336     5.8615
  300.5000   147.7104     5.7386     5.7146
  301.0000   150.4671     5.6975     5.5719
  301.5000   149.9310     5.6470     5.4911
  302.0000   148.7159     5.7967     5.5942
  302.5000   147.4955     6.0382     5.8193
  303.0000   146.1934     6.2878     6.0552
  303.5000   142.8165     6.5351     6.3000
  304.0000   139.4037     6.7502     6.5546
  304.5000   136.3173     6.9723     6.8194
  305.0000   137.4378     7.2017     7.0950
  305.5000   139.0506     7.3196     7.3183
  306.0000   139.1896     7.0898     7.4552
  306.5000   136.1588     6.8613     7.1455
  307.0000   135.3794     6.6586     6.8683
  307.5000   138.3020     6.3983     6.6019
  308.0000   144.6014     6.1483     6.3458
  308.5000   152.2894     5.9721     6.0803
  309.0000   156.8092     5.8676     5.9549
  309.5000   156.7356     5.8051     5.8215
  310.0000   150.3000     5.8027     5.6985
  310.5000   143.3281     5.8020     5.6985
  311.0000   140.4431     6.1452     5.8550
  311.5000   138.6048     6.4732     6.2018
  312.0000   138.9541     6.8201     6.5692
  312.5000   139.2348     7.1842     6.9583
  313.0000   138.8567     7.5736     7.3723
  313.5000   136.3788     7.8176     7.8060
  314.0000   134.0028     8.0994     7.9921
  314.5000   131.7971     8.3878     8.2204
  315.0000   131.4006     8.6691     8.4578
  315.5000   132.1201     8.8391     8.7020
  316.0000   133.2592     8.9731     8.9532
  316.5000   134.9172     8.9731     9.1422
  317.0000   136.5812     8.9731     9.1827
  317.5000   138.1991     8.9731     9.2218
  318.0000   137.6919     8.9731     9.2606
  318.5000   133.5999     8.9731     9.3119
  319.0000   129.6153     8.9731     9.2852
  319.5000   131.6891     8.9735     9.2466
  320.0000   135.0518     8.9542     9.2082
  320.5000   137.5637     8.9300     9.1699
  321.0000   138.1939     8.9060     9.1319
  321.5000   140.5304     8.8903     9.0940
  322.0000   142.1720     8.8903     9.0566
  322.5000   139.1093     9.1674     9.2416
  323.0000   133.6488     9.3119     9.4282
  323.5000   128.2085     9.0658     9.6186
  324.0000   124.8566     8.6820     9.6635
  324.5000   124.7641     8.1991     9.2260
  325.0000   129.8620     7.7431     8.5995
  325.5000   136.3343     7.3124     8.0093
  326.0000   142.8211     6.9057     7.4597
  326.5000   149.0781     6.6008     6.9477
  327.0000   150.2845     6.5653     6.4709
  327.5000   145.8289     6.5482     6.1941
  328.0000   134.0939     6.8549     6.4524
  328.5000   127.1668     7.1839     6.9399
  329.0000   124.8722     7.7147     7.4642
  329.5000   128.0083     8.2651     8.0281
  330.0000   131.7852     8.8550     8.6346
  330.5000   133.0239     9.4874     9.2869
  331.0000   130.6581    10.1603     9.9885
  331.5000   128.9168    10.8326    10.5770
  332.0000   129.0557    11.0372    10.8167
  332.5000   132.3045    11.2078    11.0618
  333.0000   134.7479    11.2832    11.1331
  333.5000   134.5704    11.7509    11.1783
  334.0000   131.2573    12.5368    11.2078
  334.5000   126.6697    13.3653    11.8783
  335.0000   119.7120    14.5332    12.9142
  335.5000   108.0062    15.7882    14.0405
  336.0000    91.8600    17.1516    15.3290
  336.5000    77.3799    18.8380    17.1400
  337.0000    68.3049    20.7590    19.1651
  337.5000    64.8230    22.8760    21.4294
  338.0000    69.5516    25.2268    23.5907
  338.5000    75.5898    26.4405    25.1684
  339.0000    80.0901    27.3198    26.8517
  339.5000    82.9755    28.2154    27.9174
  340.0000    84.6570    29.1437    28.4026
  340.5000    82.4627    29.5794    28.8841
  341.0000    80.2353    29.9425    29.3768
  341.5000    78.0113    30.3037    29.8786
  342.0000    75.8044    30.6798    30.3889
  342.5000    74.4272    31.0511    30.9080
  343.0000    73.2154    31.3474    31.4360
  343.5000    71.9979    31.0309    31.9337
  344.0000    70.7607    30.6565    31.6946
  344.5000    70.6552    30.2867    31.3404
  345.0000    75.8257    29.9212    30.9942
  345.5000    81.4438    29.6187    30.6521
  346.0000    84.5365    29.4883    30.3138
  346.5000    87.1352    29.3787    29.9792
  347.0000    85.4442    29.2537    29.6521
  347.5000    81.7370    29.1054    29.6521
  348.0000    78.0633    29.1049    29.6521
  348.5000    76.2758    29.4144    29.7078
  349.0000    78.4792    29.6535    30.0841
  349.5000    82.4395    29.8915    30.4652
  350.0000    86.5118    30.2405    30.8511
  350.5000    85.8764    30.6054    31.2419
  351.0000    83.0122    30.9761    31.6377
  351.5000    81.2801    31.3513    32.0386
  352.0000    80.1930    31.7310    32.4444
  352.5000    80.5916    32.1153    32.8554
  353.0000    82.5045    32.3520    33.1395
  353.5000    85.2700    32.5260    32.8412
  354.0000    88.0445    32.7011    32.6164
  354.5000    90.8100    32.8364    32.3931
  355.0000    89.7484    32.5326    32.1713
  355.5000    85.5295    32.2429    31.9510
  356.0000    81.5039    31.9571    31.7323
  356.5000    78.8923    31.6734    31.4059
  357.0000    79.0401    31.3926    30.7995
  357.5000    79.8772    30.6336    30.2049
  358.0000    80.7181    29.8032    29.6217
  358.5000    82.0905    28.9954    29.0498
  359.0000    83.3748    28.2095    28.4889
  359.5000    82.4917    27.4448    27.9367
  360.0000    82.0223    26.7009    27.3641
  360.5000    82.7713    25.9771    26.6768
  361.0000    82.1579    25.2730    26.0128
  361.5000    80.4921    24.7087    25.3643
  362.0000    82.9791    24.1975    24.7319
  362.5000    89.8333    23.6968    24.1153
  363.0000    95.8076    23.2018    23.5141
  363.5000    95.9222    22.8705    22.9278
  364.0000    93.5003    22.9893    22.6650
  364.5000    90.9480    23.0941    22.7906
  365.0000    88.8661    23.1977    22.8841
  365.5000    87.9267    23.3017    22.9780
  366.0000    87.8352    23.4062    23.0722
  366.5000    89.7669    23.5111    23.1668
  367.0000    91.6118    23.6165    23.2618
  367.5000    94.9648    23.7393    23.3572
  368.0000    98.4748    23.6601    23.4530
  368.5000   101.9115    23.5660    23.5208
  369.0000   100.8780    23.4715    23.3000
  369.5000    98.9556    23.3776    23.1308
  370.0000    97.5662    23.2841    22.9629
  370.5000    98.4596    23.1910    22.7962
  371.0000    99.4002    23.0982    22.6307
  371.5000    98.9398    22.9056    22.4664
  372.0000    96.2585    22.7036    22.3033
  372.5000    94.1356    22.5034    22.1413
  373.0000    94.5634    22.3049    21.9806
  373.5000    96.4826    22.1082    21.8210
  374.0000    97.9442    21.9132    21.6626
  374.5000    95.3416    21.7199    21.5053
  375.0000    92.5773    21.5722    21.3478
  375.5000    92.0234    21.4572    21.1122
  376.0000    96.3357    21.2085    20.8792
  376.5000    99.3660    20.9383    20.6488
  377.0000    98.7732    20.6593    20.4209
  377.5000    96.8784    20.6593    20.2799
  378.0000    97.1921    20.6593    20.3500
  378.5000    97.6688    20.6593    20.4094
  379.0000    94.5352    20.6593    20.4689
  379.5000    90.6797    20.6592    20.5287
  380.0000    87.8885    20.6474    20.5886
  380.5000    89.6372    20.6264    20.6593
