~VERSION INFORMATION
 VERS.                2.0:   CWLS LOG ASCII STANDARD - VERSION 2.0
 WRAP.                 NO:   ONE LINE PER DEPTH STEP
~WELL INFORMATION
#MNEM.UNIT      DATA TYPE    INFORMATION
#----------   ------------   ------------------------------
 STRT.F           20.5000:   START DEPTH
 STOP.F          725.0000:   STOP DEPTH
 STEP.F            0.5000:   STEP LENGTH
 NULL.          -999.2500:   NO VALUE
 COMP. FENIX & SCISSON INC:   COMPANY
 WELL.       NPR 3 #67-27:   WELL
 FLD .             TEAPOT:   FIELD
 LOC .      S27 T39N R78W:   LOCATION
 CNTY.            NATRONA:   COUNTY
 STAT.            WYOMING:   STATE
 CTRY. UNITED STATES OF AMERICA:   COUNTRY
 SRVC.           BIRDWELL:   SERVICE COMPANY
 DATE.        15-SEP-1978:   LOGDATE
 API .       490251069400:   API NUMBER
~CURVE INFORMATION
#MNEM.UNIT       API CODE    CURVE DESCRIPTION
#----------   ------------   ------------------------------
 DEPT.F                  :   
 CALD.IN     45 280 60 00:   CALIPER
 GRD .GAPI   45 310 01 00:   GAMMA RAY FROM DENSITY LOG
 RHOB.G/C3   45 350 01 00:   BULK DENSITY
 DPHI.DEC    45 890 12 00:   DENSITY POROSITY SANDSTONE
 CORR.G/C3   45 356 01 00:   DENSITY CORRECTION
 SPR .MV     05 010 01 00:   SPONTANEOUS POTENTIAL FROM RES.
 ILD .OHMM   05 120 46 00:   INDUCTION LOG DEEP
 SN  .OHMM   05 040 16 00:   SHORT NORMAL 16"
~PARAMETER INFORMATION
#MNEM.UNIT          VALUE    DESCRIPTION
#----------   ------------   ------------------------------
 PD  .                 GL:   PERMANENT DATUM
 EPD .F              5027:   ELEVATION PERMANENT DATUM
 LMF .                 KB:   LOG MEASURED FROM
 DAPD.F                 4:   FEET ABOVE PERMANENT DATUM
 DMF .                 KB:   DRILLING MEASURED FROM
 EKB .F              5031:   KELLING BUSHING
 EGL .F              5027:   GROUND LEVEL
 DATE.            9-15-78:   RUN DATE
 RUN .                  1:   RUN NUMBER
 DD  .F               728:   DEPTH DRILLER
 DL  .F               719:   DEPTH LOGGER
 BLI .F               713:   BOTTOM LOG INTERVAL
 TLI .F                30:   TOP LOG INTERVAL
 CS  .IN            8.625:   CASING SIZE
 CBD .F                34:   CASING BOTTOM DRILLER
 CBL .F                34:   CASING BOTTOM LOGGER
 BS  .IN            7.875:   BIT SIZE
 BSD .F               728:   BIT SIZE AT DEPTH
 DFT .            KCL MUD:   DRILLING FLUID TYPE
 DFD .                  9:   DRILLING FLUID DENSITY
 DFV .                 46:   DRILLING FLUID VISCOSITY
 DFPH.                  9:   DRILLING FLUID PH
 DFL .                7.6:   DRILLING FLUID LOSS
 MSS .          FLOW LINE:   MUD SAMPLE SOURCE
 RMS .OHMM            .34:   RESISTIVITY MUD SAMPLE
 MST .F                68:   MUD SAMPLE TEMPERATURE
 RMF .OHMM             .3:   RESISTIVITY MUD FILTRATE SAMPLE
 MFST.F                68:   MUD FILTRATE SAMPLE TEMPERATURE
 RMC .OHMM            .38:   RESISTIVITY MUD CAKE
 MCST.F                70:   MUD CAKE SAMPLE TEMPERATURE
 MFSS.               MEAS:   MUD FILTRATE SAMPLE SOURCE
 MCSS.               MEAS:   MUD CAKE SAMPLE SOURCE
 RMB .OHMM            .32:   RESISTIVITY MUD AT BHT
 BHT .F                72:   BOTTOM HOLE TEMPERATURE
 TCS .HRS               2:   TIME CURCULATED STOPPED
 MRT .F                72:   MAXIMUM RECORDED TEMPERATURE
 LUN .               2958:   LOGGING UNIT NUMBER
 LUL .               CASP:   LOGGING UNIT LOCATION
 ENGI.           REYNOLDS:   RECORDING ENGINEER
 WITN.           DINSMORE:   WITNESSED BY
 CLNT.            A2DTECH:   CLIENT CODE
 ORIG.           5" PRINT:   ORIGIN OF DATA
 UWI .       490251069400:   UNIQUE WELL ID
 DICO. A2D Technologies, Inc.:   DIGITIZING COMPANY
~OTHER INFORMATION
~A   DEPT     CALD        GRD       RHOB       DPHI       CORR        SPR        ILD         SN   
# ...
  385.0000     8.0100   118.3175     2.4856     0.1235    -0.0020   -42.7152     9.4149     9.6827
  385.5000     8.0100   118.2454     2.4804     0.1266    -0.0002   -42.7125     9.2322     9.5054
  386.0000     8.0100   118.1745     2.4750     0.1282     0.0014   -42.7338     9.0531     9.3314
  386.5000     8.0100   118.1027     2.4741     0.1286     0.0005   -42.7555     8.8854     9.1606
  387.0000     8.0085   118.3339     2.4755     0.1290    -0.0005   -42.7772     8.7838     9.0411
  387.5000     8.0059   119.4550     2.4766     0.1274    -0.0011   -42.7989     8.6877     8.9319
  388.0000     8.0033   120.6792     2.4777     0.1238    -0.0017   -42.8206     8.5927     8.8240
  388.5000     8.0007   121.8563     2.4788     0.1203    -0.0023   -42.8423     8.4987     8.7231
  389.0000     7.9980   120.5660     2.4800     0.1213    -0.0019   -42.8641     8.4680     8.6905
  389.5000     7.9954   119.1289     2.4811     0.1235    -0.0008   -42.8853     8.4479     8.6596
  390.0000     7.9927   117.6991     2.4819     0.1239     0.0003   -42.8889     8.4279     8.6355
  390.5000     7.9903   116.2502     2.4809     0.1231     0.0013   -42.8538     8.4080     8.6193
  391.0000     8.0058   115.4916     2.4800     0.1224     0.0024   -42.8195     8.3881     8.6030
  391.5000     8.0238   116.3064     2.4790     0.1224     0.0034   -42.7850     8.3683     8.5868
  392.0000     8.0424   117.8000     2.4781     0.1272     0.0020   -42.7507     8.3485     8.5707
  392.5000     8.0612   119.2169     2.4771     0.1255     0.0005   -42.7160     8.3301     8.5545
  393.0000     8.0678   119.7945     2.4762     0.1248    -0.0010   -42.7281     8.2741     8.5384
  393.5000     8.0641   120.1396     2.4752     0.1266    -0.0026   -42.7803     8.2222     8.5223
  394.0000     8.0603   119.5912     2.4761     0.1292    -0.0042   -42.8328     8.1706     8.5063
  394.5000     8.0564   119.0691     2.4776     0.1280    -0.0034   -42.8854     8.1193     8.4903
  395.0000     8.0526   118.7785     2.4790     0.1257    -0.0020   -42.9379     8.0522     8.4164
  395.5000     8.0488   119.0614     2.4813     0.1234    -0.0006   -42.9905     7.9782     8.3162
  396.0000     8.0449   119.2912     2.4853     0.1212     0.0008   -43.0434     7.9048     8.2172
  396.5000     8.0411   119.1526     2.4893     0.1189     0.0007   -43.0973     7.8321     8.1194
  397.0000     8.0372   119.0182     2.4917     0.1166    -0.0009   -43.1004     7.7602     8.0228
  397.5000     8.0334   118.8963     2.4889     0.1173    -0.0024   -43.1001     7.6882     7.9548
  398.0000     8.0306   119.0012     2.4801     0.1281    -0.0019   -43.1000     7.6248     7.9548
  398.5000     8.0365   119.2006     2.4646     0.1359    -0.0012   -43.1000     7.5634     7.9548
  399.0000     8.0424   119.4001     2.4621     0.1367    -0.0006   -43.1000     7.5029     7.9289
  399.5000     8.0484   119.4969     2.4643     0.1359     0.0000   -43.1000     7.4428     7.8768
  400.0000     8.0547   119.5412     2.4663     0.1348     0.0007   -43.1000     7.3892     7.8250
  400.5000     8.0614   119.9315     2.4684     0.1308     0.0014   -43.1000     7.4429     7.7736
  401.0000     8.0685   120.3264     2.4720     0.1280     0.0020   -43.1000     7.4921     7.7378
  401.5000     8.0608   120.7203     2.4763     0.1241     0.0027   -43.1000     7.5350     7.7645
  402.0000     8.0480   121.1130     2.4805     0.1175     0.0033   -43.1000     7.5657     7.7850
  402.5000     8.0350   121.5078     2.4849     0.1190     0.0025   -43.1000     7.5955     7.8057
  403.0000     8.0221   121.9004     2.4869     0.1204     0.0011   -43.1000     7.6255     7.8264
  403.5000     8.0092   122.3064     2.4855     0.1220    -0.0003   -43.1000     7.6557     7.8472
  404.0000     7.9963   122.4292     2.4841     0.1184    -0.0017   -43.1001     7.6860     7.8680
  404.5000     7.9963   122.3020     2.4883     0.1128    -0.0030   -43.0974     7.7164     7.8889
  405.0000     8.0161   122.1721     2.4930     0.1105    -0.0044   -43.0757     7.7404     7.9098
  405.5000     8.0258   122.0423     2.4980     0.1096    -0.0058   -43.0539     7.7518     7.9308
  406.0000     8.0111   121.9001     2.4996     0.1101    -0.0049   -43.0321     7.7627     7.9519
  406.5000     7.9967   121.3612     2.5003     0.1120    -0.0020   -43.0103     7.7736     7.9729
  407.0000     7.9995   120.7760     2.5008     0.1108     0.0009   -42.9885     7.7844     7.9941
  407.5000     8.0171   120.1889     2.4986     0.1095     0.0033   -42.9667     7.7953     8.0153
  408.0000     8.0347   119.6088     2.4964     0.1084     0.0008   -42.9449     7.8093     8.0366
  408.5000     8.0478   119.0992     2.4943     0.1148    -0.0016   -42.9229     7.8028     8.0579
  409.0000     8.0284   118.8879     2.4922     0.1171    -0.0040   -42.9012     7.7934     8.0793
  409.5000     8.0193   119.1245     2.4900     0.1185    -0.0063   -42.9126     7.7839     8.1032
  410.0000     8.0099   119.8832     2.4890     0.1160    -0.0040   -42.9265     7.7745     8.1028
  410.5000     8.0005   122.3760     2.4890     0.1139    -0.0013   -42.9403     7.7651     8.1028
  411.0000     7.9911   122.5970     2.4890     0.1181     0.0014   -42.9540     7.7556     8.1028
  411.5000     7.9817   122.2084     2.4889     0.1238     0.0021   -42.9678     7.7461     8.1028
  412.0000     7.9719   121.7880     2.4842     0.1252     0.0026   -42.9815     7.7382     8.1028
  412.5000     7.9759   121.8111     2.4845     0.1239     0.0032   -42.9952     7.7510     8.1028
  413.0000     7.9837   122.0092     2.4854     0.1217     0.0038   -43.0089     7.7628     8.1028
  413.5000     7.9916   122.2103     2.4881     0.1194     0.0044   -43.0227     7.7748     8.1030
  414.0000     7.9995   122.4109     2.4943     0.1149     0.0050   -43.0364     7.7867     8.1027
  414.5000     8.0073   122.6483     2.5005     0.1087     0.0055   -43.0501     7.7987     8.1036
  415.0000     8.0152   122.9167     2.5067     0.1055     0.0053   -43.0639     7.8095     8.0351
  415.5000     8.0230   123.1907     2.5127     0.1032     0.0052   -43.0776     7.6360     7.9732
  416.0000     8.0309   123.2735     2.5130     0.1008     0.0051   -43.0909     7.4482     7.9121
  416.5000     8.0387   122.2313     2.5131     0.1025     0.0049   -43.0831     7.3193     7.8516
  417.0000     8.0467   121.1581     2.5097     0.1056     0.0048   -43.0348     7.3454     7.7915
  417.5000     8.0491   121.7631     2.5067     0.1087     0.0047   -42.9868     7.3648     7.7316
  418.0000     8.0476   122.4656     2.5052     0.1101     0.0045   -42.9393     7.3906     7.6668
  418.5000     8.0461   123.1109     2.5035     0.1105     0.0044   -42.9155     7.3014     7.6253
  419.0000     8.0445   122.7469     2.5006     0.1112     0.0043   -43.0212     7.1748     7.5658
  419.5000     8.0430   122.3753     2.4977     0.1145     0.0041   -43.1253     7.0534     7.5070
  420.0000     8.0414   122.0074     2.4948     0.1180     0.0040   -43.2291     6.9773     7.4487
  420.5000     8.0399   121.6391     2.4921     0.1206     0.0038   -43.3327     6.9530     7.3908
  421.0000     8.0383   121.2709     2.4899     0.1198     0.0037   -43.4353     6.9274     7.3333
  421.5000     8.0368   120.9070     2.4881     0.1190     0.0036   -43.4857     6.9019     7.2764
  422.0000     8.0352   121.4320     2.4887     0.1182     0.0037   -43.4443     6.8784     7.2198
  422.5000     8.0337   122.3433     2.4893     0.1174     0.0042   -43.4045     6.7725     7.1637
  423.0000     8.0322   122.6593     2.4899     0.1166     0.0046   -43.3643     6.5985     7.1080
  423.5000     8.0305   121.4819     2.4905     0.1167     0.0051   -43.3242     6.4264     7.0528
  424.0000     8.0379   120.2452     2.4908     0.1203     0.0054   -43.2842     6.2593     6.9980
  424.5000     8.0508   119.2625     2.4843     0.1240     0.0050   -43.2441     6.1449     6.9274
  425.0000     8.0639   119.9149     2.4835     0.1224     0.0045   -43.2040     6.1547     6.9412
