~VERSION INFORMATION
 VERS.                2.0:   CWLS LOG ASCII STANDARD - VERSION 2.0
 WRAP.                 NO:   ONE LINE PER DEPTH STEP
~WELL INFORMATION
#MNEM.UNIT      DATA TYPE    INFORMATION
#----------   ------------   ------------------------------
 STRT.F           70.0000:   START DEPTH
 STOP.F         1236.0000:   STOP DEPTH
 STEP.F            0.5000:   STEP LENGTH
 NULL.          -999.2500:   NO VALUE
 COMP. U S NAVY/INTEX OIL CO:   COMPANY
 WELL. NAVAL PETROLEUM TE ##3 75S-11:   WELL
 FLD .             TEAPOT:   FIELD
 LOC .      S11 T38N R78W:   LOCATION
 CNTY.            NATRONA:   COUNTY
 STAT.            WYOMING:   STATE
 CTRY. UNITED STATES OF AMERICA:   COUNTRY
 SRVC.         Lane Wells:   SERVICE COMPANY
 DATE.        04-MAR-1960:   LOGDATE
 API .       490250633900:   API NUMBER
~CURVE INFORMATION
#MNEM.UNIT       API CODE    CURVE DESCRIPTION
#----------   ------------   ------------------------------
 DEPT.F                  :   
 GR  .GAPI   30 310 01 00:   GAMMA RAY
 SPR .MV     05 010 01 00:   SPONTANEOUS POTENTIAL FROM RES.
 ILD .OHMM   05 120 46 00:   INDUCTION LOG DEEP
 CILD.MMHO   05 110 46 00:   CONDUCTIVITY INDUCTION LOG DEEP
 ASN .OHMM   05 041 18 00:   AMPLIFIED SHORT NORMAL 18"
~PARAMETER INFORMATION
#MNEM.UNIT          VALUE    DESCRIPTION
#----------   ------------   ------------------------------
 PD  .                 GL:   PERMANENT DATUM
 EPD .F              5252:   ELEVATION PERMANENT DATUM
 LMF .                 KB:   LOG MEASURED FROM
 DAPD.F                 5:   FEET ABOVE PERMANENT DATUM
 DMF .                 KB:   DRILLING MEASURED FROM
 EKB .F              5257:   KELLING BUSHING
 EGL .F              5252:   GROUND LEVEL
 DATE.             3-4-60:   RUN DATE
 RUN .                  1:   RUN NUMBER
 DD  .F              1239:   DEPTH DRILLER
 DL  .F              1238:   DEPTH LOGGER
 BLI .F              1236:   BOTTOM LOG INTERVAL
 TLI .F                70:   TOP LOG INTERVAL
 CS  .IN            8.625:   CASING SIZE
 CBD .F                12:   CASING BOTTOM DRILLER
 BS  .IN            7.875:   BIT SIZE
 BSD .F              1239:   BIT SIZE AT DEPTH
 DFT .                GEL:   DRILLING FLUID TYPE
 DFD .                9.2:   DRILLING FLUID DENSITY
 DFV .                 34:   DRILLING FLUID VISCOSITY
 DFPH.                7.5:   DRILLING FLUID PH
 DFL .                8.5:   DRILLING FLUID LOSS
 MSS .                PIT:   MUD SAMPLE SOURCE
 RMS .OHMM              3:   RESISTIVITY MUD SAMPLE
 MST .F                52:   MUD SAMPLE TEMPERATURE
 RMF .OHMM            2.8:   RESISTIVITY MUD FILTRATE SAMPLE
 MFST.F                55:   MUD FILTRATE SAMPLE TEMPERATURE
 RMC .OHMM            3.3:   RESISTIVITY MUD CAKE
 MCST.F                55:   MUD CAKE SAMPLE TEMPERATURE
 MFSS.                MUD:   MUD FILTRATE SAMPLE SOURCE
 MCSS.              PRESS:   MUD CAKE SAMPLE SOURCE
 RMB .OHMM            2.2:   RESISTIVITY MUD AT BHT
 BHT .F                77:   BOTTOM HOLE TEMPERATURE
 TCS .HRS              .5:   TIME CURCULATED STOPPED
 MRT .F                77:   MAXIMUM RECORDED TEMPERATURE
 LUN .               4474:   LOGGING UNIT NUMBER
 LUL .             CASPER:   LOGGING UNIT LOCATION
 ENGI.      GRIGGS/NELSON:   RECORDING ENGINEER
 WITN.  JORGENSEN/HOLLAND:   WITNESSED BY
 CLNT.            A2DTECH:   CLIENT CODE
 ORIG.       2", 5" PRINT:   ORIGIN OF DATA
 UWI .       490250633900:   UNIQUE WELL ID
 DICO. A2D Technologies, Inc.:   DIGITIZING COMPANY
~OTHER INFORMATION
~A   DEPT       GR        SPR          ILD      CILD         ASN 
   70.0000  -999.2500   -35.9451     5.9318   180.6006     6.4752
   70.5000  -999.2500   -35.9451     5.7507   182.4118     6.2701
   71.0000  -999.2500   -36.1595     5.7507   185.1612     6.1007
   71.5000  -999.2500   -36.2114     5.6701   187.4276     5.9652
   72.0000  -999.2500   -36.2776     5.5681   190.2606     5.7955
   72.5000  -999.2500   -36.3433     5.4655   193.0935     5.6276
   73.0000  -999.2500   -36.4089     5.3641   195.9265     5.4920
   73.5000  -999.2500   -36.4745     5.2901   198.7595     5.4290
   74.0000  -999.2500   -36.5402     5.2716   201.1415     5.3646
   74.5000  -999.2500   -36.6066     5.2521   202.7783     5.3015
   75.0000  -999.2500   -36.6723     5.2328   204.4166     5.2379
   75.5000  -999.2500   -36.6787     5.2134   206.0578     5.1739
   76.0000  -999.2500   -36.7327     5.1940   207.7615     5.1705
   76.5000  -999.2500   -36.4412     5.1746   208.7420     5.1713
   77.0000  -999.2500   -36.1530     5.1552   209.7650     5.1829
   77.5000  -999.2500   -35.8615     5.1357   210.7881     5.1953
   78.0000  -999.2500   -35.5890     5.1173   211.8111     5.2075
   78.5000  -999.2500   -35.6609     5.0991   212.8341     5.2201
   79.0000  -999.2500   -35.7455     5.0657   213.8573     5.1853
   79.5000  -999.2500   -35.8286     5.0323   214.8801     5.1120
   80.0000  -999.2500   -35.9113     4.9986   215.9032     5.0379
   80.5000  -999.2500   -35.9939     4.9651   216.8255     5.0082
   81.0000  -999.2500   -36.0766     4.9371   215.9587     5.0388
   81.5000  -999.2500   -36.1594     4.9583   215.1696     5.0887
   82.0000  -999.2500   -36.2420     4.9789   214.3804     5.1390
   82.5000  -999.2500   -36.3162     5.0002   213.5912     5.1894
   83.0000  -999.2500   -36.3366     5.0181   212.8020     5.2398
   83.5000  -999.2500   -36.3583     5.1236   212.0128     5.2809
   84.0000  -999.2500   -36.3802     5.0720   211.6534     5.2622
   84.5000  -999.2500   -36.4021     5.0086   212.8810     5.1663
   85.0000  -999.2500   -36.4240     4.9451   215.1790     5.0723
   85.5000  -999.2500   -36.4459     4.8815   217.8574     4.9785
   86.0000  -999.2500   -36.4685     4.8180   220.5359     4.8846
   86.5000  -999.2500   -36.4961     4.7545   223.2143     4.7894
   87.0000  -999.2500   -36.2548     4.6910   225.8928     4.7660
   87.5000  -999.2500   -35.9607     4.6275   228.5712     4.7577
   88.0000  -999.2500   -35.7415     4.5640   231.2497     4.7497
   88.5000  -999.2500   -35.6911     4.5005   233.9281     4.7414
   89.0000  -999.2500   -35.6366     4.4370   236.6066     4.7208
   89.5000  -999.2500   -35.5824     4.3734   239.2850     4.6785
   90.0000  -999.2500   -35.6484     4.3099   242.1830     4.6364
   90.5000  -999.2500   -35.7264     4.2472   243.3100     4.5943
   91.0000  -999.2500   -35.8041     4.2366   244.5376     4.5522
   91.5000  -999.2500   -35.8816     4.2958   245.8055     4.5100
   92.0000  -999.2500   -35.9591     4.3542   245.8124     4.4680
   92.5000  -999.2500   -36.0366     4.4129   245.8075     4.4465
   93.0000  -999.2500   -36.1141     4.4714   245.5393     4.4762
   93.5000  -999.2500   -36.1916     4.5300   245.0120     4.5345
   94.0000  -999.2500   -36.2691     4.5886   244.4859     4.5928
   94.5000  -999.2500   -36.3469     4.6472   243.9943     4.6512
   95.0000  -999.2500   -36.4253     4.7058   240.8548     4.7095
   95.5000  -999.2500   -36.4880     4.7644   237.9085     4.7677
   96.0000  -999.2500   -36.3787     4.8234   235.0477     4.8388
   96.5000  -999.2500   -36.2704     4.8549   232.2422     4.9175
   97.0000  -999.2500   -36.1680     4.8711   229.4372     4.9964
   97.5000  -999.2500   -35.8399     4.8871   226.6321     5.0817
   98.0000  -999.2500   -35.4098     4.9031   223.8268     5.1957
   98.5000  -999.2500   -34.9541     4.9191   221.0216     5.3103
   99.0000  -999.2500   -34.9798     4.9351   218.2164     5.4251
   99.5000  -999.2500   -35.1629     4.9511   215.4111     5.5437
  100.0000  -999.2500   -35.3506     4.9671   212.6059     5.5649
  100.5000  -999.2500   -35.5373     4.9831   209.8007     5.5430
  101.0000  -999.2500   -35.7280     4.9991   207.6969     5.5211
  101.5000  -999.2500   -35.7357     5.0150   207.4342     5.4994
  102.0000  -999.2500   -35.7023     5.0362   207.1716     5.4777
  102.5000  -999.2500   -35.6677     5.0698   206.9090     5.4561
  103.0000  -999.2500   -35.6336     5.1033   206.6463     5.4344
  103.5000  -999.2500   -35.6017     5.1367   206.3837     5.4127
  104.0000  -999.2500   -35.6757     5.1703   206.1211     5.3916
  104.5000  -999.2500   -35.9359     5.2035   205.6481     5.4167
  105.0000  -999.2500   -36.1933     5.2075   204.8311     5.4935
  105.5000  -999.2500   -36.4512     5.2074   204.0140     5.5696
  106.0000  -999.2500   -36.7097     5.2073   203.1964     5.6458
  106.5000  -999.2500   -36.9710     5.2073   202.3400     5.7220
  107.0000  -999.2500   -37.2069     5.2073   201.0308     5.7983
  107.5000  -999.2500   -36.8259     5.2073   199.6526     5.8749
  108.0000  -999.2500   -36.4163     5.2073   198.2738     5.9305
  108.5000  -999.2500   -36.0088     5.2073   196.9018     5.9137
  109.0000  -999.2500   -35.6038     5.2073   198.1759     5.8668
  109.5000  -999.2500   -35.1925     5.2073   199.4635     5.8200
  110.0000  -999.2500   -35.2322     5.2073   200.7448     5.7731
  110.5000  -999.2500   -35.5622     5.2073   202.0237     5.7263
  111.0000  -999.2500   -35.8977     5.2073   203.3026     5.6795
  111.5000  -999.2500   -36.2334     5.2073   204.5815     5.6327
  112.0000  -999.2500   -36.5717     5.2073   205.8604     5.5859
  112.5000  -999.2500   -36.7106     5.2073   207.1393     5.5391
  113.0000  -999.2500   -36.7624     5.2073   208.4182     5.4923
  113.5000  -999.2500   -36.8128     5.2073   209.6971     5.4455
  114.0000  -999.2500   -36.8634     5.2073   210.9760     5.3983
  114.5000  -999.2500   -36.9142     5.2075   212.3628     5.3520
  115.0000  -999.2500   -36.9649     5.1970   213.8015     5.3052
  115.5000  -999.2500   -37.0157     5.1825   215.2403     5.2583
  116.0000  -999.2500   -37.0665     5.1678   216.6791     5.2116
  116.5000  -999.2500   -37.1173     5.1531   218.1178     5.1648
  117.0000  -999.2500   -37.1684     5.1384   219.5566     5.1180
  117.5000  -999.2500   -37.2203     5.1237   220.9954     5.0712
  118.0000  -999.2500   -37.1800     5.1090   222.4341     5.0243
  118.5000  -999.2500   -37.1268     5.0943   223.8743     4.9775
  119.0000  -999.2500   -37.0725     5.0795   225.3150     4.9310
  119.5000  -999.2500   -36.9796     5.0648   226.7504     4.8968
  120.0000  -999.2500   -36.8285     5.0501   226.4252     4.9751
  120.5000  -999.2500   -36.6846     5.0356   222.7483     5.0654
  121.0000  -999.2500   -36.7832     5.0294   219.0715     5.1562
  121.5000  -999.2500   -36.8963     5.0389   217.7836     5.2469
  122.0000  -999.2500   -37.0085     5.0480   216.8160     5.3374
  122.5000  -999.2500   -37.1205     5.0572   215.8484     5.4269
  123.0000  -999.2500   -37.2239     5.0664   214.8808     5.4446
  123.5000  -999.2500   -37.2262     5.0756   213.9133     5.3622
  124.0000  -999.2500   -37.2257     5.0848   212.9457     5.2828
  124.5000  -999.2500   -37.2255     5.0940   211.9781     5.2983
  125.0000  -999.2500   -37.2259     5.1032   211.0105     5.3836
  125.5000  -999.2500   -37.2236     5.1123   210.0429     5.4712
  126.0000  -999.2500   -37.3616     5.1434   208.3006     5.5587
  126.5000  -999.2500   -37.5664     5.1945   205.8494     5.6425
  127.0000  -999.2500   -37.7744     5.2456   203.3982     5.6945
  127.5000  -999.2500   -37.9803     5.2966   201.5781     5.7446
  128.0000  -999.2500   -38.0971     5.3477   200.2411     5.7947
  128.5000  -999.2500   -37.8507     5.3988   198.9041     5.8449
  129.0000  -999.2500   -37.6130     5.4499   197.5670     5.8948
  129.5000  -999.2500   -37.3759     5.5009   196.2300     5.9712
  130.0000  -999.2500   -37.1382     5.5520   194.6308     6.0958
  130.5000  -999.2500   -36.8966     5.6031   191.5196     6.2368
