~VERSION INFORMATION
 VERS.                2.0:   CWLS LOG ASCII STANDARD - VERSION 2.0
 WRAP.                 NO:   ONE LINE PER DEPTH STEP
~WELL INFORMATION
#MNEM.UNIT      DATA TYPE    INFORMATION
#----------   ------------   ------------------------------
 STRT.F          672.0000:   START DEPTH
 STOP.F         2343.5000:   STOP DEPTH
 STEP.F            0.5000:   STEP LENGTH
 NULL.          -999.2500:   NO VALUE
 COMP. FENIX & SCISSON INC:   COMPANY
 WELL.   23 SHX-33 #23-33:   WELL
 FLD .             TEAPOT:   FIELD
 LOC .      S33 T39N R78W:   LOCATION
 CNTY.            NATRONA:   COUNTY
 STAT.            WYOMING:   STATE
 CTRY. UNITED STATES OF AMERICA:   COUNTRY
 SRVC.            Unknown:   SERVICE COMPANY
 DATE.        01-MAY-1978:   LOGDATE
 API .       490251062700:   API NUMBER
~CURVE INFORMATION
#MNEM.UNIT       API CODE    CURVE DESCRIPTION
#----------   ------------   ------------------------------
 DEPT.F                  :   
 IL  .OHMM   05 120 00 00:   INDUCTION LOG
 CIL .MMHO   05 110 00 00:   CONDUCTIVITY INDUCTION LOG
 CALD.IN     45 280 60 00:   CALIPER FROM DENSITY LOG
 GRD .GAPI   45 310 01 00:   GAMMA RAY FROM DENSITY LOG
 DPHI.DEC    45 890 12 00:   DENSITY POROSITY SANDSTONE
 RHOB.G/C3   45 350 01 00:   BULK DENSITY
 CORR.G/C3   45 356 01 00:   DENSITY CORRECTION
~PARAMETER INFORMATION
#MNEM.UNIT          VALUE    DESCRIPTION
#----------   ------------   ------------------------------
 PD  .                 GL:   PERMANENT DATUM
 EPD .F              5163:   ELEVATION PERMANENT DATUM
 LMF .                 KB:   LOG MEASURED FROM
 DAPD.F                10:   FEET ABOVE PERMANENT DATUM
 DMF .                 KB:   DRILLING MEASURED FROM
 EKB .F              5173:   KELLING BUSHING
 EGL .F              5163:   GROUND LEVEL
 DATE.           5-1-1978:   RUN DATE
 RUN .                  1:   RUN NUMBER
 DD  .F              2331:   DEPTH DRILLER
 DL  .F              2260:   DEPTH LOGGER
 BLI .F              2250:   BOTTOM LOG INTERVAL
 TLI .F               690:   TOP LOG INTERVAL
 CS  .IN            9.625:   CASING SIZE
 CBD .F               683:   CASING BOTTOM DRILLER
 CBL .F               690:   CASING BOTTOM LOGGER
 BS  .IN             8.75:   BIT SIZE
 BSD .F              2331:   BIT SIZE AT DEPTH
 DFT .                OIL:   DRILLING FLUID TYPE
 BHT .F               104:   BOTTOM HOLE TEMPERATURE
 TCS .HRS               5:   TIME CURCULATED STOPPED
 MRT .F               104:   MAXIMUM RECORDED TEMPERATURE
 LUN .               2958:   LOGGING UNIT NUMBER
 LUL .               CASP:   LOGGING UNIT LOCATION
 ENGI.             MILLER:   RECORDING ENGINEER
 WITN.           MCGINLEY:   WITNESSED BY
 CLNT.            A2DTECH:   CLIENT CODE
 ORIG.       2", 5" PRINT:   ORIGIN OF DATA
 UWI .       490251062700:   UNIQUE WELL ID
 DICO. A2D Technologies, Inc.:   DIGITIZING COMPANY
~OTHER INFORMATION
~A   DEPT       IL        CIL       CALD         GRD      DPHI       RHOB       CORR   
# ...
 1946.0000     6.2931   150.4665    10.0558   126.1673    -0.0208     2.5740     0.0696
 1946.5000     6.1830   154.5429    10.0468   125.9435    -0.0244     2.5636     0.0692
 1947.0000     6.0729   160.2702    10.7355   125.9668    -0.0182     2.5781     0.0691
 1947.5000     5.9624   161.3283     9.9316   126.1449    -0.0198     2.5737     0.0691
 1948.0000     5.8524   161.5828     9.7884   129.4674    -0.0236     2.5701     0.0715
 1948.5000     5.8381   161.8374     9.7123   134.7428    -0.0309     2.5698     0.0799
 1949.0000     5.8374   162.0919     9.6981   139.6383    -0.0257     2.5704     0.0806
 1949.5000     5.8354   161.4764    10.7059   139.8963    -0.0198     2.5936     0.0702
 1950.0000     5.8820   160.7478    10.1535   138.7713    -0.0252     2.5805     0.0600
 1950.5000     5.9270   159.9251     9.5661   138.2723    -0.0293     2.5698     0.0591
 1951.0000     5.9718   158.3603     9.4744   138.3242    -0.0297     2.5842     0.0591
 1951.5000     6.0160   156.7955     9.4166   133.9496    -0.0293     2.5885     0.0589
 1952.0000     6.0603   155.2306     9.3597   130.7677    -0.0248     2.5900     0.0568
 1952.5000     6.1046   153.6658     9.3019   131.1287    -0.0184     2.5898     0.0548
 1953.0000     6.1491   152.1010     9.2440   129.6193    -0.0173     2.5822     0.0527
 1953.5000     6.1933   150.5362     9.1857   125.4520    -0.0198     2.5709     0.0507
 1954.0000     6.2678   148.9747     9.1718   130.2188    -0.0156     2.5689     0.0492
 1954.5000     6.3750   144.3288     9.2038   135.2313    -0.0090     2.5747     0.0494
 1955.0000     6.4821   139.9023     9.2353   136.4635    -0.0019     2.5690     0.0497
 1955.5000     6.5897   139.4554     9.2663   134.9814    -0.0015     2.5567     0.0531
 1956.0000     6.6758   139.0286     9.2969   132.2187    -0.0111     2.5439     0.0625
 1956.5000     6.6876   138.6019     9.3308   129.4877    -0.0238     2.5380     0.0761
 1957.0000     6.6871   138.1751     9.5868   126.7549    -0.0317     2.5972     0.0804
 1957.5000     6.6870   136.9153    10.3038   124.2353    -0.0212     2.5957     0.0672
 1958.0000     6.6848   133.7638     9.1818   110.8938    -0.0134     2.5824     0.0573
 1958.5000     6.7755   130.6123     9.2752   103.4295    -0.0175     2.5695     0.0693
 1959.0000     6.9162   129.2916     9.1350   104.1640    -0.0216     2.5606     0.0814
 1959.5000     7.0621   128.6087     9.9382   114.2114    -0.0238     2.5717     0.0834
 1960.0000     7.0909   127.9259     9.4384   124.7960    -0.0168     2.5756     0.0841
 1960.5000     7.0915   128.1891     9.3836   132.9233    -0.0122     2.5704     0.0847
 1961.0000     7.1053   128.7143     9.3627   133.3389    -0.0123     2.5666     0.0854
 1961.5000     7.1418   129.2396     9.5550   133.3284    -0.0106     2.5665     0.0861
 1962.0000     7.1787   129.7648     9.5591   135.4625    -0.0054     2.5645     0.0868
 1962.5000     7.2071   130.2901     9.7368   136.0808    -0.0038     2.5561     0.0871
 1963.0000     7.1052   130.8153    10.0947   132.2726    -0.0035     2.5483     0.0915
 1963.5000     7.0112   131.3406    10.4369   128.1445    -0.0034     2.5450     0.0961
 1964.0000     7.0089   131.8182     9.9261   127.5369    -0.0029     2.5456     0.1006
 1964.5000     7.0071   129.0253    10.3855   130.0490    -0.0024     2.5479     0.1052
 1965.0000     7.1079   126.4647    10.1493   132.1423    -0.0015     2.5490     0.1104
 1965.5000     7.2234   123.9040    10.4094   134.2056     0.0093     2.5461     0.1027
 1966.0000     7.3382   121.3434     9.8969   135.3006     0.0148     2.5345     0.1055
 1966.5000     7.4526   119.6572    10.2853   130.1487    -0.0056     2.5213     0.1198
 1967.0000     7.5671   119.5459    10.2188   125.9289    -0.0144     2.5319     0.1338
 1967.5000     7.6819   119.4346    10.0757   120.5742    -0.0182     2.5460     0.1390
 1968.0000     7.7976   119.3232     9.9326   124.0922    -0.0114     2.5603     0.1131
 1968.5000     7.8154   119.2119     9.8195   130.4229    -0.0030     2.5727     0.0782
 1969.0000     7.8675   119.1006     9.9113   134.1424     0.0017     2.5561     0.0454
 1969.5000     7.8839   118.9884    10.1588   130.0826     0.0013     2.5400     0.0412
 1970.0000     7.9000   118.8754    10.4048   129.3434    -0.0063     2.5380     0.0412
 1970.5000     7.9158   118.7726    10.6497   128.9292    -0.0122     2.5420     0.0413
 1971.0000     7.9315   119.1717    10.7406   128.5623    -0.0085     2.5578     0.0413
 1971.5000     7.9376   120.8788    10.2293   125.5704    -0.0023     2.5660     0.0413
 1972.0000     7.8690   122.5859     9.8055   125.8728     0.0039     2.5556     0.0413
 1972.5000     7.7081   124.2929     9.6414   126.7700     0.0053     2.5422     0.0426
 1973.0000     7.4987   128.5840     9.7424   125.9658    -0.0049     2.5332     0.0504
 1973.5000     7.2886   133.9380     9.8605   125.3469    -0.0130     2.5485     0.0582
 1974.0000     7.0785   139.2920     9.6945   125.8987     0.0173     2.5651     0.0522
 1974.5000     6.8686   144.6460     9.4453   130.0046     0.0326     2.5357     0.0437
 1975.0000     6.6585   150.0000     9.3742   135.0091     0.0485     2.5065     0.0438
 1975.5000     6.4482   153.7626     9.4319   140.0016     0.0625     2.4786     0.0459
 1976.0000     6.2386   158.0303     9.1825   142.5010     0.0446     2.4385     0.0568
 1976.5000     6.0684   162.2980    10.0348   134.6788     0.0250     2.5449     0.1131
 1977.0000     5.9721   166.5657    10.7807   128.0411     0.0055     2.5204     0.0719
 1977.5000     5.8475   167.1717     9.0179   126.0349    -0.0140     2.5095     0.0443
 1978.0000     5.7575   164.4929     9.0660   131.5633    -0.0223     2.5586     0.0506
 1978.5000     5.7945   161.3765     9.0920   136.3936    -0.0269     2.5714     0.0573
 1979.0000     5.8304   160.1395     9.1168   141.3461    -0.0211     2.5850     0.0586
 1979.5000     5.8654   160.0903     9.1405   146.3211    -0.0170     2.5840     0.0466
 1980.0000     5.9004   160.1010     9.1422   149.6010    -0.0146     2.5761     0.0351
 1980.5000     5.9353   160.1010     9.1383   150.1884    -0.0116     2.5685     0.0310
 1981.0000     5.9704   158.1454     9.1344   149.8245    -0.0088     2.5609     0.0325
 1981.5000     6.0055   156.0606     9.1308   147.0349    -0.0060     2.5533     0.0360
 1982.0000     6.0396   156.4093     9.1252   143.5364    -0.0032     2.5544     0.0395
 1982.5000     6.0414   156.7946     9.1360   141.5014    -0.0023     2.5577     0.0430
 1983.0000     6.0314   157.0029     9.0890   145.6926    -0.0043     2.5500     0.0465
 1983.5000     6.0051   159.3943     9.1057   149.8525    -0.0051     2.5427     0.0499
 1984.0000     5.9532   162.4350     9.1874   150.1006    -0.0012     2.5408     0.0534
 1984.5000     5.8317   165.4757     9.1271   148.2534     0.0025     2.5543     0.0569
 1985.0000     5.7257   168.5164     8.9467   144.0722     0.0045     2.5417     0.0604
 1985.5000     5.6213   171.5571     8.9095   139.5949     0.0053     2.5320     0.0639
 1986.0000     5.5170   174.5979     9.1250   135.9301     0.0019     2.5301     0.0674
 1986.5000     5.4126   177.8690     8.7675   137.7034    -0.0027     2.5355     0.0709
 1987.0000     5.3083   182.8250     9.6984   140.6335     0.0016     2.5491     0.0724
 1987.5000     5.2039   187.7810     9.0423   142.7956     0.0072     2.5450     0.0683
 1988.0000     5.0995   192.7370     8.7382   138.5472     0.0128     2.5343     0.0642
 1988.5000     4.9951   197.6931     9.2437   134.2813     0.0188     2.5244     0.0602
 1989.0000     4.8912   202.6491     8.7035   132.4877     0.0482     2.5158     0.0572
 1989.5000     4.8066   207.5650     9.4476   130.3020     0.0765     2.5044     0.0537
 1990.0000     4.7905   207.5896     8.5303   126.9692     0.1049     2.4481     0.0529
 1990.5000     4.7479   207.5764     8.7696   123.6463     0.1328     2.3890     0.0572
 1991.0000     4.7029   207.5758     8.6720   120.2587     0.1475     2.3309     0.0841
