~VERSION INFORMATION
 VERS.                2.0:   CWLS LOG ASCII STANDARD - VERSION 2.0
 WRAP.                 NO:   ONE LINE PER DEPTH STEP
~WELL INFORMATION
#MNEM.UNIT      DATA TYPE    INFORMATION
#----------   ------------   ------------------------------
 STRT.F           88.0000:   START DEPTH
 STOP.F          991.0000:   STOP DEPTH
 STEP.F            0.5000:   STEP LENGTH
 NULL.          -999.2500:   NO VALUE
 COMP. US NAVY /INTEX OIL CO.:   COMPANY
 WELL.    NPR #3 #S-11 63:   WELL
 FLD .             TEAPOT:   FIELD
 LOC .      S11 T38N R78W:   LOCATION
 CNTY.            NATRONA:   COUNTY
 STAT.            WYOMING:   STATE
 CTRY. UNITED STATES OF AMERICA:   COUNTRY
 SRVC.       Schlumberger:   SERVICE COMPANY
 DATE.        24-JUL-1964:   LOGDATE
 API .       490250636200:   API NUMBER
~CURVE INFORMATION
#MNEM.UNIT       API CODE    CURVE DESCRIPTION
#----------   ------------   ------------------------------
 DEPT.F                  :   
 SPR .MV     05 010 01 00:   SPONTANEOUS POTENTIAL FROM RES.
 ASN .OHMM   05 041 16 00:   AMPLIFIED SHORT NORMAL 16"
 ILD .OHMM   05 120 46 00:   INDUCTION LOG DEEP
 CILD.MMHO   05 110 46 00:   CONDUCTIVITY INDUCTION LOG DEEP
 CALS.IN     60 280 50 00:   CALIPER FROM SONIC LOG
 DT  .US/F   60 520 33 00:   INTERVAL TRANSIT TIME
 GR  .GAPI   30 310 01 00:   GAMMA RAY
~PARAMETER INFORMATION
#MNEM.UNIT          VALUE    DESCRIPTION
#----------   ------------   ------------------------------
 PD  .                 GL:   PERMANENT DATUM
 LMF .                 KB:   LOG MEASURED FROM
 DAPD.F                 5:   FEET ABOVE PERMANENT DATUM
 DMF .                 KB:   DRILLING MEASURED FROM
 EKB .F              5914:   KELLING BUSHING
 DATE.          7-24-1964:   RUN DATE
 RUN .                  1:   RUN NUMBER
 DD  .F               990:   DEPTH DRILLER
 DL  .F               992:   DEPTH LOGGER
 BLI .F               991:   BOTTOM LOG INTERVAL
 TLI .F               990:   TOP LOG INTERVAL
 CS  .IN            8.625:   CASING SIZE
 CBD .F                15:   CASING BOTTOM DRILLER
 BS  .IN             6.75:   BIT SIZE
 BSD .F               990:   BIT SIZE AT DEPTH
 DFT .            GEL OIL:   DRILLING FLUID TYPE
 DFD .                9.2:   DRILLING FLUID DENSITY
 DFV .                 47:   DRILLING FLUID VISCOSITY
 MSS .            MUD PIT:   MUD SAMPLE SOURCE
 RMS .OHMM           1.24:   RESISTIVITY MUD SAMPLE
 MST .F                75:   MUD SAMPLE TEMPERATURE
 RMF .OHMM           .801:   RESISTIVITY MUD FILTRATE SAMPLE
 MFST.F                80:   MUD FILTRATE SAMPLE TEMPERATURE
 MFSS.                 FP:   MUD FILTRATE SAMPLE SOURCE
 RMB .OHMM           1.09:   RESISTIVITY MUD AT BHT
 BHT .F                85:   BOTTOM HOLE TEMPERATURE
 TCS .HRS              .5:   TIME CURCULATED STOPPED
 MRT .F                85:   MAXIMUM RECORDED TEMPERATURE
 LUN .               2572:   LOGGING UNIT NUMBER
 LUL .                 MC:   LOGGING UNIT LOCATION
 ENGI.             BOWLER:   RECORDING ENGINEER
 WITN.          JORGENSEN:   WITNESSED BY
 CLNT.            A2DTECH:   CLIENT CODE
 ORIG.      2" & 5" PRINT:   ORIGIN OF DATA
 UWI .       490250636200:   UNIQUE WELL ID
 DICO. A2D Technologies, Inc.:   DIGITIZING COMPANY
~OTHER INFORMATION
~A   DEPT      SPR          ASN        ILD      CILD      CALS         DT         GR   
# ...
  816.0000   -27.0924     5.7049     4.0147   222.1757     6.7902   109.4009    88.6525
  816.5000   -26.9400     5.5654     4.0918   222.9001     6.7850   110.0425    88.9596
  817.0000   -26.6422     5.4472     4.0940   222.1175     6.7798   110.6373    97.6898
  817.5000   -26.4897     5.3289     4.3937   218.3570     6.7747   112.2747   101.1672
  818.0000   -26.1881     5.6403     4.6935   210.8652     6.7695   112.1250    97.0843
  818.5000   -25.8939     6.4258     4.9933   196.4316     6.7542   108.9225    93.7696
  819.0000   -25.8852     6.6928     5.3754   177.4750     6.7401   106.1668    91.6596
  819.5000   -26.0235     7.2856     5.8281   160.0243     6.7115   104.6768    96.7786
  820.0000   -26.4524     7.7748     6.2653   151.7862     6.6974   103.0675    96.1746
  820.5000   -26.5924     7.9973     6.7139   146.5332     6.6977   100.7288    95.6982
  821.0000   -27.0214     8.1022     7.0137   144.2653     6.6980    99.6857    99.3343
  821.5000   -27.4486     8.1780     7.0158   142.7436     6.6983    99.1637    97.9773
  822.0000   -27.5886     8.2353     6.9436   141.9682     6.6986    98.7162    92.4035
  822.5000   -27.7253     8.2949     6.9458   141.9391     6.6989    98.6410    90.4442
  823.0000   -28.0086     8.3544     6.8735   141.9100     6.6992    98.6403    89.8403
  823.5000   -28.1469     8.4584     6.9501   141.8806     6.6995    98.6396    89.2367
  824.0000   -28.1395     8.5476     7.0268   140.3582     6.6997    99.7677    96.6147
  824.5000   -28.1309     8.5626     7.1038   138.0840     6.7144   100.0529    93.7514
  825.0000   -28.1238     8.5926     7.1060   135.8160     6.7003    99.6052    93.5996
  825.5000   -28.1167     8.6818     7.1826   135.0406     6.6987    99.3067    94.2002
  826.0000   -28.2567     8.8462     7.2592   132.7727     6.5712    99.4549    91.4878
  826.5000   -28.2479     8.9342     7.3358   130.5048     6.5426   100.7200    88.3236
  827.0000   -28.0954     8.8605     7.3379   129.7294     6.5430   101.6128    82.1474
  827.5000   -28.0883     8.7719     7.4145   128.2077     6.5577   101.4631    85.4592
  828.0000   -28.0812     8.7129     7.4911   126.6861     6.5723   101.2390    88.0183
  828.5000   -28.0741     8.6983     7.6481   123.6466     6.6447   101.3871    88.0164
  829.0000   -28.0669     8.7431     7.9424   120.5570     6.7468   101.3119    85.4550
  829.5000   -28.0596     8.8619     8.0934   116.8899     6.8182   100.1198    91.4772
  830.0000   -28.0510     9.0845     8.0206   113.8757     6.8473    98.4065    89.3673
  830.5000   -27.8986     9.3662     7.7252   115.3392     6.8620    97.4378    86.9561
  831.0000   -27.6008     9.4702     7.0582   120.5339     6.8478    96.9158    84.9968
  831.5000   -27.4483     9.4073     6.2420   130.9525     6.8049    96.3939    84.0916
  832.0000   -27.2959     9.0561     5.5001   164.5055     6.4882    94.8881    89.3612
  832.5000   -27.1434     8.4489     4.8326   192.8346     6.4308    94.7543    88.9083
  833.0000   -26.8456     7.9900     4.5342   203.9995     6.4311    96.9872    93.4244
  833.5000   -26.6932     6.2717     4.3905   209.1943     6.5323   100.4117    97.9410
  834.0000   -26.2500     5.8868     4.4677   208.4179     6.7055   110.8354   102.1564
  834.5000   -26.2427     5.9760     4.5442   206.1437     6.7490   109.5688    95.8296
  835.0000   -26.2340     6.1541     4.7696   203.8757     6.7781   108.7490    86.6413
  835.5000   -26.2269     6.8803     5.1438   197.8765     6.7928   108.0037    69.7723
  836.0000   -26.6559     8.0213     5.7412   185.1608     6.8075   105.6143    67.8133
  836.5000   -27.2302     8.9584     6.4875   151.5496     6.8222    99.8115    74.8898
  837.0000   -27.6591     9.0761     7.2337   128.3861     6.8225    94.4496    77.1092
  837.5000   -27.9445     9.3852     8.0543   110.4465     6.8228    92.4387    81.2867
  838.0000   -28.0827    10.3188     8.6596   102.2036     6.8231    94.7460    83.9217
  838.5000   -27.9285    10.2450     8.8777   104.4206     6.8234    95.3410    78.3839
  839.0000   -27.9214    10.2454     8.8049   105.1377     6.8236    95.7126    80.5998
  839.5000   -27.7631    10.2457     8.6588   101.3700     6.8095    96.1591    81.9856
  840.0000   -27.4710    10.3200     8.6610   104.3259     6.7954    96.4557    89.1170
  840.5000   -27.3169    10.3944     8.7375   107.2892     6.7957    96.1570    88.0672
  841.0000   -27.3098    10.5428     8.8885   107.3528     6.7960    96.0818    84.2016
  841.5000   -27.3027    10.6172     9.1139   104.2386     6.7819    96.2302    82.2479
  842.0000   -27.2956    10.6916     9.4137   100.3782     6.7822    96.7505    76.3795
  842.5000   -27.4357    10.9141     9.7979    96.5920     6.7680    97.5688    72.7635
  843.0000   -27.7193    11.2847    10.4112    92.2036     6.7107    97.7170    62.0693
  843.5000   -28.0011    11.8947    11.3553    89.1894     6.6677    97.4141    49.7183
  844.0000   -28.4300    12.7184    12.2503    86.1752     6.5950    96.3731    38.5723
  844.5000   -29.0043    13.8783    12.9966    81.6685     6.5530    93.4705    28.1792
  845.0000   -30.0243    15.2119    14.1892    77.1618     6.5534    90.6403    14.9246
  845.5000   -31.5535    16.5455    15.5307    71.1625     6.5536    89.0759     1.6701
  846.0000   -34.6498    17.4347    16.5001    66.6557     6.5539    88.5539     0.3855
  846.5000   -36.3869    18.0276    17.3207    62.8953     6.5686    89.0000     5.7334
  847.0000   -37.6880    18.4723    17.9239    59.0846     6.5689    93.8391    12.0571
  847.5000   -38.6983    18.6948    18.6098    56.7413     6.5692    97.8219     9.9472
  848.0000   -39.4179    18.8433    18.9647    56.0842     6.5694   102.5549    12.9577
  848.5000   -40.2829    18.6213    19.0413    56.0551     6.5698   107.9098    13.2578
  849.0000   -41.1479    18.6216    18.8946    56.0260     6.5701   113.7914    10.6957
  849.5000   -41.8676    18.6961    18.8968    55.9968     6.5415   119.2451     3.3146
  850.0000   -42.7326    18.9186    18.8741    56.0316     6.4409   126.8205     2.4095
  850.5000   -43.4569    19.1411    18.7512    56.3800     6.5852   136.5139     7.3779
  851.0000   -42.8719    19.2154    18.9763    56.6624     6.6862   136.1960     9.4940
  851.5000   -42.1423    19.2898    18.9032    54.3867     6.7151   133.7359     7.8403
  852.0000   -41.2674    19.2159    18.6072    53.6110     6.7153   128.7442    12.0842
  852.5000   -40.3924    19.2163    18.2366    54.3283     6.7010   120.8485    13.9407
  853.0000   -39.3431    19.1425    17.7907    54.2983     6.6867   120.2499    20.3615
  853.5000   -37.8575    18.9206    17.2582    56.5197     6.6725   116.6730    18.5451
  854.0000   -36.4587    18.6246    16.4375    58.0196     6.6726    98.2039    18.8815
  854.5000   -35.5838    18.2546    15.5114    60.1800     6.6707    92.5399    20.2193
  855.0000   -34.9995    17.7363    14.2265    63.1356     6.6585    99.1133    33.5843
  855.5000   -34.4153    17.0247    13.4839    66.0911     6.6586    94.1737    37.2318
  856.0000   -33.9764    16.4239    12.9645    69.0467     6.6588    93.0546    34.6266
  856.5000   -33.8282    15.9715    12.6680    72.7412     6.6590   110.4002    30.2520
  857.0000   -33.6799    15.5837    12.6698    74.9579     6.6591    97.8880    28.8071
  857.5000   -33.5325    15.3036    12.8945    76.4210     6.6592    96.0980    32.1241
  858.0000   -33.9649    15.2295    13.0448    77.1378     6.6594    96.1696    32.5782
  858.5000   -34.1081    15.1551    13.1951    76.3546     6.6595    96.4645    28.5156
  859.0000   -34.5407    15.1560    13.4942    75.5789     6.6597    96.7595    27.1632
  859.5000   -34.9738    15.2317    13.6444    74.8007     6.6598    98.7259    25.3590
  860.0000   -35.5523    15.2325    13.8691    74.7737     6.6599    99.6576    22.0487
  860.5000   -36.4216    15.3082    14.0938    73.9979     6.6601    99.5051    21.1474
  861.0000   -36.8547    15.3839    14.3185    73.9684     6.6603    99.4277    22.9584
