~VERSION INFORMATION
 VERS.                2.0:   CWLS LOG ASCII STANDARD - VERSION 2.0
 WRAP.                 NO:   ONE LINE PER DEPTH STEP
~WELL INFORMATION
#MNEM.UNIT      DATA TYPE    INFORMATION
#----------   ------------   ------------------------------
 STRT.F           34.0000:   START DEPTH
 STOP.F          638.0000:   STOP DEPTH
 STEP.F            0.5000:   STEP LENGTH
 NULL.          -999.2500:   NO VALUE
 COMP. FENIX & SCISSON INC:   COMPANY
 WELL. S N.P.R. #3 #33-34:   WELL
 FLD .             TEAPOT:   FIELD
 LOC .      S34 T39N R78W:   LOCATION
 CNTY.            NATRONA:   COUNTY
 STAT.            WYOMING:   STATE
 CTRY. UNITED STATES OF AMERICA:   COUNTRY
 SRVC.       Schlumberger:   SERVICE COMPANY
 DATE.        18-MAR-1977:   LOGDATE
 API .       490251030400:   API NUMBER
~CURVE INFORMATION
#MNEM.UNIT       API CODE    CURVE DESCRIPTION
#----------   ------------   ------------------------------
 DEPT.F                  :   
 LL8 .OHMM   07 220 08 00:   LATEROLOG-8 RES.
 ILD .OHMM   07 120 46 00:   INDUCTION LOG DEEP
 ILM .OHMM   07 120 44 00:   INDUCTION LOG MEDIUM
 SPR .MV     07 010 01 00:   SPONTANEOUS POTENTIAL
 GRD .GAPI   45 310 01 00:   GAMMA RAY FROM DENSITY LOG
 CALD.IN     45 280 60 00:   CALIPER FROM DENSITY LOG
 RHOB.G/C3   45 350 01 00:   BULK DENSITY
 CORR.G/C3   45 356 01 00:   DENSITY CORRECTION
 DPHI.DEC    45 890 12 00:   DENSITY POROSITY SANDSTONE
~PARAMETER INFORMATION
#MNEM.UNIT          VALUE    DESCRIPTION
#----------   ------------   ------------------------------
 PD  .                 GL:   PERMANENT DATUM
 EPD .F              5081:   ELEVATION PERMANENT DATUM
 LMF .                 KB:   LOG MEASURED FROM
 DAPD.F                 5:   FEET ABOVE PERMANENT DATUM
 DMF .                 KB:   DRILLING MEASURED FROM
 EKB .F              5086:   KELLING BUSHING
 EGL .F              5081:   GROUND LEVEL
 DATE.            3-18-77:   RUN DATE
 RUN .                  1:   RUN NUMBER
 DD  .F               631:   DEPTH DRILLER
 DL  .F               637:   DEPTH LOGGER
 BLI .F               631:   BOTTOM LOG INTERVAL
 TLI .F                45:   TOP LOG INTERVAL
 CS  .IN            8.625:   CASING SIZE
 CBD .F                40:   CASING BOTTOM DRILLER
 CBL .F                45:   CASING BOTTOM LOGGER
 BS  .IN            7.875:   BIT SIZE
 BSD .F               631:   BIT SIZE AT DEPTH
 DFT .            KCL MUD:   DRILLING FLUID TYPE
 DFD .                8.7:   DRILLING FLUID DENSITY
 DFV .                 31:   DRILLING FLUID VISCOSITY
 DFPH.                  8:   DRILLING FLUID PH
 DFL .                8.2:   DRILLING FLUID LOSS
 MSS .                PIT:   MUD SAMPLE SOURCE
 RMS .OHMM            .27:   RESISTIVITY MUD SAMPLE
 MST .F                60:   MUD SAMPLE TEMPERATURE
 RMF .OHMM            .25:   RESISTIVITY MUD FILTRATE SAMPLE
 MFST.F                60:   MUD FILTRATE SAMPLE TEMPERATURE
 MFSS.                  M:   MUD FILTRATE SAMPLE SOURCE
 TCS .HRS            0400:   TIME CURCULATED STOPPED
 TLAB.HRS            0530:   TIME LOGGER AT BOTTOM
 LUN .               7711:   LOGGING UNIT NUMBER
 LUL .               CSPR:   LOGGING UNIT LOCATION
 ENGI.             SAYLER:   RECORDING ENGINEER
 WITN.         STUEBINGER:   WITNESSED BY
 CLNT.            A2DTECH:   CLIENT CODE
 ORIG.        2" 5" PRINT:   ORIGIN OF DATA
 UWI .       490251030400:   UNIQUE WELL ID
 DICO. A2D Technologies, Inc.:   DIGITIZING COMPANY
~OTHER INFORMATION
~A   DEPT      LL8        ILD        ILM        SPR         GRD      CALD       RHOB       CORR       DPHI   
# ...
   70.5000     6.9068     6.6687     6.9692   -46.3937    89.2722     8.3717     2.4415     0.0181     0.1281
   71.0000     6.8969     6.9483     6.9703   -46.3898    89.5522     8.3684     2.4391     0.0225     0.1301
   71.5000     6.8860     7.2323     6.9706   -46.3905    88.7745     8.3651     2.4433     0.0275     0.1261
   72.0000     6.8751     7.2271     6.9705   -46.3907    88.0104     8.3618     2.4400     0.0225     0.1248
   72.5000     6.8642     7.2127     6.9705   -46.3907    88.2977     8.3585     2.4248     0.0170     0.1336
   73.0000     6.8534     7.1983     6.9705   -46.3907    89.4428     8.3552     2.4172     0.0114     0.1399
   73.5000     6.8425     7.1839     6.9705   -46.3907    90.5679     8.3519     2.4097     0.0073     0.1440
   74.0000     6.8317     7.1696     6.9706   -46.3907    91.3211     8.3486     2.4111     0.0069     0.1466
   74.5000     6.8209     7.1553     6.9705   -46.3906    90.9922     8.3453     2.4197     0.0077     0.1396
   75.0000     6.8101     7.1410     6.9711   -46.3893    90.6335     8.3419     2.4197     0.0085     0.1388
   75.5000     6.7993     7.1268     6.9563   -46.3929    90.9102     8.3386     2.4132     0.0093     0.1440
   76.0000     6.7885     7.1126     6.9283   -46.4121    92.2168     8.3365     2.4075     0.0097     0.1472
   76.5000     6.7810     7.0984     6.9002   -46.2906    93.5843     8.3400     2.4093     0.0105     0.1453
   77.0000     6.7810     7.0842     6.8723   -46.4524    94.1808     8.3434     2.4170     0.0115     0.1436
   77.5000     6.7810     7.0701     6.8445   -46.6089    93.4797     8.3467     2.4248     0.0130     0.1387
   78.0000     6.7808     7.0560     6.8163   -46.7697    92.8015     8.3501     2.4327     0.0215     0.1334
   78.5000     6.7803     7.0349     6.7813   -46.9310    92.1949     8.3535     2.4359     0.0270     0.1316
   79.0000     6.7822     7.0998     6.8703   -47.0925    92.2330     8.3568     2.4265     0.0220     0.1374
   79.5000     6.7783     7.2768     7.0012   -47.2518    92.7359     8.3602     2.4182     0.0176     0.1405
   80.0000     6.9504     7.4399     7.1346   -47.3699    93.0214     8.3636     2.4243     0.0159     0.1378
   80.5000     7.0835     7.6049     7.2702   -47.2546    92.3389     8.3669     2.4284     0.0146     0.1346
   81.0000     7.2192     7.7744     7.4084   -47.1438    89.0866     8.3703     2.4272     0.0271     0.1349
   81.5000     7.3575     7.9478     7.5492   -47.0339    86.4688     8.3736     2.4261     0.0212     0.1355
   82.0000     7.4984     8.1250     7.6927   -46.9236    86.0738     8.3731     2.4260     0.0186     0.1358
   82.5000     7.6421     8.3062     7.8389   -46.8135    85.7930     8.3658     2.4351     0.0245     0.1308
   83.0000     7.7885     8.4913     7.9879   -46.7033    85.5192     8.3585     2.4461     0.0346     0.1215
   83.5000     7.9377     8.6806     8.1397   -46.5931    85.0571     8.3513     2.4516     0.0381     0.1198
   84.0000     8.0759     8.8742     8.2944   -46.4826    83.5912     8.3440     2.4423     0.0303     0.1242
   84.5000     8.0766     9.0155     8.4521   -46.3725    82.1325     8.3367     2.4307     0.0213     0.1290
   85.0000     7.9472     9.0988     8.6108   -46.2640    80.8504     8.3295     2.4323     0.0124     0.1331
   85.5000     7.7768     9.0988     8.6108   -46.2771    80.8393     8.3222     2.4364     0.0137     0.1303
   86.0000     7.6098     9.0988     8.3021   -46.5287    81.7249     8.3159     2.4385     0.0169     0.1294
   86.5000     7.4459     8.6192     8.0312   -46.7763    82.3182     8.3161     2.4341     0.0185     0.1313
   87.0000     7.2370     8.2053     7.7691   -47.0250    81.8123     8.3161     2.4253     0.0176     0.1363
   87.5000     6.9875     7.4030     6.7473   -47.3345    80.9046     8.3161     2.4081     0.0157     0.1435
   88.0000     6.7463     5.8930     5.2609   -47.7677    80.7193     8.3161     2.3875     0.0074     0.1560
   88.5000     6.5363     4.6911     4.1020   -48.1986    81.1882     8.3178     2.3669     0.0044     0.1685
   89.0000     6.0731     3.7342     3.1983   -48.6296    83.7784     8.3302     2.3463     0.0122     0.1810
   89.5000     4.1874     2.9726     2.4938   -49.0607    88.7775     8.3425     2.3261     0.0231     0.1972
   90.0000     2.9865     2.3663     2.2366   -49.4918    93.7256     8.3562     2.2846     0.0365     0.2153
   90.5000     2.3156     2.0712     2.1301   -49.9231    98.7129     8.4100     2.2351     0.0510     0.2465
   91.0000     2.1820     1.9934     2.0286   -50.3551   100.9598     8.4685     2.1853     0.0488     0.2776
   91.5000     2.0560     1.9246     1.9797   -50.7866   100.7555     8.4940     2.1409     0.0222     0.3050
   92.0000     1.9259     1.9243     2.1446   -51.1642    99.9456     8.4381     2.1124     0.0127     0.3238
   92.5000     1.9616     2.1761     2.3064   -51.1489    98.6298     8.3162     2.1144     0.0153     0.3288
   93.0000     2.1553     2.3922     2.7331   -50.2411    95.7357     8.3247     2.1482     0.0186     0.3118
   93.5000     2.5666     2.6301     3.3762   -49.2461    92.6495     8.3301     2.1913     0.0219     0.2860
   94.0000     4.0442     3.1988     4.1707   -48.2532    89.5452     8.3361     2.2486     0.0301     0.2435
   94.5000     6.1071     4.0632     5.1521   -47.3497    87.0423     8.3421     2.3051     0.0353     0.2050
   95.0000     8.9363     5.1613     6.3645   -47.0526    85.0037     8.3482     2.3606     0.0157     0.1759
   95.5000     9.3531     6.5560     7.8644   -46.7621    82.9884     8.3544     2.4166     0.0186     0.1467
   96.0000     9.4829     8.3277     9.7200   -46.4694    80.9759     8.3549     2.4343     0.0208     0.1320
   96.5000     9.7032    10.8342    12.9171   -46.1767    78.9602     8.3537     2.4307     0.0179     0.1343
   97.0000    10.5185    12.1388    12.8938   -45.8837    76.9304     8.3524     2.4251     0.0152     0.1379
   97.5000    11.4977    13.3916    13.1486   -45.5903    74.8501     8.3511     2.4207     0.0124     0.1414
   98.0000    12.5680    13.3947    13.1459   -45.2967    74.4284     8.3499     2.4250     0.0107     0.1366
   98.5000    13.1399    12.7792    12.2588   -45.0070    74.2494     8.3486     2.4359     0.0132     0.1253
   99.0000    12.4346    11.6115    11.4639   -44.8478    75.8049     8.3473     2.4451     0.0158     0.1240
   99.5000    11.6952    10.5503    10.7206   -45.0468    78.7761     8.3461     2.4407     0.0173     0.1274
  100.0000    10.9999     9.5872    10.0259   -45.2349    79.9396     8.3448     2.4338     0.0144     0.1319
  100.5000    10.3458     8.7123     9.3762   -45.4226    80.9243     8.3435     2.4272     0.0115     0.1365
  101.0000     9.5546     8.0005     8.7685   -45.6112    81.2281     8.3422     2.4193     0.0095     0.1410
  101.5000     7.5367     7.7830     8.1489   -45.8009    81.6177     8.3410     2.4119     0.0100     0.1456
  102.0000     5.9449     7.7830     8.0005   -45.9881    83.7844     8.3397     2.3956     0.0179     0.1566
  102.5000     5.2912     7.7830     8.0005   -46.1674    84.7774     8.3384     2.3986     0.0256     0.1586
  103.0000     7.2335     7.7833     8.5436   -45.6646    83.1890     8.3372     2.4070     0.0270     0.1473
  103.5000     9.1844     7.7808     9.0646   -45.0801    81.4653     8.3358     2.4196     0.0190     0.1397
  104.0000    11.3435     8.6508     9.6172   -44.3897    80.8157     8.3312     2.4319     0.0243     0.1326
  104.5000    11.0656     9.3132    10.2036   -43.6864    81.0617     8.3266     2.4347     0.0232     0.1318
  105.0000    10.7700    10.0258    10.8258   -42.9809    81.8212     8.3222     2.4329     0.0176     0.1318
  105.5000    10.4823    10.7921    11.4866   -42.2764    81.4847     8.3175     2.4199     0.0122     0.1365
  106.0000    10.3478    11.6169    12.1887   -41.5720    80.9922     8.3244     2.4075     0.0142     0.1451
  106.5000    10.6799    12.2655    12.9335   -40.8676    80.4835     8.3357     2.4015     0.0118     0.1514
