~VERSION INFORMATION
 VERS.                2.0:   CWLS LOG ASCII STANDARD - VERSION 2.0
 WRAP.                 NO:   ONE LINE PER DEPTH STEP
~WELL INFORMATION
#MNEM.UNIT      DATA TYPE    INFORMATION
#----------   ------------   ------------------------------
 STRT.F            2.0000:   START DEPTH
 STOP.F          689.0000:   STOP DEPTH
 STEP.F            0.5000:   STEP LENGTH
 NULL.          -999.2500:   NO VALUE
 COMP. U S NAVY-INTEX OIL:   COMPANY
 WELL. RES 3 TEAPOT DOM #74S-34:   WELL
 FLD .             TEAPOT:   FIELD
 LOC .      S34 T39N R78W:   LOCATION
 CNTY.            NATRONA:   COUNTY
 STAT.            WYOMING:   STATE
 CTRY. UNITED STATES OF AMERICA:   COUNTRY
 SRVC.      NL McCullough:   SERVICE COMPANY
 DATE.        10-AUG-1961:   LOGDATE
 API .       490250653900:   API NUMBER
~CURVE INFORMATION
#MNEM.UNIT       API CODE    CURVE DESCRIPTION
#----------   ------------   ------------------------------
 DEPT.F                  :   
 GR  .GAPI   35 310 01 00:   GAMMA RAY
 NPHI.DEC    35 890 00 00:   NEUTRON POROSITY
~PARAMETER INFORMATION
#MNEM.UNIT          VALUE    DESCRIPTION
#----------   ------------   ------------------------------
 PD  .                 GL:   PERMANENT DATUM
 EPD .F              5044:   ELEVATION PERMANENT DATUM
 LMF .                 KB:   LOG MEASURED FROM
 DAPD.F                 5:   FEET ABOVE PERMANENT DATUM
 DMF .                 KB:   DRILLING MEASURED FROM
 EKB .F              5049:   KELLING BUSHING
 EGL .F              5044:   GROUND LEVEL
 DATE.        10-AUG-1961:   RUN DATE
 RUN .                  1:   RUN NUMBER
 DD  .F               690:   DEPTH DRILLER
 DL  .F             690.5:   DEPTH LOGGER
 BLI .F               689:   BOTTOM LOG INTERVAL
 BS  .IN            7.875:   BIT SIZE
 BSD .F               690:   BIT SIZE AT DEPTH
 DFT .       OIL EMULSION:   DRILLING FLUID TYPE
 DFD .                9.9:   DRILLING FLUID DENSITY
 TCS .HRS               1:   TIME CURCULATED STOPPED
 ENGI.            JACKSON:   RECORDING ENGINEER
 WITN.          JORGENSON:   WITNESSED BY
 CLNT.            A2DTECH:   CLIENT CODE
 ORIG.           2" PRINT:   ORIGIN OF DATA
 UWI .       490250653900:   UNIQUE WELL ID
 DICO. A2D Technologies, Inc.:   DIGITIZING COMPANY
~OTHER INFORMATION
~A    DEPT        GR     NPHI   
# ...
  123.5000     6.6599     0.2728
  124.0000     6.6326     0.2754
  124.5000     6.6297     0.2762
  125.0000     6.6373     0.2755
  125.5000     6.6222     0.2715
  126.0000     6.4617     0.2662
  126.5000     6.0424     0.2510
  127.0000     5.9208     0.2262
  127.5000     5.8409     0.2055
  128.0000     5.6140     0.1980
  128.5000     5.2647     0.1919
  129.0000     5.0212     0.1783
  129.5000     4.8484     0.1777
  130.0000     4.8198     0.1785
  130.5000     4.8245     0.1795
  131.0000     4.9015     0.1814
  131.5000     5.1011     0.1815
  132.0000     5.4457     0.1848
  132.5000     5.7293     0.2019
  133.0000     5.9142     0.2040
  133.5000     6.0943     0.2047
  134.0000     6.1465     0.2192
  134.5000     6.2319     0.2219
  135.0000     6.3733     0.2202
  135.5000     6.3564     0.2121
  136.0000     6.1993     0.2089
  136.5000     5.9434     0.2078
  137.0000     5.1990     0.2014
  137.5000     4.8700     0.1759
  138.0000     4.8650     0.1761
  138.5000     4.7821     0.1776
  139.0000     4.5628     0.1941
  139.5000     4.5332     0.1920
  140.0000     4.8122     0.1903
  140.5000     4.8686     0.1851
  141.0000     4.7455     0.1790
  141.5000     4.5926     0.1793
  142.0000     4.6626     0.1806
  142.5000     4.7946     0.1877
  143.0000     4.9781     0.1938
  143.5000     5.0008     0.1935
  144.0000     4.9981     0.1935
  144.5000     4.9857     0.2020
  145.0000     4.9932     0.2028
  145.5000     5.0405     0.2035
  146.0000     5.1477     0.2032
  146.5000     5.3477     0.1946
  147.0000     5.4421     0.1853
  147.5000     5.3612     0.1872
  148.0000     5.2270     0.1903
  148.5000     5.3129     0.1914
  149.0000     5.4970     0.1902
  149.5000     5.5814     0.1867
  150.0000     5.5814     0.1829
  150.5000     5.5658     0.1872
  151.0000     5.5275     0.1893
  151.5000     5.4306     0.1918
  152.0000     5.2249     0.1935
  152.5000     5.1335     0.1932
  153.0000     5.0837     0.1920
  153.5000     4.9929     0.1896
  154.0000     4.9545     0.1845
  154.5000     4.8650     0.1851
  155.0000     4.8228     0.1866
  155.5000     4.8198     0.1851
  156.0000     4.8047     0.1706
  156.5000     4.4201     0.1621
  157.0000     4.2552     0.1426
  157.5000     4.1823     0.1180
  158.0000     3.8469     0.1179
  158.5000     3.6750     0.1177
  159.0000     3.6045     0.1177
  159.5000     3.5754     0.1092
  160.0000     3.4784     0.0491
  160.5000     3.4136     0.0482
  161.0000     3.3869     0.0587
  161.5000     3.4314     0.0859
  162.0000     3.8188     0.0966
  162.5000     4.5407     0.1724
  163.0000     5.0309     0.1914
  163.5000     5.2229     0.1952
  164.0000     5.1480     0.1999
  164.5000     5.1063     0.1905
  165.0000     5.1249     0.1872
  165.5000     5.0038     0.1930
  166.0000     4.9404     0.1922
  166.5000     4.9445     0.1892
  167.0000     4.9953     0.1821
  167.5000     5.2798     0.1845
  168.0000     5.3986     0.1845
  168.5000     5.4279     0.1842
  169.0000     5.4851     0.1827
  169.5000     5.7775     0.1815
  170.0000     6.1335     0.1817
  170.5000     6.6229     0.1863
  171.0000     6.6071     0.1991
  171.5000     6.4753     0.2067
  172.0000     6.4713     0.2072
  172.5000     6.5090     0.2114
  173.0000     6.6964     0.2121
  173.5000     6.8676     0.2131
  174.0000     7.1124     0.2202
  174.5000     7.2792     0.2200
  175.0000     7.3336     0.2192
  175.5000     7.3388     0.2184
  176.0000     7.3462     0.2212
  176.5000     7.4405     0.2281
  177.0000     7.5665     0.2250
  177.5000     7.5739     0.2244
  178.0000     7.4940     0.2245
  178.5000     7.3000     0.2250
  179.0000     7.1048     0.2262
  179.5000     7.0941     0.2299
  180.0000     7.1476     0.2351
  180.5000     7.2330     0.2362
  181.0000     7.2632     0.2359
  181.5000     7.2809     0.2300
  182.0000     7.2934     0.2205
  182.5000     7.3009     0.2168
  183.0000     7.3117     0.2177
  183.5000     7.3465     0.2196
  184.0000     7.5649     0.2199
  184.5000     7.5228     0.2214
  185.0000     7.2119     0.2267
  185.5000     7.0973     0.2284
  186.0000     7.0929     0.2294
  186.5000     7.0759     0.2311
  187.0000     7.0143     0.2329
  187.5000     7.0671     0.2334
  188.0000     7.2059     0.2344
  188.5000     7.3911     0.2359
  189.0000     7.6931     0.2386
  189.5000     7.9621     0.2355
  190.0000     8.0701     0.2311
  190.5000     8.0475     0.2305
  191.0000     7.7926     0.2305
  191.5000     7.5407     0.2308
  192.0000     7.4517     0.2320
  192.5000     7.4517     0.2332
  193.0000     7.4495     0.2343
  193.5000     7.4442     0.2353
  194.0000     7.3462     0.2351
  194.5000     7.2552     0.2232
  195.0000     7.4819     0.2217
  195.5000     7.4668     0.2154
  196.0000     7.4305     0.2103
  196.5000     7.3772     0.2139
  197.0000     7.2557     0.2202
  197.5000     7.1088     0.2215
  198.0000     6.9510     0.2222
  198.5000     6.7278     0.2230
  199.0000     6.6686     0.2233
  199.5000     6.6567     0.2234
  200.0000     6.6390     0.2248
  200.5000     6.6213     0.2264
  201.0000     6.6036     0.2273
  201.5000     6.5860     0.2283
  202.0000     6.5683     0.2294
  202.5000     6.6045     0.2330
  203.0000     6.9615     0.2426
  203.5000     6.9389     0.2449
  204.0000     6.9211     0.2456
  204.5000     6.9163     0.2336
  205.0000     6.9917     0.2288
  205.5000     7.1020     0.2260
  206.0000     7.0309     0.2224
  206.5000     6.8258     0.2218
  207.0000     6.8229     0.2247
  207.5000     6.8024     0.2381
  208.0000     6.7655     0.2388
  208.5000     6.7357     0.2387
  209.0000     6.6891     0.2351
  209.5000     6.6750     0.2283
  210.0000     6.6916     0.2215
  210.5000     6.8342     0.2212
  211.0000     7.0219     0.2224
  211.5000     7.1340     0.2236
  212.0000     7.1727     0.2230
  212.5000     7.1048     0.2189
  213.0000     7.0866     0.2138
  213.5000     7.0904     0.2058
  214.0000     7.0973     0.1939
  214.5000     7.0660     0.1910
  215.0000     6.9736     0.1955
  215.5000     6.9465     0.2019
  216.0000     6.9890     0.2091
  216.5000     7.0646     0.2176
  217.0000     7.1425     0.2229
  217.5000     7.2572     0.2256
  218.0000     7.5139     0.2291
  218.5000     7.4593     0.2291
  219.0000     7.2142     0.2288
  219.5000     7.0973     0.2288
  220.0000     7.1727     0.2273
  220.5000     7.3230     0.2185
  221.0000     7.4882     0.2203
  221.5000     7.5498     0.2294
  222.0000     7.5534     0.2300
  222.5000     7.5694     0.2227
  223.0000     7.5347     0.2199
  223.5000     7.2582     0.2194
  224.0000     7.1275     0.2215
  224.5000     7.2707     0.2284
  225.0000     7.4216     0.2343
  225.5000     7.4291     0.2351
  226.0000     7.3537     0.2267
  226.5000     7.2049     0.2221
  227.0000     6.9083     0.2206
  227.5000     6.7504     0.2202
  228.0000     6.7118     0.2210
  228.5000     6.6660     0.2212
  229.0000     6.6674     0.2212
  229.5000     6.6830     0.2191
  230.0000     6.7609     0.2085
  230.5000     6.7966     0.2200
  231.0000     6.7341     0.2251
  231.5000     6.6956     0.2288
  232.0000     6.6448     0.2293
  232.5000     6.6331     0.2250
  233.0000     6.6297     0.2161
  233.5000     6.6448     0.2155
  234.0000     6.7449     0.2171
  234.5000     7.1302     0.2258
  235.0000     7.2956     0.2328
  235.5000     7.1008     0.2361
  236.0000     6.7739     0.2367
  236.5000     6.6750     0.2370
  237.0000     6.6674     0.2339
  237.5000     6.6768     0.2170
  238.0000     6.6825     0.2143
  238.5000     6.6216     0.2149
  239.0000     6.5769     0.2198
  239.5000     6.6071     0.2222
  240.0000     6.7021     0.2228
  240.5000     6.7147     0.2231
  241.0000     6.7428     0.2228
  241.5000     6.7914     0.2208
  242.0000     6.8321     0.2140
  242.5000     6.8413     0.2161
  243.0000     6.7741     0.2203
  243.5000     6.8211     0.2222
  244.0000     7.1878     0.2229
  244.5000     7.4523     0.2269
