~VERSION INFORMATION
 VERS.                2.0:   CWLS LOG ASCII STANDARD - VERSION 2.0
 WRAP.                 NO:   ONE LINE PER DEPTH STEP
~WELL INFORMATION
#MNEM.UNIT      DATA TYPE    INFORMATION
#----------   ------------   ------------------------------
 STRT.F            0.0000:   START DEPTH
 STOP.F          556.0000:   STOP DEPTH
 STEP.F            0.5000:   STEP LENGTH
 NULL.          -999.2500:   NO VALUE
 COMP.       F D SERV INC:   COMPANY
 WELL. NAVAL PETROLEUM RESERVE NPR #3 #86-3 SX 3:   WELL
 FLD .             TEAPOT:   FIELD
 LOC .       S3 T38N R78W:   LOCATION
 CNTY.            NATRONA:   COUNTY
 STAT.            WYOMING:   STATE
 CTRY. UNITED STATES OF AMERICA:   COUNTRY
 SRVC.      Western Atlas:   SERVICE COMPANY
 DATE.        24-OCT-1992:   LOGDATE
 API .       490252255300:   API NUMBER
~CURVE INFORMATION
#MNEM.UNIT       API CODE    CURVE DESCRIPTION
#----------   ------------   ------------------------------
 DEPT.F                  :   
 GRR .GAPI   07 310 01 00:   GAMMA RAY
 RILD.OHMM   07 120 46 00:   INDUCTION LOG DEEP RESISTIVITY
 RILM.OHMM   07 120 44 00:   RESITIVITY LONG MEDIUM
~PARAMETER INFORMATION
#MNEM.UNIT          VALUE    DESCRIPTION
#----------   ------------   ------------------------------
 PD  .                 GL:   PERMANENT DATUM
 EPD .F              5157:   ELEVATION PERMANENT DATUM
 LMF .                 KB:   LOG MEASURED FROM
 DAPD.F                10:   FEET ABOVE PERMANENT DATUM
 DMF .                 KB:   DRILLING MEASURED FROM
 EKB .F              5167:   KELLING BUSHING
 EDF .F              5166:   DRILLING FLOOR
 EGL .F              5157:   GROUND LEVEL
 DATE.        24-OCT-1992:   RUN DATE
 RUN .                  1:   RUN NUMBER
 DD  .F               565:   DEPTH DRILLER
 DL  .F               564:   DEPTH LOGGER
 BLI .F               564:   BOTTOM LOG INTERVAL
 TLI .F                 0:   TOP LOG INTERVAL
 CS  .IN            8.625:   CASING SIZE
 CBD .F                85:   CASING BOTTOM DRILLER
 CBL .F                56:   CASING BOTTOM LOGGER
 BS  .IN            7.875:   BIT SIZE
 BSD .F               565:   BIT SIZE AT DEPTH
 DFT .           AIR FOAM:   DRILLING FLUID TYPE
 DFD .                   :   DRILLING FLUID DENSITY
 DFV .                   :   DRILLING FLUID VISCOSITY
 DFPH.                   :   DRILLING FLUID PH
 DFL .                   :   DRILLING FLUID LOSS
 MSS .                   :   MUD SAMPLE SOURCE
 RMS .OHMM               :   RESISTIVITY MUD SAMPLE
 MST .F                  :   MUD SAMPLE TEMPERATURE
 RMF .OHMM               :   RESISTIVITY MUD FILTRATE SAMPLE
 MFST.F                  :   MUD FILTRATE SAMPLE TEMPERATURE
 RMC .OHMM               :   RESISTIVITY MUD CAKE
 MCST.F                  :   MUD CAKE SAMPLE TEMPERATURE
 MFSS.                   :   MUD FILTRATE SAMPLE SOURCE
 MCSS.                   :   MUD CAKE SAMPLE SOURCE
 RMB .OHMM               :   RESISTIVITY MUD AT BHT
 BHT .F                  :   BOTTOM HOLE TEMPERATURE
 TCS .HRS               1:   TIME CURCULATED STOPPED
 TLAB.HRS                :   TIME LOGGER AT BOTTOM
 MRT .F                76:   MAXIMUM RECORDED TEMPERATURE
 LUN .            HL-6274:   LOGGING UNIT NUMBER
 LUL .             CASPER:   LOGGING UNIT LOCATION
 ENGI.             RAUTIO:   RECORDING ENGINEER
 WITN.        GARY STRONG:   WITNESSED BY
 CLNT.            A2DTECH:   CLIENT CODE
 ORIG.           5" PRINT:   ORIGIN OF DATA
 UWI .       490252255300:   UNIQUE WELL ID
 DICO. A2D Technologies, Inc.:   DIGITIZING COMPANY
 OS  .                   :   OTHER SERVICES
 PWI .                   :   PRIMARY WELL IDENTIFIER
 R1  .                   :   REMARKS 1
 R2  .                   :   REMARKS 2
 LSRV.                   :   LOG MNEMONIC
~OTHER INFORMATION
~A    DEPT      GRR      RILD       RILM   
# ...
  273.0000   142.8391     6.5109     6.5502
  273.5000   142.5292     6.6019     6.5480
  274.0000   141.0105     6.5555     6.5009
  274.5000   139.7943     6.4193     6.3648
  275.0000   141.4020     6.2423     6.2315
  275.5000   143.1109     5.9862     5.9750
  276.0000   141.5907     5.7807     5.6498
  276.5000   139.4668     5.4667     5.3761
  277.0000   140.3687     5.1339     5.1100
  277.5000   145.2039     4.9577     4.8432
  278.0000   153.3675     4.7875     4.7419
  278.5000   153.9668     4.6554     4.7077
  279.0000   152.0059     4.6877     4.7393
  279.5000   144.2713     4.7532     4.8380
  280.0000   136.0959     4.8533     5.0430
  280.5000   134.2746     5.0252     5.3349
  281.0000   135.4791     5.2031     5.6732
  281.5000   141.2221     5.4250     6.0805
  282.0000   145.4522     5.7044     6.5627
  282.5000   146.0515     6.0371     6.8886
  283.0000   141.3796     6.3672     7.2306
  283.5000   138.1714     6.7320     7.5370
  284.0000   139.6784     7.0682     7.7478
  284.5000   141.1868     7.4731     7.7998
  285.0000   137.8512     7.6840     7.7972
  285.5000   137.2402     7.7914     7.7951
  286.0000   139.3523     7.8453     7.7389
  286.5000   143.5867     7.7295     7.6831
  287.0000   148.4943     7.6284     7.6278
  287.5000   149.0170     7.4700     7.4681
  288.0000   147.1942     7.3149     7.3118
  288.5000   143.8601     7.1630     7.1544
  289.0000   140.5259     7.0142     6.9598
  289.5000   138.4020     6.8683     6.7668
  290.0000   138.0131     6.7135     6.4882
  290.5000   142.0212     6.3163     6.1351
  291.0000   144.1675     5.9318     5.7210
  291.5000   145.6388     5.2684     5.1523
  292.0000   147.4484     4.8452     4.4814
  292.5000   151.9811     4.6789     4.3269
  293.0000   154.6998     4.6138     4.3864
  293.5000   153.7848     4.6135     4.6361
  294.0000   149.2403     4.6779     4.9690
  294.5000   141.6702     4.8435     5.3258
  295.0000   140.7566     5.1210     5.7883
  295.5000   143.7750     5.5675     6.3349
  296.0000   148.9128     6.0953     6.8372
  296.5000   151.6301     6.7668     7.1823
  297.0000   152.2308     7.2550     7.5325
  297.5000   152.5275     7.5662     7.6366
  298.0000   151.0073     7.7238     7.7411
  298.5000   147.3706     7.7773     7.7390
  299.0000   146.1543     7.8858     7.7369
  299.5000   146.4511     7.9405     7.7889
  300.0000   147.9567     7.8848     7.8827
  300.5000   151.2791     7.8909     8.0054
  301.0000   151.2732     7.9389     8.0044
  301.5000   150.3596     7.8831     7.9457
  302.0000   148.8409     7.8825     7.8915
  302.5000   145.8093     7.8820     7.8355
  303.0000   143.3828     7.8267     7.8344
  303.5000   143.3755     7.8262     7.8334
  304.0000   143.7216     7.8256     7.7780
  304.5000   147.6551     7.7707     7.7769
  305.0000   153.1014     7.7701     7.7759
  305.5000   153.0721     7.8241     7.7748
  306.0000   152.4962     7.8783     7.7737
  306.5000   154.3116     7.8229     7.7185
  307.0000   155.8245     7.7680     7.6108
  307.5000   155.2194     7.6599     7.5045
  308.0000   154.3116     7.5533     7.3484
  308.5000   153.7065     7.3451     7.1956
  309.0000   153.7065     7.1925     6.9970
  309.5000   153.7478     6.9455     6.7563
  310.0000   154.0091     6.7541     6.5642
  310.5000   154.6142     6.5678     6.4784
  311.0000   155.8245     6.4765     6.4325
  311.5000   156.7322     6.3863     6.4317
  312.0000   154.6142     6.2975     6.4760
  312.5000   150.9834     6.1667     6.4299
  313.0000   149.1538     5.9917     6.2525
  313.5000   147.6551     5.7908     5.8312
  314.0000   147.0499     5.5920     5.5873
  314.5000   147.6551     5.5142     5.4754
  315.0000   150.6808     5.5138     5.4367
  315.5000   150.9834     5.5520     5.4741
  316.0000   144.6293     5.5905     5.5500
  316.5000   138.8805     5.7082     5.7059
  317.0000   139.5643     5.8318     5.9072
  317.5000   147.0499     6.1195     6.2447
  318.0000   151.2859     6.4701     6.6064
  318.5000   152.1936     6.7461     6.8819
  319.0000   152.4962     7.0338     7.0264
  319.5000   151.5885     7.1321     7.1240
  320.0000   147.9576     7.0328     7.1228
  320.5000   142.2088     6.8868     6.9746
  321.0000   140.0524     6.7419     6.7351
  321.5000   138.8805     6.4527     6.4139
  322.0000   140.0908     5.9475     5.8839
  322.5000   141.9062     5.5854     5.0958
  323.0000   144.9319     5.4694     5.0247
  323.5000   148.2602     5.4310     5.1301
  324.0000   148.8654     5.4687     5.2376
  324.5000   146.7252     5.5451     5.4224
  325.0000   144.9319     5.7015     5.6924
  325.5000   146.4448     5.8672     6.0597
  326.0000   147.9576     6.0276     6.6866
  326.5000   147.0499     6.2847     7.0605
  327.0000   143.7216     6.5986     7.3606
  327.5000   140.3933     7.0255     7.6736
  328.0000   140.0584     7.5850     7.8895
  328.5000   142.5577     7.9638     8.0546
  329.0000   143.7216     8.1316     8.1101
  329.5000   141.6036     8.1879     8.1653
  330.0000   138.2753     8.2446     8.1680
  330.5000   137.0650     8.3597     8.2773
  331.0000   136.7625     8.4178     8.3340
  331.5000   136.7625     8.4761     8.4497
  332.0000   135.8548     8.5348     8.5076
  332.5000   134.9471     8.5939     8.5662
  333.0000   134.3419     8.6534     8.6248
  333.5000   134.3419     8.7133     8.6234
  334.0000   134.6445     8.7030     8.5907
  334.5000   135.2496     8.6514     8.5610
  335.0000   135.8548     8.6509     8.5598
  335.5000   137.9728     8.7108     8.6187
  336.0000   141.0147     8.7102     8.6942
  336.5000   142.5588     8.7707     8.8594
  337.0000   143.1165     8.8313     9.1720
  337.5000   143.7216     8.7694     9.3643
  338.0000   142.8139     8.4543     9.2955
  338.5000   136.4599     7.9526     8.8963
  339.0000   130.4085     7.5207     8.0871
  339.5000   127.6853     6.9166     7.2337
  340.0000   127.9879     6.3610     6.1626
  340.5000   131.0136     5.8910     5.3608
  341.0000   135.8548     5.7687     5.3978
  341.5000   141.9062     5.7683     5.6664
  342.0000   141.6036     5.7711     5.9496
  342.5000   139.1831     5.8893     6.3967
  343.0000   133.1316     6.1405     7.0281
  343.5000   126.7776     6.5834     7.8007
  344.0000   124.0545     7.2580     8.9648
  344.5000   124.9622     8.6999     9.7446
  345.0000   127.3828     9.7260    10.1589
  345.5000   129.5008    10.1408    10.2364
  346.0000   129.8033    10.2825    10.2986
  346.5000   129.1982    10.3537    10.3069
  347.0000   129.8033    10.4253    10.4398
  347.5000   131.0237    10.5710    10.6587
  348.0000   135.4716    10.7187    10.8821
  348.5000   137.3676    10.8684    11.2661
  349.0000   134.0393    11.2533    12.0767
  349.5000   128.5930    12.4063    13.0361
  350.0000   118.6082    13.4880    14.9816
  350.5000   105.2950    14.4609    15.7411
  351.0000    78.9713    15.1832    15.8376
  351.5000    74.1301    16.1695    16.0586
  352.0000    77.1558    17.2692    16.8591
  352.5000    81.6944    18.7114    17.8235
  353.0000    80.4841    19.3739    18.9896
  353.5000    76.8533    19.5085    19.5091
  354.0000    69.5915    19.1031    19.3722
  354.5000    65.3555    18.5764    18.9705
  355.0000    67.1095    18.3179    18.7069
  355.5000    72.2473    18.3196    18.5759
  356.0000    77.6878    18.5917    18.4458
  356.5000    80.4051    18.9636    18.4445
  357.0000    81.9121    19.3631    18.5920
  357.5000    84.6293    19.7711    19.0950
  358.0000    85.5312    20.1876    19.4966
  358.5000    83.4059    20.7571    20.4689
  359.0000    79.1640    21.6424    21.7910
  359.5000    72.5016    22.5687    23.0375
  360.0000    69.4700    24.2386    24.5254
  360.5000    68.8590    25.9382    25.7713
  361.0000    70.3660    27.0444    27.0320
  361.5000    72.8209    28.0020    27.9876
  362.0000    74.5903    28.9934    28.7760
  362.5000    75.4907    30.0199    30.0014
  363.0000    77.3003    31.7398    30.8465
  363.5000    79.4124    34.7487    31.9370
