~VERSION INFORMATION
 VERS.                2.0:   CWLS LOG ASCII STANDARD - VERSION 2.0
 WRAP.                 NO:   ONE LINE PER DEPTH STEP
~WELL INFORMATION
#MNEM.UNIT      DATA TYPE    INFORMATION
#----------   ------------   ------------------------------
 STRT.F           30.0000:   START DEPTH
 STOP.F         3375.5000:   STOP DEPTH
 STEP.F            0.5000:   STEP LENGTH
 NULL.          -999.2500:   NO VALUE
 COMP.       INTEX OIL CO:   COMPANY
 WELL.   NPR ##3 57-SX-34:   WELL
 FLD .             TEAPOT:   FIELD
 LOC .      S34 T39N R78W:   LOCATION
 CNTY.            NATRONA:   COUNTY
 STAT.            WYOMING:   STATE
 CTRY. UNITED STATES OF AMERICA:   COUNTRY
 SRVC.       Schlumberger:   SERVICE COMPANY
 DATE.        12-AUG-1967:   LOGDATE
 API .       490251023200:   API NUMBER
~CURVE INFORMATION
#MNEM.UNIT       API CODE    CURVE DESCRIPTION
#----------   ------------   ------------------------------
 DEPT.F                  :   
 SPR .MV     07 010 01 00:   SPONTANEOUS POTENTIAL
 ILD .OHMM   07 120 46 00:   INDUCTION LOG DEEP
 ASN .OHMM   05 041 16 00:   AMPLIFIED SHORT NORMAL 16"
 CILD.MMHO   07 110 46 00:   CONDUCTIVITY INDUCTION LOG DEEP
 LL8 .OHMM   07 220 08 00:   LATEROLOG-8 RES.
 ILM .OHMM   07 120 44 00:   INDUCTION LOG MEDIUM
 CALD.IN     45 280 60 00:   CALIPER
 GRD .GAPI   45 310 01 00:   GAMMA RAY FROM DENSITY LOG
 RHOB.G/C3   45 350 01 00:   BULK DENSITY
 DPHI.DEC    45 890 12 00:   DENSITY POROSITY SANDSTONE
 CORR.G/C3   45 356 01 00:   DENSITY CORRECTION
~PARAMETER INFORMATION
#MNEM.UNIT          VALUE    DESCRIPTION
#----------   ------------   ------------------------------
 PD  .                 GL:   PERMANENT DATUM
 EPD .F              5084:   ELEVATION PERMANENT DATUM
 LMF .                 KB:   LOG MEASURED FROM
 DAPD.F                12:   FEET ABOVE PERMANENT DATUM
 DMF .                 KB:   DRILLING MEASURED FROM
 EKB .F              5096:   KELLING BUSHING
 EGL .F              5084:   GROUND LEVEL
 DATE.            8-12-67:   RUN DATE
 RUN .                  2:   RUN NUMBER
 DD  .F              3380:   DEPTH DRILLER
 DL  .F              3371:   DEPTH LOGGER
 BLI .F              3368:   BOTTOM LOG INTERVAL
 TLI .F               630:   TOP LOG INTERVAL
 CS  .IN            10.75:   CASING SIZE
 CBD .F               643:   CASING BOTTOM DRILLER
 BS  .IN            9.875:   BIT SIZE
 BSD .F              3380:   BIT SIZE AT DEPTH
 DFT .               CHEM:   DRILLING FLUID TYPE
 DFD .                9.4:   DRILLING FLUID DENSITY
 DFV .                 48:   DRILLING FLUID VISCOSITY
 DFPH.                8.5:   DRILLING FLUID PH
 DFL .                3.6:   DRILLING FLUID LOSS
 MSS .          FLOW LINE:   MUD SAMPLE SOURCE
 RMS .OHMM           2.81:   RESISTIVITY MUD SAMPLE
 MST .F                88:   MUD SAMPLE TEMPERATURE
 RMF .OHMM            1.7:   RESISTIVITY MUD FILTRATE SAMPLE
 MFST.F                86:   MUD FILTRATE SAMPLE TEMPERATURE
 MFSS.                  M:   MUD FILTRATE SAMPLE SOURCE
 RMB .OHMM           2.03:   RESISTIVITY MUD AT BHT
 BHT .F               122:   BOTTOM HOLE TEMPERATURE
 TCS .HRS             2.5:   TIME CURCULATED STOPPED
 MRT .F               122:   MAXIMUM RECORDED TEMPERATURE
 LUN .               7030:   LOGGING UNIT NUMBER
 LUL .               CSPR:   LOGGING UNIT LOCATION
 ENGI.             SCHODE:   RECORDING ENGINEER
 WITN.                MAY:   WITNESSED BY
 CLNT.            A2DTECH:   CLIENT CODE
 ORIG.   1" 2.5" 5" PRINT:   ORIGIN OF DATA
 UWI .       490251023200:   UNIQUE WELL ID
 DICO. A2D Technologies, Inc.:   DIGITIZING COMPANY
~OTHER INFORMATION
~A   DEPT      SPR        ILD        ASN       CILD        LL8        ILM       CALD         GRD      RHOB       DPHI       CORR   
# ...
  457.0000   -51.3447    16.5468    17.0302    55.0759  -999.2500  -999.2500     9.9962    63.7538     2.3732     0.1675     0.0327
  457.5000   -51.5544    16.7849    17.1290    53.8578  -999.2500  -999.2500     9.9960    62.7546     2.3769     0.1695     0.0309
  458.0000   -51.7713    17.0146    17.2253    52.6406  -999.2500  -999.2500     9.9960    63.0971     2.3670     0.1826     0.0287
  458.5000   -51.7860    17.0278    17.3216    52.1583  -999.2500  -999.2500     9.9972    64.0146     2.3551     0.1809     0.0271
  459.0000   -51.7880    17.0299    17.4236    52.5234  -999.2500  -999.2500     9.9834    64.9547     2.3624     0.1719     0.0275
  459.5000   -51.7789    17.0163    17.5139    52.8334  -999.2500  -999.2500     9.9479    64.7297     2.3829     0.1630     0.0336
  460.0000   -51.6739    16.8832    17.6034    53.1373  -999.2500  -999.2500     9.9139    64.9661     2.3907     0.1591     0.0393
  460.5000   -51.5883    16.7660    17.4243    53.4412  -999.2500  -999.2500     9.8792    65.9677     2.3848     0.1614     0.0453
  461.0000   -51.4822    16.6314    17.2299    53.7451  -999.2500  -999.2500     9.8448    66.9260     2.3810     0.1614     0.0514
  461.5000   -51.3497    16.4075    17.0233    54.0490  -999.2500  -999.2500     9.8107    67.9001     2.3912     0.1535     0.0571
  462.0000   -50.7846    16.1645    16.8283    55.1150  -999.2500  -999.2500     9.7745    67.7871     2.4016     0.1554     0.0619
  462.5000   -50.2623    15.9200    16.6242    56.4764  -999.2500  -999.2500     9.7574    66.1224     2.3854     0.1613     0.0573
  463.0000   -50.7214    15.6776    16.4211    57.8378  -999.2500  -999.2500     9.7591    64.3450     2.3911     0.1561     0.0529
  463.5000   -50.9887    15.4341    16.2626    59.1992  -999.2500  -999.2500     9.7588    62.6511     2.4158     0.1409     0.0486
  464.0000   -50.5802    15.1909    16.0963    60.5606  -999.2500  -999.2500     9.7585    63.3898     2.4108     0.1438     0.0456
  464.5000   -50.1707    14.9474    15.8286    61.9221  -999.2500  -999.2500     9.7591    64.6696     2.3990     0.1516     0.0588
  465.0000   -49.8180    14.7045    15.5918    63.2835  -999.2500  -999.2500     9.7586    65.9959     2.3874     0.1594     0.0696
  465.5000   -49.9735    14.4613    15.3460    64.6449  -999.2500  -999.2500     9.7585    66.3913     2.3753     0.1660     0.0788
  466.0000   -50.1738    14.2165    15.2306    66.0063  -999.2500  -999.2500     9.7605    65.8284     2.3693     0.1586     0.0600
  466.5000   -50.0017    13.9776    15.2075    67.3677  -999.2500  -999.2500     9.7551    66.9435     2.4146     0.1440     0.0452
  467.0000   -49.8311    13.7330    15.1762    67.7810  -999.2500  -999.2500     9.7918    68.3843     2.4409     0.1283     0.0332
  467.5000   -49.6446    13.7033    15.1450    67.5600  -999.2500  -999.2500     9.8315    69.7880     2.4204     0.1275     0.0610
  468.0000   -49.4826    13.7768    15.1158    67.3389  -999.2500  -999.2500     9.8728    70.8710     2.4018     0.1337     0.0851
  468.5000   -49.2881    13.8471    15.0840    67.1179  -999.2500  -999.2500     9.9177    70.2760     2.3819     0.1508     0.1049
  469.0000   -49.0844    13.9159    15.0595    66.8969  -999.2500  -999.2500     9.8768    69.7459     2.3798     0.1621     0.1019
  469.5000   -48.9116    13.9847    15.0052    66.6759  -999.2500  -999.2500     9.7934    68.9360     2.3813     0.1597     0.0829
  470.0000   -48.6469    14.0554    14.9289    66.4549  -999.2500  -999.2500     9.7122    67.7223     2.3666     0.1707     0.0662
  470.5000   -49.0803    14.0482    14.8540    66.2339  -999.2500  -999.2500     9.6337    65.2553     2.3937     0.1475     0.0564
  471.0000   -50.1902    14.0053    14.7793    66.0129  -999.2500  -999.2500     9.5637    63.8252     2.4365     0.1314     0.0655
  471.5000   -50.4701    13.9662    14.7055    65.9449  -999.2500  -999.2500     9.5621    65.7180     2.4251     0.1330     0.0970
  472.0000   -50.0483    13.9232    14.6117    65.9449  -999.2500  -999.2500     9.5592    66.7526     2.4056     0.1481     0.1282
  472.5000   -49.7210    13.8751    14.4958    65.9449  -999.2500  -999.2500     9.5628    61.9332     2.3777     0.1692     0.1527
  473.0000   -49.3680    13.6710    14.3821    66.6798  -999.2500  -999.2500     9.5630    62.9209     2.4327     0.1354     0.1536
  473.5000   -49.0241    13.4241    14.2667    68.3005  -999.2500  -999.2500     9.6608    64.4349     2.4210     0.1350     0.1424
  474.0000   -48.6379    13.1869    14.1524    69.9213  -999.2500  -999.2500     9.7602    66.1599     2.4134     0.1385     0.1028
  474.5000   -48.4017    12.9330    14.0392    71.5420  -999.2500  -999.2500     9.8603    67.6642     2.4249     0.1350     0.0924
  475.0000   -48.1305    12.6923    13.9181    73.1627  -999.2500  -999.2500     9.9544    69.0297     2.4457     0.1264     0.0802
  475.5000   -47.8767    12.5452    13.9028    73.8189  -999.2500  -999.2500    10.0312    70.0749     2.4487     0.1208     0.0721
  476.0000   -47.6154    12.7042    13.9602    73.8189  -999.2500  -999.2500    10.0353    69.4197     2.4270     0.1287     0.0731
  476.5000   -47.3517    12.8498    14.0246    73.8189  -999.2500  -999.2500    10.0375    66.6489     2.4077     0.1487     0.0764
  477.0000   -47.0932    13.3364    14.0772    70.8583  -999.2500  -999.2500    10.0482    66.9615     2.4026     0.1439     0.0708
  477.5000   -46.6702    13.9397    14.6158    66.9685  -999.2500  -999.2500    10.0594    65.2324     2.4282     0.1356     0.0433
  478.0000   -46.1787    14.5178    15.2710    64.5118  -999.2500  -999.2500    10.0704    64.0346     2.4488     0.1272     0.0275
  478.5000   -45.6872    15.1229    15.9266    62.5669  -999.2500  -999.2500    10.0742    63.8215     2.4717     0.1130     0.0360
  479.0000   -45.2046    15.7036    16.5805    60.6221  -999.2500  -999.2500    10.0536    63.0524     2.4844     0.1005     0.0440
  479.5000   -44.7113    16.2210    17.1845    58.6772  -999.2500  -999.2500    10.0355    62.4622     2.4980     0.0906     0.0527
  480.0000   -44.2147    16.2498    17.6314    58.0709  -999.2500  -999.2500    10.0162    61.8033     2.5198     0.0732     0.0570
  480.5000   -43.9257    16.0442    17.2459    59.0579  -999.2500  -999.2500     9.9973    61.1293     2.5421     0.0529     0.0505
  481.0000   -44.2313    15.3284    16.4100    61.1417  -999.2500  -999.2500     9.9785    60.8446     2.5603     0.0544     0.0410
  481.5000   -44.5229    14.6889    15.5791    63.2255  -999.2500  -999.2500     9.9595    61.6713     2.5324     0.0678     0.0488
  482.0000   -44.8342    14.0238    14.7569    67.0866  -999.2500  -999.2500     9.9405    61.0527     2.5072     0.0843     0.0634
  482.5000   -45.1420    13.3680    13.9275    71.9488  -999.2500  -999.2500     9.9216    59.5611     2.4796     0.1009     0.0572
  483.0000   -45.4370    12.7071    13.2776    76.2992  -999.2500  -999.2500     9.9027    60.1098     2.4520     0.1174     0.0491
  483.5000   -45.7493    12.0436    12.9039    78.7303  -999.2500  -999.2500     9.8836    60.7038     2.4375     0.1295     0.0401
  484.0000   -45.6320    11.5269    12.5216    79.8681  -999.2500  -999.2500     9.8652    62.2424     2.4305     0.1283     0.0342
  484.5000   -45.3273    11.5226    12.4791    80.1112  -999.2500  -999.2500     9.8456    63.7890     2.4114     0.1406     0.0364
  485.0000   -45.0390    11.5399    12.4303    80.3543  -999.2500  -999.2500     9.8360    65.3284     2.3879     0.1361     0.0402
  485.5000   -44.7373    11.5755    12.3925    80.5974  -999.2500  -999.2500     9.8544    67.0015     2.4049     0.1285     0.0440
  486.0000   -44.6386    11.6060    12.3519    80.8406  -999.2500  -999.2500     9.9047    67.1666     2.4476     0.1204     0.0485
  486.5000   -44.6621    11.6353    12.3134    81.0837  -999.2500  -999.2500     9.9525    66.5876     2.4573     0.1168     0.0479
  487.0000   -44.9471    11.6658    12.2750    81.3268  -999.2500  -999.2500    10.0010    65.0059     2.4366     0.1292     0.0389
