~VERSION INFORMATION
 VERS.                2.0:   CWLS LOG ASCII STANDARD - VERSION 2.0
 WRAP.                 NO:   ONE LINE PER DEPTH STEP
~WELL INFORMATION
#MNEM.UNIT      DATA TYPE    INFORMATION
#----------   ------------   ------------------------------
 STRT.F           44.0000:   START DEPTH
 STOP.F          485.0000:   STOP DEPTH
 STEP.F            0.5000:   STEP LENGTH
 NULL.          -999.2500:   NO VALUE
 COMP. LAWRENCE/ALLISON INC:   COMPANY
 WELL.      NPR 3 #55-51S:   WELL
 FLD .             TEAPOT:   FIELD
 LOC .       S3 T38N R78W:   LOCATION
 CNTY.            NATRONA:   COUNTY
 STAT.            WYOMING:   STATE
 CTRY. UNITED STATES OF AMERICA:   COUNTRY
 SRVC.      Dresser Atlas:   SERVICE COMPANY
 DATE.        12-DEC-1983:   LOGDATE
 API .       490251095400:   API NUMBER
~CURVE INFORMATION
#MNEM.UNIT       API CODE    CURVE DESCRIPTION
#----------   ------------   ------------------------------
 DEPT.F                  :   
 CALR.IN     10 280 01 00:   CALIPER FROM RESISTIVITY
 RATI.CMP    99 420 01 00:   RATIO
 RES .OHMM   10 220 00 00:   RESISTIVITY
 DEC .       99 000 00 00:   DEC
 P6  .G/C3   99 000 00 00:   P6
 PHAS.       99 000 00 00:   PHASE
 PORE.DEC    99 890 00 00:   PORE
~PARAMETER INFORMATION
#MNEM.UNIT          VALUE    DESCRIPTION
#----------   ------------   ------------------------------
 PD  .                 GL:   PERMANENT DATUM
 EPD .F              5161:   ELEVATION PERMANENT DATUM
 LMF .                 KB:   LOG MEASURED FROM
 DAPD.F                10:   FEET ABOVE PERMANENT DATUM
 DMF .                 KB:   DRILLING MEASURED FROM
 EKB .F              5171:   KELLING BUSHING
 EGL .F              5161:   GROUND LEVEL
 DATE.        12-DEC-1983:   RUN DATE
 RUN .                  1:   RUN NUMBER
 DD  .F               490:   DEPTH DRILLER
 DL  .F               489:   DEPTH LOGGER
 BLI .F               487:   BOTTOM LOG INTERVAL
 TLI .F                 0:   TOP LOG INTERVAL
 CS  .IN            10.75:   CASING SIZE
 CBD .F                52:   CASING BOTTOM DRILLER
 CBL .F                46:   CASING BOTTOM LOGGER
 BS  .IN             8.75:   BIT SIZE
 BSD .F               490:   BIT SIZE AT DEPTH
 DFT .           AIR FOAM:   DRILLING FLUID TYPE
 TCS .HRS               3:   TIME CURCULATED STOPPED
 MRT .F                72:   MAXIMUM RECORDED TEMPERATURE
 LUN .               6274:   LOGGING UNIT NUMBER
 LUL .               GLTE:   LOGGING UNIT LOCATION
 ENGI.             RAUTIO:   RECORDING ENGINEER
 WITN.             GROOMS:   WITNESSED BY
 CLNT.            A2DTECH:   CLIENT CODE
 ORIG.           5" PRINT:   ORIGIN OF DATA
 UWI .       490251095400:   UNIQUE WELL ID
 DICO. A2D Technologies, Inc.:   DIGITIZING COMPANY
~OTHER INFORMATION
~A   DEPT      CALR        RATI        RES       DEC          P6      PHAS        PORE 
# ...
  362.5000     8.9780     0.3342     7.6491    47.1008     2.4221    84.1579  -999.2500
  363.0000     8.9775     0.3270     7.4900    46.4249     2.4114    84.3447  -999.2500
  363.5000     8.9923     0.3255     7.2331    45.8240     2.4031    84.1702  -999.2500
  364.0000     8.9917     0.3241     7.1319    45.2230     2.3992    83.6366  -999.2500
  364.5000     9.0066     0.3256     7.1794    44.7727     2.3946    83.2803  -999.2500
  365.0000     9.0060     0.3272     7.2779    44.2471     2.3887    82.2053  -999.2500
  365.5000     8.9904     0.3287     7.2755    43.1943     2.3849    80.9483  -999.2500
  366.0000     8.9899     0.3258     7.4775    41.0121     2.3819    80.2312  -999.2500
  366.5000     8.9743     0.3228     7.5274    42.8961     2.3788    80.9607  -999.2500
  367.0000     8.9587     0.3199     7.4179    42.0171     2.3758    81.3564     0.5952
  367.5000     8.9431     0.3169     7.1180    40.7156     2.3728    79.7099     0.5815
  368.0000     8.9275     0.3186     7.6256    38.9852     2.3698    78.4481     0.5770
  368.5000     8.9822     0.3230     8.0016    40.3421     2.3752    78.6613     0.5915
  369.0000     8.9776     0.3305     8.1114    42.0755     2.3837    80.0908     0.5994
  369.5000     8.9657     0.3351     8.0528    43.3571     2.3960    81.7211     0.6000
  370.0000     8.9651     0.3426     7.9400    45.6176     2.4068    83.1709     0.6000
  370.5000     8.9645     0.3367     7.8289    46.0969     2.4199    83.3559     0.6000
  371.0000     8.9638     0.3352     7.7193    45.6205     2.4253    83.0012     0.6000
  371.5000     8.9632     0.3353     7.7708    45.9283     2.4231    83.5503     0.6000
  372.0000     8.9626     0.3398     7.8226    48.3554     2.4255    84.8196     0.6000
  372.5000     8.9773     0.3399     7.6066    50.0000     2.4316    85.9085     0.6000
  373.0000     8.9614     0.3324     7.2453    49.2412     2.4348    86.4560     0.5998
  373.5000     8.9608     0.3229     6.9972    48.6403     2.4287    86.4622     0.5997
  374.0000     8.9602     0.3070     6.7576    47.0604     2.4172    84.1444     0.5997
  374.5000     8.9445     0.2920     6.6171    42.3179     2.4073    81.0625     0.5969
  375.0000     8.9591     0.2815     6.6153    39.1567     2.4043    79.4446     0.5869
  375.5000     8.9432     0.2741     6.6190    36.5980     2.4051    77.2854     0.5679
  376.0000     8.9426     0.2681     7.1339    29.8223     2.4052    70.7953     0.4957
  376.5000     8.9420     0.2712     7.9115    23.7997     2.3914    66.2902     0.3913
  377.0000     8.9262     0.3057    10.3576    16.8043     2.3363    57.8152     0.2412
  377.5000     8.9256     0.3719    15.4638    13.0046     2.2762    51.3251     0.1824
  378.0000     8.9250     0.4260    19.8366    16.1991     2.2349    50.1907     0.1742
  378.5000     8.9093     0.4485    19.3706    19.0620     2.1927    52.0593     0.2842
  379.0000     8.8783     0.4260    17.8681    20.0424     2.2088    53.5525     0.3166
  379.5000     8.8321     0.4021    15.9895    19.4414     2.2520    54.4175     0.3229
  380.0000     8.8011     0.3916    15.5492    18.1628     2.2705    52.0793     0.3219
  380.5000     8.8005     0.3931    15.7615    16.3570     2.3173    50.4614     0.3137
  381.0000     8.7999     0.4112    17.7227    15.5302     2.3572    49.9247     0.2368
  381.5000     8.7993     0.4249    20.0663    16.5106     2.4777    50.4738     0.2504
  382.0000     8.7988     0.4113    18.5767    19.6747     2.4125    56.7957     0.3172
  382.5000     8.7982     0.3813    14.5513    22.2364     2.3450    56.6215     0.3442
  383.0000     8.8128     0.3693    13.8973    20.2078     2.2987    55.7254     0.3558
  383.5000     8.8099     0.3769    13.9909    19.3026     2.2333    55.1756     0.3043
  384.0000     8.7507     0.3814    13.8898    21.1870     2.2209    58.6321     0.3031
  384.5000     8.7351     0.3817    12.7804    22.3180     2.2555    60.0749     0.3665
  385.0000     8.7344     0.3575    11.9233    22.8466     2.2732    59.3606     0.3718
  385.5000     8.7338     0.3485    11.3569    22.0197     2.2801    57.7427     0.3492
  386.0000     8.7484     0.3546    12.0829    18.4067     2.2755    56.8467     0.2959
  386.5000     8.7478     0.3576    12.5994    19.0106     2.2533    57.0333     0.2931
  387.0000     8.7472     0.3547    12.3287    19.3886     2.2488    57.2199     0.3111
  387.5000     8.7466     0.3502    11.9891    19.7666     2.2394    57.4065     0.3147
  388.0000     8.7460     0.3548    12.1528    19.2882     2.2281    57.5932     0.3020
  388.5000     8.7454     0.3623    12.3196    18.9412     2.2297    57.5993     0.3145
  389.0000     8.7447     0.3624    12.2306    20.8256     2.2390    57.9664     0.3334
  389.5000     8.7594     0.3593    11.6496    23.3873     2.2628    62.1519     0.3595
  390.0000     8.7587     0.3384    10.2126    24.8948     2.2735    64.4993     0.3983
  390.5000     8.7429     0.3310     9.7238    25.0468     2.2797    65.0225     0.4009
  391.0000     8.7423     0.3325     9.5913    24.6718     2.2744    63.2242     0.3842
  391.5000     8.7569     0.3356    10.0635    22.4142     2.2683    62.8710     0.3593
  392.0000     8.7715     0.3431    10.4148    22.3675     2.2644    63.0576     0.3772
  392.5000     8.8011     0.3477    10.6309    24.6762     2.2837    63.9660     0.4015
  393.0000     8.8158     0.3478    10.4814    25.6566     2.2991    64.1511     0.4051
  393.5000     8.7999     0.3463    10.2635    25.0195     2.3083    64.1588     0.3960
  394.0000     8.7993     0.3508    10.4037    24.6806     2.3114    64.8868     0.4131
  394.5000     8.7987     0.3389     9.9772    26.4897     2.3084    66.1561     0.4112
  395.0000     8.7982     0.3299     9.8384    26.2653     2.2900    65.9699     0.4014
  395.5000     8.7976     0.3344    10.0413    23.8571     2.2717    64.4869     0.3687
  396.0000     8.7818     0.3420    10.5364    22.2020     2.2563    63.1085     0.3587
  396.5000     8.7964     0.3480    10.9798    23.2576     2.2541    62.5718     0.3884
  397.0000     8.7956     0.3496    10.2435    24.2380     2.2771    63.8427     0.3965
  397.5000     8.7951     0.3420     9.9614    24.7666     2.2895    64.9315     0.3937
  398.0000     8.7945     0.3377    10.0278    25.1446     2.2910    64.5768     0.3828
  398.5000     8.7789     0.3407    10.5223    22.2686     2.2849    63.1394     0.3602
  399.0000     8.7933     0.3483    10.9793    21.6837     2.2804    61.5215     0.3457
  399.5000     8.8079     0.3543    11.5058    22.5891     2.2827    61.1666     0.3691
  400.0000     8.8073     0.3544    10.9585    23.8707     2.2904    61.3534     0.4078
  400.5000     8.8067     0.3484    10.0832    24.8511     2.2936    63.9366     0.4114
  401.0000     8.7908     0.3424     9.8055    25.6809     2.2982    65.5176     0.4104
  401.5000     8.7750     0.3364     9.8028    26.0589     2.3013    66.2456     0.4121
  402.0000     8.7744     0.3305     9.8002    26.4369     2.3021    67.5150     0.4265
  402.5000     8.7738     0.3321     9.7301    25.6100     2.2937    66.0775     0.4237
  403.0000     8.7732     0.3351     9.7949    24.4067     2.2837    64.4596     0.4062
  403.5000     8.7880     0.3412     9.8720    24.4834     2.2807    63.9244     0.3872
  404.0000     8.7872     0.3532    10.2745    25.3434     2.2861    63.7486     0.3920
  404.5000     8.7866     0.3578    10.4877    27.3247     2.3017    64.8390     0.4388
  405.0000     8.7860     0.3458     9.6158    28.5545     2.3149    66.6497     0.4541
  405.5000     8.7853     0.3338     9.3515    29.9114     2.3246    68.2896     0.4613
  406.0000     8.7847     0.3386     9.0872    30.9671     2.3292    69.7732     0.4720
  406.5000     8.7841     0.3429     8.8262    32.0981     2.3323    71.1811     0.4931
  407.0000     8.7836     0.3265     8.5795    32.5510     2.3339    71.9090     0.5027
  407.5000     8.7352     0.3175     8.3510    31.3480     2.3332    72.8175     0.4989
