~VERSION INFORMATION
 VERS.                2.0:   CWLS LOG ASCII STANDARD - VERSION 2.0
 WRAP.                 NO:   ONE LINE PER DEPTH STEP
~WELL INFORMATION
#MNEM.UNIT      DATA TYPE    INFORMATION
#----------   ------------   ------------------------------
 STRT.F           38.0000:   START DEPTH
 STOP.F         1202.0000:   STOP DEPTH
 STEP.F            0.5000:   STEP LENGTH
 NULL.          -999.2500:   NO VALUE
 COMP.       INTEX OIL CO:   COMPANY
 WELL.     72 S 14 #72-14:   WELL
 FLD .            WILDCAT:   FIELD
 LOC .      S14 T38N R78W:   LOCATION
 CNTY.            NATRONA:   COUNTY
 STAT.            WYOMING:   STATE
 CTRY. UNITED STATES OF AMERICA:   COUNTRY
 SRVC.       Schlumberger:   SERVICE COMPANY
 DATE.        26-AUG-1966:   LOGDATE
 API .       490250970800:   API NUMBER
~CURVE INFORMATION
#MNEM.UNIT       API CODE    CURVE DESCRIPTION
#----------   ------------   ------------------------------
 DEPT.F                  :   
 SPR .MV     05 010 01 00:   SPONTANEOUS POTENTIAL FROM RES.
 ASN .OHMM   05 041 16 00:   AMPLIFIED SHORT NORMAL 16"
 ILD .OHMM   05 120 46 00:   INDUCTION LOG DEEP
 CILD.MMHO   05 110 46 00:   CONDUCTIVITY INDUCTION LOG DEEP
 CORR.G/C3   45 356 01 00:   DENSITY CORRECTION
 GRD .GAPI   45 310 01 00:   GAMMA RAY FROM DENSITY LOG
 CALD.IN     45 280 60 00:   CALIPER FROM DENSITY LOG
 DPHI.DEC    45 890 12 00:   DENSITY POROSITY SANDSTONE
 RHOB.G/C3   45 350 01 00:   BULK DENSITY
~PARAMETER INFORMATION
#MNEM.UNIT          VALUE    DESCRIPTION
#----------   ------------   ------------------------------
 PD  .                 GL:   PERMANENT DATUM
 EPD .F              5265:   ELEVATION PERMANENT DATUM
 LMF .                 KB:   LOG MEASURED FROM
 DAPD.F                 5:   FEET ABOVE PERMANENT DATUM
 DMF .                 KB:   DRILLING MEASURED FROM
 EKB .F              5270:   KELLING BUSHING
 DATE.        26-AUG-1966:   RUN DATE
 RUN .                  1:   RUN NUMBER
 DD  .F              1201:   DEPTH DRILLER
 DL  .F              1203:   DEPTH LOGGER
 BLI .F              1202:   BOTTOM LOG INTERVAL
 TLI .F                46:   TOP LOG INTERVAL
 CS  .IN            8.625:   CASING SIZE
 BS  .IN             6.75:   BIT SIZE
 BSD .F              1201:   BIT SIZE AT DEPTH
 DFT .     CHEM- GEL- OIL:   DRILLING FLUID TYPE
 DFD .                9.4:   DRILLING FLUID DENSITY
 MRT .F                94:   MAXIMUM RECORDED TEMPERATURE
 LUN .               3527:   LOGGING UNIT NUMBER
 LUL .             CASPER:   LOGGING UNIT LOCATION
 ENGI.             KNOBEL:   RECORDING ENGINEER
 WITN.                MAY:   WITNESSED BY
 CLNT.            A2DTECH:   CLIENT CODE
 ORIG.       2", 5" PRINT:   ORIGIN OF DATA
 UWI .       490250970800:   UNIQUE WELL ID
 DICO. A2D Technologies, Inc.:   DIGITIZING COMPANY
~OTHER INFORMATION
~A   DEPT      SPR        ASN        ILD       CILD       CORR        GRD       CALD       DPHI       RHOB   
# ...
  658.5000   -25.6024     7.7027     7.4821   153.1532     0.0254   114.7236     7.0015     0.1002     2.5001
  659.0000   -25.4518     7.7628     7.5554   151.6517     0.0226   117.4217     6.9874     0.1049     2.4822
  659.5000   -25.3012     7.8241     7.6294   150.1501     0.0127   117.4373     6.9887     0.1107     2.4763
  660.0000   -25.3012     7.8829     7.7027   148.6487     0.0125   115.8880     6.9898     0.1066     2.4823
  660.5000   -25.3012     7.9279     7.7009   147.8979     0.0173   112.7740     6.9908     0.1019     2.4995
  661.0000   -25.3012     7.9580     7.6244   147.9784     0.0187   107.6480     6.9918     0.1037     2.4823
  661.5000   -25.3012     7.9730     7.6230   150.1501     0.0172   103.1926     6.9929     0.1109     2.4748
  662.0000   -25.3012     7.9429     7.5465   151.6517     0.0134   100.7492     6.9939     0.1148     2.4659
  662.5000   -25.3012     7.8228     7.4699   153.9039     0.0108   100.7648     6.9950     0.1097     2.4787
  663.0000   -25.3012     7.7027     7.3184   156.1562     0.0089   101.6745     6.9960     0.1049     2.4862
  663.5000   -25.3012     7.5976     7.2415   158.4387     0.0179   104.1491     6.9970     0.1046     2.4907
  664.0000   -25.3012     7.4925     7.1650   160.6607     0.0284   104.3844     6.9981     0.0938     2.5042
  664.5000   -25.3012     7.4174     7.1635   162.9129     0.0359   102.6155     6.9840     0.0914     2.5088
  665.0000   -25.3012     7.3413     7.0120   164.4144     0.0301   101.0662     6.9853     0.1082     2.4788
  665.5000   -25.1506     7.2523     6.9354   165.1652     0.0215   101.5289     6.9711     0.1168     2.4594
  666.0000   -25.1506     7.2072     6.8586   166.6667     0.0233   102.6622     6.9573     0.1010     2.5006
  666.5000   -25.0000     7.1622     6.7821   167.4174     0.0364   104.9133     6.9586     0.0878     2.5096
  667.0000   -25.0000     7.1321     6.7056   168.1682     0.0448   107.1643     6.9444     0.0899     2.5059
  667.5000   -25.0000     7.1171     6.7041   168.1682     0.0458   109.4154     6.9457     0.0937     2.5151
  668.0000   -25.0000     7.1321     6.7027   168.9189     0.0525   115.6903     6.9468     0.0794     2.5277
  668.5000   -25.0000     7.1622     6.7012   168.1682     0.0549   120.4113     6.9925     0.0806     2.5237
  669.0000   -25.1506     7.2072     6.6994   167.3475     0.0440   118.6275     7.0085     0.0985     2.5034
  669.5000   -25.1506     7.2673     6.6980   165.1652     0.0231   115.0664     7.0095     0.1036     2.4918
  670.0000   -25.3012     7.3574     6.7720   164.4144     0.0210   109.9404     7.0106     0.0961     2.5079
  670.5000   -25.3012     7.4481     6.8454   163.6637     0.0253   106.3756     6.9964     0.0967     2.5042
  671.0000   -25.3012     7.5526     6.8439   162.1622     0.0194   107.3189     6.9677     0.1017     2.4945
  671.5000   -25.1506     7.5826     6.9175   162.1622     0.0148   109.0931     6.9538     0.1068     2.4826
  672.0000   -25.0000     7.4925     6.9911   161.4114     0.0223   107.5437     6.9399     0.1122     2.4740
  672.5000   -25.0000     7.4174     6.9893   160.6607     0.0334   108.4535     6.9561     0.1092     2.4793
  673.0000   -25.0000     7.3724     7.0633   159.9099     0.0418   108.0000     6.9870     0.1131     2.4674
  673.5000   -25.0000     7.3423     7.1366   159.1592     0.0295   106.1453     6.9880     0.1163     2.4621
  674.0000   -25.0000     7.3574     7.1351   158.4084     0.0238   104.6999     6.9590     0.1056     2.4884
  674.5000   -25.0000     7.4925     7.1334   157.6577     0.0283   110.7513     6.9007     0.1032     2.4854
  675.0000   -25.0000     7.6727     7.0569   156.1562     0.0333   109.8361     6.8868     0.1055     2.4802
  675.5000   -25.0000     7.8228     6.9804   155.4054     0.0351   109.9300     6.9028     0.1100     2.4765
  676.0000   -25.0000     7.8983     6.9039   156.9069     0.0238   114.3748     6.9187     0.1079     2.4832
  676.5000   -25.1506     7.8679     6.8273   160.6607     0.0223   110.1469     6.9496     0.1007     2.5035
  677.0000   -25.3012     7.6426     6.7505   165.2254     0.0388   106.5818     6.9804     0.0902     2.5042
  677.5000   -25.3012     7.3874     6.6740   168.9189     0.0410   109.2838     7.0112     0.0935     2.4945
  678.0000   -25.3012     7.1622     6.5975   171.9219     0.0350   108.4052     7.0272     0.1022     2.4961
  678.5000   -25.3012     6.9970     6.5209   174.1742     0.0328   107.7463     7.0282     0.1007     2.5155
  679.0000   -25.4518     6.9053     6.4444   175.6757     0.0362   114.2486     7.0293     0.0914     2.5223
  679.5000   -25.6024     6.8318     6.4317   177.1872     0.0473   118.2881     7.0303     0.0822     2.5253
  680.0000   -25.6024     6.8018     6.3661   178.6787     0.0642   118.9704     7.0162     0.0806     2.5186
  680.5000   -25.6024     6.8018     6.2896   180.1802     0.0560   112.0560     6.9877     0.0910     2.5067
  681.0000   -25.3012     6.8018     6.2131   181.6817     0.0520   111.1813     6.9738     0.0982     2.5000
  681.5000   -25.1506     6.8018     6.2117   181.6817     0.0484   110.2988     6.9600     0.0958     2.4948
  682.0000   -25.0000     6.8168     6.2102   182.4324     0.0453   112.7773     6.9610     0.1031     2.4903
  682.5000   -25.0000     6.8168     6.2084   183.1832     0.0418   112.1183     6.9620     0.1054     2.4866
  683.0000   -24.8494     6.7868     6.2070   183.1832     0.0401   113.7027     6.9631     0.1012     2.4919
  683.5000   -24.8494     6.7417     6.2056   182.4324     0.0456   116.6243     6.9641     0.0952     2.5016
  684.0000   -24.8494     6.6817     6.2041   181.6817     0.0546   118.8754     6.9353     0.0910     2.5106
  684.5000   -24.8494     6.6366     6.2027   180.1802     0.0683   117.9968     6.8917     0.0894     2.5152
  685.0000   -24.8494     6.6066     6.2763   177.8777     0.0790   118.9066     6.8480     0.0876     2.5114
  685.5000   -25.0000     6.6517     6.4247   174.1742     0.0897   118.4751     6.8490     0.0861     2.5107
  686.0000   -25.0000     6.8018     6.5734   171.1712     0.0987   115.8081     6.8799     0.0837     2.5339
  686.5000   -25.0000     7.0270     6.7221   168.9189     0.0987   111.3527     6.9405     0.0730     2.5407
  687.0000   -25.0000     7.2823     6.8708   165.1652     0.0964   110.4702     6.9714     0.0711     2.5348
  687.5000   -25.0000     7.5225     7.0195   162.1622     0.0721   108.7013     6.9873     0.0790     2.5258
  688.0000   -25.0000     7.6577     7.0932   159.1592     0.0529   105.1402     6.9884     0.0769     2.5288
  688.5000   -25.0000     7.6877     7.2419   157.6577     0.0657   103.3674     7.0043     0.0744     2.5318
  689.0000   -25.0000     7.6727     7.2401   155.4054     0.0716   104.2771     6.9893     0.0806     2.5237
  689.5000   -25.0000     7.6126     7.2387   154.6546     0.0507   108.7637     6.8872     0.0931     2.5102
  690.0000   -25.0000     7.5976     7.2372   155.4054     0.0359   107.6615     6.9508     0.0974     2.4960
  690.5000   -25.0000     7.6126     7.2354   158.4982     0.0280   103.4297     7.0532     0.0932     2.5035
  691.0000   -25.0000     7.5526     7.1589   162.1622     0.0249   102.5472     7.0542     0.0998     2.5013
  691.5000   -25.3012     7.4775     7.0824   164.4144     0.0244   103.4609     7.0404     0.0929     2.5073
  692.0000   -25.3012     7.4024     7.0059   166.6667     0.0252   106.8297     7.0116     0.0824     2.5186
  692.5000   -25.0000     7.3273     6.9294   168.9189     0.0287   109.0807     7.0127     0.0815     2.5171
  693.0000   -24.8494     7.2779     6.8453   170.4600     0.0365   108.6492     7.0137     0.0836     2.5112
  693.5000   -24.6988     7.1622     6.7009   171.9219     0.0432   105.3077     7.0148     0.0812     2.5179
  694.0000   -24.5482     7.1021     6.6244   172.6727     0.0446   109.3510     7.0184     0.0982     2.4990
  694.5000   -24.5482     7.0571     6.6230   173.4234     0.0386   111.3785     7.0317     0.0982     2.5030
