~VERSION INFORMATION
 VERS.                2.0:   CWLS LOG ASCII STANDARD - VERSION 2.0
 WRAP.                 NO:   ONE LINE PER DEPTH STEP
~WELL INFORMATION
#MNEM.UNIT      DATA TYPE    INFORMATION
#----------   ------------   ------------------------------
 STRT.F           36.0000:   START DEPTH
 STOP.F         2324.5000:   STOP DEPTH
 STEP.F            0.5000:   STEP LENGTH
 NULL.          -999.2500:   NO VALUE
 COMP. FENIX & SCISSON INC:   COMPANY
 WELL.           SX #57-3:   WELL
 FLD .             TEAPOT:   FIELD
 LOC .       S3 T38N R78W:   LOCATION
 CNTY.            NATRONA:   COUNTY
 STAT.            WYOMING:   STATE
 CTRY. UNITED STATES OF AMERICA:   COUNTRY
 SRVC.           BIRDWELL:   SERVICE COMPANY
 DATE.        15-JUN-1978:   LOGDATE
 API .       490251028800:   API NUMBER
~CURVE INFORMATION
#MNEM.UNIT       API CODE    CURVE DESCRIPTION
#----------   ------------   ------------------------------
 DEPT.F                  :   
 CALD.IN     45 280 60 00:   CALIPER FROM DENSITY LOG
 GRD .GAPI   45 310 01 00:   GAMMA RAY FROM DENSITY LOG
 CORR.G/C3   45 356 01 00:   DENSITY CORRECTION
 RHOB.G/C3   45 350 01 00:   BULK DENSITY
 DPHI.DEC    45 890 12 00:   DENSITY POROSITY SANDSTONE
 SPR .MV     07 010 01 00:   SPONTANEOUS POTENTIAL
 ILD .OHMM   07 120 46 00:   INDUCTION LOG DEEP
 ILM .OHMM   07 120 44 00:   INDUCTION LOG MEDIUM
 SGRD.OHMM   07 220 05 00:   SHALLOW GUARD RESISTIVITY
~PARAMETER INFORMATION
#MNEM.UNIT          VALUE    DESCRIPTION
#----------   ------------   ------------------------------
 PD  .                 GL:   PERMANENT DATUM
 EPD .F              5184:   ELEVATION PERMANENT DATUM
 LMF .                 KB:   LOG MEASURED FROM
 DAPD.F                10:   FEET ABOVE PERMANENT DATUM
 DMF .                 KB:   DRILLING MEASURED FROM
 EKB .F              5184:   KELLING BUSHING
 EGL .F              5184:   GROUND LEVEL
 DATE.            6-15-78:   RUN DATE
 RUN .                  1:   RUN NUMBER
 DD  .F              2340:   DEPTH DRILLER
 DL  .F              2324:   DEPTH LOGGER
 BLI .F              2324:   BOTTOM LOG INTERVAL
 TLI .F                50:   TOP LOG INTERVAL
 CS  .IN            9.625:   CASING SIZE
 CBD .F               600:   CASING BOTTOM DRILLER
 CBL .F               601:   CASING BOTTOM LOGGER
 BS  .IN             8.75:   BIT SIZE
 BSD .F              2340:   BIT SIZE AT DEPTH
 DFT .           AIR MIST:   DRILLING FLUID TYPE
 BHT .F                68:   BOTTOM HOLE TEMPERATURE
 MRT .F                68:   MAXIMUM RECORDED TEMPERATURE
 LUN .               2958:   LOGGING UNIT NUMBER
 LUL .               CASP:   LOGGING UNIT LOCATION
 ENGI.           REYNOLDS:   RECORDING ENGINEER
 WITN.           MCGINLEY:   WITNESSED BY
 CLNT.            A2DTECH:   CLIENT CODE
 ORIG.   2" 2.5" 5" PRINT:   ORIGIN OF DATA
 UWI .       490251028800:   UNIQUE WELL ID
 DICO. A2D Technologies, Inc.:   DIGITIZING COMPANY
~OTHER INFORMATION
~A   DEPT       CALD      GRD        CORR      RHOB         DPHI      SPR        ILD        ILM       SGRD   
# ...
 2153.0000     8.0411   171.7261     0.0088     2.4671     0.0558  -999.2500  -999.2500  -999.2500  -999.2500
 2153.5000     8.0385   171.5120     0.0084     2.4710     0.0508  -999.2500  -999.2500  -999.2500  -999.2500
 2154.0000     8.0260   171.8776     0.0079     2.4746     0.0489  -999.2500  -999.2500  -999.2500  -999.2500
 2154.5000     8.0115   172.4974     0.0092     2.4771     0.0503  -999.2500  -999.2500  -999.2500  -999.2500
 2155.0000     7.9967   174.5314     0.0117     2.4765     0.0517  -999.2500  -999.2500  -999.2500  -999.2500
 2155.5000     7.9823   178.5134     0.0139     2.4759     0.0530  -999.2500  -999.2500  -999.2500  -999.2500
 2156.0000     7.9679   182.0499     0.0161     2.4753     0.0514  -999.2500  -999.2500  -999.2500  -999.2500
 2156.5000     7.9526   179.7235     0.0185     2.4747     0.0494  -999.2500  -999.2500  -999.2500  -999.2500
 2157.0000     7.9395   175.2062     0.0199     2.4741     0.0474  -999.2500  -999.2500  -999.2500  -999.2500
 2157.5000     7.9235   171.9814     0.0197     2.4734     0.0503  -999.2500  -999.2500  -999.2500  -999.2500
 2158.0000     7.9531   172.6474     0.0198     2.4728     0.0532  -999.2500  -999.2500  -999.2500  -999.2500
 2158.5000     7.9916   173.2701     0.0199     2.4723     0.0542  -999.2500  -999.2500  -999.2500  -999.2500
 2159.0000     8.0310   172.0018     0.0227     2.4715     0.0536  -999.2500  -999.2500  -999.2500  -999.2500
 2159.5000     8.0698   171.2373     0.0234     2.4724     0.0530  -999.2500  -999.2500  -999.2500  -999.2500
 2160.0000     8.1075   174.1711     0.0225     2.4756     0.0453  -999.2500  -999.2500  -999.2500  -999.2500
 2160.5000     8.1467   178.9742     0.0216     2.4827     0.0387  -999.2500  -999.2500  -999.2500  -999.2500
 2161.0000     8.1292   178.1286     0.0210     2.4923     0.0398  -999.2500  -999.2500  -999.2500  -999.2500
 2161.5000     8.0893   174.1995     0.0197     2.4931     0.0413  -999.2500  -999.2500  -999.2500  -999.2500
 2162.0000     8.0505   165.4815     0.0230     2.4938     0.0408  -999.2500  -999.2500  -999.2500  -999.2500
 2162.5000     8.0120   168.4747     0.0284     2.4942     0.0390  -999.2500  -999.2500  -999.2500  -999.2500
 2163.0000     7.9997   169.8800     0.0344     2.4950     0.0373  -999.2500  -999.2500  -999.2500  -999.2500
 2163.5000     8.0162   171.7193     0.0401     2.4955     0.0355  -999.2500  -999.2500  -999.2500  -999.2500
 2164.0000     8.0342   173.8116     0.0460     2.4961     0.0340  -999.2500  -999.2500  -999.2500  -999.2500
 2164.5000     8.0525   173.3194     0.0517     2.4969     0.0398  -999.2500  -999.2500  -999.2500  -999.2500
 2165.0000     8.0705   172.7545     0.0575     2.4950     0.0466  -999.2500  -999.2500  -999.2500  -999.2500
 2165.5000     8.0885   172.0228     0.0597     2.4907     0.0459  -999.2500  -999.2500  -999.2500  -999.2500
 2166.0000     8.1084   171.5916     0.0555     2.4862     0.0459  -999.2500  -999.2500  -999.2500  -999.2500
 2166.5000     8.1132   171.6562     0.0467     2.4879     0.0395  -999.2500  -999.2500  -999.2500  -999.2500
 2167.0000     8.0978   174.4766     0.0385     2.4928     0.0337  -999.2500  -999.2500  -999.2500  -999.2500
 2167.5000     8.0844   176.3486     0.0356     2.4974     0.0290  -999.2500  -999.2500  -999.2500  -999.2500
 2168.0000     8.0704   176.7775     0.0473     2.5014     0.0278  -999.2500  -999.2500  -999.2500  -999.2500
 2168.5000     8.0568   169.5579     0.0609     2.5066     0.0269  -999.2500  -999.2500  -999.2500  -999.2500
 2169.0000     8.0429   162.3837     0.0744     2.5070     0.0307  -999.2500  -999.2500  -999.2500  -999.2500
 2169.5000     8.0478   163.7782     0.0751     2.5047     0.0354  -999.2500  -999.2500  -999.2500  -999.2500
 2170.0000     8.0602   166.0622     0.0808     2.4955     0.0401  -999.2500  -999.2500  -999.2500  -999.2500
 2170.5000     8.0726   169.8912     0.0864     2.4894     0.0448  -999.2500  -999.2500  -999.2500  -999.2500
 2171.0000     8.0843   172.5537     0.0821     2.4890     0.0484  -999.2500  -999.2500  -999.2500  -999.2500
 2171.5000     8.0966   173.4918     0.0779     2.4845     0.0468  -999.2500  -999.2500  -999.2500  -999.2500
 2172.0000     8.1094   174.1704     0.0740     2.4797     0.0472  -999.2500  -999.2500  -999.2500  -999.2500
 2172.5000     8.1117   181.9471     0.0715     2.4773     0.0490  -999.2500  -999.2500  -999.2500  -999.2500
 2173.0000     8.0900   187.1047     0.0689     2.4818     0.0450  -999.2500  -999.2500  -999.2500  -999.2500
 2173.5000     8.0697   183.8884     0.0635     2.4856     0.0413  -999.2500  -999.2500  -999.2500  -999.2500
 2174.0000     8.0455   182.9113     0.0551     2.4898     0.0376  -999.2500  -999.2500  -999.2500  -999.2500
 2174.5000     8.0540   180.5260     0.0466     2.4938     0.0340  -999.2500  -999.2500  -999.2500  -999.2500
 2175.0000     8.0845   177.9261     0.0425     2.4969     0.0414  -999.2500  -999.2500  -999.2500  -999.2500
 2175.5000     8.1116   175.8662     0.0396     2.4925     0.0447  -999.2500  -999.2500  -999.2500  -999.2500
 2176.0000     8.1398   175.7165     0.0364     2.4867     0.0454  -999.2500  -999.2500  -999.2500  -999.2500
 2176.5000     8.1666   178.7648     0.0329     2.4851     0.0474  -999.2500  -999.2500  -999.2500  -999.2500
 2177.0000     8.1934   180.7910     0.0323     2.4860     0.0426  -999.2500  -999.2500  -999.2500  -999.2500
 2177.5000     8.1760   173.8542     0.0342     2.4869     0.0383  -999.2500  -999.2500  -999.2500  -999.2500
 2178.0000     8.1560   166.6815     0.0355     2.4877     0.0399  -999.2500  -999.2500  -999.2500  -999.2500
 2178.5000     8.1347   157.5157     0.0359     2.4889     0.0428  -999.2500  -999.2500  -999.2500  -999.2500
 2179.0000     8.1142   159.7585     0.0366     2.4875     0.0443  -999.2500  -999.2500  -999.2500  -999.2500
 2179.5000     8.0925   168.4983     0.0371     2.4831     0.0443  -999.2500  -999.2500  -999.2500  -999.2500
 2180.0000     8.0839   174.0599     0.0377     2.4810     0.0457  -999.2500  -999.2500  -999.2500  -999.2500
 2180.5000     8.1037   169.7296     0.0383     2.4799     0.0483  -999.2500  -999.2500  -999.2500  -999.2500
 2181.0000     8.1221   163.4156     0.0389     2.4794     0.0459  -999.2500  -999.2500  -999.2500  -999.2500
 2181.5000     8.1434   164.7267     0.0394     2.4799     0.0498  -999.2500  -999.2500  -999.2500  -999.2500
 2182.0000     8.1473   167.0266     0.0396     2.4804     0.0478  -999.2500  -999.2500  -999.2500  -999.2500
 2182.5000     8.1054   168.6839     0.0424     2.4811     0.0435  -999.2500  -999.2500  -999.2500  -999.2500
 2183.0000     8.1074   163.7853     0.0399     2.4791     0.0569  -999.2500  -999.2500  -999.2500  -999.2500
 2183.5000     8.2204   156.1300     0.0291     2.4714     0.0557  -999.2500  -999.2500  -999.2500  -999.2500
 2184.0000     8.3008   155.9224     0.0184     2.4676     0.0533  -999.2500  -999.2500  -999.2500  -999.2500
 2184.5000     8.1623   159.1787     0.0073     2.4711     0.0539  -999.2500  -999.2500  -999.2500  -999.2500
 2185.0000     8.1180   159.1199     0.0036     2.4677     0.0577  -999.2500  -999.2500  -999.2500  -999.2500
 2185.5000     8.1355   159.3376     0.0052     2.4616     0.0585  -999.2500  -999.2500  -999.2500  -999.2500
 2186.0000     8.1507   159.4993     0.0083     2.4609     0.0587  -999.2500  -999.2500  -999.2500  -999.2500
 2186.5000     8.1660   163.6994     0.0111     2.4602     0.0591  -999.2500  -999.2500  -999.2500  -999.2500
 2187.0000     8.1816   168.8173     0.0141     2.4594     0.0616  -999.2500  -999.2500  -999.2500  -999.2500
 2187.5000     8.1963   167.7047     0.0170     2.4600     0.0721  -999.2500  -999.2500  -999.2500  -999.2500
 2188.0000     8.2123   164.4270     0.0199     2.4550     0.0806  -999.2500  -999.2500  -999.2500  -999.2500
 2188.5000     8.2275   164.4978     0.0229     2.4465     0.0730  -999.2500  -999.2500  -999.2500  -999.2500
 2189.0000     8.2333   166.3206     0.0258     2.4404     0.0648  -999.2500  -999.2500  -999.2500  -999.2500
