~VERSION INFORMATION
 VERS.                2.0:   CWLS LOG ASCII STANDARD - VERSION 2.0
 WRAP.                 NO:   ONE LINE PER DEPTH STEP
~WELL INFORMATION
#MNEM.UNIT      DATA TYPE    INFORMATION
#----------   ------------   ------------------------------
 STRT.F           80.0000:   START DEPTH
 STOP.F          814.0000:   STOP DEPTH
 STEP.F            0.5000:   STEP LENGTH
 NULL.          -999.2500:   NO VALUE
 COMP.          U.S. NAVY:   COMPANY
 WELL. RES 3 TEAPOT DOM #17-S-35:   WELL
 FLD .             TEAPOT:   FIELD
 LOC .      S35 T39N R78W:   LOCATION
 CNTY.            NATRONA:   COUNTY
 STAT.            WYOMING:   STATE
 CTRY. UNITED STATES OF AMERICA:   COUNTRY
 SRVC. Schlumberger Well Surveying Corp:   SERVICE COMPANY
 DATE.        20-JUL-1952:   LOGDATE
 API .       490250650200:   API NUMBER
~CURVE INFORMATION
#MNEM.UNIT       API CODE    CURVE DESCRIPTION
#----------   ------------   ------------------------------
 DEPT.F                  :   
 SPR .MV     05 010 01 00:   SPONTANEOUS POTENTIAL FROM RES.
 ILD .OHMM   05 120 46 00:   INDUCTION LOG DEEP
 ASN .OHMM   05 041 16 00:   AMPLIFIED SHORT NORMAL 16"
 CILD.MMHO   05 110 46 00:   CONDUCTIVITY INDUCTION LOG DEEP
 GR  .GAPI   30 310 01 00:   GAMMA RAY
~PARAMETER INFORMATION
#MNEM.UNIT          VALUE    DESCRIPTION
#----------   ------------   ------------------------------
 PD  .                 KB:   PERMANENT DATUM
 LMF .                 KB:   LOG MEASURED FROM
 DMF .                 KB:   DRILLING MEASURED FROM
 EKB .F              5101:   KELLING BUSHING
 EGL .F              5096:   GROUND LEVEL
 DATE.        20-JUL-1962:   RUN DATE
 RUN .                  1:   RUN NUMBER
 DD  .F               815:   DEPTH DRILLER
 DL  .F               815:   DEPTH LOGGER
 BLI .F               814:   BOTTOM LOG INTERVAL
 TLI .F                80:   TOP LOG INTERVAL
 BS  .IN             6.75:   BIT SIZE
 BSD .F               815:   BIT SIZE AT DEPTH
 DFT .       OIL EMULSION:   DRILLING FLUID TYPE
 DFD .               10.0:   DRILLING FLUID DENSITY
 DFV .                 45:   DRILLING FLUID VISCOSITY
 DFL .                2.7:   DRILLING FLUID LOSS
 RMS .OHMM           3.64:   RESISTIVITY MUD SAMPLE
 MST .F                89:   MUD SAMPLE TEMPERATURE
 RMF .OHMM           3.01:   RESISTIVITY MUD FILTRATE SAMPLE
 MFST.F                89:   MUD FILTRATE SAMPLE TEMPERATURE
 RMC .OHMM           3.41:   RESISTIVITY MUD CAKE
 MCST.F                89:   MUD CAKE SAMPLE TEMPERATURE
 RMB .OHMM           3.41:   RESISTIVITY MUD AT BHT
 BHT .F                89:   BOTTOM HOLE TEMPERATURE
 TCS .HRS              .5:   TIME CURCULATED STOPPED
 LUN .               2503:   LOGGING UNIT NUMBER
 LUL .               CSPR:   LOGGING UNIT LOCATION
 ENGI.             DANNER:   RECORDING ENGINEER
 WITN.          JORGENSEN:   WITNESSED BY
 CLNT.            A2DTECH:   CLIENT CODE
 ORIG.           5" PRINT:   ORIGIN OF DATA
 UWI .       490250650200:   UNIQUE WELL ID
 DICO. A2D Technologies, Inc.:   DIGITIZING COMPANY
~OTHER INFORMATION
~A   DEPT      SPR          ILD        ASN      CILD        GR   
# ...
  141.0000   -53.2622     4.5525     4.8282   224.0668  -999.2500
  141.5000   -53.7394     4.7049     4.8432   213.8861  -999.2500
  142.0000   -54.2166     4.9368     4.7949   203.7054  -999.2500
  142.5000   -54.2229     5.1688     4.9826   195.0946  -999.2500
  143.0000   -54.0721     5.6366     5.6892   187.2687  -999.2500
  143.5000   -53.9100     6.0258     6.4587   178.6578  -999.2500
  144.0000   -53.4422     6.4936     6.8037   169.2318  -999.2500
  144.5000   -53.1490     6.6470     6.7084   162.1581  -999.2500
  145.0000   -53.1554     6.7217     6.6760   156.6979  -999.2500
  145.5000   -53.1376     6.7177     6.7852   152.7027  -999.2500
  146.0000   -52.8537     6.7925     6.9415   148.8541  -999.2500
  146.5000   -52.5160     6.8672     6.8147   146.3869  -999.2500
  147.0000   -52.3953     6.9419     6.7666   143.4998  -999.2500
  147.5000   -52.4031     6.9484     6.8600   140.3893  -999.2500
  148.0000   -52.4093     7.0914     7.0163   138.0579  -999.2500
  148.5000   -52.5726     7.2447     7.1097   135.7207  -999.2500
  149.0000   -53.0498     7.3980     7.1874   132.6043  -999.2500
  149.5000   -53.3700     7.5514     7.2179   129.4880  -999.2500
  150.0000   -53.3815     7.7047     7.2327   129.9981  -999.2500
  150.5000   -53.4628     7.4646     7.0935   135.8770  -999.2500
  151.0000   -53.5448     7.2429     6.9543   142.1235  -999.2500
  151.5000   -53.7081     7.0211     6.7905   146.8568  -999.2500
  152.0000   -53.5574     6.7452     6.6955   152.3750  -999.2500
  152.5000   -53.5637     6.5840     6.4905   159.4630  -999.2500
  153.0000   -53.5700     6.3442     6.2697   163.7101  -999.2500
  153.5000   -53.5763     6.1830     6.0961   167.6218  -999.2500
  154.0000   -53.4254     6.1004     5.9225   171.4179  -999.2500
  154.5000   -53.4319     5.8606     5.7175   176.2297  -999.2500
  155.0000   -53.2810     5.6994     5.5503   189.0903  -999.2500
  155.5000   -53.2876     5.4596     5.3488   205.5451  -999.2500
  156.0000   -52.9799     5.1412     5.1860   222.6686  -999.2500
  156.5000   -52.9862     4.8227     4.8667   239.7807  -999.2500
  157.0000   -52.8340     4.5043     4.5889   248.3723  -999.2500
  157.5000   -52.6849     4.3431     4.4403   253.1006  -999.2500
  158.0000   -52.5326     4.2605     4.6496   251.5544  -999.2500
  158.5000   -52.3819     4.3352     4.6749   246.8685  -999.2500
  159.0000   -52.2312     4.5671     4.4054   245.3223  -999.2500
  159.5000   -52.0806     4.7990     4.4585   239.0666  -999.2500
  160.0000   -51.9314     5.1095     4.7443   224.1766  -999.2500
  160.5000   -52.0947     5.1851     5.0199   206.1469  -999.2500
  161.0000   -52.2580     5.2598     5.1289   194.3967  -999.2500
  161.5000   -52.5783     5.4121     5.1742   184.2163  -999.2500
  162.0000   -52.8986     5.4081     5.1736   177.1756  -999.2500
  162.5000   -53.0619     5.4837     5.1887   172.4838  -999.2500
  163.0000   -53.2252     5.4788     5.1880   177.2230  -999.2500
  163.5000   -53.2315     5.5544     5.1874   181.1713  -999.2500
  164.0000   -53.2378     5.5503     5.1711   186.6895  -999.2500
  164.5000   -53.0855     5.5464     5.1704   189.8529  -999.2500
  165.0000   -52.9364     5.5425     5.1226   189.0916  -999.2500
  165.5000   -52.7857     5.4599     5.0277   188.3245  -999.2500
  166.0000   -52.7920     5.3774     4.8698   209.5472  -999.2500
  166.5000   -52.6398     5.0574     4.6176   226.0544  -999.2500
  167.0000   -52.4891     4.5047     4.3497   268.4643  -999.2500
  167.5000   -52.1814     3.9504     4.0975   321.8631  -999.2500
  168.0000   -51.7184     3.1603     3.7038   377.6168  -999.2500
  168.5000   -51.2537     2.6060     3.3887   425.5212  -999.2500
  169.0000   -50.9445     2.5234     3.1679   442.0284  -999.2500
  169.5000   -50.9524     2.5195     3.1143   449.9014  -999.2500
  170.0000   -50.8001     2.5155     3.2767   440.5059  -999.2500
  170.5000   -50.9650     2.5116     3.3234   427.9707  -999.2500
  171.0000   -50.9713     2.6648     3.1654   413.0807  -999.2500
  171.5000   -51.2916     3.1326     3.0547   369.1484  -999.2500
  172.0000   -51.4548     3.6789     3.7144   312.6572  -999.2500
  172.5000   -51.3026     4.1467     4.2641   258.5207  -999.2500
  173.0000   -51.3105     4.4582     4.4522   224.7924  -999.2500
  173.5000   -51.3168     4.6891     4.5773   201.2682  -999.2500
  174.0000   -51.3218     4.8423     4.6083   187.9481  -999.2500
  174.5000   -51.3281     4.9966     4.6234   190.1338  -999.2500
  175.0000   -51.3344     5.0712     4.6385   200.1575  -999.2500
  175.5000   -51.3406     5.1459     4.6377   209.5445  -999.2500
  176.0000   -51.3469     5.0623     4.6371   215.5102  -999.2500
  176.5000   -51.3532     4.9798     4.6364   214.7482  -999.2500
  177.0000   -51.3752     4.8972     4.6043   213.9300  -999.2500
  177.5000   -51.6929     4.7360     4.5408   212.4017  -999.2500
  178.0000   -52.3140     4.5748     4.4301   215.6468  -999.2500
  178.5000   -52.0062     4.3350     4.3194   227.4168  -999.2500
  179.0000   -51.8503     4.0166     4.2402   245.4789  -999.2500
  179.5000   -51.5479     3.7768     4.1138   267.4807  -999.2500
  180.0000   -51.2402     3.5220     3.9559   291.8371  -999.2500
  180.5000   -51.0895     3.2060     3.7980   316.1936  -999.2500
  181.0000   -50.9388     3.0582     3.6245   342.1200  -999.2500
  181.5000   -50.9451     3.0543     3.4194   360.1970  -999.2500
  182.0000   -51.1084     3.1290     3.3559   362.1661  -999.2500
  182.5000   -51.4287     3.2037     3.5439   351.6102  -999.2500
  183.0000   -51.7490     3.3569     3.7477   340.6449  -999.2500
  183.5000   -51.9123     3.5102     3.6999   325.7549  -999.2500
  184.0000   -52.3895     3.7421     3.6051   307.7252  -999.2500
  184.5000   -52.8668     4.2885     3.8716   281.8462  -999.2500
  185.0000   -53.3441     4.5990     4.5471   259.1069  -999.2500
  185.5000   -53.6643     4.6737     4.7666   226.1636  -999.2500
  186.0000   -53.6706     4.9841     4.9389   200.2846  -999.2500
  186.5000   -53.6770     5.2946     5.0326   183.8248  -999.2500
  187.0000   -53.3677     5.5265     5.1263   175.2143  -999.2500
  187.5000   -53.0600     5.6808     5.2043   170.5284  -999.2500
  188.0000   -52.4400     5.8340     5.2666   171.3370  -999.2500
  188.5000   -51.9738     5.8291     5.2818   173.7155  -999.2500
  189.0000   -52.1386     5.6679     5.2653   178.4487  -999.2500
  189.5000   -52.1449     5.5067     5.2332   184.7518  -999.2500
  190.0000   -52.1512     5.2669     5.1382   198.9043  -999.2500
  190.5000   -52.1575     4.9485     4.9175   219.3361  -999.2500
  191.0000   -52.0069     4.6300     4.6653   244.4775  -999.2500
  191.5000   -51.8546     4.2330     4.2873   279.8230  -999.2500
  192.0000   -51.3915     3.9146     3.9722   298.6850  -999.2500
  192.5000   -50.7699     3.7534     3.8585   303.4183  -999.2500
  193.0000   -50.3037     3.6708     3.8639   305.0118  -999.2500
  193.5000   -50.9395     3.5882     3.9889   307.3903  -999.2500
  194.0000   -51.5737     3.6639     3.9465   309.7688  -999.2500
  194.5000   -52.2080     3.8172     3.8120   307.4377  -999.2500
  195.0000   -52.6852     4.0480     3.9769   279.2039  -999.2500
  195.5000   -53.0055     4.2023     4.2371   254.8948  -999.2500
  196.0000   -53.0118     4.5118     4.3480   239.7585  -999.2500
  196.5000   -52.8611     4.8223     4.4884   223.8130  -999.2500
  197.0000   -52.7089     4.9906     4.6289   214.7096  -999.2500
  197.5000   -52.5582     5.2871     4.7537   207.0119  -999.2500
  198.0000   -52.4075     5.4404     4.8775   203.0564  -999.2500
  198.5000   -52.1014     5.5150     4.9710   200.0313  -999.2500
  199.0000   -51.7922     5.5897     5.0331   198.5398  -999.2500
  199.5000   -51.3291     5.5857     5.0478   199.3485  -999.2500
  200.0000   -50.8629     5.5031     4.9371   200.1570  -999.2500
  200.5000   -50.8681     5.2352     4.8032   205.0955  -999.2500
  201.0000   -50.7150     4.9673     4.6692   211.1799  -999.2500
  201.5000   -50.7208     4.8569     4.5374   221.3997  -999.2500
