~VERSION INFORMATION
 VERS.                2.0:   CWLS LOG ASCII STANDARD - VERSION 2.0
 WRAP.                 NO:   ONE LINE PER DEPTH STEP
~WELL INFORMATION
#MNEM.UNIT      DATA TYPE    INFORMATION
#----------   ------------   ------------------------------
 STRT.F           64.0000:   START DEPTH
 STOP.F          390.0000:   STOP DEPTH
 STEP.F            0.5000:   STEP LENGTH
 NULL.          -999.2500:   NO VALUE
 COMP. DEPARTMENT OF ENERGY:   COMPANY
 WELL. NPR-3 55-65-SX C-2 #55-3:   WELL
 FLD . TEAPOT NAVAL RESERVE:   FIELD
 LOC .       S3 T38N R78W:   LOCATION
 CNTY.            NATRONA:   COUNTY
 STAT.            WYOMING:   STATE
 CTRY. UNITED STATES OF AMERICA:   COUNTRY
 SRVC.      Dresser Atlas:   SERVICE COMPANY
 DATE.        29-JUN-1985:   LOGDATE
 API .       490251134500:   API NUMBER
~CURVE INFORMATION
#MNEM.UNIT       API CODE    CURVE DESCRIPTION
#----------   ------------   ------------------------------
 DEPT.F                  :   
 CALD.IN     45 280 60 00:   CALIPER FROM DENSITY LOG
 CNC .DEC    42 890 03 00:   NEUTRON POROSITY SANDSTONE
 CORR.G/C3   45 356 01 00:   DENSITY CORRECTION
 GRD .GAPI   45 310 01 00:   GAMMA RAY FROM DENSITY LOG
 PORD.DEC    45 890 12 00:   POROSITY DENSITY SANDSTONE
 RHOB.G/C3   45 350 01 00:   BULK DENSITY
 SPR .MV     07 010 01 00:   SPONTANEOUS POTENTIAL
 ILD .OHMM   06 120 46 00:   INDUCTION LOG DEEP
 ILM .OHMM   07 120 44 00:   INDUCTION LOG MEDIUM
~PARAMETER INFORMATION
#MNEM.UNIT          VALUE    DESCRIPTION
#----------   ------------   ------------------------------
 PD  .                 GL:   PERMANENT DATUM
 EPD .F              5168:   ELEVATION PERMANENT DATUM
 LMF .                 GL:   LOG MEASURED FROM
 DMF .                 GL:   DRILLING MEASURED FROM
 EGL .F              5168:   GROUND LEVEL
 DATE.        29-JUN-1985:   RUN DATE
 RUN .                  1:   RUN NUMBER
 DD  .F               394:   DEPTH DRILLER
 DL  .F               394:   DEPTH LOGGER
 BLI .F               386:   BOTTOM LOG INTERVAL
 CS  .IN                7:   CASING SIZE
 CBD .F                80:   CASING BOTTOM DRILLER
 CBL .F                82:   CASING BOTTOM LOGGER
 BS  .IN            4.875:   BIT SIZE
 BSD .F               394:   BIT SIZE AT DEPTH
 DFT .           FOAM AIR:   DRILLING FLUID TYPE
 TCS .HRS               5:   TIME CURCULATED STOPPED
 MRT .F               238:   MAXIMUM RECORDED TEMPERATURE
 LUN .               6274:   LOGGING UNIT NUMBER
 LUL .               GLTE:   LOGGING UNIT LOCATION
 ENGI.             RAUTIO:   RECORDING ENGINEER
 WITN.           JENNINGS:   WITNESSED BY
 CLNT.            A2DTECH:   CLIENT CODE
 ORIG.           5" PRINT:   ORIGIN OF DATA
 UWI .       490251134500:   UNIQUE WELL ID
 DICO. A2D Technologies, Inc.:   DIGITIZING COMPANY
~OTHER INFORMATION
~A   DEPT     CALD          CNC     CORR        GRD       PORD       RHOB        SPR        ILD        ILM   
# ...
  246.5000     6.2710     0.2638     0.0056   155.0997     0.1636     2.3790   -71.2941     1.5767     1.6253
  247.0000     6.2865     0.2655    -0.0110   154.1983     0.1563     2.3937   -70.9778     1.5658     1.6256
  247.5000     6.2869     0.2661    -0.0216   154.2020     0.1509     2.4046   -70.3598     1.5551     1.6034
  248.0000     6.2573     0.2652    -0.0141   154.2049     0.1470     2.4061   -70.6469     1.5445     1.5705
  248.5000     6.2425     0.2631    -0.0157   154.8102     0.1460     2.4061   -72.7438     1.5234     1.5383
  249.0000     6.2431     0.2616    -0.0267   154.8132     0.1482     2.4046   -74.8408     1.5130     1.5174
  249.5000     6.2435     0.2601    -0.0308   153.9132     0.1512     2.4016   -75.1282     1.4922     1.5176
  250.0000     6.2440     0.2583    -0.0256   153.0117     0.1533     2.3979   -74.2081     1.4616     1.4969
  250.5000     6.2444     0.2565    -0.0168   154.2137     0.1545     2.3941   -76.0008     1.4011     1.4156
  251.0000     6.2443     0.2553    -0.0008   156.6204     0.1593     2.3836   -76.2913     1.3551     1.3778
  251.5000     6.2143     0.2565     0.0218   159.6295     0.1711     2.3444   -77.1778     1.3555     1.3878
  252.0000     6.0151     0.2634     0.1647   160.2290     0.2064     2.3098   -77.7700     1.3653     1.3880
  252.5000     5.8532     0.3015     0.2143   156.0085     0.2049     2.3131   -78.3585     1.3944     1.4077
  253.0000     5.7931     0.3054     0.2008   155.4031     0.1959     2.3361   -78.3400     1.3948     1.4277
  253.5000     5.7781     0.3048     0.1391   155.0990     0.1666     2.4076   -77.4202     1.3855     1.4379
  254.0000     5.7934     0.2921     0.0970   157.5057     0.1225     2.4483   -76.1987     1.3574     1.4382
  254.5000     5.8086     0.2885     0.0759   158.4071     0.1306     2.4397   -79.2005     1.3115     1.4286
  255.0000     5.7786     0.2858     0.0603   156.5962     0.1325     2.4310   -85.5405     1.2240     1.3897
  255.5000     5.7637     0.2816     0.0248   153.8824     0.1283     2.4400   -86.4106     1.1189     1.2968
  256.0000     5.7488     0.2742     0.0083   151.1687     0.1211     2.4505   -84.4284     0.9676     1.1368
  256.5000     5.7489     0.2719     0.0128   150.2621     0.1199     2.4513   -80.9474     0.8196     0.9298
  257.0000     5.7340     0.2767     0.0474   152.6681     0.1244     2.4445   -77.9160     0.7544     0.8034
  257.5000     5.7342     0.2997     0.0910   156.2796     0.1292     2.4324   -73.9796     0.7442     0.7984
  258.0000     5.7645     0.3209     0.1241   163.5056     0.1470     2.4008   -73.0635     0.7450     0.8326
  258.5000     5.8098     0.2791     0.0835   166.2135     0.3333     2.0669   -78.1732     0.7550     0.8864
  259.0000     5.9756     0.1833     0.0534   161.6925     0.5618     1.9984   -82.0799     0.7711     1.0186
  259.5000     6.6836     0.1763     0.0595   149.0390     0.6657     1.9991   -86.5900     0.8267     1.2203
  260.0000     6.9849     0.2296     0.0609   143.3132     0.6497     1.9991   -89.8934     0.9631     1.4418
  260.5000     5.5694     0.2822     0.0474   146.0211     0.3548     2.0006   -91.6923     1.2449     1.6227
  261.0000     5.5395     0.2673     0.0398   148.7811     0.2784     2.1686   -90.4671     1.4911     1.8137
  261.5000     5.5396     0.2568     0.0489   147.8217     0.1815     2.4301   -88.6423     1.7493     1.9992
  262.0000     5.5398     0.2550     0.0263   144.2043     0.1269     2.4392   -84.6937     1.9822     2.2190
  262.5000     5.5399     0.2619     0.0218   144.8038     0.1299     2.4339   -82.5541     2.2153     2.3955
  263.0000     5.5401     0.2625     0.0308   146.0064     0.1323     2.4309   -83.8632     2.3100     2.5328
  263.5000     5.5402     0.2619     0.0338   145.7015     0.1332     2.4301   -84.9631     2.3921     2.5879
  264.0000     5.5554     0.2595     0.0245   145.9998     0.1338     2.4308   -81.6263     2.5117     2.6813
  264.5000     5.5556     0.2561     0.0203   149.0089     0.1323     2.4331   -78.2933     2.7515     2.8718
  265.0000     5.5708     0.2540     0.0278   150.8132     0.1317     2.4338   -79.4851     3.0642     3.1436
  265.5000     5.5860     0.2519     0.0323   152.6175     0.1314     2.4225   -81.2802     3.5428     3.5136
  266.0000     5.6313     0.2474     0.0489   145.9874     0.1426     2.3954   -84.2820     4.1130     4.1225
  266.5000     5.6616     0.2383     0.0759   131.5266     0.1648     2.3728   -94.2219     4.6931     4.6077
  267.0000     5.5865     0.2238     0.0850   110.7405     0.1695     2.3690  -107.4801     5.5825     6.9892
  267.5000     5.5414     0.2042     0.0744   106.5207     0.1665     2.3767  -115.6101     6.8745     9.3566
  268.0000     5.5114     0.1718     0.0639   108.6262     0.1635     2.3818  -117.4943     9.1996    13.8042
  268.5000     5.4815     0.1425     0.0705   112.2385     0.1813     2.3434  -114.6754    11.6471    18.3521
  269.0000     5.4967     0.1104     0.1226   110.7288     0.1897     2.3366  -113.1523    14.6440    28.2269
  269.5000     5.5119     0.0965     0.1917   105.0030     0.1922     2.3253  -112.5148    20.2879    39.9454
  270.0000     5.5121     0.0881     0.2699   104.3976     0.2184     2.2883  -112.2172    28.4994    64.3454
  270.5000     5.5273     0.0790     0.2895   106.9106     0.2599     2.2039  -111.9012    34.3731   115.7081
  271.0000     5.5274     0.0738     0.2383   108.3074     0.2957     2.1625  -113.9943    38.1490   153.6503
  271.5000     5.5276     0.0705     0.1526   105.5929     0.3005     2.1474  -120.6160    39.7851   164.7272
  272.0000     5.5277     0.0675     0.0940   102.2767     0.3043     2.1419  -125.4277    41.5264   175.3811
  272.5000     5.5429     0.0645     0.1150   102.2738     0.3277     2.1210  -124.2062    43.9488   180.3461
  273.0000     5.5732     0.0633     0.1635   103.4757     0.3643     2.0253  -122.3814    47.6759   171.8373
  273.5000     5.5884     0.0653     0.1830   104.9788     0.3930     2.0027  -120.2550    50.7581   163.7216
  274.0000     5.5735     0.0690     0.1917   106.1807     0.3857     2.0245  -118.4302    54.0396   163.7550
  274.5000     5.4984     0.0696     0.1962   106.7972     0.3552     2.0592  -116.6055    57.1358   164.9292
  275.0000     5.4834     0.0702     0.1857   106.7269     0.3459     2.0787  -116.5906    59.5779   163.8205
  275.5000     5.5288     0.0708     0.1752   103.7615     0.3562     2.0697  -119.5924    61.2693   161.5966
  276.0000     5.5898     0.0699     0.1842    99.2405     0.3678     2.0460  -121.9909    63.4469   161.6296
  276.5000     5.6517     0.0726     0.2218    99.5388     0.3707     2.0365  -121.6742    64.7974   165.1373
  277.0000     5.5895     0.0841     0.2534   103.1503     0.3704     2.0380  -120.4183    65.7197   169.9125
  277.5000     5.5444     0.1173     0.2020   101.9426     0.3867     1.9996  -119.1755    66.6551   174.5688
  278.0000     5.5145     0.1373    -0.0228    97.1204     0.4341     1.9988  -121.6262    67.6038   175.8116
  278.5000     5.4996     0.1401    -0.1316    97.0794     0.5319     1.9988  -123.1234    68.5661   155.2032
  279.0000     5.4395     0.1407     0.0068   103.2229     0.6991     1.9996  -120.0882    69.0620   139.8862
  279.5000     5.3493     0.1292     0.1331   109.3013     0.6548     1.9996  -116.7552    69.0811   131.4421
  280.0000     5.2892     0.0953     0.1391   112.4693     0.4090     2.0071  -113.4221    67.6822    92.9196
  280.5000     5.2441     0.0878     0.0880   113.3708     0.2938     2.1550  -112.2006    63.6069    62.1392
  281.0000     5.2142     0.0865     0.0398   107.3430     0.2527     2.2399  -114.5991    49.5759    41.2676
  281.5000     5.1966     0.1011     0.0158   103.1232     0.2466     2.2437  -120.0141    32.2688    24.8687
  282.0000     5.1693     0.1063     0.0006    99.2046     0.2596     2.2203  -126.9375    21.7442    17.8260
  282.5000     5.1695     0.1089    -0.0120    98.9005     0.2608     2.2173  -128.7326    15.0641    13.3212
