~VERSION INFORMATION
 VERS.                2.0:   CWLS LOG ASCII STANDARD - VERSION 2.0
 WRAP.                 NO:   ONE LINE PER DEPTH STEP
~WELL INFORMATION
#MNEM.UNIT      DATA TYPE    INFORMATION
#----------   ------------   ------------------------------
 STRT.F           34.5000:   START DEPTH
 STOP.F          665.5000:   STOP DEPTH
 STEP.F            0.5000:   STEP LENGTH
 NULL.          -999.2500:   NO VALUE
 COMP. FENIX & SCISSON INC:   COMPANY
 WELL.    NPR-3 SX #14-14:   WELL
 FLD .        TEAPOT DOME:   FIELD
 LOC .      S14 T38N R78W:   LOCATION
 CNTY.            NATRONA:   COUNTY
 STAT.            WYOMING:   STATE
 CTRY. UNITED STATES OF AMERICA:   COUNTRY
 SRVC.            Unknown:   SERVICE COMPANY
 DATE.        01-JUN-1978:   LOGDATE
 API .       490251063100:   API NUMBER
~CURVE INFORMATION
#MNEM.UNIT       API CODE    CURVE DESCRIPTION
#----------   ------------   ------------------------------
 DEPT.F                  :   
 SPR .MV     05 010 01 00:   SPONTANEOUS POTENTIAL FROM RES.
 SN  .OHMM   05 040 16 00:   SHORT NORMAL 16"
 IL  .OHMM   05 120 00 00:   INDUCTION LOG
 GRD .GAPI   45 310 01 00:   GAMMA RAY FROM DENSITY LOG
 RHOB.G/C3   45 350 01 00:   BULK DENSITY
 DPHI.DEC    45 890 12 00:   DENSITY POROSITY SANDSTONE
 CORR.G/C3   45 356 01 00:   DENSITY CORRECTION
 CALD.IN     45 280 60 00:   CALIPER FROM DENSITY LOG
~PARAMETER INFORMATION
#MNEM.UNIT          VALUE    DESCRIPTION
#----------   ------------   ------------------------------
 PD  .                 GL:   PERMANENT DATUM
 EPD .F              5212:   ELEVATION PERMANENT DATUM
 LMF .                 KB:   LOG MEASURED FROM
 DAPD.F                 4:   FEET ABOVE PERMANENT DATUM
 DMF .                 KB:   DRILLING MEASURED FROM
 EKB .F              5216:   KELLING BUSHING
 EGL .F              5212:   GROUND LEVEL
 DATE.           6-1-1978:   RUN DATE
 RUN .                  1:   RUN NUMBER
 DD  .F               670:   DEPTH DRILLER
 DL  .F               670:   DEPTH LOGGER
 BLI .F               664:   BOTTOM LOG INTERVAL
 TLI .F                40:   TOP LOG INTERVAL
 CS  .IN            8.625:   CASING SIZE
 CBD .F                40:   CASING BOTTOM DRILLER
 BS  .IN            7.875:   BIT SIZE
 BSD .F               670:   BIT SIZE AT DEPTH
 DFT .                KCL:   DRILLING FLUID TYPE
 DFD .                8.7:   DRILLING FLUID DENSITY
 DFV .                 32:   DRILLING FLUID VISCOSITY
 DFPH.                 10:   DRILLING FLUID PH
 RMS .OHMM            .30:   RESISTIVITY MUD SAMPLE
 MST .F                66:   MUD SAMPLE TEMPERATURE
 BHT .F                75:   BOTTOM HOLE TEMPERATURE
 TCS .HRS               2:   TIME CURCULATED STOPPED
 MRT .F                75:   MAXIMUM RECORDED TEMPERATURE
 LUN .               2958:   LOGGING UNIT NUMBER
 LUL .              CSPR.:   LOGGING UNIT LOCATION
 ENGI.             MILLER:   RECORDING ENGINEER
 WITN.           MCGINLEY:   WITNESSED BY
 CLNT.            A2DTECH:   CLIENT CODE
 ORIG.      2" , 5" PRINT:   ORIGIN OF DATA
 UWI .       490251063100:   UNIQUE WELL ID
 DICO. A2D Technologies, Inc.:   DIGITIZING COMPANY
~OTHER INFORMATION
~A   DEPT      SPR         SN         IL         GRD      RHOB       DPHI       CORR       CALD   
# ...
  358.5000   -29.1800     8.5683     8.8566    80.2299     2.4622     0.1266     0.0279     7.7085
  359.0000   -29.3080     8.5311     8.8349    79.8184     2.4654     0.1288     0.0295     7.7209
  359.5000   -29.4358     8.4944     8.8132    78.5965     2.4620     0.1260     0.0311     7.7349
  360.0000   -29.5627     8.3729     8.7229    77.4037     2.4653     0.1249     0.0327     7.7488
  360.5000   -29.6439     8.2277     8.5805    76.5442     2.4663     0.1237     0.0343     7.7628
  361.0000   -29.6487     8.0852     8.4406    76.4056     2.4667     0.1265     0.0359     7.7767
  361.5000   -29.6546     7.9450     8.3032    76.2516     2.4680     0.1186     0.0375     7.7907
  362.0000   -29.6603     7.8073     8.1679    76.0984     2.4736     0.1220     0.0391     7.8050
  362.5000   -29.6661     7.7378     8.0349    76.0090     2.4756     0.1255     0.0407     7.8043
  363.0000   -29.6719     7.8972     7.9041    76.9332     2.4673     0.1289     0.0423     7.8002
  363.5000   -29.6776     8.0062     7.7754    78.7462     2.4600     0.1222     0.0440     7.7960
  364.0000   -29.6834     8.1167     7.5964    79.7731     2.4662     0.1221     0.0411     7.7919
  364.5000   -29.6892     8.2287     7.6453    77.0987     2.4715     0.1245     0.0358     7.7878
  365.0000   -29.6950     8.3426     7.7300    73.3159     2.4685     0.1243     0.0303     7.7836
  365.5000   -29.7007     8.4185     7.8156    71.7087     2.4675     0.1217     0.0286     7.7795
  366.0000   -29.7065     8.4448     7.9021    72.7279     2.4698     0.1235     0.0283     7.7754
  366.5000   -29.7123     8.4708     7.9896    73.7286     2.4678     0.1257     0.0278     7.7713
  367.0000   -29.7181     8.4971     8.0781    74.6361     2.4649     0.1257     0.0272     7.7671
  367.5000   -29.7238     8.5234     8.1108    74.4907     2.4651     0.1235     0.0267     7.7630
  368.0000   -29.7296     8.5498     8.1217    72.7679     2.4690     0.1202     0.0248     7.7589
  368.5000   -29.7354     8.5764     8.1326    71.2578     2.4692     0.1285     0.0214     7.7548
  369.0000   -29.7411     8.6029     8.1436    73.4278     2.4606     0.1331     0.0185     7.7507
  369.5000   -29.7469     8.6296     8.1546    76.4107     2.4550     0.1316     0.0198     7.7481
  370.0000   -29.7527     8.6564     8.1656    77.1094     2.4559     0.1287     0.0219     7.7491
  370.5000   -29.7585     8.6831     8.1775    77.2995     2.4610     0.1257     0.0240     7.7501
  371.0000   -29.7642     8.7101     8.1706    77.4763     2.4661     0.1227     0.0262     7.7511
  371.5000   -29.7700     8.7231     8.1621    77.6565     2.4711     0.1209     0.0270     7.7520
  372.0000   -29.7758     8.7231     8.1537    77.7140     2.4732     0.1206     0.0276     7.7530
  372.5000   -29.7816     8.7231     8.1453    77.2585     2.4746     0.1202     0.0282     7.7540
  373.0000   -29.7873     8.7231     8.1370    76.8111     2.4760     0.1198     0.0288     7.7549
  373.5000   -29.7931     8.7231     8.1286    76.4528     2.4767     0.1194     0.0293     7.7559
  374.0000   -29.7989     8.7231     8.1204    77.3315     2.4773     0.1190     0.0299     7.7569
  374.5000   -29.8047     8.7231     8.1121    78.2127     2.4779     0.1186     0.0305     7.7578
  375.0000   -29.8104     8.7231     8.1026    79.1113     2.4773     0.1204     0.0305     7.7588
  375.5000   -29.8162     8.7231     8.1569    81.7583     2.4750     0.1210     0.0304     7.7598
  376.0000   -29.8220     8.7231     8.2344    84.1204     2.4712     0.1191     0.0303     7.7607
  376.5000   -29.8277     8.7231     8.3126    84.1972     2.4758     0.1208     0.0303     7.7617
  377.0000   -29.8333     8.7230     8.3915    81.5612     2.4751     0.1223     0.0302     7.7627
  377.5000   -29.8375     8.7236     8.4711    80.2669     2.4716     0.1235     0.0301     7.7636
  378.0000   -29.9070     8.7053     8.5635    79.9443     2.4683     0.1212     0.0300     7.7646
  378.5000   -29.9881     8.6661     8.5278    78.2790     2.4722     0.1216     0.0300     7.7656
  379.0000   -30.0694     8.6267     8.4860    76.9368     2.4715     0.1247     0.0299     7.7665
  379.5000   -30.1505     8.5873     8.4441    78.6188     2.4651     0.1265     0.0298     7.7675
  380.0000   -30.2316     8.5482     8.4025    79.3467     2.4632     0.1226     0.0297     7.7634
  380.5000   -30.3127     8.5092     8.3611    79.2518     2.4707     0.1188     0.0296     7.7563
  381.0000   -30.3938     8.4704     8.3199    79.1855     2.4778     0.1171     0.0296     7.7491
  381.5000   -30.4749     8.4318     8.2789    79.1725     2.4790     0.1157     0.0295     7.7420
  382.0000   -30.5560     8.3934     8.2381    79.7074     2.4799     0.1143     0.0294     7.7348
  382.5000   -30.6373     8.3552     8.1975    80.3028     2.4828     0.1129     0.0293     7.7276
  383.0000   -30.7181     8.3171     8.1571    80.1009     2.4861     0.1114     0.0293     7.7204
  383.5000   -30.7995     8.2792     8.1169    78.9191     2.4893     0.1134     0.0292     7.7133
  384.0000   -30.8104     8.2414     8.0769    77.7868     2.4872     0.1151     0.0291     7.7061
  384.5000   -30.7588     8.2039     8.0371    76.8219     2.4809     0.1116     0.0290     7.6989
  385.0000   -30.7064     8.1665     7.9975    77.2155     2.4867     0.1101     0.0290     7.6917
  385.5000   -30.6539     8.1292     7.9581    77.5809     2.4923     0.1094     0.0289     7.6878
  386.0000   -30.6015     8.0922     7.9188    77.4005     2.4929     0.1132     0.0288     7.6865
  386.5000   -30.5490     8.0549     7.8818    77.1805     2.4909     0.1209     0.0287     7.6852
  387.0000   -30.4961     8.0008     7.7873    76.8095     2.4853     0.1086     0.0287     7.6840
  387.5000   -30.4419     7.8941     7.6984    75.6883     2.4821     0.1117     0.0284     7.6827
  388.0000   -30.4489     7.7902     7.6105    75.0138     2.4871     0.1166     0.0245     7.6814
  388.5000   -30.4606     7.6874     7.5236    75.2603     2.4833     0.1215     0.0203     7.6802
  389.0000   -30.4720     7.5861     7.4377    77.1296     2.4744     0.1265     0.0162     7.6789
  389.5000   -30.4834     7.4860     7.3528    79.7130     2.4653     0.1314     0.0120     7.6776
  390.0000   -30.4947     7.3892     7.2689    82.3135     2.4562     0.1347     0.0112     7.6764
  390.5000   -30.5061     7.3892     7.2542    83.0501     2.4472     0.1378     0.0121     7.6751
  391.0000   -30.5174     7.4576     7.2542    80.0139     2.4460     0.1320     0.0130     7.6738
  391.5000   -30.5288     7.4576     7.2542    77.5639     2.4519     0.1252     0.0138     7.6726
  392.0000   -30.5401     7.5255     7.3041    75.7304     2.4601     0.1209     0.0147     7.6713
  392.5000   -30.5515     7.6619     7.4682    75.7170     2.4683     0.1202     0.0146     7.6701
  393.0000   -30.5628     7.8011     7.6359    76.5951     2.4736     0.1206     0.0146     7.6686
  393.5000   -30.5741     7.9435     7.8095    76.8156     2.4721     0.1218     0.0140     7.6559
  394.0000   -30.5855     8.0295     7.8818    76.4905     2.4706     0.1216     0.0134     7.6422
  394.5000   -30.5968     8.0285     7.8818    76.1503     2.4713     0.1201     0.0128     7.6285
  395.0000   -30.6082     8.0285     7.8818    76.1376     2.4736     0.1231     0.0122     7.6147
  395.5000   -30.6195     8.0285     7.8818    77.3518     2.4707     0.1265     0.0117     7.6076
  396.0000   -30.6308     8.0286     7.8818    78.8231     2.4664     0.1294     0.0111     7.6047
  396.5000   -30.6422     8.0060     7.8818    79.3704     2.4621     0.1329     0.0111     7.6019
  397.0000   -30.6535     7.9745     7.8821    78.9284     2.4581     0.1308     0.0135     7.5991
  397.5000   -30.6649     7.9432     7.8843    77.6689     2.4592     0.1257     0.0159     7.5963
  398.0000   -30.6762     7.9120     7.7823    76.4283     2.4652     0.1209     0.0183     7.5935
  398.5000   -30.6876     7.8818     7.6575    76.1055     2.4709     0.1202     0.0206     7.5907
