~VERSION INFORMATION
 VERS.                2.0:   CWLS LOG ASCII STANDARD - VERSION 2.0
 WRAP.                 NO:   ONE LINE PER DEPTH STEP
~WELL INFORMATION
#MNEM.UNIT      DATA TYPE    INFORMATION
#----------   ------------   ------------------------------
 STRT.F           35.0000:   START DEPTH
 STOP.F          484.0000:   STOP DEPTH
 STEP.F            0.5000:   STEP LENGTH
 NULL.          -999.2500:   NO VALUE
 COMP. LAWRENCE/ALLISON INC:   COMPANY
 WELL.     73-1 STX #1-10:   WELL
 FLD .              NPR-3:   FIELD
 LOC .      S10 T38N R78W:   LOCATION
 CNTY.            NATRONA:   COUNTY
 STAT.            WYOMING:   STATE
 CTRY. UNITED STATES OF AMERICA:   COUNTRY
 SRVC.              Welex:   SERVICE COMPANY
 DATE.        04-APR-1977:   LOGDATE
 API .       490251032400:   API NUMBER
~CURVE INFORMATION
#MNEM.UNIT       API CODE    CURVE DESCRIPTION
#----------   ------------   ------------------------------
 DEPT.F                  :   
 CALD.IN     45 280 60 00:   CALIPER
 GRD .GAPI   45 310 01 00:   GAMMA RAY FROM DENSITY LOG
 RHOB.G/C3   45 350 01 00:   BULK DENSITY
 DPHI.DEC    45 890 12 00:   DENSITY POROSITY SANDSTONE
 CORR.G/C3   45 356 01 00:   DENSITY CORRECTION
 SPR .MV     07 010 01 00:   SPONTANEOUS POTENTIAL
 SGRD.OHMM   07 220 05 00:   SHALLOW RESISTIVITY
 ILD .OHMM   07 120 46 00:   INDUCTION LOG DEEP
 ILM .OHMM   07 120 44 00:   INDUCTION LOG MEDIUM
~PARAMETER INFORMATION
#MNEM.UNIT          VALUE    DESCRIPTION
#----------   ------------   ------------------------------
 PD  .                 GL:   PERMANENT DATUM
 EPD .F              5170:   ELEVATION PERMANENT DATUM
 LMF .                 GL:   LOG MEASURED FROM
 DMF .                 GL:   DRILLING MEASURED FROM
 EGL .F              5170:   GROUND LEVEL
 DATE.             4-4-77:   RUN DATE
 RUN .                  1:   RUN NUMBER
 DD  .F               490:   DEPTH DRILLER
 DL  .F               487:   DEPTH LOGGER
 BLI .F               485:   BOTTOM LOG INTERVAL
 TLI .F                35:   TOP LOG INTERVAL
 CS  .IN            8.625:   CASING SIZE
 CBD .F                42:   CASING BOTTOM DRILLER
 CBL .F                42:   CASING BOTTOM LOGGER
 BS  .IN            7.875:   BIT SIZE
 BSD .F               490:   BIT SIZE AT DEPTH
 DFT .            KCL MUD:   DRILLING FLUID TYPE
 DFD .                8.4:   DRILLING FLUID DENSITY
 DFV .                 32:   DRILLING FLUID VISCOSITY
 DFPH.                8.5:   DRILLING FLUID PH
 DFL .                 17:   DRILLING FLUID LOSS
 RMS .OHMM            .48:   RESISTIVITY MUD SAMPLE
 MST .F                48:   MUD SAMPLE TEMPERATURE
 RMF .OHMM            .44:   RESISTIVITY MUD FILTRATE SAMPLE
 MFST.F                48:   MUD FILTRATE SAMPLE TEMPERATURE
 RMC .OHMM            .62:   RESISTIVITY MUD CAKE
 MCST.F                48:   MUD CAKE SAMPLE TEMPERATURE
 MFSS.          FANN TEST:   MUD FILTRATE SAMPLE SOURCE
 MCSS.          FANN TEST:   MUD CAKE SAMPLE SOURCE
 BHT .F                58:   BOTTOM HOLE TEMPERATURE
 TCS .HRS               2:   TIME CURCULATED STOPPED
 MRT .F                58:   MAXIMUM RECORDED TEMPERATURE
 LUN .               8611:   LOGGING UNIT NUMBER
 LUL .           GILLETTE:   LOGGING UNIT LOCATION
 ENGI.               DOAK:   RECORDING ENGINEER
 WITN.      B. HARRINGTON:   WITNESSED BY
 CLNT.            A2DTECH:   CLIENT CODE
 ORIG.        2" 5" PRINT:   ORIGIN OF DATA
 UWI .       490251032400:   UNIQUE WELL ID
 DICO. A2D Technologies, Inc.:   DIGITIZING COMPANY
~OTHER INFORMATION
~A   DEPT     CALD        GRD       RHOB       DPHI       CORR        SPR       SGRD        ILD        ILM   
# ...
  327.0000     7.9647    81.7731     2.3911     0.1535    -0.0036   -41.6313    22.1715    12.2133    18.9289
  327.5000     7.9653    80.2852     2.4021     0.1479    -0.0057   -41.5865    22.0477    12.3004    19.1007
  328.0000     7.9659    79.2349     2.3904     0.1566    -0.0106   -41.5417    21.9246    12.3881    18.4105
  328.5000     7.9665    78.6624     2.3725     0.1670    -0.0154   -41.4968    21.8022    12.4770    18.5807
  329.0000     7.9671    78.0643     2.3622     0.1708    -0.0202   -41.4523    21.6805    12.5668    17.2621
  329.5000     7.9677    78.0519     2.3542     0.1747    -0.0249   -41.4160    21.5594    12.6240    17.5091
  330.0000     7.9683    78.2643     2.3479     0.1791    -0.0273   -41.4171    20.9344    12.4259    18.0748
  330.5000     7.9689    78.4776     2.3637     0.1711    -0.0217   -41.4172    19.8168    12.2769    16.8551
  331.0000     7.9696    78.7505     2.3795     0.1590    -0.0164   -41.4171    19.9614    12.1307    14.4605
  331.5000     7.9702    80.2904     2.3925     0.1538    -0.0111   -41.4172    20.1849    11.9863    14.2396
  332.0000     7.9708    81.8236     2.4022     0.1498    -0.0058   -41.4172    19.7181    11.8436    13.9023
  332.5000     7.9714    83.3618     2.4118     0.1428    -0.0004   -41.4174    18.4105    11.7027    13.3470
  333.0000     7.9720    83.9600     2.4133     0.1324     0.0012   -41.4178    18.6847    11.5633    14.8981
  333.5000     7.9726    84.0784     2.4132     0.1278     0.0008   -41.4166    18.9746    11.4256    13.8440
  334.0000     7.9732    85.1152     2.4224     0.1234     0.0004   -41.3691    19.2773    11.2898    14.2662
  334.5000     7.9738    87.4940     2.4363     0.1190     0.0000   -41.1428    19.0105    11.0990    14.6274
  335.0000     7.9744    88.9028     2.4465     0.1162    -0.0006   -40.9202    18.7400    11.1320    12.9783
  335.5000     7.9750    88.8366     2.4400     0.1191    -0.0042   -40.6983    18.4732    11.1893    13.9365
  336.0000     7.9756    86.9609     2.4340     0.1219    -0.0079   -40.4750    18.2103    11.2469    15.1684
  336.5000     7.9762    85.0360     2.4320     0.1239    -0.0116   -40.2481    17.9511    11.3047    14.6414
  337.0000     7.9768    83.2741     2.4264     0.1255    -0.0153   -40.3442    17.7452    11.3629    13.7902
  337.5000     7.9774    82.3936     2.4148     0.1326    -0.0190   -40.4898    18.2877    11.4097    12.9870
  338.0000     7.9780    81.4765     2.4105     0.1448    -0.0204   -40.6379    18.7545    11.4550    12.2273
  338.5000     7.9786    81.0820     2.4150     0.1387    -0.0204   -40.7852    18.7501    11.5004    11.9469
  339.0000     7.9792    81.5041     2.4196     0.1326    -0.0177   -40.9323    19.1867    11.5460    14.4934
  339.5000     7.9798    82.5480     2.4240     0.1272    -0.0131   -41.0793    20.3662    11.5918    14.2186
  340.0000     7.9804    83.5990     2.4149     0.1374    -0.0085   -41.2264    20.1839    11.6378    13.5893
  340.5000     7.9810    84.6547     2.4008     0.1477    -0.0115   -41.3734    19.7581    11.6832    14.4796
  341.0000     7.9816    84.4756     2.3866     0.1581    -0.0189   -41.5205    19.1007    11.7279    13.1298
  341.5000     7.9822    83.4269     2.3724     0.1679    -0.0262   -41.6675    19.2741    11.4886    11.4159
  342.0000     7.9828    82.4095     2.3679     0.1644    -0.0240   -41.8149    19.6889    11.2608    12.8051
  342.5000     7.9834    81.6442     2.3876     0.1500    -0.0213   -41.9624    19.9958    11.0371    14.3554
  343.0000     7.9840    83.7198     2.4031     0.1356    -0.0185   -42.1078    19.3283    10.8176    14.8957
  343.5000     7.9847    87.2778     2.4148     0.1299    -0.0153   -42.1929    18.7976    10.6025    15.4565
  344.0000     7.9852    89.3072     2.4156     0.1312    -0.0121   -42.0839    18.2829    10.3917    15.8902
  344.5000     7.9859    90.4134     2.4172     0.1299    -0.0098   -41.9802    17.7832    10.1851    13.5667
  345.0000     7.9865    88.3553     2.4232     0.1276    -0.0074   -41.8769    17.4118     9.9826    15.7447
  345.5000     7.9871    86.2859     2.4290     0.1254    -0.0050   -41.7737    17.3735     9.7638    13.3415
  346.0000     7.9877    84.3918     2.4232     0.1268    -0.0032   -41.6708    17.3353     9.8040    13.5900
  346.5000     7.9883    83.5366     2.4183     0.1296    -0.0007   -41.6375    17.2972     9.8585    14.0988
  347.0000     7.9889    82.6918     2.4256     0.1285     0.0018   -41.6789    17.2621     9.9134    12.8594
  347.5000     7.9895    80.7740     2.4326     0.1258     0.0043   -41.7201    17.5558     9.9685    13.8126
  348.0000     7.9901    77.8906     2.4253     0.1228     0.0068   -41.7619    17.8969    10.0242    14.8851
  348.5000     7.9907    75.0039     2.4203     0.1316     0.0093   -41.8066    18.2447    10.5682    13.9849
  349.0000     7.9913    72.1149     2.4211     0.1412     0.0117   -41.7466    18.5992    11.2107    15.5130
  349.5000     7.9919    69.7523     2.4017     0.1511     0.0134   -41.6478    18.9258    11.8923    17.0697
  350.0000     7.9925    68.6595     2.3821     0.1614     0.0120   -41.5479    21.0924    12.6250    18.6057
  350.5000     7.9931    67.5569     2.3636     0.1716     0.0106   -41.4482    26.5279    13.9303    22.9607
  351.0000     7.9937    66.4555     2.3439     0.1815     0.0092   -41.3485    35.3003    15.2342    27.7978
  351.5000     7.9943    65.3532     2.3252     0.1912     0.0078   -41.2444    46.5699    16.6602    33.6664
  352.0000     7.9949    64.2066     2.3169     0.1965     0.0065   -41.2650    48.0683    18.2197    40.6814
  352.5000     7.9955    63.9101     2.3092     0.2011     0.0051   -41.3317    50.0148    19.9632    47.6928
  353.0000     7.9961    65.0450     2.3016     0.2058     0.0037   -41.4000    52.6048    21.6194    51.6747
  353.5000     7.9967    66.3562     2.2960     0.2101     0.0024   -41.4681    54.0237    23.1094    56.5690
  354.0000     7.9973    67.6687     2.3012     0.2042     0.0010   -41.5361    53.8857    24.2631    52.7896
  354.5000     7.9979    68.9787     2.3238     0.1962    -0.0004   -41.6041    53.8003    24.1802    47.8580
  355.0000     7.9986    70.2905     2.3298     0.1903    -0.0017   -41.6720    53.7060    24.1152    50.3231
  355.5000     7.9993    71.6086     2.3176     0.1990    -0.0023   -41.7400    53.6054    24.0502    53.8087
  356.0000     7.9999    72.8999     2.3075     0.2051    -0.0016   -41.8080    53.5306    23.6934    56.5949
  356.5000     8.0006    72.4779     2.3126     0.1993    -0.0009   -41.8759    50.2481    23.2936    53.7727
  357.0000     8.0013    69.6779     2.3225     0.1946     0.0013   -41.9439    47.3152    22.9005    50.6313
  357.5000     8.0019    66.9202     2.3309     0.1900     0.0055   -42.0119    44.1252    22.5139    47.9347
  358.0000     8.0026    64.3555     2.3352     0.1854     0.0096   -42.0798    44.9819    22.1339    46.2026
  358.5000     8.0033    64.6152     2.3488     0.1807     0.0138   -42.1478    46.0244    21.7603    48.2849
  359.0000     8.0039    66.2056     2.3541     0.1760     0.0179   -42.2158    47.0910    21.3929    50.0368
  359.5000     8.0046    67.7605     2.3556     0.1715     0.0221   -42.2837    48.1824    21.2610    51.8522
  360.0000     8.0053    69.3113     2.3779     0.1560     0.0262   -42.3517    49.5822    21.1777    53.7335
  360.5000     8.0059    70.8599     2.4104     0.1408     0.0286   -42.4197    46.1992    21.0949    55.6831
  361.0000     8.0066    72.3966     2.4312     0.1316     0.0237   -42.4876    41.0104    21.0122    56.5690
  361.5000     8.0073    72.2160     2.4195     0.1376     0.0190   -42.5556    34.7068    20.9299    45.4709
  362.0000     8.0079    70.5211     2.4144     0.1442     0.0142   -42.6236    35.4314    20.8479    36.7085
  362.5000     8.0086    68.8640     2.4364     0.1326     0.0097   -42.6918    39.1861    20.7498    40.2926
  363.0000     8.0093    67.4631     2.4562     0.1177     0.0140   -42.7594    46.7759    20.8627    43.5319
