~VERSION INFORMATION
 VERS.                2.0:   CWLS LOG ASCII STANDARD - VERSION 2.0
 WRAP.                 NO:   ONE LINE PER DEPTH STEP
~WELL INFORMATION
#MNEM.UNIT      DATA TYPE    INFORMATION
#----------   ------------   ------------------------------
 STRT.F           32.0000:   START DEPTH
 STOP.F          551.0000:   STOP DEPTH
 STEP.F            0.5000:   STEP LENGTH
 NULL.          -999.2500:   NO VALUE
 COMP.    FENIX & SCISSON:   COMPANY
 WELL.   NPR ##3 84-SX-10:   WELL
 FLD .              NPR 3:   FIELD
 LOC .      S10 T38N R78W:   LOCATION
 CNTY.            NATRONA:   COUNTY
 STAT.            WYOMING:   STATE
 CTRY. UNITED STATES OF AMERICA:   COUNTRY
 SRVC.              Welex:   SERVICE COMPANY
 DATE.        25-JAN-1978:   LOGDATE
 API .       490251033700:   API NUMBER
~CURVE INFORMATION
#MNEM.UNIT       API CODE    CURVE DESCRIPTION
#----------   ------------   ------------------------------
 DEPT.F                  :   
 SPR .MV     07 010 01 00:   SPONTANEOUS POTENTIAL FROM RES.
 ILD .OHMM   07 120 46 00:   INDUCTION LOG DEEP
 ILM .OHMM   07 120 44 00:   INDUCTION LOG MEDIUM
 SGRD.OHMM   07 220 05 00:   SHALLOW GUARD RESISTIVITY
 CALD.IN     45 280 60 00:   CALIPER FROM DENSITY LOG
 GRD .GAPI   45 310 01 00:   GAMMA RAY FROM DENSITY LOG
 CORR.G/C3   45 356 01 00:   DENSITY CORRECTION
 RHOB.G/C3   45 350 01 00:   BULK DENSITY
 DPHI.DEC    45 890 12 00:   DENSITY POROSITY SANDSTONE
~PARAMETER INFORMATION
#MNEM.UNIT          VALUE    DESCRIPTION
#----------   ------------   ------------------------------
 CLNT.            A2DTECH:   CLIENT CODE
 ORIG.           5" PRINT:   ORIGIN OF DATA
 UWI .       490251033700:   UNIQUE WELL ID
 DICO. A2D Technologies, Inc.:   DIGITIZING COMPANY
~OTHER INFORMATION
~A   DEPT      SPR        ILD        ILM       SGRD         CALD      GRD       CORR       RHOB       DPHI   
# ...
  506.5000   -29.0186    10.4632    11.6986    18.3466     8.0323   114.8097     0.0812     2.5347     0.0735
  507.0000   -29.0215    10.4656    11.5528    17.9599     8.0165   112.8774     0.0827     2.5392     0.0709
  507.5000   -28.8735    10.4680    11.7163    17.4888     7.9407   112.2744     0.0826     2.5452     0.0667
  508.0000   -28.8772    10.5432    11.3190    17.8618     7.8349   112.5723     0.0841     2.5504     0.0628
  508.5000   -28.8801    10.5522    11.1644    18.4957     7.7440   112.2696     0.0825     2.5511     0.0604
  509.0000   -28.8830    10.7701    11.6407    19.0201     7.6831   110.3153     0.0764     2.5534     0.0595
  509.5000   -28.8859    10.8474    10.8629    19.0254     7.7275   109.2618     0.0719     2.5571     0.0592
  510.0000   -28.8889    10.9253    10.7891    18.5111     7.7568   109.2589     0.0703     2.5594     0.0592
  510.5000   -28.8925    11.0037    10.7911    18.1358     7.7410   108.8060     0.0717     2.5571     0.0598
  511.0000   -28.8954    11.1598    10.9434    18.3936     7.5375   108.5033     0.0717     2.5533     0.0628
  511.5000   -28.8983    11.3180    11.3365    18.9151     7.5743   108.8012     0.0716     2.5480     0.0628
  512.0000   -28.9012    11.3986    11.7454    19.4514     7.6634   109.5696     0.0701     2.5457     0.0653
  512.5000   -28.9041    11.1674    12.1482    20.0028     7.7228   111.4986     0.0655     2.5397     0.0689
  513.0000   -28.9071    10.9404    12.4916    19.9864     7.8872   114.6493     0.0639     2.5329     0.0749
  513.5000   -28.9100    10.8674    12.5799    19.2909     7.9916   116.2986     0.0609     2.5322     0.0755
  514.0000   -28.9129    10.7955    11.8210    18.2985     8.0211   117.4980     0.0593     2.5329     0.0740
  514.5000   -28.9159    10.7980    12.0716    17.9262     8.0202   117.7953     0.0578     2.5359     0.0707
  515.0000   -28.9195    10.7259    12.4128    17.8075     8.0193   118.0932     0.0592     2.5494     0.0653
  515.5000   -28.9224    10.7284    12.5011    18.0620     8.0186   118.6908     0.0637     2.5599     0.0569
  516.0000   -28.9253    10.6562    12.4166    19.4959     8.0179   119.8896     0.0681     2.5681     0.0533
  516.5000   -28.9282    10.6592    12.0789    20.0486     8.0021   121.0884     0.0711     2.5711     0.0512
  517.0000   -28.9311    10.6617    12.1699    19.5053     7.9864   121.6867     0.0710     2.5696     0.0531
  517.5000   -28.7838    10.5906    12.0578    18.9781     7.9556   121.6345     0.0679     2.5596     0.0588
  518.0000   -28.7868    10.5930    11.4331    18.4664     7.9397   119.1287     0.0619     2.5485     0.0630
  518.5000   -28.6396    10.5110    11.1222    18.2176     7.9242   117.0242     0.0513     2.5418     0.0681
  519.0000   -28.6432    10.3089    11.1239    17.4768     7.9083   116.2710     0.0407     2.5350     0.0726
  519.5000   -28.4952    10.1695    11.0487    16.7752     7.9227   117.7702     0.0391     2.5289     0.0762
  520.0000   -28.3480    10.0319    10.8226    17.1331     7.9370   117.7678     0.0451     2.5282     0.0772
  520.5000   -28.0514    10.0342    10.7495    16.3275     7.9513   117.9149     0.0541     2.5357     0.0718
  521.0000   -27.9034     9.8985    11.1306    15.3448     7.9955   119.7143     0.0570     2.5417     0.0700
  521.5000   -27.7568     9.6972    11.4452    15.5640     8.0246   122.4146     0.0525     2.5469     0.0679
  522.0000   -27.6096     9.5000    11.4502    15.8949     8.0539   122.8627     0.0509     2.5491     0.0655
  522.5000   -27.6026     9.3715    11.1242    16.2328     8.0532   125.8633     0.0463     2.5416     0.0685
  523.0000   -27.4653     9.2447    10.5164    16.4625     8.0375   126.7769     0.0448     2.5371     0.0709
  523.5000   -27.4690     9.0567    10.0393    15.6884     8.0067   127.0597     0.0432     2.5378     0.0712
  524.0000   -27.4719     8.9342     9.7663    15.4608     7.9908   126.0057     0.0431     2.5408     0.0691
  524.5000   -27.4748     8.7530     9.4354    15.6982     7.9751   125.4027     0.0431     2.5438     0.0682
  525.0000   -27.3268     8.5750     9.5025    15.7025     7.9443   125.4003     0.0430     2.5347     0.0713
  525.5000   -27.3305     8.5173     9.7032    15.1561     7.9588   127.6628     0.0430     2.5317     0.0755
  526.0000   -27.1832     8.4605     9.1813    14.4120     7.9731   127.1967     0.0429     2.5317     0.0761
  526.5000   -27.1862     8.4629     8.9937    13.6853     7.9874   123.7409     0.0429     2.5317     0.0743
  527.0000   -26.8888     8.4648     8.9333    13.5938     8.0015   120.4153     0.0443     2.5324     0.0743
  527.5000   -26.7415     8.4084     8.9968    14.1750     8.0006  -999.2500     0.0518     2.5347     0.0740
  528.0000   -26.4449     8.3523     8.9982    14.5768     8.0149  -999.2500     0.0683     2.5406     0.0695
  528.5000   -26.2969     8.3547     8.9996    14.7841     7.9991  -999.2500     0.0697     2.5491     0.0665
  529.0000   -26.1497     8.3566     9.0012    14.9943     7.9984  -999.2500     0.0697     2.5534     0.0629
  529.5000   -26.0025     8.3585     9.0026    15.1026     7.9827  -999.2500     0.0696     2.5541     0.0608
  530.0000   -25.7057     8.3022     8.9418    15.2116     7.9668  -999.2500     0.0695     2.5526     0.0633
  530.5000   -25.5586     8.2473     8.9431    15.0066     7.9661  -999.2500     0.0725     2.5526     0.0609
  531.0000   -25.4113     8.1358     8.9445    14.5004     7.9805  -999.2500     0.0740     2.5564     0.0576
  531.5000   -25.2641     8.1376     8.9458    13.8148     7.9796  -999.2500     0.0754     2.5646     0.0546
  532.0000   -25.1169     8.0833     8.9472    13.3523     8.0089  -999.2500     0.0753     2.5630     0.0537
  532.5000   -24.9696     7.9712     9.0108    13.0816     8.0382  -999.2500     0.0753     2.5548     0.0600
  533.0000   -24.9733     7.7954     8.8881    13.0862     8.0373  -999.2500     0.0797     2.5555     0.0606
  533.5000   -24.8253     7.6530     8.2319    13.0898     8.0366  -999.2500     0.0827     2.5592     0.0582
  534.0000   -24.8290     7.6552     7.7874    13.0934     8.0209  -999.2500     0.0842     2.5534     0.0618
  534.5000   -24.6817     7.6569     7.6346    13.0970     7.9751  -999.2500     0.0841     2.5366     0.0703
  535.0000   -24.5345     7.6587     7.6892    12.7430     7.9744  -999.2500     0.0855     2.5231     0.0808
  535.5000   -24.5381     7.4512     7.6904    12.5705     7.9735  -999.2500     0.0930     2.5141     0.0859
  536.0000   -24.5410     7.2493     7.6381    12.7501     7.9728  -999.2500     0.1019     2.5163     0.0865
  536.5000   -24.6941     7.0528     7.6396    12.9313     7.9721  -999.2500     0.1094     2.5094     0.0911
  537.0000   -24.8472     6.9094     7.6407    12.4089     7.9713  -999.2500     0.1229     2.5027     0.0920
  537.5000   -24.8501     6.8633     7.7485    12.3267     7.9556  -999.2500     0.1394     2.5095     0.0899
  538.0000   -25.1533     6.6777     7.8036    12.5958     7.8798  -999.2500     0.1513     2.5035     0.0959
  538.5000   -25.7568     6.4968     7.3838    12.6798     7.7888  -999.2500     0.1453     2.4922     0.1055
  539.0000   -27.2693     6.4089     6.7450    12.6841     7.7130  -999.2500     0.1407     2.4741     0.1115
  539.5000   -28.8319     6.3658     6.2978    11.7577     7.6072  -999.2500     0.1391     2.4680     0.1137
  540.0000   -31.6222     6.3676     6.3428     6.3970     7.4413  -999.2500     0.1436     2.4733     0.1113
  540.5000   -34.1776     6.4579     6.8463     8.9817     6.9902  -999.2500     0.1571     2.4711     0.1125
  541.0000   -39.8862     6.5495     7.5450    12.4373     6.7792  -999.2500     0.1585     2.4635     0.1152
  541.5000   -46.4958     6.7818     7.8122    12.9681     6.7333  -999.2500     0.1555     2.4560     0.1206
  542.0000   -51.0032     6.9745     7.8133    13.2429     6.7175  -999.2500     0.1479     2.4353     0.1272
  542.5000   -57.3124     7.2271     8.2600    12.9744     6.5216  -999.2500     0.1403     2.3996     0.1354
