~VERSION INFORMATION
 VERS.                2.0:   CWLS LOG ASCII STANDARD - VERSION 2.0
 WRAP.                 NO:   ONE LINE PER DEPTH STEP
~WELL INFORMATION
#MNEM.UNIT      DATA TYPE    INFORMATION
#----------   ------------   ------------------------------
 STRT.F           30.0000:   START DEPTH
 STOP.F         1178.5000:   STOP DEPTH
 STEP.F            0.5000:   STEP LENGTH
 NULL.          -999.2500:   NO VALUE
 COMP. FENIX & SCISSON INC:   COMPANY
 WELL.     64-S-14 #14-14:   WELL
 FLD .        TEAPOT DOME:   FIELD
 LOC .      S14 T38N R78W:   LOCATION
 CNTY.            NATRONA:   COUNTY
 STAT.            WYOMING:   STATE
 CTRY. UNITED STATES OF AMERICA:   COUNTRY
 SRVC.            Unknown:   SERVICE COMPANY
 DATE.        19-APR-1978:   LOGDATE
 API .       490251061400:   API NUMBER
~CURVE INFORMATION
#MNEM.UNIT       API CODE    CURVE DESCRIPTION
#----------   ------------   ------------------------------
 DEPT.F                  :   
 SPR .MV     05 010 01 00:   SPONTANEOUS POTENTIAL
 SN  .OHMM   05 040 16 00:   SHORT NORMAL 16'
 ILD .OHMM   05 120 46 00:   INDUCTION LOG DEEP
 CALD.IN     45 280 60 00:   CALIPER
 GRD .GAPI   45 310 01 00:   GAMMA RAY FROM DENSITY LOG
 RHOB.G/C3   45 350 01 00:   BULK DENSITY
 DPHI.DEC    45 890 12 00:   DENSITY POROSITY SANDSTONE
 CORR.G/C3   45 356 01 00:   DENSITY CORRECTION
~PARAMETER INFORMATION
#MNEM.UNIT          VALUE    DESCRIPTION
#----------   ------------   ------------------------------
 PD  .                 GL:   PERMANENT DATUM
 EPD .F              5235:   ELEVATION PERMANENT DATUM
 LMF .                 KB:   LOG MEASURED FROM
 DMF .                 KB:   DRILLING MEASURED FROM
 EKB .F              5299:   KELLING BUSHING
 EGL .F              5295:   GROUND LEVEL
 DATE.          4-19-1978:   RUN DATE
 RUN .                  1:   RUN NUMBER
 DD  .F              1180:   DEPTH DRILLER
 DL  .F              1182:   DEPTH LOGGER
 BLI .F              1176:   BOTTOM LOG INTERVAL
 TLI .F                50:   TOP LOG INTERVAL
 CS  .IN            8.625:   CASING SIZE
 CBD .F                40:   CASING BOTTOM DRILLER
 CBL .F                50:   CASING BOTTOM LOGGER
 BS  .IN            7.875:   BIT SIZE
 BSD .F              1180:   BIT SIZE AT DEPTH
 DFT .                KCL:   DRILLING FLUID TYPE
 DFD .                8.7:   DRILLING FLUID DENSITY
 DFV .                 33:   DRILLING FLUID VISCOSITY
 DFPH.               10.5:   DRILLING FLUID PH
 DFL .               12.3:   DRILLING FLUID LOSS
 MSS .            MUD PIT:   MUD SAMPLE SOURCE
 RMS .OHMM            .54:   RESISTIVITY MUD SAMPLE
 MST .F                62:   MUD SAMPLE TEMPERATURE
 RMF .OHMM            .65:   RESISTIVITY MUD FILTRATE SAMPLE
 MFST.F                60:   MUD FILTRATE SAMPLE TEMPERATURE
 RMC .OHMM            .35:   RESISTIVITY MUD CAKE
 MCST.F                60:   MUD CAKE SAMPLE TEMPERATURE
 MFSS.           MEASURED:   MUD FILTRATE SAMPLE SOURCE
 RMB .OHMM            .42:   RESISTIVITY MUD AT BHT
 BHT .F                80:   BOTTOM HOLE TEMPERATURE
 TCS .HRS               2:   TIME CURCULATED STOPPED
 MRT .F                80:   MAXIMUM RECORDED TEMPERATURE
 LUN .               2955:   LOGGING UNIT NUMBER
 LUL .               CASP:   LOGGING UNIT LOCATION
 ENGI.             MILLER:   RECORDING ENGINEER
 WITN.           MCGINLEY:   WITNESSED BY
 CLNT.            A2DTECH:   CLIENT CODE
 ORIG.      2" & 5" PRINT:   ORIGIN OF DATA
 UWI .       490251061400:   UNIQUE WELL ID
 DICO. A2D Technologies, Inc.:   DIGITIZING COMPANY
~OTHER INFORMATION
~A   DEPT      SPR         SN        ILD       CALD         GRD      RHOB       DPHI       CORR   
# ...
 1123.5000   -42.7803     8.9106     8.3991     7.8434    83.6916     2.5021     0.1068     0.0241
 1124.0000   -42.7775     8.8965     8.3771     7.8320    83.2889     2.4978     0.1101     0.0214
 1124.5000   -42.7748     8.8825     8.3552     7.8144    82.5948     2.4935     0.1128     0.0188
 1125.0000   -42.7721     8.8685     8.3333     7.7965    81.3472     2.4904     0.1125     0.0193
 1125.5000   -42.7693     8.8543     8.3115     7.7784    80.1410     2.4916     0.1120     0.0211
 1126.0000   -42.7666     8.8471     8.2897     7.7935    79.0590     2.4936     0.1116     0.0227
 1126.5000   -42.7638     8.7599     8.2680     7.8378    79.2970     2.4924     0.1116     0.0244
 1127.0000   -42.7611     8.6622     8.2464     7.8817    81.9715     2.4910     0.1128     0.0262
 1127.5000   -42.7583     8.5656     8.2247     7.9036    84.4720     2.4895     0.1151     0.0259
 1128.0000   -42.7556     8.4700     8.1264     7.8845    85.1004     2.4896     0.1143     0.0252
 1128.5000   -42.7528     8.3756     8.0168     7.8703    85.8019     2.4935     0.1088     0.0244
 1129.0000   -42.7501     8.2822     7.9086     7.8740    83.9106     2.4974     0.1098     0.0236
 1129.5000   -42.7474     8.1898     7.8020     7.8775    81.6611     2.4963     0.1120     0.0229
 1130.0000   -42.7446     8.0984     7.6968     7.8809    83.8008     2.4945     0.1132     0.0221
 1130.5000   -42.7419     8.0081     7.5930     7.8843    87.2085     2.4924     0.1117     0.0213
 1131.0000   -42.7391     7.9188     7.4906     7.8876    89.5157     2.4936     0.1103     0.0206
 1131.5000   -42.7364     7.8305     7.3896     7.8900    85.3167     2.4959     0.1100     0.0198
 1132.0000   -42.7336     7.7431     7.2899     7.8941    84.7637     2.4959     0.1107     0.0190
 1132.5000   -42.7309     7.6568     7.1916     7.9016    85.6040     2.4947     0.1114     0.0185
 1133.0000   -42.7281     7.5714     7.0946     7.9083    86.4894     2.4936     0.1119     0.0185
 1133.5000   -42.7254     7.4869     6.9989     7.9225    87.8299     2.4946     0.1101     0.0197
 1134.0000   -42.7227     7.4184     6.9045     7.9108    89.2545     2.4978     0.1074     0.0210
 1134.5000   -42.7199     7.3773     6.8115     7.8988    89.7107     2.5010     0.1084     0.0223
 1135.0000   -42.7172     7.3363     6.7197     7.8866    89.0122     2.5036     0.1057     0.0236
 1135.5000   -42.7144     7.2956     6.6454     7.8740    86.4576     2.5023     0.1052     0.0248
 1136.0000   -42.7117     7.2551     6.6045     7.8866    83.9317     2.4992     0.1090     0.0261
 1136.5000   -42.7089     7.2148     6.5638     7.9117    83.0646     2.4959     0.1102     0.0259
 1137.0000   -42.7062     7.1748     6.5233     7.9370    85.2290     2.4951     0.1109     0.0251
 1137.5000   -42.7034     7.1350     6.4832     7.9423    88.0105     2.4946     0.1115     0.0248
 1138.0000   -42.7007     7.0953     6.4432     7.9108    89.1243     2.4961     0.1094     0.0273
 1138.5000   -42.6980     7.0560     6.4035     7.8915    89.0260     2.4984     0.1075     0.0279
 1139.0000   -42.6952     7.0126     6.3641     7.9064    88.9491     2.4986     0.1103     0.0268
 1139.5000   -42.6925     6.9650     6.3249     7.9209    89.0166     2.4927     0.1120     0.0257
 1140.0000   -42.6897     6.9176     6.2859     7.9356    89.3560     2.4959     0.1068     0.0245
 1140.5000   -42.6870     6.8706     6.2472     7.9496    89.7161     2.4995     0.1083     0.0223
 1141.0000   -42.6842     6.8239     6.2087     7.9499    90.6574     2.4958     0.1102     0.0200
 1141.5000   -42.6815     6.7775     6.1705     7.9369    91.6272     2.4921     0.1120     0.0177
 1142.0000   -42.6788     6.7315     6.1325     7.9057    92.5918     2.4915     0.1128     0.0154
 1142.5000   -42.6760     6.6857     6.0947     7.8759    93.5577     2.4909     0.1153     0.0131
 1143.0000   -42.6733     6.6191     6.0572     7.8675    93.3234     2.4832     0.1196     0.0106
 1143.5000   -42.6705     6.5238     6.0199     7.9034    91.6400     2.4762     0.1157     0.0199
 1144.0000   -42.6678     6.4299     5.9828     7.9410    92.9123     2.4884     0.1121     0.0224
 1144.5000   -42.6650     6.3372     5.9460     7.9491    94.3234     2.4811     0.1189     0.0164
 1145.0000   -42.6623     6.2460     5.9093     7.9463    93.3684     2.4692     0.1246     0.0173
 1145.5000   -42.6595     6.1560     5.8729     7.9433    92.3374     2.4630     0.1279     0.0186
 1146.0000   -42.6568     6.0674     5.7510     7.9404    91.3403     2.4582     0.1305     0.0252
 1146.5000   -42.6541     5.9801     5.5688     7.9374    91.5805     2.4534     0.1331     0.0322
 1147.0000   -42.6513     5.8938     5.3921     7.9345    92.3587     2.4511     0.1280     0.0395
 1147.5000   -42.6486     5.8039     5.2208     7.9316    92.1262     2.4662     0.1210     0.0333
 1148.0000   -42.6458     5.6865     5.0111     7.9287    91.2448     2.4783     0.1139     0.0249
 1148.5000   -42.6431     5.5642     5.0130     7.9258    93.0165     2.4978     0.1106     0.0245
 1149.0000   -42.6403     5.4440     5.0138     7.9229    99.2070     2.4937     0.1129     0.0245
 1149.5000   -42.6376     5.3250     5.0091     7.9200   105.2690     2.4893     0.1139     0.0259
 1150.0000   -42.6348     5.2421     5.0531     7.9171   108.9844     2.4972     0.1092     0.0325
 1150.5000   -42.6321     5.3444     5.1110     7.9142   108.2092     2.5096     0.1020     0.0386
 1151.0000   -42.6293     5.6160     5.2473     7.9113   102.5834     2.5185     0.0990     0.0385
 1151.5000   -42.6226     5.9759     5.5234     7.9112    96.8842     2.5203     0.0976     0.0385
 1152.0000   -42.7810     6.3589     5.8457     7.9132    94.3606     2.5229     0.0962     0.0385
 1152.5000   -42.9958     6.7204     6.1869     7.9153   100.1330     2.5253     0.0952     0.0386
 1153.0000   -43.2123     7.0072     6.5424     7.9174   104.8302     2.5278     0.0945     0.0404
 1153.5000   -43.4283     7.4333     6.5353     7.9195   105.9808     2.5302     0.0927     0.0424
 1154.0000   -43.6153     7.4194     6.5370     7.9216   106.9821     2.5327     0.0907     0.0444
 1154.5000   -43.6162     7.4011     6.5382     7.9237   107.5542     2.5333     0.0900     0.0418
 1155.0000   -43.6155     7.3811     6.5382     7.9258   106.5052     2.5313     0.0933     0.0385
 1155.5000   -43.6154     7.3616     6.5382     7.9279   103.2932     2.5259     0.0964     0.0353
 1156.0000   -43.6154     7.3424     6.5382     7.9306   100.0487     2.5187     0.0996     0.0327
 1156.5000   -43.6154     7.3233     6.5382     7.9005    96.7829     2.5145     0.1008     0.0348
 1157.0000   -43.6154     7.3042     6.5383     7.8623    95.2823     2.5145     0.1005     0.0369
 1157.5000   -43.6154     7.2852     6.5383     7.8234    96.6557     2.5145     0.1003     0.0389
 1158.0000   -43.6154     7.2662     6.5381     7.8196   100.4557     2.5144     0.1019     0.0400
 1158.5000   -43.6154     7.2472     6.4969     7.8339   101.3594     2.5114     0.1034     0.0371
 1159.0000   -43.6154     7.2284     6.4606     7.8484   100.9841     2.5054     0.1050     0.0343
 1159.5000   -43.6154     7.2095     6.4245     7.8501   102.8482     2.5032     0.1065     0.0314
 1160.0000   -43.6154     7.1908     6.3887     7.8500   103.2043     2.5008     0.1080     0.0321
 1160.5000   -43.6154     7.1720     6.3530     7.8500    97.2524     2.4996     0.1072     0.0343
 1161.0000   -43.6154     7.1533     6.3175     7.8499    99.6345     2.5008     0.1064     0.0365
 1161.5000   -43.6154     7.1347     6.2822     7.8504   102.6031     2.5020     0.1056     0.0387
 1162.0000   -43.6154     7.1162     6.2454     7.8638   102.1060     2.5011     0.1072     0.0406
 1162.5000   -43.6154     7.1003     6.0976     7.8777   100.8908     2.5001     0.1075     0.0399
 1163.0000   -43.6154     7.1003     5.9455     7.8915   101.5234     2.5014     0.1067     0.0362
 1163.5000   -43.6154     6.9719     5.7973     7.9053   102.8590     2.5027     0.1100     0.0325
