~VERSION INFORMATION
 VERS.                2.0:   CWLS LOG ASCII STANDARD - VERSION 2.0
 WRAP.                 NO:   ONE LINE PER DEPTH STEP
~WELL INFORMATION
#MNEM.UNIT      DATA TYPE    INFORMATION
#----------   ------------   ------------------------------
 STRT.F           98.5000:   START DEPTH
 STOP.F          716.5000:   STOP DEPTH
 STEP.F            0.5000:   STEP LENGTH
 NULL.          -999.2500:   NO VALUE
 COMP. U S NAVY-INTEX OIL:   COMPANY
 WELL. RES 3 TEAPOT DOM #32S-11:   WELL
 FLD .             TEAPOT:   FIELD
 LOC .      S11 T38N R78W:   LOCATION
 CNTY.            NATRONA:   COUNTY
 STAT.            WYOMING:   STATE
 CTRY. UNITED STATES OF AMERICA:   COUNTRY
 SRVC.       Schlumberger:   SERVICE COMPANY
 DATE.        13-JUL-1962:   LOGDATE
 API .       490250636500:   API NUMBER
~CURVE INFORMATION
#MNEM.UNIT       API CODE    CURVE DESCRIPTION
#----------   ------------   ------------------------------
 DEPT.F                  :   
 SPR .MV     05 010 01 00:   SPONTANEOUS POTENTIAL FROM RES.
 CILD.MMHO   05 110 46 00:   CONDUCTIVITY INDUCTION LOG DEEP
 ASN .OHMM   05 040 16 00:   AMPLIFIED SHORT NORMAL 16"
 ILD .OHMM   05 120 46 00:   INDUCTION LOG DEEP
 GR  .GAPI   30 310 01 00:   GAMMA RAY
~PARAMETER INFORMATION
#MNEM.UNIT          VALUE    DESCRIPTION
#----------   ------------   ------------------------------
 PD  .                 GL:   PERMANENT DATUM
 EPD .F              5161:   ELEVATION PERMANENT DATUM
 LMF .                 KB:   LOG MEASURED FROM
 DAPD.F                 5:   FEET ABOVE PERMANENT DATUM
 DMF .                 KB:   DRILLING MEASURED FROM
 EKB .F              5166:   KELLING BUSHING
 EGL .F              5161:   GROUND LEVEL
 DATE.            7-13-62:   RUN DATE
 RUN .                  1:   RUN NUMBER
 DD  .F               716:   DEPTH DRILLER
 DL  .F               717:   DEPTH LOGGER
 BLI .F               716:   BOTTOM LOG INTERVAL
 TLI .F               100:   TOP LOG INTERVAL
 CBD .F                10:   CASING BOTTOM DRILLER
 BS  .IN             6.75:   BIT SIZE
 BSD .F               716:   BIT SIZE AT DEPTH
 DFT .           OIL EMUL:   DRILLING FLUID TYPE
 DFD .               10.2:   DRILLING FLUID DENSITY
 DFV .                 43:   DRILLING FLUID VISCOSITY
 RMS .OHMM              5:   RESISTIVITY MUD SAMPLE
 MST .F                70:   MUD SAMPLE TEMPERATURE
 RMF .OHMM            5.5:   RESISTIVITY MUD FILTRATE SAMPLE
 MFST.F                70:   MUD FILTRATE SAMPLE TEMPERATURE
 RMC .OHMM              6:   RESISTIVITY MUD CAKE
 MCST.F                70:   MUD CAKE SAMPLE TEMPERATURE
 TCS .HRS              .5:   TIME CURCULATED STOPPED
 LUN .               2503:   LOGGING UNIT NUMBER
 LUL .               CSPR:   LOGGING UNIT LOCATION
 ENGI.           ELLERMAN:   RECORDING ENGINEER
 WITN.          JORGENSON:   WITNESSED BY
 CLNT.            A2DTECH:   CLIENT CODE
 ORIG.       2", 5" PRINT:   ORIGIN OF DATA
 UWI .       490250636500:   UNIQUE WELL ID
 DICO. A2D Technologies, Inc.:   DIGITIZING COMPANY
~OTHER INFORMATION
~A   DEPT      SPR       CILD        ASN        ILD         GR   
# ...
  403.5000   -50.6566   108.2085     9.6286     8.7409  -999.2500
  404.0000   -50.9742   110.1751     9.4132     8.7972  -999.2500
  404.5000   -50.9655   112.4685     9.1935     8.5735  -999.2500
  405.0000   -50.4427   114.7618     9.0456     8.3453  -999.2500
  405.5000   -49.8687   118.3762     8.9320     8.1183  -999.2500
  406.0000   -49.8546   122.5260     8.7558     7.8914  -999.2500
  406.5000   -50.0741   126.6782     8.5310     7.6650  -999.2500
  407.0000   -50.3020   130.8195     8.3113     7.4729  -999.2500
  407.5000   -50.0122   134.5999     8.0756     7.3901  -999.2500
  408.0000   -49.6366   136.8074     7.8403     7.3065  -999.2500
  408.5000   -49.3045   138.8558     7.7087     7.2228  -999.2500
  409.0000   -49.4515   140.8874     7.6302     7.1393  -999.2500
  409.5000   -49.6035   141.6450     7.6310     7.0935  -999.2500
  410.0000   -49.7547   141.6424     7.6307     7.1231  -999.2500
  410.5000   -49.8890   141.6331     7.6388     7.1523  -999.2500
  411.0000   -49.6895   138.8889     7.6988     7.1814  -999.2500
  411.5000   -49.4998   136.4541     7.7590     7.2105  -999.2500
  412.0000   -49.4233   135.7989     7.8191     7.2396  -999.2500
  412.5000   -49.3477   135.1426     7.8730     7.2686  -999.2500
  413.0000   -49.4672   134.4902     7.8787     7.2999  -999.2500
  413.5000   -49.9454   133.8319     7.8834     7.3406  -999.2500
  414.0000   -50.3187   132.7398     7.8880     7.3819  -999.2500
  414.5000   -50.0068   131.3428     7.8952     7.4232  -999.2500
  415.0000   -49.6582   129.9298     7.9511     7.4645  -999.2500
  415.5000   -49.4968   128.1621     8.0641     7.5058  -999.2500
  416.0000   -49.7945   126.2309     8.1864     7.5484  -999.2500
  416.5000   -50.3161   124.2997     8.3088     7.5837  -999.2500
  417.0000   -50.7009   122.4798     8.3991     7.7262    98.5095
  417.5000   -50.7108   121.7406     8.4483     7.7746    96.8687
  418.0000   -50.5470   121.0417     8.4977     7.8309    85.7576
  418.5000   -50.3210   120.6452     8.5442     7.8866    91.8218
  419.0000   -50.0952   121.6936     8.5742     7.8696    84.6815
  419.5000   -49.8638   122.7419     8.5586     7.7996   110.5916
  420.0000   -49.5347   123.7903     8.5273     7.7298    97.6883
  420.5000   -49.3415   124.8387     8.4559     7.7014    92.2149
  421.0000   -49.2028   125.5040     8.3685     7.7156    97.4931
  421.5000   -49.0612   125.5040     8.2812     7.7304   104.1847
  422.0000   -48.9186   125.5040     8.2142     7.7452    90.2191
  422.5000   -48.8021   125.5040     8.1961     7.7599    81.0867
  423.0000   -48.6912   125.5040     8.1965     7.7747    86.2236
  423.5000   -48.5803   125.5040     8.2754     7.7894    88.2031
  424.0000   -48.4695   125.5040     8.3612     7.8042    91.6501
  424.5000   -48.3586   125.5040     8.4471     7.8189    79.6790
  425.0000   -48.2477   125.5040     8.4452     7.8336    81.3092
  425.5000   -48.1366   125.5040     8.4042     7.8484    88.1386
  426.0000   -48.0257   125.5040     8.3390     7.8632    93.2302
  426.5000   -47.9061   125.5040     8.2785     7.8777    90.8561
  427.0000   -48.1086   125.5040     8.2988     7.8934    96.9486
  427.5000   -48.4196   125.5025     8.3211     7.8502    91.1104
  428.0000   -48.5706   125.5047     8.3149     7.7820    93.8918
  428.5000   -47.8914   125.7019     8.2438     7.7127    86.7662
  429.0000   -48.3596   126.8926     8.1846     7.6436    90.9549
  429.5000   -49.1168   128.0762     8.1321     7.5745    83.3129
  430.0000   -49.1786   129.2599     8.0886     7.5054    59.5120
  430.5000   -49.0214   130.4435     8.0657     7.4363    68.2011
  431.0000   -48.8848   131.6272     8.0440     7.3673    67.4275
  431.5000   -49.0326   132.9301     7.9470     7.2983    73.9566
  432.0000   -49.2018   134.5766     7.8032     7.2279    86.0725
  432.5000   -49.0821   137.3488     7.6665     7.1245    83.1714
  433.0000   -48.6520   141.5121     7.5494     6.9816    88.5284
  433.5000   -48.2259   147.1035     7.4371     6.8393    81.9489
  434.0000   -47.8660   152.7296     7.3072     6.6965    77.9416
  434.5000   -47.6023   158.8376     7.0951     6.5535    90.4555
  435.0000   -47.3224   163.8800     6.8781     6.4105    84.7618
  435.5000   -47.0693   167.4017     6.7216     6.2840    90.4292
  436.0000   -47.0768   168.6969     6.5863     6.2874    98.6496
  436.5000   -47.0737   168.4211     6.5078     6.2876    99.8838
  437.0000   -46.8677   168.1452     6.4260     6.2876    87.4823
  437.5000   -46.3446   167.8427     6.4039     6.2859    85.1281
  438.0000   -46.0152   163.3304     6.6370     6.3781    83.9023
  438.5000   -45.6400   158.3381     6.8871     6.5045    90.4093
  439.0000   -45.4665   153.3458     7.0423     6.6315    97.7126
  439.5000   -45.4598   148.3535     7.1624     6.7585    83.9320
  440.0000   -45.4782   142.6584     7.2406     6.8855    87.3008
  440.5000   -45.9385   141.9341     7.3186     7.0112    83.6019
  441.0000   -46.4114   141.0067     7.3768     7.0989    95.5290
  441.5000   -46.8811   140.0568     7.3964     7.1128    87.7588
  442.0000   -47.3216   139.1037     7.4167     7.1280    81.0905
  442.5000   -47.5360   138.1507     7.4369     7.1429    71.7846
  443.0000   -47.7576   137.1976     7.4569     7.1579    74.1832
  443.5000   -47.8826   137.3294     7.4699     7.1730    76.7011
  444.0000   -47.8849   139.3455     7.4703     7.1868    81.5363
  444.5000   -48.0592   141.3617     7.4249     7.1304    84.5891
  445.0000   -48.6450   144.0092     7.3531     6.9872    86.2992
  445.5000   -48.8929   146.7550     7.1730     6.8449    98.2769
  446.0000   -48.1483   149.5008     7.0062     6.7020    99.8910
  446.5000   -47.4637   152.2465     6.8626     6.5596    87.6778
  447.0000   -48.0046   158.3871     6.7583     6.4194    99.2436
  447.5000   -48.6171   165.7258     6.6535     6.2694   115.1854
  448.0000   -48.8734   177.7268     6.4879     5.8803   111.2848
  448.5000   -48.2245   191.6179     6.2646     5.5057   109.3910
  449.0000   -47.5255   205.5091     6.0400     5.2304   113.4408
  449.5000   -46.8363   219.4002     5.8009     5.1083   132.4366
  450.0000   -46.7268   225.3024     5.5389     4.9839   125.3562
  450.5000   -47.2557   224.7638     5.2776     4.8757   111.4206
  451.0000   -47.4723   223.2230     5.2447     4.9143    90.9357
  451.5000   -46.5017   220.2978     5.2357     5.1288    91.9932
  452.0000   -44.8582   216.1859     5.2539     5.3440    94.1639
  452.5000   -44.5665   203.3792     5.5754     5.5993    97.8274
  453.0000   -44.2960   186.4167     6.2072     5.8480   113.2773
  453.5000   -44.4346   169.3799     6.4995     6.0763   105.3789
  454.0000   -44.6608   153.7298     6.6838     6.2881    96.6565
  454.5000   -44.8656   149.1653     6.8508     6.5281    94.1858
  455.0000   -44.6445   145.4709     7.0066     6.7451    98.5522
  455.5000   -44.2634   144.3390     7.1427     6.8542    82.6331
  456.0000   -44.1082   143.2071     7.2700     6.9596    76.1861
  456.5000   -44.3664   141.5092     7.3664     7.0648    76.0940
  457.0000   -44.6140   139.2454     7.4486     7.1704    80.1731
  457.5000   -44.8631   136.9816     7.5317     7.2760    85.6338
  458.0000   -45.1747   134.7177     7.6378     7.3359    96.0678
  458.5000   -45.4858   132.8592     7.7437     7.3865    92.1109
  459.0000   -45.7952   131.4186     7.8455     7.4371    98.7370
  459.5000   -46.2751   130.4234     7.9142     7.4878   107.0059
  460.0000   -46.8094   129.8254     7.9824     7.5385    97.4120
  460.5000   -47.4328   129.2274     8.0770     7.5892   101.8969
  461.0000   -47.7744   128.6294     8.1755     7.6399   106.6051
  461.5000   -48.0637   128.0314     8.2113     7.6905    93.7536
  462.0000   -48.3027   127.4334     8.2317     7.7414    98.9397
  462.5000   -47.5205   126.8354     8.2518     7.7945   102.4833
  463.0000   -46.6330   126.2374     8.2721     7.8566   104.3512
  463.5000   -45.9942   125.6395     8.2919     7.9212    90.7165
  464.0000   -45.8162   125.0415     8.3343     7.9943    86.9635
