~VERSION INFORMATION
 VERS.                2.0:   CWLS LOG ASCII STANDARD - VERSION 2.0
 WRAP.                 NO:   ONE LINE PER DEPTH STEP
~WELL INFORMATION
#MNEM.UNIT      DATA TYPE    INFORMATION
#----------   ------------   ------------------------------
 STRT.F           34.0000:   START DEPTH
 STOP.F          614.0000:   STOP DEPTH
 STEP.F            0.5000:   STEP LENGTH
 NULL.          -999.2500:   NO VALUE
 COMP. FENIX & SCISSON INC:   COMPANY
 WELL.      71-SX-3 #71-3:   WELL
 FLD .             TEAPOT:   FIELD
 LOC .       S3 T38N R78W:   LOCATION
 CNTY.            NATRONA:   COUNTY
 STAT.            WYOMING:   STATE
 CTRY. UNITED STATES OF AMERICA:   COUNTRY
 SRVC.              Welex:   SERVICE COMPANY
 DATE.        10-MAR-1977:   LOGDATE
 API .       490251028900:   API NUMBER
~CURVE INFORMATION
#MNEM.UNIT       API CODE    CURVE DESCRIPTION
#----------   ------------   ------------------------------
 DEPT.F                  :   
 CALD.IN     45 280 60 00:   CALIPER
 GRD .GAPI   45 310 01 00:   GAMMA RAY FROM DENSITY LOG
 RHOB.G/C3   45 350 01 00:   BULK DENSITY
 DPHI.DEC    45 890 12 00:   DENSITY POROSITY SANDSTONE
 CORR.G/C3   45 356 01 00:   DENSITY CORRECTION
 SGRD.OHMM   07 220 05 00:   SHALLOW RESISTIVITY
 ILD .OHMM   07 120 46 00:   INDUCTION LOG DEEP
 ILM .OHMM   07 120 44 00:   INDUCTION LOG MEDIUM
 SPR .MV     07 010 01 00:   SPONTANEOUS POTENTIAL
~PARAMETER INFORMATION
#MNEM.UNIT          VALUE    DESCRIPTION
#----------   ------------   ------------------------------
 PD  .                 GL:   PERMANENT DATUM
 EPD .F              5117:   ELEVATION PERMANENT DATUM
 LMF .                 GL:   LOG MEASURED FROM
 DMF .                 GL:   DRILLING MEASURED FROM
 EGL .F              5117:   GROUND LEVEL
 DATE.          3-10-1977:   RUN DATE
 RUN .                  1:   RUN NUMBER
 DD  .F               630:   DEPTH DRILLER
 DL  .F               619:   DEPTH LOGGER
 BLI .F               617:   BOTTOM LOG INTERVAL
 TLI .F                34:   TOP LOG INTERVAL
 CS  .IN            8.625:   CASING SIZE
 CBD .F                40:   CASING BOTTOM DRILLER
 CBL .F                41:   CASING BOTTOM LOGGER
 BS  .IN            7.875:   BIT SIZE
 BSD .F               630:   BIT SIZE AT DEPTH
 DFT .            KCL MUD:   DRILLING FLUID TYPE
 DFD .                  9:   DRILLING FLUID DENSITY
 DFV .                 33:   DRILLING FLUID VISCOSITY
 MSS .            MUD PIT:   MUD SAMPLE SOURCE
 RMS .OHMM           2.33:   RESISTIVITY MUD SAMPLE
 MST .F                57:   MUD SAMPLE TEMPERATURE
 RMF .OHMM           1.83:   RESISTIVITY MUD FILTRATE SAMPLE
 MFST.F                57:   MUD FILTRATE SAMPLE TEMPERATURE
 RMC .OHMM           2.53:   RESISTIVITY MUD CAKE
 MCST.F                57:   MUD CAKE SAMPLE TEMPERATURE
 MFSS.           FANN KIT:   MUD FILTRATE SAMPLE SOURCE
 MCSS.           FANN KIT:   MUD CAKE SAMPLE SOURCE
 RMB .OHMM            2.1:   RESISTIVITY MUD AT BHT
 BHT .F                63:   BOTTOM HOLE TEMPERATURE
 TCS .HRS             1.5:   TIME CURCULATED STOPPED
 MRT .F                63:   MAXIMUM RECORDED TEMPERATURE
 LUN .               8611:   LOGGING UNIT NUMBER
 LUL .           GILLETTE:   LOGGING UNIT LOCATION
 ENGI.               DOAK:   RECORDING ENGINEER
 WITN.              BURKE:   WITNESSED BY
 CLNT.            A2DTECH:   CLIENT CODE
 ORIG.       2", 5" PRINT:   ORIGIN OF DATA
 UWI .       490251028900:   UNIQUE WELL ID
 DICO. A2D Technologies, Inc.:   DIGITIZING COMPANY
~OTHER INFORMATION
~A   DEPT     CALD        GRD       RHOB       DPHI       CORR       SGRD        ILD        ILM        SPR   
# ...
  581.5000     7.7535    82.9317     2.4803     0.1016     0.0417    10.9278     8.6488     9.6403   -42.9358
  582.0000     7.7535    80.5038     2.4878     0.0971     0.0437    11.1907     8.8677     9.8145   -42.8604
  582.5000     7.7535    78.0711     2.4953     0.0926     0.0457    11.4594     9.0922     9.9918   -42.7381
  583.0000     7.7535    75.8392     2.5027     0.0891     0.0477    11.7327     9.3224    10.1724   -42.6136
  583.5000     7.7535    75.6086     2.4994     0.0918     0.0468    12.0756     9.4709    10.3562   -42.4896
  584.0000     7.7535    78.4132     2.4951     0.0922     0.0460    11.9024     9.5374    10.5433   -42.3659
  584.5000     7.7535    81.2472     2.5020     0.0886     0.0468    12.2283     9.6043    10.7338   -42.2422
  585.0000     7.7535    84.0157     2.5094     0.0850     0.0475    12.7654     9.6717    10.9278   -42.1181
  585.5000     7.7535    83.1565     2.5021     0.0881     0.0471    13.4700     9.7396    11.1253   -41.9936
  586.0000     7.7535    82.4895     2.4939     0.0931     0.0442    13.1809     9.8080    11.2274   -41.8724
  586.5000     7.7535    83.5134     2.4856     0.0981     0.0413    12.5728     9.8768    11.3119   -41.8365
  587.0000     7.7535    83.4032     2.4826     0.1014     0.0385    12.7724     9.9462    11.3970   -42.1172
  587.5000     7.7535    82.7835     2.4848     0.0991     0.0360    13.2302    10.0160    11.4828   -42.3574
  588.0000     7.7535    83.8209     2.4870     0.0965     0.0374    13.7044    10.0863    11.5692   -42.1003
  588.5000     7.7535    80.9606     2.4892     0.0970     0.0391    14.1687    10.1571    11.6562   -41.8356
  589.0000     7.7535    74.2485     2.4913     0.0985     0.0408    13.8171    10.2284    11.7439   -41.5779
  589.5000     7.7535    67.5360     2.4871     0.0980     0.0415    13.2969    10.3002    11.8323   -41.4304
  590.0000     7.7535    64.5142     2.4833     0.0966     0.0373    12.9244    10.3725    11.8982   -41.6693
  590.5000     7.7535    65.1975     2.4789     0.1009     0.0331    13.5734    10.4453    11.8000   -41.9084
  591.0000     7.7535    65.8710     2.4715     0.1051     0.0289    14.3034    10.5186    11.7226   -41.9143
  591.5000     7.7535    66.5539     2.4643     0.1093     0.0261    14.1559    10.5581    11.6458   -41.8284
  592.0000     7.7535    67.2334     2.4643     0.1094     0.0271    13.8430    10.5090    11.5694   -41.7388
  592.5000     7.7530    67.9158     2.4718     0.1044     0.0280    13.5372    10.4704    11.4936   -41.6495
  593.0000     7.7512    68.6202     2.4793     0.1003     0.0289    13.2380    10.4318    11.4182   -41.5605
  593.5000     7.7495    70.6563     2.4850     0.0981     0.0299    12.9449    10.3935    11.3637   -41.4716
  594.0000     7.7477    74.0581     2.4864     0.0979     0.0365    12.5728    10.3552    11.5681   -41.3826
  594.5000     7.7460    82.4120     2.4923     0.0933     0.0418    13.0815    10.3172    11.7170   -41.2937
  595.0000     7.7442    90.8401     2.4992     0.0869     0.0471    13.8711    10.2794    11.8679   -41.2047
  595.5000     7.7424    99.3448     2.5061     0.0850     0.0524    14.2995    10.2425    12.0081   -41.1158
  596.0000     7.7407   102.0700     2.5054     0.0876     0.0559    13.2827    10.2038    11.8035   -41.0268
  596.5000     7.7389   101.0267     2.4972     0.0922     0.0575    13.0437    10.0838    11.6176   -40.9379
  597.0000     7.7372    99.5705     2.4890     0.0968     0.0563    13.0437     9.9163    11.4346   -40.8489
  597.5000     7.7354    98.1120     2.4808     0.1014     0.0551    12.9330     9.7305    11.2544   -40.7599
  598.0000     7.7337    96.6586     2.4725     0.1060     0.0539    12.8097     9.5483    11.0773   -40.6711
  598.5000     7.7335    95.2064     2.4645     0.1074     0.0527    12.6867     9.3695    10.9137   -40.5820
  599.0000     7.7335    93.7507     2.4761     0.1005     0.0525    12.5637     9.1940    10.7780   -40.4927
  599.5000     7.7335    92.1236     2.4902     0.0927     0.0582    12.4537     9.0218    10.6439   -40.4091
  600.0000     7.7335    90.0482     2.5041     0.0850     0.0642    11.9416     8.8528    10.5117   -40.2069
  600.5000     7.7335    87.9805     2.5080     0.0846     0.0648    11.4945     8.6870    10.3811   -39.9407
  601.0000     7.7335    85.9128     2.5007     0.0894     0.0633    11.3429     8.5244    10.2521   -39.6729
  601.5000     7.7335    83.8453     2.4934     0.0930     0.0617    11.3186     8.3647    10.1247   -39.4051
  602.0000     7.7335    81.7779     2.4975     0.0904     0.0600    11.2942     8.1112     9.9916   -39.1371
  602.5000     7.7334    79.7096     2.5058     0.0855     0.0669    11.2598     7.7057     9.8852   -38.8706
  603.0000     7.7312    77.6413     2.5141     0.0806     0.0761    11.3488     7.3197     9.7870   -38.6229
  603.5000     7.7253    75.5938     2.5179     0.0794     0.0853    11.5447     7.0435     9.6898   -38.0398
  604.0000     7.7195    73.4791     2.5166     0.0800     0.0944    11.7439     7.0085     9.5936   -37.3670
  604.5000     7.7145    74.1422     2.5229     0.0772     0.1020    11.8982     6.9814     9.4983   -36.7021
  605.0000     7.6772    75.9222     2.5285     0.0730     0.1018    10.2709     7.0208     9.3738   -35.3954
  605.5000     7.6194    76.5684     2.5284     0.0730     0.1018    10.3952     7.1110     9.3933   -33.7503
  606.0000     7.5509  -999.2500     2.5284     0.0730     0.1018    10.5968     7.3146     9.4322   -32.0229
  606.5000  -999.2500  -999.2500  -999.2500  -999.2500  -999.2500    10.8024     7.5860     9.4715   -28.1187
  607.0000  -999.2500  -999.2500  -999.2500  -999.2500  -999.2500    11.0119     8.3137     9.5108   -21.6154
  607.5000  -999.2500  -999.2500  -999.2500  -999.2500  -999.2500    11.2573     9.9457     9.5505   -14.7411
  608.0000  -999.2500  -999.2500  -999.2500  -999.2500  -999.2500    11.4687    12.5611     9.5904    -7.8994
  608.5000  -999.2500  -999.2500  -999.2500  -999.2500  -999.2500    11.2540    16.5027     9.6291    -0.9849
  609.0000  -999.2500  -999.2500  -999.2500  -999.2500  -999.2500    11.0763    24.5952    10.0658    -0.9970
  609.5000  -999.2500  -999.2500  -999.2500  -999.2500  -999.2500    10.9014    24.5952    10.5504    -1.1205
  610.0000  -999.2500  -999.2500  -999.2500  -999.2500  -999.2500    10.7292    24.5952    13.3741    -1.2570
  610.5000  -999.2500  -999.2500  -999.2500  -999.2500  -999.2500    10.5598    24.5952    29.2801    -1.2411
  611.0000  -999.2500  -999.2500  -999.2500  -999.2500  -999.2500    10.3930    24.5952    58.3769    -1.1861
  611.5000  -999.2500  -999.2500  -999.2500  -999.2500  -999.2500    10.2289    24.5952    58.4325    -1.1297
  612.0000  -999.2500  -999.2500  -999.2500  -999.2500  -999.2500    10.0674    24.5952    58.4248    -1.0735
  612.5000  -999.2500  -999.2500  -999.2500  -999.2500  -999.2500     9.9916    24.5952    58.3881    -1.0175
  613.0000  -999.2500  -999.2500  -999.2500  -999.2500  -999.2500    10.0828    24.5952    58.3579    -0.9615
  613.5000  -999.2500  -999.2500  -999.2500  -999.2500  -999.2500    10.2613    24.5952    58.3579    -0.9037
  614.0000  -999.2500  -999.2500  -999.2500  -999.2500  -999.2500    10.4430    24.5952    58.3579    -0.8892
