~VERSION INFORMATION
 VERS.                2.0:   CWLS LOG ASCII STANDARD - VERSION 2.0
 WRAP.                 NO:   ONE LINE PER DEPTH STEP
~WELL INFORMATION
#MNEM.UNIT      DATA TYPE    INFORMATION
#----------   ------------   ------------------------------
 STRT.F           99.0000:   START DEPTH
 STOP.F          750.0000:   STOP DEPTH
 STEP.F            0.5000:   STEP LENGTH
 NULL.          -999.2500:   NO VALUE
 COMP. U S NAVY/INTEX OIL CO:   COMPANY
 WELL.    NRP #3 #43-S-11:   WELL
 FLD .             TEAPOT:   FIELD
 LOC .      S11 T38N R78W:   LOCATION
 CNTY.            NATRONA:   COUNTY
 STAT.            WYOMING:   STATE
 CTRY. UNITED STATES OF AMERICA:   COUNTRY
 SRVC.       Schlumberger:   SERVICE COMPANY
 DATE.        12-JUL-1962:   LOGDATE
 API .       490250636100:   API NUMBER
~CURVE INFORMATION
#MNEM.UNIT       API CODE    CURVE DESCRIPTION
#----------   ------------   ------------------------------
 DEPT.F                  :   
 SPR .MV     05 010 01 00:   SPONTANEOUS POTENTIAL FROM RES.
 CILD.MMHO   05 110 46 00:   CONDUCTIVITY INDUCTION LOG DEEP
 ILD .OHMM   05 120 46 00:   INDUCTION LOG DEEP
 ASN .OHMM   05 041 16 00:   AMPLIFIED SHORT NORMAL 16"
 GR  .GAPI   30 310 01 00:   GAMMA RAY
~PARAMETER INFORMATION
#MNEM.UNIT          VALUE    DESCRIPTION
#----------   ------------   ------------------------------
 EPD .F              5177:   ELEVATION PERMANENT DATUM
 LMF .                 KB:   LOG MEASURED FROM
 DAPD.F                 5:   FEET ABOVE PERMANENT DATUM
 DMF .                 KB:   DRILLING MEASURED FROM
 EKB .F              5182:   KELLING BUSHING
 EGL .F              5177:   GROUND LEVEL
 DATE.          7-12-1962:   RUN DATE
 RUN .                  1:   RUN NUMBER
 DD  .F               750:   DEPTH DRILLER
 DL  .F               751:   DEPTH LOGGER
 BLI .F               750:   BOTTOM LOG INTERVAL
 TLI .F               100:   TOP LOG INTERVAL
 CBD .F                10:   CASING BOTTOM DRILLER
 BS  .IN             6.75:   BIT SIZE
 BSD .F               750:   BIT SIZE AT DEPTH
 DFT .           OIL EMUL:   DRILLING FLUID TYPE
 DFD .               10.2:   DRILLING FLUID DENSITY
 DFV .                 40:   DRILLING FLUID VISCOSITY
 DFL .                4.6:   DRILLING FLUID LOSS
 RMS .OHMM            5.2:   RESISTIVITY MUD SAMPLE
 MST .F                82:   MUD SAMPLE TEMPERATURE
 RMF .OHMM            3.7:   RESISTIVITY MUD FILTRATE SAMPLE
 MFST.F                82:   MUD FILTRATE SAMPLE TEMPERATURE
 RMC .OHMM            5.8:   RESISTIVITY MUD CAKE
 MCST.F                80:   MUD CAKE SAMPLE TEMPERATURE
 TCS .HRS              .5:   TIME CURCULATED STOPPED
 LUN .               2523:   LOGGING UNIT NUMBER
 LUL .               CSPR:   LOGGING UNIT LOCATION
 ENGI.           ELLERMAN:   RECORDING ENGINEER
 WITN.          JORGENSON:   WITNESSED BY
 CLNT.            A2DTECH:   CLIENT CODE
 ORIG.       2", 5" PRINT:   ORIGIN OF DATA
 UWI .       490250636100:   UNIQUE WELL ID
 DICO. A2D Technologies, Inc.:   DIGITIZING COMPANY
~OTHER INFORMATION
~A   DEPT      SPR       CILD        ILD          ASN       GR   
# ...
  648.0000   -55.2147    66.6996    13.9974    14.9999    68.3473
  648.5000   -55.2801    68.3169    13.8068    14.8410    61.7882
  649.0000   -55.9294    69.9342    13.6161    14.7524    59.8226
  649.5000   -56.4379    71.5450    13.4255    14.6635    64.7908
  650.0000   -55.3080    71.7151    13.2345    14.5761    58.4152
  650.5000   -53.8092    71.1460    13.0329    14.4878    65.0090
  651.0000   -52.8815    70.5151    13.1460    14.4003    66.2478
  651.5000   -57.8144    69.8823    13.3639    14.2583    72.4209
  652.0000   -57.6378    69.2503    13.5845    14.0731    77.1598
  652.5000   -56.5789    68.6184    13.8045    13.8854    66.6254
  653.0000   -56.9184    67.9865    14.0243    13.6993    66.2469
  653.5000   -57.3365    67.3546    14.2440    13.7203    80.3190
  654.0000   -57.6283    66.7001    14.4641    13.8117    77.8037
  654.5000   -57.2009    66.9419    14.6832    13.9014    70.0203
  655.0000   -56.6652    67.5972    14.9058    13.9903    70.0987
  655.5000   -56.2036    68.2525    14.8883    13.8614    73.8475
  656.0000   -56.2140    68.9078    14.7121    13.6392    67.6789
  656.5000   -56.2124    69.5631    14.5332    13.4160    67.4256
  657.0000   -56.2150    70.2184    14.3540    13.1928    65.8905
  657.5000   -56.2340    70.8737    14.1751    12.9696    69.4222
  658.0000   -55.3560    71.5290    13.9963    12.7479    76.5328
  658.5000   -54.2758    72.1843    13.8174    12.5272    74.2768
  659.0000   -53.2277    72.8396    13.6385    12.3416    73.8221
  659.5000   -53.9164    73.4949    13.4596    12.2274    76.9658
  660.0000   -54.6562    74.6479    13.2808    12.1162    77.1639
  660.5000   -54.3755    76.0634    13.1018    12.0054    70.9776
  661.0000   -53.3504    77.4788    12.9229    11.8944    77.9499
  661.5000   -52.8230    78.8943    12.7421    11.7834    76.3115
  662.0000   -56.4957    80.3097    12.6772    11.6723    71.0158
  662.5000   -57.0171    80.7422    12.6603    11.5628    66.3541
  663.0000   -57.4434    80.6676    12.6442    11.4782    69.8910
  663.5000   -57.8617    80.5847    12.6279    11.4630    72.3301
  664.0000   -57.2212    80.5018    12.6116    11.4462    77.7427
  664.5000   -55.4966    80.4190    12.5953    11.4297    74.6718
  665.0000   -54.2209    80.3361    12.5790    11.4131    66.9501
  665.5000   -54.2701    80.2532    12.5627    11.3965    63.4343
  666.0000   -54.6135    80.1703    12.5464    11.3799    62.2725
  666.5000   -54.1332    80.0875    12.5302    11.3634    60.4054
  667.0000   -53.3948    80.0046    12.5139    11.3468    57.1760
  667.5000   -53.2825    79.9217    12.4970    11.3302    66.5283
  668.0000   -53.5460    79.8389    12.4455    11.3139    78.0025
  668.5000   -53.6310    79.7560    12.3337    11.2971    81.0138
  669.0000   -52.3773    80.7760    12.2229    11.2639    68.5220
  669.5000   -50.6395    82.0759    12.1118    11.1539    72.9652
  670.0000   -50.7833    83.3758    12.0009    11.0446    75.8223
  670.5000   -51.8462    84.6757    11.8899    10.9075    69.6796
  671.0000   -51.0001    85.9756    11.7788    10.7283    68.4901
  671.5000   -49.9268    87.2755    11.6683    10.5486    70.2049
  672.0000   -48.8078    88.5754    11.5818    10.3919    75.1366
  672.5000   -50.2699    89.7693    11.5595    10.6493    79.0344
  673.0000   -53.0946    90.5742    11.5354    10.8820    84.5190
  673.5000   -53.5799    90.0321    11.5113    10.7759    86.0363
  674.0000   -53.4992    89.5259    11.4872    10.6736    86.3405
  674.5000   -52.8107    89.0200    11.4632    10.5720    83.3135
  675.0000   -52.1380    88.7654    11.4391    10.4821    77.0644
  675.5000   -51.5866    88.7641    11.4149    10.5025    80.5892
  676.0000   -51.8497    88.7452    11.3891    10.5776    76.8948
  676.5000   -52.2510    88.8158    11.4270    10.6514    80.3260
  677.0000   -52.6582    89.6550    11.4862    10.7251    75.9112
  677.5000   -52.8029    88.9967    11.5458    10.7989    73.0374
  678.0000   -52.7675    88.3136    11.6053    10.8726    77.5955
  678.5000   -52.6787    87.6305    11.6648    10.9463    80.8943
  679.0000   -52.5798    86.9473    11.7242    11.0201    78.0212
  679.5000   -52.0038    86.2642    11.7837    11.0940    77.1068
  680.0000   -51.4218    85.5811    11.8433    11.1686    80.9134
  680.5000   -51.0260    84.8979    11.9025    11.1359    77.7394
  681.0000   -51.7540    84.7543    11.9635    11.0086    74.9641
  681.5000   -52.4231    86.1929    11.9061    10.8822    75.5744
  682.0000   -51.5247    87.6372    11.7762    10.7558    79.8438
  682.5000   -50.5042    89.0815    11.6448    10.6291    84.4635
  683.0000   -49.4673    90.5259    11.5134    10.5017    81.3262
  683.5000   -50.7024    91.9702    11.3821    10.3871    91.1821
  684.0000   -52.2229    93.4145    11.2508    10.4721    93.0194
  684.5000   -52.5268    94.7843    11.1195    10.5625    75.6415
  685.0000   -52.0140    94.7843    10.9882    10.6520    71.4487
  685.5000   -51.4864    95.7874    10.8569    10.7412    69.3684
  686.0000   -50.9532    95.5830    10.7255    10.8305    68.7892
  686.5000   -50.4177    95.3479    10.5942    10.9195    69.1342
  687.0000   -50.1828    95.1128    10.4629    10.9831    66.9917
  687.5000   -50.1959    94.8777    10.3315    11.0451    73.8357
  688.0000   -50.2005    94.6425    10.1999    11.1318    64.8125
  688.5000   -50.2013    94.4074    10.0710    11.2199    71.1631
  689.0000   -50.2678    94.1723    10.0226    11.3073    74.0588
  689.5000   -50.4595    93.9372    10.1710    11.3787    72.2241
  690.0000   -50.6470    92.7783    10.3126    11.7346    70.4481
  690.5000   -50.8093    89.5630    10.8693    12.2065    61.8817
  691.0000   -50.3627    85.2300    11.7644    12.6856    59.1796
  691.5000   -49.6414    80.7422    12.6609    13.1518    61.8563
  692.0000   -49.4478    75.6525    13.5496    14.2343    56.9565
  692.5000   -50.8732    70.3165    14.3450    15.3064    58.9332
  693.0000   -52.2679    64.9805    15.6210    16.4062    48.9551
  693.5000   -53.1742    59.6445    16.9897    17.7498    47.2079
  694.0000   -53.9102    54.3085    18.5695    19.6834    46.6866
  694.5000   -58.2750    48.9725    20.4973    21.6212    53.3918
  695.0000   -62.3200    43.6365    22.3116    23.5206    59.8181
  695.5000   -62.3286    40.6219    23.9747    25.2223    55.4815
  696.0000   -59.8520    38.6158    25.0202    24.8426    52.8887
  696.5000   -57.3608    38.6158    25.0247    24.2339    54.9214
  697.0000   -56.2510    40.3343    24.5481    23.6290    60.7258
  697.5000   -56.7997    41.9297    24.0793    23.0233    47.4828
  698.0000   -57.3347    43.5252    23.6123    22.4175    52.3255
  698.5000   -57.6252    45.1206    23.1469    21.8055    55.4865
  699.0000   -57.1590    46.7161    22.7044    21.4056    53.9025
  699.5000   -56.9043    48.3127    22.3344    20.7842    61.0516
  700.0000   -58.8651    49.9176    21.9783    20.1968    63.1139
  700.5000   -59.6729    51.6430    21.6233    19.6197    57.6882
  701.0000   -58.4733    51.7288    21.2682    19.1109    58.4610
  701.5000   -56.8618    51.9306    20.9132    18.8504    50.6171
  702.0000   -54.5529    52.1389    20.5580    18.6372    54.3359
  702.5000   -54.1504    52.3487    20.2029    18.4223    60.3686
  703.0000   -53.2902    52.5585    19.8506    18.2066    59.4711
  703.5000   -52.8462    52.6580    19.5075    17.9909    66.9195
  704.0000   -53.3229    56.2933    19.2001    17.7751    63.4239
  704.5000   -51.7629    59.6790    18.8908    17.5553    69.0826
  705.0000   -51.4566    59.3781    18.5823    17.3277    71.1099
  705.5000   -55.2917    58.4896    18.2734    17.0912    68.5149
  706.0000   -54.8385    57.6010    17.9618    16.8568    76.8544
  706.5000   -54.4059    56.6700    17.6240    16.6511    74.5770
  707.0000   -54.2032    56.6700    17.4400    16.3263    69.8287
  707.5000   -54.6377    58.1822    17.2312    15.9979    78.4832
  708.0000   -55.2174    60.8935    17.0198    15.6634    84.7198
  708.5000   -55.6074    63.6328    16.7825    15.6428    78.4631
