~VERSION INFORMATION
 VERS.                2.0:   CWLS LOG ASCII STANDARD - VERSION 2.0
 WRAP.                 NO:   ONE LINE PER DEPTH STEP
~WELL INFORMATION
#MNEM.UNIT      DATA TYPE    INFORMATION
#----------   ------------   ------------------------------
 STRT.F           28.0000:   START DEPTH
 STOP.F          687.0000:   STOP DEPTH
 STEP.F            0.5000:   STEP LENGTH
 NULL.          -999.2500:   NO VALUE
 COMP. LAWRENCE/ALLISON INC:   COMPANY
 WELL.      41 STX #15-15:   WELL
 FLD .             TEAPOT:   FIELD
 LOC .      S15 T38N R78W:   LOCATION
 CNTY.            NATRONA:   COUNTY
 STAT.            WYOMING:   STATE
 CTRY. UNITED STATES OF AMERICA:   COUNTRY
 SRVC.           Gearhart:   SERVICE COMPANY
 DATE.        24-AUG-1987:   LOGDATE
 API .       490251118800:   API NUMBER
~CURVE INFORMATION
#MNEM.UNIT       API CODE    CURVE DESCRIPTION
#----------   ------------   ------------------------------
 DEPT.F                  :   
 GRR .GAPI   07 310 01 00:   GAMMA RAY
 ILD .OHMM   07 120 46 00:   INDUCTION LOG DEEP
 ILM .OHMM   07 120 44 00:   INDUCTION LOG MEDIUM
~PARAMETER INFORMATION
#MNEM.UNIT          VALUE    DESCRIPTION
#----------   ------------   ------------------------------
 PD  .                 GL:   PERMANENT DATUM
 EPD .F              5230:   ELEVATION PERMANENT DATUM
 LMF .                 KB:   LOG MEASURED FROM
 DAPD.F              10.5:   FEET ABOVE PERMANENT DATUM
 DMF .                 KB:   DRILLING MEASURED FROM
 EKB .F            5240.5:   KELLING BUSHING
 EDF .F            5239.5:   DRILLING FLOOR
 EGL .F              5230:   GROUND LEVEL
 DATE.        24-AUG-1987:   RUN DATE
 RUN .                  1:   RUN NUMBER
 DD  .F               693:   DEPTH DRILLER
 DL  .F               695:   DEPTH LOGGER
 BLI .F               687:   BOTTOM LOG INTERVAL
 TLI .F                30:   TOP LOG INTERVAL
 CS  .IN            9.625:   CASING SIZE
 CBD .F                48:   CASING BOTTOM DRILLER
 CBL .F                48:   CASING BOTTOM LOGGER
 BS  .IN             8.75:   BIT SIZE
 BSD .F               693:   BIT SIZE AT DEPTH
 DFT .                AIR:   DRILLING FLUID TYPE
 TCS .HRS            0700:   TIME CURCULATED STOPPED
 TLAB.HRS            0617:   TIME LOGGER AT BOTTOM
 MRT .F                80:   MAXIMUM RECORDED TEMPERATURE
 LUN .               7597:   LOGGING UNIT NUMBER
 LUL .           GILLETTE:   LOGGING UNIT LOCATION
 ENGI.         WEATHERMON:   RECORDING ENGINEER
 WITN.             STRONG:   WITNESSED BY
 CLNT.            A2DTECH:   CLIENT CODE
 ORIG.       2", 5" PRINT:   ORIGIN OF DATA
 UWI .       490251118800:   UNIQUE WELL ID
 DICO. A2D Technologies, Inc.:   DIGITIZING COMPANY
~OTHER INFORMATION
~A   DEPT       GRR       ILD        ILM   
# ...
  119.0000   128.9567     8.2167     8.1827
  119.5000   126.1722     7.9384     8.1279
  120.0000   122.3162     7.8852     7.9621
  120.5000   122.7301     7.8256     7.7432
  121.0000   125.7128     7.6101     7.3243
  121.5000   126.6341     7.5165     7.0664
  122.0000   125.1384     7.5707     6.8410
  122.5000   120.6216     7.5722     6.7952
  123.0000   117.0111     7.5211     6.8442
  123.5000   117.6302     7.6280     6.9412
  124.0000   120.6663     7.7899     7.0886
  124.5000   122.7960     7.8456     7.1891
  125.0000   124.0194     7.9568     7.2910
  125.5000   124.6385     8.0137     7.4977
  126.0000   124.0455     8.0711     7.6039
  126.5000   122.8556     8.1289     7.6055
  127.0000   123.1727     8.1871     7.6071
  127.5000   124.3960     8.1322     7.6616
  128.0000   127.4321     8.0777     7.8243
  128.5000   128.6677     8.1971     7.8803
  129.0000   129.3031     8.3167     7.8820
  129.5000   129.2895     8.4263     7.8291
  130.0000   125.9849     8.4280     7.8852
  130.5000   122.3707     8.4298     7.8868
  131.0000   122.9935     8.4315     7.8885
  131.5000   123.3105     8.4332     7.8901
  132.0000   122.7212     8.3184     7.9470
  132.5000   122.1282     8.2060     7.8933
  133.0000   121.8410     8.0947     7.8408
  133.5000   123.9744     8.0964     7.7344
  134.0000   127.0105     8.0421     7.6821
  134.5000   127.3275     8.0438     7.5258
  135.0000   127.3424     8.0454     7.4233
  135.5000   127.9615     8.0470     7.3735
  136.0000   129.1849     7.9931     7.3241
  136.5000   129.8040     7.9947     7.3259
  137.0000   128.9126     7.9412     7.3274
  137.5000   128.6254     7.9429     7.2280
  138.0000   129.2447     8.0001     7.1295
  138.5000   129.2598     8.0017     7.0331
  139.0000   128.2236     8.0590     7.0835
  139.5000   126.5702     8.0607     7.1839
  140.0000   127.4952     8.0062     7.3875
  140.5000   128.1143     8.0640     7.5444
  141.0000   128.1292     8.1782     7.6038
  141.5000   127.8383     8.2367     7.7680
  142.0000   127.5548     8.2957     7.9250
  142.5000   124.5486     8.3551     7.9266
  143.0000   120.6360     8.4150     7.9086
  143.5000   120.3450     8.4167     7.8745
  144.0000   123.0827     8.5359     7.8766
  144.5000   129.1399     8.6572     7.9330
  145.0000   130.9675     8.7795     7.9346
  145.5000   131.0262     8.7890     7.9915
  146.0000   128.8825     8.8442     7.9932
  146.5000   129.8038     8.8464     8.0504
  147.0000   132.2436     8.9097     8.0521
  147.5000   133.7815     8.9735     8.0538
  148.0000   134.0786     9.0378     8.0555
  148.5000   133.4370     9.0396     8.2370
  149.0000   132.5974     9.0415     8.5189
  149.5000   132.3101     9.1062     8.5207
  150.0000   133.2339     9.1896     8.7016
  150.5000   133.5529     9.2372     8.6422
  151.0000   133.2682     9.1748     8.8869
  151.5000   136.6137     9.3053     8.8881
  152.0000   138.7464     9.5027     8.8893
  152.5000   139.6705     9.6373     8.8287
  153.0000   139.6883     9.7738     8.8302
  153.5000   137.8934     9.8438     8.8929
  154.0000   132.4731     9.9142     8.9560
  154.5000   130.6738     9.9241     9.0196
  155.0000   131.6024    10.0572     9.0839
  155.5000   135.5477    10.1996     9.2761
  156.0000   141.9099    10.4160     9.8066
  156.5000   142.8340    10.6370    10.0142
  157.0000   139.1620    10.7877    10.1554
  157.5000   132.5075    11.0166    10.2275
  158.0000   131.1050    11.1726    10.2289
  158.5000   132.6378    11.3308    10.3015
  159.0000   133.5620    11.4120    10.3746
  159.5000   134.1840    11.4143    10.5973
  160.0000   134.5039    11.4960    10.7436
  160.5000   134.8238    11.4984    10.8202
  161.0000   134.8416    11.5013    10.8216
  161.5000   133.9531    11.4242    10.8231
  162.0000   130.3455    11.3476    10.7494
  162.5000   126.1337    11.3499    10.6766
  163.0000   126.7557    11.3522    10.6042
  163.5000   126.7795    11.3545    10.5323
  164.0000   126.1871    11.3568    10.4613
  164.5000   127.1501    11.1254    10.3904
  165.0000   129.8525    10.9745    10.3918
  165.5000   134.0999    10.9009    10.3127
  166.0000   135.9304    10.8278    10.2515
  166.5000   138.0630    10.8306    10.1116
  167.0000   139.2893    10.8328    10.1133
  167.5000   140.2134    10.8350    10.0445
  168.0000   138.1164    10.8372    10.0462
  168.5000   131.7898    10.8394    10.0475
  169.0000   133.3182    10.6918    10.1188
  169.5000   135.1487    10.5468    10.2616
  170.0000   135.1665    10.4037    10.4063
  170.5000   134.8822    10.3345    10.1932
  171.0000   134.9003    10.3366    10.1244
  171.5000   134.9184    10.3388    10.0558
  172.0000   134.9400    10.3409     9.9186
  172.5000   135.8642    10.4154     9.8514
  173.0000   136.4862    10.4175     9.7847
  173.5000   136.5040    10.3477     9.7863
  174.0000   131.0837    10.2778     9.7877
  174.5000   130.1907    10.1389     9.7890
  175.0000   132.3278    10.0009     9.7903
  175.5000   135.3667    10.0034     9.7236
  176.0000   138.7078    10.0750     9.5910
  176.5000   140.2361    10.0771     9.4602
  177.0000   141.1603    10.1492     9.4618
  177.5000   143.6053    10.1513     9.4598
  178.0000   144.2175     9.9449     9.5302
  178.5000   143.3285     9.5418     9.5315
  179.0000   143.0442     9.5438     9.4669
  179.5000   143.6707     9.4798     9.3378
  180.0000   145.5012     9.0327     9.0838
  180.5000   145.2168     8.7269     8.7147
  181.0000   144.3283     8.6080     8.3029
  181.5000   143.7374     8.6102     8.1327
  182.0000   145.5724     8.6120     7.9666
  182.5000   147.7050     8.6736     7.8036
  183.0000   148.0249     8.7390     7.8590
  183.5000   147.1363     8.9211     7.9164
  184.0000   142.0182     9.0479     8.0265
  184.5000   141.1118     9.0497     8.1966
  185.0000   140.4230     8.9886     8.6654
  185.5000   136.3359     9.2436     9.0348
  186.0000   126.9881     9.7051     9.1622
  186.5000   125.4909     9.8425     9.2915
  187.0000   127.0237     9.8445     9.2927
  187.5000   130.3648     9.7785     9.1026
  188.0000   130.9868     9.7805     9.0409
  188.5000   131.6088     9.7825     8.9797
  189.0000   133.1372     9.7846     8.9809
  189.5000   135.2698     9.7866     8.9200
  190.0000   134.9855     9.7890     8.8596
  190.5000   129.8673     9.9276     8.9227
  191.0000   128.0724     9.9987     8.9240
  191.5000   129.7583    10.0703     8.9252
  192.0000   136.0604    10.1424     8.9885
  192.5000   137.4959    10.2150     9.3717
  193.0000   134.7946    10.2881     9.7712
  193.5000   131.1826    10.2902     9.9091
  194.0000   122.7456    10.2923    10.0488
  194.5000   121.2484    10.2944    10.0502
  195.0000   123.9897    10.2966    10.0516
  195.5000   126.1223    10.0872     9.9144
  196.0000   131.2761     9.9504     9.7792
  196.5000   133.1065     9.8832     9.5132
  197.0000   132.8222     9.8174     9.3186
  197.5000   133.1421     9.8877     9.0649
  198.0000   132.8459     9.8897     9.0661
  198.5000   132.2714     9.8917     9.0673
  199.0000   133.8042     9.8937     9.1317
  199.5000   135.9368     9.8958     9.1329
  200.0000   136.8600     9.8978     9.1342
  200.5000   134.4668     9.8323     9.0404
  201.0000   133.5842     9.7669     9.0133
  201.5000   134.2121     9.8377     9.0786
  202.0000   137.8612     9.9088     9.1443
  202.5000   139.3958     9.8430     9.1468
  203.0000   137.7563     9.9142     9.1494
  203.5000   132.5002     9.8484     9.1524
  204.0000   128.8985     9.7830     9.0910
  204.5000   126.1973     9.6510     9.0306
  205.0000   129.5502     9.5207     9.1599
  205.5000   131.7659     9.4575     9.0361
  206.0000   128.9934     9.3948     8.9135
  206.5000   127.5006     9.4633     8.9165
  207.0000   129.0408     9.5317     8.9189
  207.5000   134.8047     9.5343     8.9835
  208.0000   136.9432     9.4710     8.8013
  208.5000   137.5712     9.3432     8.8037
  209.0000   138.2135     9.2783     8.8061
  209.5000   140.4129     9.1482     8.7470
