~VERSION INFORMATION
 VERS.                2.0:   CWLS LOG ASCII STANDARD - VERSION 2.0
 WRAP.                 NO:   ONE LINE PER DEPTH STEP
~WELL INFORMATION
#MNEM.UNIT      DATA TYPE    INFORMATION
#----------   ------------   ------------------------------
 STRT.F            2.0000:   START DEPTH
 STOP.F          670.5000:   STOP DEPTH
 STEP.F            0.5000:   STEP LENGTH
 NULL.          -999.2500:   NO VALUE
 COMP. BROWN JOHN E&C INC:   COMPANY
 WELL. 27-26 STX-11 #26-11:   WELL
 FLD .             TEAPOT:   FIELD
 LOC .      S11 T38N R78W:   LOCATION
 CNTY.            NATRONA:   COUNTY
 STAT.            WYOMING:   STATE
 CTRY. UNITED STATES OF AMERICA:   COUNTRY
 SRVC.           Gearhart:   SERVICE COMPANY
 DATE.        07-JUL-1987:   LOGDATE
 API .       490251114800:   API NUMBER
~CURVE INFORMATION
#MNEM.UNIT       API CODE    CURVE DESCRIPTION
#----------   ------------   ------------------------------
 DEPT.F                  :   
 GRR .GAPI   07 310 01 00:   GAMMA RAY FROM RES. LOG
 RILD.OHMM   07 120 46 00:   INDUCTION LOG DEEP RESISTIVITY
 RILM.OHMM   07 120 44 00:   INDUCTION LOG MEDIUM RESISTIVITY
~PARAMETER INFORMATION
#MNEM.UNIT          VALUE    DESCRIPTION
#----------   ------------   ------------------------------
 PD  .                 GL:   PERMANENT DATUM
 EPD .F              5199:   ELEVATION PERMANENT DATUM
 LMF .                 KB:   LOG MEASURED FROM
 DAPD.F                 8:   FEET ABOVE PERMANENT DATUM
 DMF .                 KB:   DRILLING MEASURED FROM
 EKB .F              5207:   KELLING BUSHING
 EDF .F              5205:   DRILLING FLOOR
 EGL .F              5199:   GROUND LEVEL
 DATE.             7-7-87:   RUN DATE
 RUN .                  1:   RUN NUMBER
 DD  .F               680:   DEPTH DRILLER
 DL  .F               679:   DEPTH LOGGER
 BLI .F               671:   BOTTOM LOG INTERVAL
 CS  .IN            8.625:   CASING SIZE
 CBD .F                50:   CASING BOTTOM DRILLER
 CBL .F                50:   CASING BOTTOM LOGGER
 BS  .IN             7.87:   BIT SIZE
 BSD .F               680:   BIT SIZE AT DEPTH
 DFT .                AIR:   DRILLING FLUID TYPE
 TCS .HRS            1800:   TIME CURCULATED STOPPED
 TLAB.HRS            1954:   TIME LOGGER AT BOTTOM
 LUN .               7597:   LOGGING UNIT NUMBER
 LUL .           GILLETTE:   LOGGING UNIT LOCATION
 ENGI. JOHNSTON/HUCKFELDT:   RECORDING ENGINEER
 WITN.             STRONG:   WITNESSED BY
 CLNT.            A2DTECH:   CLIENT CODE
 ORIG.       2", 5" PRINT:   ORIGIN OF DATA
 UWI .       490251114800:   UNIQUE WELL ID
 DICO. A2D Technologies, Inc.:   DIGITIZING COMPANY
~OTHER INFORMATION
~A    DEPT      GRR      RILD       RILM   
    2.0000    30.4436  -999.2500  -999.2500
    2.5000    29.2759  -999.2500  -999.2500
    3.0000    26.0634  -999.2500  -999.2500
    3.5000    22.2281  -999.2500  -999.2500
    4.0000    17.4268  -999.2500  -999.2500
    4.5000    12.5694  -999.2500  -999.2500
    5.0000    11.2355  -999.2500  -999.2500
    5.5000    11.3401  -999.2500  -999.2500
    6.0000    20.2769  -999.2500  -999.2500
    6.5000    29.9627  -999.2500  -999.2500
    7.0000    39.6609  -999.2500  -999.2500
    7.5000    49.3524  -999.2500  -999.2500
    8.0000    57.1994  -999.2500  -999.2500
    8.5000    62.8271  -999.2500  -999.2500
    9.0000    68.4622  -999.2500  -999.2500
    9.5000    74.1068  -999.2500  -999.2500
   10.0000    79.7340  -999.2500  -999.2500
   10.5000    84.4463  -999.2500  -999.2500
   11.0000    84.5391  -999.2500  -999.2500
   11.5000    83.7061  -999.2500  -999.2500
   12.0000    82.8860  -999.2500  -999.2500
   12.5000    82.0592  -999.2500  -999.2500
   13.0000    81.2749  -999.2500  -999.2500
   13.5000    81.0506  -999.2500  -999.2500
   14.0000    80.7397  -999.2500  -999.2500
   14.5000    80.4214  -999.2500  -999.2500
   15.0000    80.0856  -999.2500  -999.2500
   15.5000    80.5961  -999.2500  -999.2500
   16.0000    81.2973  -999.2500  -999.2500
   16.5000    82.0010  -999.2500  -999.2500
   17.0000    82.7336  -999.2500  -999.2500
   17.5000    81.7024  -999.2500  -999.2500
   18.0000    79.7002  -999.2500  -999.2500
   18.5000    77.6927  -999.2500  -999.2500
   19.0000    75.9717  -999.2500  -999.2500
   19.5000    76.7563  -999.2500  -999.2500
   20.0000    78.9761  -999.2500  -999.2500
   20.5000    81.1487  -999.2500  -999.2500
   21.0000    80.7310  -999.2500  -999.2500
   21.5000    79.0939  -999.2500  -999.2500
   22.0000    77.5038  -999.2500  -999.2500
   22.5000    76.3871  -999.2500  -999.2500
   23.0000    76.6716  -999.2500  -999.2500
   23.5000    77.0193  -999.2500  -999.2500
   24.0000    77.3815  -999.2500  -999.2500
   24.5000    78.3397  -999.2500  -999.2500
   25.0000    80.7364  -999.2500  -999.2500
   25.5000    83.1122  -999.2500  -999.2500
   26.0000    85.4994  -999.2500  -999.2500
   26.5000    87.8813  -999.2500  -999.2500
   27.0000    87.0169  -999.2500  -999.2500
   27.5000    85.7852  -999.2500  -999.2500
   28.0000    84.5543  -999.2500  -999.2500
   28.5000    83.6624  -999.2500  -999.2500
   29.0000    83.8784  -999.2500  -999.2500
   29.5000    84.1059  -999.2500  -999.2500
   30.0000    81.8386  -999.2500  -999.2500
   30.5000    78.5984  -999.2500  -999.2500
   31.0000    76.7153  -999.2500  -999.2500
   31.5000    76.5158  -999.2500  -999.2500
   32.0000    76.0060  -999.2500  -999.2500
   32.5000    75.0910  -999.2500  -999.2500
   33.0000    74.8838  -999.2500  -999.2500
   33.5000    76.8730  -999.2500  -999.2500
   34.0000    78.9144  -999.2500  -999.2500
   34.5000    79.6774  -999.2500  -999.2500
   35.0000    79.8026  -999.2500  -999.2500
   35.5000    79.9019  -999.2500  -999.2500
   36.0000    80.1847  -999.2500  -999.2500
   36.5000    84.3171  -999.2500  -999.2500
   37.0000    86.3096  -999.2500  -999.2500
   37.5000    84.7651  -999.2500  -999.2500
   38.0000    83.2662  -999.2500  -999.2500
   38.5000    81.7689  -999.2500  -999.2500
   39.0000    80.9334  -999.2500  -999.2500
   39.5000    81.5640  -999.2500  -999.2500
   40.0000    82.6849  -999.2500  -999.2500
   40.5000    86.3377  -999.2500  -999.2500
   41.0000    89.4568  -999.2500  -999.2500
   41.5000    86.6706  -999.2500  -999.2500
   42.0000    83.2446  -999.2500  -999.2500
   42.5000    79.8353  -999.2500  -999.2500
   43.0000    77.0421  -999.2500  -999.2500
   43.5000    75.5033  -999.2500  -999.2500
   44.0000    75.3728  -999.2500  -999.2500
   44.5000    77.0176  -999.2500  -999.2500
   45.0000    78.5820  -999.2500  -999.2500
   45.5000    79.4590  -999.2500  -999.2500
   46.0000    81.5674  -999.2500  -999.2500
   46.5000    86.2947  -999.2500  -999.2500
   47.0000    90.9316  -999.2500  -999.2500
   47.5000    94.8890  -999.2500  -999.2500
   48.0000    97.0568  -999.2500  -999.2500
   48.5000    99.2567  -999.2500  -999.2500
   49.0000    96.0785  -999.2500  -999.2500
   49.5000    92.4000  -999.2500  -999.2500
   50.0000    88.7406    20.2226  -999.2500
   50.5000    86.5560    23.5098    13.5577
   51.0000    87.0898    24.5173    13.5932
   51.5000    87.7122    22.1884    13.7611
   52.0000    91.4515    15.0109    13.6838
   52.5000    95.5670    16.2527    13.5577
   53.0000    95.5273    17.4464    13.3884
   53.5000    94.6738    18.5835    13.0602
   54.0000    93.7703    17.4154    13.0608
   54.5000    96.2063    16.5116    13.8971
   55.0000    99.0068    15.6114    14.5593
   55.5000    99.5245    14.8642    15.2518
   56.0000    98.3875    15.0746    15.8954
   56.5000    97.1856    15.2918    16.0811
   57.0000    97.7688    15.4782    16.2716
   57.5000    98.7870    15.7686    16.5769
   58.0000    99.7944    16.0644    16.8879
   58.5000    99.9181    16.3660    17.2047
   59.0000    95.9183    16.6735    17.5275
   59.5000    92.0119    16.9857    17.8563
   60.0000    89.5165    17.2468    18.0638
   60.5000    89.1504    17.0900    17.8720
   61.0000    89.7643    16.9584    17.7325
   61.5000    94.0841    16.8181    17.5850
   62.0000    98.3456    16.6765    17.4371
   62.5000    98.7960    16.5362    17.2904
   63.0000    95.9566    16.3971    17.1449
   63.5000    93.0659    16.2591    17.0007
   64.0000    90.9974    16.1223    16.8577
   64.5000    91.5659    15.9944    16.7314
   65.0000    92.0822    15.8956    16.6281
   65.5000    92.5649    15.7975    16.5254
   66.0000    91.5718    15.6833    16.3732
   66.5000    90.4713    15.5142    16.1582
   67.0000    89.3650    15.3469    15.9448
   67.5000    88.2675    15.1818    15.7345
   68.0000    87.2673    15.0189    15.5269
   68.5000    87.9051    14.8557    15.3222
   69.0000    89.0902    14.4738    15.2112
   69.5000    90.6010    13.4764    15.1173
   70.0000    94.0537    12.5477    15.0239
   70.5000    97.5140    11.6830    13.9530
   71.0000   100.6150    10.8779    12.8170
   71.5000   102.8965    10.1282    11.7734
   72.0000   105.1914     9.4300    10.8148
   72.5000   107.5103     8.7813     9.9343
   73.0000   110.0874     8.2212     9.1905
   73.5000   112.6878     7.8835     8.7134
   74.0000   115.2922     7.5800     8.2950
   74.5000   117.8891     7.2883     7.8968
   75.0000   119.9223     7.0606     7.6898
   75.5000   119.1626     6.9559     7.5622
   76.0000   118.6413     6.8528     7.4368
   76.5000   118.2339     6.7512     7.3134
   77.0000   118.8824     6.6511     7.1581
   77.5000   119.4178     6.5253     7.1880
   78.0000   119.9443     6.5601     7.2299
   78.5000   120.4598     6.6088     7.2720
   79.0000   120.1088     6.6578     7.3144
   79.5000   118.6024     6.7073     7.3570
   80.0000   117.1121     6.7570     7.3998
   80.5000   115.6001     6.8072     7.4429
   81.0000   115.1504     6.8577     7.4863
   81.5000   115.2482     6.9086     7.5299
   82.0000   115.3530     6.9621     7.5669
   82.5000   115.4501     6.9291     7.5074
   83.0000   115.3166     6.8857     7.4563
   83.5000   114.4410     6.8426     7.4055
   84.0000   113.5923     6.7997     7.3551
   84.5000   112.8345     6.7572     7.3050
   85.0000   113.5722     6.7149     7.2552
   85.5000   114.2693     6.6729     7.2247
   86.0000   115.0114     6.6472     7.2983
   86.5000   113.0305     6.7140     7.3521
   87.0000   110.1946     6.7626     7.4062
   87.5000   107.2082     6.8115     7.4608
   88.0000   109.4287     6.8608     7.5157
   88.5000   113.1057     6.9104     7.5711
   89.0000   114.0760     6.9605     7.6268
   89.5000   112.3719     7.0108     7.6830
   90.0000   110.6114     7.0616     7.7395
   90.5000   110.9563     7.1127     7.7965
   91.0000   112.0914     7.1641     7.8524
   91.5000   113.2449     7.2160     7.9411
   92.0000   114.4054     7.4135     8.0284
   92.5000   115.4464     7.6467     8.1167
