~VERSION INFORMATION
 VERS.                2.0:   CWLS LOG ASCII STANDARD - VERSION 2.0
 WRAP.                 NO:   ONE LINE PER DEPTH STEP
~WELL INFORMATION
#MNEM.UNIT      DATA TYPE    INFORMATION
#----------   ------------   ------------------------------
 STRT.F           14.0000:   START DEPTH
 STOP.F          608.0000:   STOP DEPTH
 STEP.F            0.1000:   STEP LENGTH
 NULL.          -999.2500:   NO VALUE
 COMP. FENIX & SCISSON INC:   COMPANY
 WELL. NAVAL PETROLEUM RESERVE 3 S-15 #72-15:   WELL
 FLD .             TEAPOT:   FIELD
 LOC .      S15 T38N R78W:   LOCATION
 CNTY.            NATRONA:   COUNTY
 STAT.            WYOMING:   STATE
 CTRY. UNITED STATES OF AMERICA:   COUNTRY
 SRVC.           BIRDWELL:   SERVICE COMPANY
 DATE.        21-JUL-1978:   LOGDATE
 API .       490251067300:   API NUMBER
~CURVE INFORMATION
#MNEM.UNIT       API CODE    CURVE DESCRIPTION
#----------   ------------   ------------------------------
 DEPT.F                  :   
 ILD .OHMM   05 120 46 00:   INDUCTION LOG DEEP
 SN  .OHMM   05 040 16 00:   SHORT NORMAL 16"
 SPR .MV     05 010 01 00:   SPONTANEOUS POTENTIAL FROM RES.
 CALD.IN     45 280 60 00:   CALIPER FROM DENSITY LOG
 DPHI.DEC    45 890 12 00:   DENSITY POROSITY SANDSTONE
 DRHO.G/C3   45 356 01 00:   DENSITY CORRECTION
 GRD .GAPI   45 310 01 00:   GAMMA RAY FROM DENSITY LOG
 RHOB.G/C3   45 350 01 00:   BULK DENSITY
~PARAMETER INFORMATION
#MNEM.UNIT          VALUE    DESCRIPTION
#----------   ------------   ------------------------------
 PD  .                 GL:   PERMANENT DATUM
 EPD .F              5238:   ELEVATION PERMANENT DATUM
 LMF .                 KB:   LOG MEASURED FROM
 DAPD.F                 4:   FEET ABOVE PERMANENT DATUM
 DMF .                 KB:   DRILLING MEASURED FROM
 EKB .F              5242:   KELLING BUSHING
 EGL .F              5238:   GROUND LEVEL
 DATE.        21-JUL-1978:   RUN DATE
 RUN .                  1:   RUN NUMBER
 DD  .F               597:   DEPTH DRILLER
 DL  .F               615:   DEPTH LOGGER
 BLI .F               608:   BOTTOM LOG INTERVAL
 TLI .F                35:   TOP LOG INTERVAL
 CS  .IN            8.625:   CASING SIZE
 CBD .F                40:   CASING BOTTOM DRILLER
 CBL .F                35:   CASING BOTTOM LOGGER
 BS  .IN            7.875:   BIT SIZE
 BSD .F               597:   BIT SIZE AT DEPTH
 DFT .                KCL:   DRILLING FLUID TYPE
 DFD .                8.6:   DRILLING FLUID DENSITY
 DFV .                 33:   DRILLING FLUID VISCOSITY
 DFPH.                9.0:   DRILLING FLUID PH
 MSS .            MUD PIT:   MUD SAMPLE SOURCE
 MFSS.               MEAS:   MUD FILTRATE SAMPLE SOURCE
 MCSS.               MEAS:   MUD CAKE SAMPLE SOURCE
 BHT .F                74:   BOTTOM HOLE TEMPERATURE
 TCS .HRS               2:   TIME CURCULATED STOPPED
 MRT .F                74:   MAXIMUM RECORDED TEMPERATURE
 LUN .               2958:   LOGGING UNIT NUMBER
 LUL .             CASPER:   LOGGING UNIT LOCATION
 ENGI.             MILLER:   RECORDING ENGINEER
 WITN.           MCGINLEY:   WITNESSED BY
 CLNT.            A2DTECH:   CLIENT CODE
 ORIG.           5" PRINT:   ORIGIN OF DATA
 UWI .       490251067300:   UNIQUE WELL ID
 DICO. A2D Technologies, Inc.:   DIGITIZING COMPANY
~OTHER INFORMATION
~A   DEPT      ILD         SN        SPR       CALD       DPHI       DRHO         GRD      RHOB   
# ...
  184.1000     8.7917     8.6929   -19.0798     7.3042     0.1079     0.0653    86.8655     2.4944
  184.2000     8.7913     8.6922   -19.0957     7.3788     0.1068     0.0659    86.9526     2.4973
  184.3000     8.7909     8.6914   -19.0963     7.4490     0.1060     0.0665    87.1374     2.4993
  184.4000     8.7906     8.6907   -19.0969     7.5093     0.1051     0.0683    87.3854     2.5010
  184.5000     8.7525     8.6900   -19.0975     7.5622     0.1048     0.0702    87.6410     2.5028
  184.6000     8.7294     8.6893   -19.0981     7.5971     0.1046     0.0712    88.0705     2.5047
  184.7000     8.7290     8.6886   -19.0987     7.6434     0.1042     0.0712    88.2804     2.5063
  184.8000     8.7245     8.6878   -19.0993     7.6804     0.1037     0.0724    88.7638     2.5075
  184.9000     8.6682     8.6871   -19.0998     7.7053     0.1033     0.0736    89.3326     2.5082
  185.0000     8.6679     8.6864   -19.1005     7.7321     0.1033     0.0749    89.7788     2.5093
  185.1000     8.6675     8.6856   -19.1010     7.7885     0.1031     0.0761    90.0299     2.5105
  185.2000     8.6474     8.6850   -19.1016     7.8100     0.1030     0.0772    90.3976     2.5118
  185.3000     8.5985     8.6842   -19.1022     7.8348     0.1030     0.0772    90.6738     2.5129
  185.4000     8.5476     8.6835   -19.1028     7.8487     0.1030     0.0783    90.9219     2.5135
  185.5000     8.5472     8.6828   -19.1034     7.8486     0.1030     0.0795    91.1699     2.5141
  185.6000     8.5120     8.6820   -19.1040     7.8487     0.1033     0.0813    91.3859     2.5142
  185.7000     8.4719     8.6814   -19.1046     7.8611     0.1033     0.0832    91.3855     2.5146
  185.8000     8.4399     8.6806   -19.1052     7.8636     0.1033     0.0832    91.3852     2.5152
  185.9000     8.4079     8.6799   -19.1058     7.8635     0.1034     0.0844    91.3849     2.5157
  186.0000     8.3702     8.6792   -19.1064     7.8634     0.1036     0.0856    91.3243     2.5157
  186.1000     8.3507     8.6785   -19.1070     7.8614     0.1036     0.0869    91.2335     2.5157
  186.2000     8.3268     8.6778   -19.1076     7.8482     0.1033     0.0881    91.2332     2.5157
  186.3000     8.2946     8.6770   -19.1082     7.8482     0.1033     0.0892    91.2328     2.5157
  186.4000     8.2478     8.6763   -19.1088     7.8481     0.1033     0.0892    91.2326     2.5156
  186.5000     8.1969     8.6756   -19.1094     7.8416     0.1033     0.0903    91.3102     2.5150
  186.6000     8.1966     8.6749   -19.1100     7.8291     0.1033     0.0907    91.3828     2.5142
  186.7000     8.1963     8.6741   -19.1106     7.8166     0.1030     0.0912    91.4071     2.5137
  186.8000     8.1960     8.6734   -19.1112     7.8025     0.1028     0.0925    91.5330     2.5127
  186.9000     8.1902     8.6727   -19.1118     7.7916     0.1024     0.0937    91.6549     2.5118
  187.0000     8.1669     8.6720   -19.1124     7.7873     0.1016     0.0949    91.7788     2.5111
  187.1000     8.1436     8.6713   -19.1130     7.7761     0.1006     0.0952    91.9715     2.5105
  187.2000     8.1025     8.6706   -19.1136     7.7540     0.0997     0.0959    92.2196     2.5093
  187.3000     8.0819     8.6697   -19.1142     7.7415     0.0985     0.0971    92.4833     2.5085
  187.4000     8.0666     8.6691   -19.1148     7.7266     0.0973     0.0983    92.8887     2.5076
  187.5000     8.0256     8.6386   -19.1154     7.7064     0.0969     0.0997    93.3409     2.5066
  187.6000     8.0252     8.6080   -19.1160     7.6889     0.0974     0.0997    93.8373     2.5059
  187.7000     7.9855     8.6073   -19.1166     7.6764     0.0985     0.0997    94.2141     2.5052
  187.8000     7.9694     8.6065   -19.1172     7.6618     0.1003     0.1003    94.4953     2.5042
  187.9000     7.9691     8.6059   -19.1178     7.6357     0.1022     0.1012    94.8675     2.5029
  188.0000     7.9687     8.6051   -19.1184     7.6119     0.1038     0.1012    95.3001     2.5014
  188.1000     7.9684     8.5805   -19.1190     7.5962     0.1051     0.1012    95.6121     2.4992
  188.2000     7.9681     8.5445   -19.1196     7.5771     0.1064     0.1012    95.9843     2.4955
  188.3000     7.9678     8.5438   -19.1203     7.5560     0.1075     0.1012    96.3058     2.4936
  188.4000     7.9443     8.5429   -19.1208     7.5423     0.1057     0.1016    96.5056     2.4952
  188.5000     7.9123     8.5424   -19.1214     7.5145     0.1046     0.1027    96.5053     2.4977
  188.6000     7.9091     8.5416   -19.1220     7.4924     0.1034     0.1027    96.7483     2.5001
  188.7000     7.8571     8.5409   -19.1226     7.4842     0.1021     0.1027    96.9014     2.5025
  188.8000     7.8569     8.5402   -19.1232     7.4727     0.1007     0.1027    96.9569     2.5045
  188.9000     7.8565     8.5395   -19.1238     7.4508     0.0997     0.1027    96.8731     2.5062
  189.0000     7.8562     8.5388   -19.1244     7.4383     0.0987     0.1027    96.5943     2.5081
  189.1000     7.8559     8.5381   -19.1250     7.4235     0.0978     0.1027    96.0510     2.5099
  189.2000     7.8555     8.5374   -19.1256     7.4031     0.0968     0.1027    95.4876     2.5119
  189.3000     7.8552     8.5367   -19.1262     7.3856     0.0959     0.1027    94.6084     2.5143
  189.4000     7.8549     8.5360   -19.1269     7.3731     0.0951     0.1027    93.4959     2.5157
  189.5000     7.8546     8.5351   -19.1274     7.3606     0.0943     0.1027    92.2212     2.5173
  189.6000     7.8543     8.5346   -19.1280     7.3477     0.0934     0.1025    90.9032     2.5191
  189.7000     7.8539     8.5339   -19.1286     7.3356     0.0925     0.1012    90.4684     2.5207
  189.8000     7.8536     8.5332   -19.1292     7.3231     0.0917     0.0989    90.0539     2.5221
  189.9000     7.8533     8.5324   -19.1298     7.3173     0.0913     0.0965    89.7876     2.5240
  190.0000     7.8530     8.5317   -19.1304     7.3132     0.0913     0.0940    89.7134     2.5258
  190.1000     7.8526     8.5310   -19.1310     7.3021     0.0913     0.0915    89.7368     2.5272
  190.2000     7.8470     8.5303   -19.1316     7.3020     0.0913     0.0890    89.8636     2.5284
  190.3000     7.7979     8.5296   -19.1322     7.2908     0.0913     0.0847    89.9845     2.5294
  190.4000     7.7976     8.5289   -19.1328     7.2783     0.0915     0.0817    90.2029     2.5301
  190.5000     7.7973     8.5282   -19.1335     7.2658     0.0920     0.0787    90.4510     2.5307
  190.6000     7.7970     8.5274   -19.1340     7.2533     0.0931     0.0763    90.7403     2.5313
  190.7000     7.7967     8.5268   -19.1346     7.2407     0.0987     0.0738    91.0980     2.5319
  190.8000     7.7963     8.5261   -19.1352     7.2261     0.1026     0.0712    91.3701     2.5322
  190.9000     7.7960     8.5254   -19.1358     7.2157     0.1049     0.0689    91.5940     2.5322
  191.0000     7.7957     8.5247   -19.1364     7.2032     0.1060     0.0664    91.9276     2.5322
  191.1000     7.7954     8.5239   -19.1370     7.1907     0.1060     0.0627    92.1822     2.5322
  191.2000     7.7950     8.5233   -19.1376     7.1805     0.1057     0.0578    92.4026     2.5312
  191.3000     7.7947     8.5225   -19.1382     7.1805     0.1057     0.0529    92.8880     2.5300
  191.4000     7.7944     8.5218   -19.1388     7.1683     0.1056     0.0472    93.1782     2.5283
  191.5000     7.7941     8.5211   -19.1394     7.1558     0.1053     0.0452    93.4872     2.5257
  191.6000     7.7938     8.5204   -19.1401     7.1433     0.1051     0.0427    93.9358     2.5225
  191.7000     7.8111     8.5197   -19.1406     7.1308     0.1051     0.0412    94.4323     2.5184
  191.8000     7.8472     8.5190   -19.1412     7.1198     0.1056     0.0408    94.9056     2.5119
  191.9000     7.8468     8.5183   -19.1418     7.1197     0.1062     0.0382    95.2884     2.5057
  192.0000     7.8464     8.5176   -19.1424     7.1084     0.1076     0.0359    95.6501     2.5012
  192.1000     7.8461     8.5169   -19.1430     7.1045     0.1099     0.0343    95.8343     2.4976
