~VERSION INFORMATION
 VERS.                2.0:   CWLS LOG ASCII STANDARD - VERSION 2.0
 WRAP.                 NO:   ONE LINE PER DEPTH STEP
~WELL INFORMATION
#MNEM.UNIT      DATA TYPE    INFORMATION
#----------   ------------   ------------------------------
 STRT.F           27.0000:   START DEPTH
 STOP.F          760.0000:   STOP DEPTH
 STEP.F            0.5000:   STEP LENGTH
 NULL.          -999.2500:   NO VALUE
 COMP. FENIX & SCISSON INC:   COMPANY
 WELL.    NPR #3 #33-S-14:   WELL
 FLD .             TEAPOT:   FIELD
 LOC .      S14 T38N R78W:   LOCATION
 CNTY.            NATRONA:   COUNTY
 STAT.            WYOMING:   STATE
 CTRY. UNITED STATES OF AMERICA:   COUNTRY
 SRVC.              Welex:   SERVICE COMPANY
 DATE.        02-FEB-1977:   LOGDATE
 API .       490251027700:   API NUMBER
~CURVE INFORMATION
#MNEM.UNIT       API CODE    CURVE DESCRIPTION
#----------   ------------   ------------------------------
 DEPT.F                  :   
 SPR .MV     07 010 01 00:   SPONTANEOUS POTENTIAL
 SGRD.OHMM   07 220 05 00:   SHALLOW RESISTIVITY
 ILD .OHMM   07 120 46 00:   INDUCTION LOG DEEP
 ILM .OHMM   07 120 44 00:   INDUCTION LOG MEDIUM
 GRD .GAPI   45 310 01 00:   GAMMA RAY FROM DENSITY LOG
 CALD.IN     45 280 60 00:   CALIPER
 RHOB.G/C3   45 350 01 00:   BULK DENSITY
 CORR.G/C3   45 356 01 00:   DENSITY CORRECTION
 DPHI.DEC    45 890 00 00:   DENSITY POROSITY
~PARAMETER INFORMATION
#MNEM.UNIT          VALUE    DESCRIPTION
#----------   ------------   ------------------------------
 PD  .                 GL:   PERMANENT DATUM
 EPD .F              5219:   ELEVATION PERMANENT DATUM
 LMF .                 GL:   LOG MEASURED FROM
 DMF .                 GL:   DRILLING MEASURED FROM
 EKB .F              5224:   KELLING BUSHING
 EGL .F              5219:   GROUND LEVEL
 DATE.           2-2-1977:   RUN DATE
 RUN .                  1:   RUN NUMBER
 DD  .F               761:   DEPTH DRILLER
 DL  .F               762:   DEPTH LOGGER
 BLI .F               760:   BOTTOM LOG INTERVAL
 TLI .F                25:   TOP LOG INTERVAL
 CS  .IN            8.625:   CASING SIZE
 CBD .F              42.5:   CASING BOTTOM DRILLER
 CBL .F                46:   CASING BOTTOM LOGGER
 BS  .IN            7.875:   BIT SIZE
 BSD .F               761:   BIT SIZE AT DEPTH
 DFT .           CHEM-GEL:   DRILLING FLUID TYPE
 DFD .                8.9:   DRILLING FLUID DENSITY
 DFV .                 37:   DRILLING FLUID VISCOSITY
 DFPH.                  7:   DRILLING FLUID PH
 DFL .                8.4:   DRILLING FLUID LOSS
 MSS .          FLOW LINE:   MUD SAMPLE SOURCE
 RMS .OHMM           .231:   RESISTIVITY MUD SAMPLE
 MST .F                45:   MUD SAMPLE TEMPERATURE
 RMF .OHMM           .322:   RESISTIVITY MUD FILTRATE SAMPLE
 MFST.F                45:   MUD FILTRATE SAMPLE TEMPERATURE
 RMC .OHMM           .439:   RESISTIVITY MUD CAKE
 MCST.F                45:   MUD CAKE SAMPLE TEMPERATURE
 MFSS.           MEASURED:   MUD FILTRATE SAMPLE SOURCE
 MCSS.           MEASURED:   MUD CAKE SAMPLE SOURCE
 RMB .OHMM           .182:   RESISTIVITY MUD AT BHT
 BHT .F                57:   BOTTOM HOLE TEMPERATURE
 TCS .HRS             5.5:   TIME CURCULATED STOPPED
 MRT .F                57:   MAXIMUM RECORDED TEMPERATURE
 LUN .               8611:   LOGGING UNIT NUMBER
 LUL .           GILLETTE:   LOGGING UNIT LOCATION
 ENGI.             LAWSON:   RECORDING ENGINEER
 WITN. VOORHEES/RHOADES/JAPP/PETTINGILL/STUEBINGER:   WITNESSED BY
 CLNT.            A2DTECH:   CLIENT CODE
 ORIG.     1", 2.5" PRINT:   ORIGIN OF DATA
 UWI .       490251027700:   UNIQUE WELL ID
 DICO. A2D Technologies, Inc.:   DIGITIZING COMPANY
~OTHER INFORMATION
~A   DEPT      SPR       SGRD        ILD        ILM        GRD       CALD         RHOB      CORR      DPHI   
   27.0000  -999.2500  -999.2500  -999.2500  -999.2500  -999.2500  -999.2500     2.1088    -0.4292  -999.2500
   27.5000  -999.2500  -999.2500  -999.2500  -999.2500  -999.2500  -999.2500     2.1068    -0.4307  -999.2500
   28.0000  -999.2500  -999.2500  -999.2500  -999.2500   105.6950  -999.2500     2.0955    -0.4345  -999.2500
   28.5000  -999.2500  -999.2500  -999.2500  -999.2500   105.2007  -999.2500     2.0929    -0.4398  -999.2500
   29.0000  -999.2500  -999.2500  -999.2500  -999.2500   104.6299  -999.2500     2.0990    -0.4451  -999.2500
   29.5000  -999.2500  -999.2500  -999.2500  -999.2500   104.0462  -999.2500     2.1042    -0.4505  -999.2500
   30.0000  -999.2500  -999.2500  -999.2500  -999.2500   103.3211  -999.2500     2.0945    -0.4506  -999.2500
   30.5000  -999.2500  -999.2500  -999.2500  -999.2500   102.5925  -999.2500     2.0876    -0.4496  -999.2500
   31.0000  -999.2500  -999.2500  -999.2500  -999.2500   101.8810  -999.2500     2.0926    -0.4486  -999.2500
   31.5000  -999.2500  -999.2500  -999.2500  -999.2500   101.9990  -999.2500     2.0975    -0.4477  -999.2500
   32.0000  -999.2500  -999.2500  -999.2500  -999.2500   103.3426  -999.2500     2.0870    -0.4467  -999.2500
   32.5000  -999.2500  -999.2500  -999.2500  -999.2500   104.6925  -999.2500     2.0748    -0.4457  -999.2500
   33.0000  -999.2500  -999.2500  -999.2500  -999.2500   104.8444  -999.2500     2.0625    -0.4397  -999.2500
   33.5000  -999.2500  -999.2500  -999.2500  -999.2500   104.4625  -999.2500     2.0503    -0.4288  -999.2500
   34.0000  -999.2500  -999.2500  -999.2500  -999.2500   104.0385  -999.2500     2.0417    -0.4179  -999.2500
   34.5000  -999.2500  -999.2500  -999.2500  -999.2500   104.5942  -999.2500     2.0537    -0.4069  -999.2500
   35.0000  -999.2500  -999.2500  -999.2500  -999.2500   105.4723  -999.2500     2.0654    -0.3963  -999.2500
   35.5000  -999.2500  -999.2500  -999.2500  -999.2500   106.3712  -999.2500     2.0770    -0.3747  -999.2500
   36.0000  -999.2500  -999.2500  -999.2500  -999.2500   107.1613  -999.2500     2.0888    -0.3508  -999.2500
   36.5000  -999.2500  -999.2500  -999.2500  -999.2500   105.1977  -999.2500     2.0988    -0.3269  -999.2500
   37.0000  -999.2500  -999.2500  -999.2500  -999.2500   103.1036  -999.2500     2.0817    -0.3031  -999.2500
   37.5000  -999.2500  -999.2500  -999.2500  -999.2500   100.9729  -999.2500     2.0641    -0.2793  -999.2500
   38.0000  -999.2500  -999.2500  -999.2500  -999.2500    98.8154  -999.2500     2.0467    -0.2546  -999.2500
   38.5000  -999.2500  -999.2500  -999.2500  -999.2500    95.5147  -999.2500     2.0293    -0.1539  -999.2500
   39.0000  -999.2500  -999.2500  -999.2500  -999.2500    91.8265  -999.2500     2.0101    -0.1118  -999.2500
   39.5000  -999.2500  -999.2500  -999.2500  -999.2500    88.2200  -999.2500     2.0247    -0.0666  -999.2500
   40.0000  -999.2500  -999.2500  -999.2500  -999.2500    84.6242  -999.2500     2.0478     0.0141  -999.2500
   40.5000  -999.2500  -999.2500  -999.2500  -999.2500    81.0085  -999.2500     2.0680     0.1417  -999.2500
   41.0000  -999.2500  -999.2500  -999.2500  -999.2500    78.9440  -999.2500     2.0705     0.1526  -999.2500
   41.5000  -999.2500  -999.2500  -999.2500  -999.2500    78.0040  -999.2500     2.0733     0.1494  -999.2500
   42.0000  -999.2500  -999.2500  -999.2500  -999.2500    77.0686  -999.2500     2.0794     0.1351  -999.2500
   42.5000  -999.2500  -999.2500  -999.2500  -999.2500    77.8046  -999.2500     2.0860     0.1148  -999.2500
   43.0000  -999.2500  -999.2500  -999.2500  -999.2500    79.4909  -999.2500     2.0836     0.1159  -999.2500
   43.5000  -999.2500  -999.2500  -999.2500  -999.2500    81.2011  -999.2500     2.0542     0.1207  -999.2500
   44.0000  -999.2500  -999.2500  -999.2500  -999.2500    82.9100  -999.2500     2.0240     0.1133  -999.2500
   44.5000  -999.2500  -999.2500  -999.2500  -999.2500    84.6174  -999.2500     2.0024     0.1010  -999.2500
   45.0000  -999.2500  -999.2500  -999.2500  -999.2500    86.3326     7.9809     1.9974     0.0884  -999.2500
   45.5000  -999.2500  -999.2500  -999.2500  -999.2500    88.0400     7.9850     1.9736     0.0759  -999.2500
   46.0000  -999.2500  -999.2500     0.8147     4.7126    89.2673     7.9890     1.9659     0.0630  -999.2500
   46.5000  -999.2500  -999.2500     1.1157     5.1920    87.6405     7.9923     1.9911     0.0640  -999.2500
   47.0000  -999.2500  -999.2500     2.2876     5.7344    88.8353     7.9964     2.0089     0.0684  -999.2500
   47.5000  -999.2500  -999.2500     4.3759     6.1086    90.1927     8.0005     2.0458     0.0729  -999.2500
   48.0000  -999.2500  -999.2500     5.5292     5.7083    91.5380     8.0046     2.0816     0.0795  -999.2500
   48.5000  -999.2500  -999.2500     5.3722     5.1402    92.8799     8.0087     2.1156     0.0946  -999.2500
   49.0000    -5.1499  -999.2500     5.2197     4.5412    94.2218     8.0127     2.1310     0.1094  -999.2500
   49.5000    -6.9554  -999.2500     5.0715     5.1077    95.5637     8.0158     2.1460     0.1243  -999.2500
   50.0000    -8.9286  -999.2500     4.9275     5.8970    96.9056     8.0618     2.1586     0.1391  -999.2500
   50.5000    -9.0587  -999.2500     4.7876     6.8083    98.2491     8.1630     2.1530     0.1546  -999.2500
   51.0000    -9.2021  -999.2500     4.6261     7.5973    99.5883     8.2635     2.1495     0.1524  -999.2500
   51.5000    -9.3254  -999.2500     4.4578     7.4418   100.9456     8.9263     2.1577     0.1452     0.2934
   52.0000   -10.6784  -999.2500     4.5750     7.2896   101.0409    10.1745     2.1942     0.1378     0.2695
   52.5000   -11.2765  -999.2500     4.7726     7.1404   100.4056    11.4296     2.2464     0.1303     0.2455
   53.0000   -12.4664  -999.2500     4.9787     7.0507    99.7746    12.6848     2.2695     0.1219     0.2279
   53.5000   -13.6338  -999.2500     5.1937     6.9963   100.8977    13.8180     2.2874     0.1256     0.2191
   54.0000   -14.9236  -999.2500     5.3521     6.7885   101.5140    14.3660     2.2998     0.1333     0.2103
   54.5000   -16.4402  -999.2500     5.2950     6.1139   100.5513    15.0490     2.3132     0.1411     0.2005
   55.0000   -17.9445  -999.2500     5.2384     5.7782    99.6032    14.9849     2.3060     0.1490     0.2030
   55.5000   -19.2292  -999.2500     5.1825     5.6127    98.8142    14.7375     2.2912     0.1567     0.2069
   56.0000   -19.5507  -999.2500     5.1272     5.3654   100.1676    14.2381     2.2714     0.1624     0.2154
   56.5000   -19.8403  -999.2500     5.0724     5.4361   101.5244    14.5803     2.2519     0.1550     0.2346
   57.0000   -20.1040    16.9276     5.0183     5.5964   102.8702    15.0561     2.2315     0.1478     0.2537
   57.5000   -20.3794    15.9037     4.9647     5.8459   104.2135    15.0793     2.1956     0.1397     0.2729
   58.0000   -20.6534    14.8682     4.9117     5.8361   105.5402    14.2470     2.1592     0.1237     0.2920
   58.5000   -20.9250    14.9240     4.8592     5.6492   105.7097    13.1910     2.1295     0.1075     0.2986
   59.0000   -21.1988    14.9819     4.8008     5.4682   104.4601    12.4067     2.2160     0.0910     0.2480
   59.5000   -21.4722    15.0401     4.7820     5.2930   103.2539    11.7526     2.2982     0.0928     0.2134
   60.0000   -21.8063    15.0985     4.7605     5.1702   104.2936    11.0975     2.3814     0.0967     0.1789
   60.5000   -22.2164    15.2714     4.7391     5.1702   105.5003    10.7213     2.3955     0.1004     0.1512
   61.0000   -22.6263    14.9775     4.7178     5.1656   106.7435    10.8255     2.3929     0.1042     0.1514
   61.5000   -23.0379    14.7230     4.6966     5.1496   104.8926    10.6676     2.3950     0.1070     0.1478
   62.0000   -23.4484    14.4767     4.6755     5.1336   102.6170    10.4663     2.4027     0.1089     0.1443
   62.5000   -23.8593    13.5008     4.6546     5.1177   101.4948    10.2767     2.4104     0.1108     0.1409
   63.0000   -24.2714    11.2273     4.6338     5.1019   103.3163    10.1807     2.4181     0.1127     0.1374
