~VERSION INFORMATION
 VERS.                2.0:   CWLS LOG ASCII STANDARD - VERSION 2.0
 WRAP.                 NO:   ONE LINE PER DEPTH STEP
~WELL INFORMATION
#MNEM.UNIT      DATA TYPE    INFORMATION
#----------   ------------   ------------------------------
 STRT.F           50.0000:   START DEPTH
 STOP.F         1561.5000:   STOP DEPTH
 STEP.F            0.5000:   STEP LENGTH
 NULL.          -999.2500:   NO VALUE
 COMP. FENIX & SCISSON INC:   COMPANY
 WELL.  72 SH 3 STX #72-3:   WELL
 FLD .             TEAPOT:   FIELD
 LOC .       S3 T38N R78W:   LOCATION
 CNTY.            NATRONA:   COUNTY
 STAT.            WYOMING:   STATE
 CTRY. UNITED STATES OF AMERICA:   COUNTRY
 SRVC.           BIRDWELL:   SERVICE COMPANY
 DATE.        31-JUL-1979:   LOGDATE
 API .       490251078600:   API NUMBER
~CURVE INFORMATION
#MNEM.UNIT       API CODE    CURVE DESCRIPTION
#----------   ------------   ------------------------------
 DEPT.F                  :   
 CALD.IN     45 280 60 00:   CALIPER FROM DENSITY LOG
 GRD .GAPI   45 310 01 00:   GAMMA RAY FROM DENSITY LOG
 RHOB.G/C3   45 350 01 00:   BULK DENSITY
 CORR.G/C3   45 356 01 00:   DENSITY CORRECTION
 DPHI.DEC    45 890 12 00:   DENSITY POROSITY SANDSTONE
 GR  .GAPI   81 310 01 00:   GAMMA RAY
~PARAMETER INFORMATION
#MNEM.UNIT          VALUE    DESCRIPTION
#----------   ------------   ------------------------------
 PD  .                 GL:   PERMANENT DATUM
 EPD .F              5165:   ELEVATION PERMANENT DATUM
 LMF .                 KB:   LOG MEASURED FROM
 DAPD.F                10:   FEET ABOVE PERMANENT DATUM
 DMF .                 KB:   DRILLING MEASURED FROM
 EKB .F              5175:   KELLING BUSHING
 EGL .F              5165:   GROUND LEVEL
 DATE.            7-31-79:   RUN DATE
 RUN .                  1:   RUN NUMBER
 DD  .F              1564:   DEPTH DRILLER
 DL  .F              1560:   DEPTH LOGGER
 BLI .F              1560:   BOTTOM LOG INTERVAL
 TLI .F               700:   TOP LOG INTERVAL
 CS  .IN            9.625:   CASING SIZE
 CBD .F               691:   CASING BOTTOM DRILLER
 CBL .F               680:   CASING BOTTOM LOGGER
 BS  .IN            7.875:   BIT SIZE
 BSD .F              1564:   BIT SIZE AT DEPTH
 DFT .                OIL:   DRILLING FLUID TYPE
 BHT .F                92:   BOTTOM HOLE TEMPERATURE
 TCS .HRS               2:   TIME CURCULATED STOPPED
 MRT .F                92:   MAXIMUM RECORDED TEMPERATURE
 LUN .               3029:   LOGGING UNIT NUMBER
 LUL .                CPR:   LOGGING UNIT LOCATION
 ENGI.             MILLER:   RECORDING ENGINEER
 WITN.           DINSMORE:   WITNESSED BY
 CLNT.            A2DTECH:   CLIENT CODE
 ORIG.       2", 5" PRINT:   ORIGIN OF DATA
 UWI .       490251078600:   UNIQUE WELL ID
 DICO. A2D Technologies, Inc.:   DIGITIZING COMPANY
~OTHER INFORMATION
~A   DEPT     CALD        GRD       RHOB       CORR       DPHI          GR  
# ...
  830.0000     9.5385   107.5989     2.4791     0.0077     0.0314    88.3094
  830.5000     9.5676   104.7040     2.4959     0.0211     0.0225    95.6029
  831.0000     9.5680   101.8908     2.5098     0.0311     0.0142   100.7670
  831.5000     9.5503   101.9472     2.5224     0.0329     0.0162    99.7029
  832.0000     9.5531   106.0418     2.5196     0.0264     0.0191    98.2653
  832.5000     9.5884   106.8624     2.5092     0.0201     0.0245    96.7570
  833.0000     9.6233   100.1510     2.4987     0.0155     0.0326    98.0030
  833.5000     9.6585    99.3641     2.4881     0.0125     0.0333    99.7762
  834.0000     9.6931   100.3820     2.4891     0.0110     0.0271   101.0071
  834.5000     9.7059    96.3767     2.4951     0.0112     0.0249    98.7276
  835.0000     9.6384    96.5864     2.5010     0.0128     0.0229    99.0044
  835.5000     9.5727   101.7420     2.5071     0.0143     0.0218    99.2148
  836.0000     9.5214   105.3831     2.5083     0.0159     0.0232    96.9917
  836.5000     9.5577   102.2441     2.5072     0.0187     0.0246    92.7653
  837.0000     9.5860   100.1900     2.5060     0.0237     0.0240    88.3766
  837.5000     9.6144   101.5671     2.5047     0.0288     0.0233    87.4282
  838.0000     9.6398   103.0533     2.5080     0.0338     0.0215    90.1548
  838.5000     9.6165   101.8995     2.5154     0.0388     0.0188    93.4572
  839.0000     9.5911   100.6108     2.5185     0.0438     0.0160   100.3904
  839.5000     9.5658   102.9129     2.5184     0.0489     0.0155   107.5797
  840.0000     9.5406   106.6972     2.5140     0.0540     0.0218   109.5537
  840.5000     9.5153   106.0627     2.5093     0.0587     0.0218   106.6695
  841.0000     9.4901   105.0081     2.5038     0.0523     0.0242   102.7531
  841.5000     9.4640   106.5657     2.4944     0.0343     0.0304    99.2452
  842.0000     9.4705   108.8026     2.4851     0.0165     0.0366    96.8287
  842.5000     9.4905   110.2132     2.4758    -0.0005     0.0409    94.4576
  843.0000     9.5108   106.5907     2.4684    -0.0012     0.0425    92.0904
  843.5000     9.5310   103.4938     2.4675    -0.0010     0.0441    91.2203
  844.0000     9.5511   100.8278     2.4655     0.0030     0.0454    91.7835
  844.5000     9.5720   100.1664     2.4766     0.0236     0.0334    89.4159
  845.0000     9.5455    99.7419     2.5075     0.0419     0.0143    86.9183
  845.5000     9.4923   100.4775     2.5279     0.0528     0.0089    85.1631
  846.0000     9.4374   101.1840     2.5352     0.0530     0.0038    87.1494
  846.5000     9.4493   101.8931     2.5327     0.0507     0.0132    90.8722
  847.0000     9.4951   102.5840     2.5173     0.0456     0.0155    94.6358
  847.5000     9.5419   104.9569     2.5124     0.0411     0.0138    97.0802
  848.0000     9.5885   109.6444     2.5191     0.0427     0.0122    99.3882
  848.5000     9.6343   113.2961     2.5267     0.0502     0.0138   101.0008
  849.0000     9.6185   112.9771     2.5242     0.0515     0.0188    97.4804
  849.5000     9.5322   107.7543     2.5203     0.0362     0.0234    95.6613
  850.0000     9.4472   104.3040     2.5110     0.0194     0.0290    98.0275
  850.5000     9.4615   101.5488     2.4960     0.0028     0.0341   101.6798
  851.0000     9.4873    98.7902     2.4809     0.0027     0.0336   100.2914
  851.5000     9.5131    96.0465     2.4781     0.0099     0.0317    98.9457
  852.0000     9.5387    95.0246     2.4847     0.0171     0.0376    97.5837
  852.5000     9.5643    97.3898     2.4906     0.0169     0.0366    96.2641
  853.0000     9.5899    99.2632     2.4839     0.0153     0.0357    95.5935
  853.5000     9.6156   100.0343     2.4783     0.0128     0.0364    97.4877
  854.0000     9.6394    95.9838     2.4844     0.0111     0.0321   100.2903
  854.5000     9.6256    93.9366     2.4945     0.0190     0.0232   103.1571
  855.0000     9.6095    94.2031     2.5070     0.0359     0.0141   103.0103
  855.5000     9.5935    93.7064     2.5194     0.0410     0.0122   102.6481
  856.0000     9.5775    90.4309     2.5287     0.0379     0.0113   102.3083
  856.5000     9.5616    87.2455     2.5299     0.0341     0.0097   101.9297
  857.0000     9.5456    86.9916     2.5319     0.0371     0.0080   100.1800
  857.5000     9.5296    87.2999     2.5340     0.0430     0.0063    93.9692
  858.0000     9.5136    87.5513     2.5357     0.0468     0.0066    88.0361
  858.5000     9.4976    86.6646     2.5331     0.0391     0.0091    82.0830
  859.0000     9.4814    85.7117     2.5281     0.0315     0.0128    79.3570
  859.5000     9.4839    87.5498     2.5207     0.0240     0.0165    81.1527
  860.0000     9.4900    90.5870     2.5103     0.0166     0.0201    81.9262
  860.5000     9.4960    92.5442     2.4999     0.0108     0.0238    81.0902
  861.0000     9.5021    91.1225     2.5000     0.0137     0.0258    80.1926
  861.5000     9.5082    88.7668     2.5068     0.0168     0.0233    82.4767
  862.0000     9.5142    86.3834     2.5135     0.0200     0.0179    87.0896
  862.5000     9.5182    83.9987     2.5203     0.0207     0.0125    91.1481
  863.0000     9.5126    81.6412     2.5259     0.0138     0.0110    91.2368
  863.5000     9.5072    80.1095     2.5150     0.0069     0.0186    85.2528
  864.0000     9.5018    84.0753     2.5047    -0.0001     0.0205    87.0872
  864.5000     9.4964    90.2543     2.5051     0.0030     0.0223    86.6387
  865.0000     9.4910    96.5783     2.5106     0.0076     0.0213    84.8474
  865.5000     9.4856    97.7669     2.5167     0.0122     0.0175    82.2569
  866.0000     9.4799    92.1915     2.5203     0.0093     0.0170    79.8419
  866.5000     9.4830    91.9748     2.5139    -0.0013     0.0205    80.8036
  867.0000     9.4882    94.2957     2.5077     0.0030     0.0222    82.2957
  867.5000     9.4935    94.1247     2.5066     0.0093     0.0189    83.7837
  868.0000     9.4988    92.5870     2.5160     0.0156     0.0142    85.3134
  868.5000     9.5040    91.2503     2.5252     0.0221     0.0110    85.4336
  869.0000     9.5092    92.4475     2.5272     0.0176     0.0149    83.4487
  869.5000     9.5145    93.7651     2.5206     0.0122     0.0188    81.5452
  870.0000     9.5234    92.0452     2.5143     0.0088     0.0210    79.5943
  870.5000     9.5552    89.7379     2.5103     0.0158     0.0161    79.5298
  871.0000     9.5870    90.1246     2.5217     0.0241     0.0114    81.5368
  871.5000     9.6188    92.7003     2.5397     0.0324     0.0046    83.6038
  872.0000     9.6520    95.2447     2.5482     0.0381     0.0006    85.6606
  872.5000     9.6477    96.7153     2.5382     0.0322     0.0070    87.2037
  873.0000     9.6321    95.2337     2.5255     0.0265     0.0174    85.1579
  873.5000     9.6161    92.7791     2.5159     0.0211     0.0116    82.6489
  874.0000     9.6002    90.1982     2.5350     0.0265     0.0058    83.1309
  874.5000     9.5843    89.9510     2.5384     0.0348     0.0090    84.4496
  875.0000     9.5685    94.1275     2.5348     0.0317     0.0130    85.7481
  875.5000     9.5526    97.2741     2.5251     0.0264     0.0154    87.0546
  876.0000     9.5366    97.9356     2.5175     0.0259     0.0136    88.0839
  876.5000     9.5210    96.1934     2.5235     0.0337     0.0112    87.5931
  877.0000     9.5157    94.4393     2.5287     0.0346     0.0113    85.5493
  877.5000     9.5119    91.1850     2.5154     0.0283     0.0190    82.8368
  878.0000     9.5082    86.1816     2.5114     0.0221     0.0170    80.0253
  878.5000     9.5044    85.6502     2.5168     0.0246     0.0139    81.9455
  879.0000     9.5006    87.1405     2.5235     0.0292     0.0109    84.8378
  879.5000     9.4969    88.6264     2.5303     0.0331     0.0089    85.5996
  880.0000     9.4931    90.0947     2.5371     0.0317     0.0083    83.8346
  880.5000     9.4893    91.5610     2.5362     0.0262     0.0078    81.7652
  881.0000     9.4855    93.0288     2.5270     0.0332     0.0106    79.7298
  881.5000     9.4818    94.5203     2.5180     0.0298     0.0189    80.4530
