~VERSION INFORMATION
 VERS.                2.0:   CWLS LOG ASCII STANDARD - VERSION 2.0
 WRAP.                 NO:   ONE LINE PER DEPTH STEP
~WELL INFORMATION
#MNEM.UNIT      DATA TYPE    INFORMATION
#----------   ------------   ------------------------------
 STRT.F            0.0000:   START DEPTH
 STOP.F         1340.0000:   STOP DEPTH
 STEP.F            0.5000:   STEP LENGTH
 NULL.          -999.2500:   NO VALUE
 COMP. U S NAVY-INTEX OIL:   COMPANY
 WELL. NAVAL PETROLEUM RESERVE 3 S #81-14:   WELL
 FLD .             TEAPOT:   FIELD
 LOC .      S14 T38N R78W:   LOCATION
 CNTY.            NATRONA:   COUNTY
 STAT.            WYOMING:   STATE
 CTRY. UNITED STATES OF AMERICA:   COUNTRY
 SRVC.       Schlumberger:   SERVICE COMPANY
 DATE.        20-AUG-1966:   LOGDATE
 API .       490250971600:   API NUMBER
~CURVE INFORMATION
#MNEM.UNIT       API CODE    CURVE DESCRIPTION
#----------   ------------   ------------------------------
 DEPT.F                  :   
 SPR .MV     07 010 01 00:   SPONTANEOUS POTENTIAL
 CILD.MMHO   07 110 46 00:   CONDUCTIVITY INDUCTION LOG DEEP
 ILD .OHMM   07 120 46 00:   INDUCTION LOG DEEP
 ASN .OHMM   01 041 16 00:   AMPLIFIED SHORT NORMAL 16"
 CALD.IN     45 280 60 00:   CALIPER
 RHOB.G/C3   45 350 01 00:   BULK DENSITY
 DPHI.DEC    45 890 12 00:   DENSITY POROSITY SANDSTONE
 GRD .GAPI   45 310 01 00:   GAMMA RAY FROM DENSITY LOG
 CORR.G/C3   45 356 01 00:   DENSITY CORRECTION
~PARAMETER INFORMATION
#MNEM.UNIT          VALUE    DESCRIPTION
#----------   ------------   ------------------------------
 PD  .                 GL:   PERMANENT DATUM
 EPD .F              5283:   ELEVATION PERMANENT DATUM
 LMF .                 KB:   LOG MEASURED FROM
 DAPD.F                 5:   FEET ABOVE PERMANENT DATUM
 DMF .                 KB:   DRILLING MEASURED FROM
 EKB .F              5288:   KELLING BUSHING
 EGL .F              5283:   GROUND LEVEL
 DATE.            8-20-66:   RUN DATE
 RUN .                  1:   RUN NUMBER
 DD  .F              1340:   DEPTH DRILLER
 DL  .F              1337:   DEPTH LOGGER
 BLI .F              1336:   BOTTOM LOG INTERVAL
 TLI .F                17:   TOP LOG INTERVAL
 CS  .IN            8.625:   CASING SIZE
 CBD .F                15:   CASING BOTTOM DRILLER
 CBL .F                17:   CASING BOTTOM LOGGER
 BS  .IN            7.875:   BIT SIZE
 BSD .F              1340:   BIT SIZE AT DEPTH
 DFT .           GEL-CHEM:   DRILLING FLUID TYPE
 DFD .                9.8:   DRILLING FLUID DENSITY
 DFV .                 70:   DRILLING FLUID VISCOSITY
 DFL .                  8:   DRILLING FLUID LOSS
 MSS .          FLOW LINE:   MUD SAMPLE SOURCE
 RMS .OHMM           1.26:   RESISTIVITY MUD SAMPLE
 MST .F                71:   MUD SAMPLE TEMPERATURE
 RMF .OHMM            .71:   RESISTIVITY MUD FILTRATE SAMPLE
 MFST.F                71:   MUD FILTRATE SAMPLE TEMPERATURE
 MFSS.                  M:   MUD FILTRATE SAMPLE SOURCE
 RMB .OHMM           1.04:   RESISTIVITY MUD AT BHT
 BHT .F                86:   BOTTOM HOLE TEMPERATURE
 TCS .HRS               2:   TIME CURCULATED STOPPED
 MRT .F                86:   MAXIMUM RECORDED TEMPERATURE
 LUN .               3527:   LOGGING UNIT NUMBER
 LUL .               CSPR:   LOGGING UNIT LOCATION
 ENGI.          TOLLEFSON:   RECORDING ENGINEER
 WITN.                MAY:   WITNESSED BY
 CLNT.            A2DTECH:   CLIENT CODE
 ORIG.        2" 5" PRINT:   ORIGIN OF DATA
 UWI .       490250971600:   UNIQUE WELL ID
 DICO. A2D Technologies, Inc.:   DIGITIZING COMPANY
~OTHER INFORMATION
~A    DEPT     SPR       CILD        ILD        ASN         CALD     RHOB       DPHI          GRD     CORR   
    0.0000  -999.2500  -999.2500  -999.2500  -999.2500     7.9819  -999.2500  -999.2500     1.8072  -999.2500
    0.5000  -999.2500  -999.2500  -999.2500  -999.2500     7.9819  -999.2500  -999.2500     2.2892  -999.2500
    1.0000  -999.2500  -999.2500  -999.2500  -999.2500     7.9819  -999.2500  -999.2500     2.2892  -999.2500
    1.5000  -999.2500  -999.2500  -999.2500  -999.2500     7.9820  -999.2500  -999.2500     2.4426  -999.2500
    2.0000  -999.2500  -999.2500  -999.2500  -999.2500     7.9865  -999.2500  -999.2500     2.8719  -999.2500
    2.5000  -999.2500  -999.2500  -999.2500  -999.2500     8.0003  -999.2500  -999.2500     8.4391  -999.2500
    3.0000  -999.2500  -999.2500  -999.2500  -999.2500     8.0140  -999.2500  -999.2500    14.5399  -999.2500
    3.5000  -999.2500  -999.2500  -999.2500  -999.2500     8.0278  -999.2500  -999.2500    25.8663  -999.2500
    4.0000  -999.2500  -999.2500  -999.2500  -999.2500     8.0415  -999.2500  -999.2500    43.9523  -999.2500
    4.5000  -999.2500  -999.2500  -999.2500  -999.2500     8.0553  -999.2500  -999.2500    63.1048  -999.2500
    5.0000  -999.2500  -999.2500  -999.2500  -999.2500     8.0673  -999.2500  -999.2500    82.4192  -999.2500
    5.5000  -999.2500  -999.2500  -999.2500  -999.2500     8.0776  -999.2500  -999.2500   101.3480  -999.2500
    6.0000  -999.2500  -999.2500  -999.2500  -999.2500     8.0878  -999.2500  -999.2500   105.1402  -999.2500
    6.5000  -999.2500  -999.2500  -999.2500  -999.2500     8.0981  -999.2500  -999.2500   108.7002  -999.2500
    7.0000  -999.2500  -999.2500  -999.2500  -999.2500     8.1084  -999.2500  -999.2500   109.6992  -999.2500
    7.5000  -999.2500  -999.2500  -999.2500  -999.2500     8.1187  -999.2500  -999.2500   108.7754  -999.2500
    8.0000  -999.2500  -999.2500  -999.2500  -999.2500     8.1290  -999.2500  -999.2500   107.8726  -999.2500
    8.5000  -999.2500  -999.2500  -999.2500  -999.2500     8.1396  -999.2500  -999.2500   106.9518  -999.2500
    9.0000  -999.2500  -999.2500  -999.2500  -999.2500     8.1318  -999.2500  -999.2500   106.0335  -999.2500
    9.5000  -999.2500  -999.2500  -999.2500  -999.2500     8.1167  -999.2500  -999.2500   105.1146  -999.2500
   10.0000  -999.2500  -999.2500  -999.2500  -999.2500     8.1012  -999.2500  -999.2500   104.1448    -0.2630
   10.5000  -999.2500  -999.2500  -999.2500  -999.2500     8.0857  -999.2500  -999.2500   105.1769    -0.2485
   11.0000  -999.2500  -999.2500  -999.2500  -999.2500     8.0703  -999.2500  -999.2500   106.7269    -0.2511
   11.5000  -999.2500  -999.2500  -999.2500  -999.2500     8.0548  -999.2500  -999.2500   107.4366    -0.2562
   12.0000    14.9299  -999.2500     2.1457   247.0060     8.0393  -999.2500  -999.2500   106.0358    -0.2613
   12.5000    14.9299  -999.2500     2.1457   247.0060     8.0234  -999.2500  -999.2500   103.9685    -0.2670
   13.0000    14.9299  -999.2500     2.1457   247.0060     8.0402  -999.2500  -999.2500   100.5811    -0.2407
   13.5000    14.9299  -999.2500     2.1457   247.2530     8.0612  -999.2500  -999.2500    97.2139    -0.2415
   14.0000    14.9299  -999.2500     2.1457   247.0060     8.0624  -999.2500  -999.2500    93.8461    -0.2463
   14.5000    14.9299  -999.2500     2.1457   247.0060     8.0625  -999.2500  -999.2500    90.4879    -0.2498
   15.0000    14.9299  -999.2500     2.1458   247.0060     8.0722  -999.2500  -999.2500    87.0610    -0.2077
   15.5000    14.9294  -999.2500     2.1463   246.8896     8.0825  -999.2500  -999.2500    82.0078    -0.1555
   16.0000    14.9230  -999.2500     2.1458   246.6985     8.0917  -999.2500  -999.2500    76.8793    -0.0948
   16.5000    14.9274  -999.2500     2.1057   246.0367     8.1065  -999.2500  -999.2500    72.1940    -0.0347
   17.0000    17.6146  -999.2500     1.9255   278.4882     8.1862  -999.2500  -999.2500    71.9015     0.0256
   17.5000    17.6435  -999.2500     1.7477   314.8211     8.6503  -999.2500  -999.2500    72.7630     0.1314
   18.0000     7.8467   125.2495     1.6166   349.9814     9.3399  -999.2500  -999.2500    74.1193     0.1847
   18.5000   -14.8173   616.2675     1.4553   369.7605    10.0336  -999.2500  -999.2500    75.4848     0.1975
   19.0000   -32.9005   704.3528     2.8248   268.0732    10.7541  -999.2500  -999.2500    76.8492     0.1825
   19.5000   -42.2082   797.2148     9.7418   173.6709    10.9749  -999.2500  -999.2500    78.2125     0.1605
   20.0000   -46.6623   860.9163     7.4536    62.3963    11.0209  -999.2500  -999.2500    79.5759     0.1385
   20.5000   -49.3590   874.7505     5.1953    50.2495    11.0742  -999.2500  -999.2500    80.9393     0.1116
   21.0000   -51.1194     2.8171     5.2343    31.5753    11.1329  -999.2500  -999.2500    82.3027     0.1247
   21.5000   -52.3831     1.9960     5.3576    21.3851    10.8801  -999.2500  -999.2500    83.6660     0.1407
   22.0000   -53.5930     1.1749     5.8324    20.7577    10.5848  -999.2500  -999.2500    85.0329     0.1607
   22.5000   -54.3303    56.3872    13.8726    21.7001     9.8248  -999.2500  -999.2500    86.3966     0.1442
   23.0000   -55.0522    48.1832    22.5127    26.0295     9.0819  -999.2500  -999.2500    87.7217     0.0953
   23.5000   -55.6492    35.4291    26.6669    34.7358     8.9368  -999.2500  -999.2500    87.2716     0.0404
   24.0000   -56.1412    33.3156    28.2816    56.4253     8.8693  -999.2500  -999.2500    85.8419     0.0111
   24.5000   -56.6078    29.8312    41.8628    81.3373     8.9825  -999.2500  -999.2500    88.6835     0.0175
   25.0000   -56.7921    18.6619    69.1299   125.1538     9.1026  -999.2500  -999.2500    90.9387     0.0227
   25.5000   -56.9657     7.4394   129.3676   172.3264     8.9935  -999.2500  -999.2500    93.0833     0.0256
   26.0000   -57.3451     1.3857   157.0188   219.4990     8.7880  -999.2500  -999.2500    91.2395     0.0210
   26.5000   -57.8009     3.6603    97.4622   255.1706     8.8181  -999.2500  -999.2500    88.2558     0.0166
   27.0000   -58.2677    57.3852    15.0978   281.9361     9.1163  -999.2500  -999.2500    91.5174     0.0121
   27.5000   -58.1687    60.3792    16.0180   311.8763     9.3920  -999.2500  -999.2500    94.7999     0.0078
   28.0000   -57.8054    57.0905    16.8164   325.8133     9.1954  -999.2500  -999.2500    98.0795     0.0003
   28.5000   -57.4386    53.3932    20.1229   334.0031     8.8706  -999.2500  -999.2500    99.1598    -0.0096
   29.0000   -57.2857    33.9438    30.0310   346.5400     8.5406  -999.2500  -999.2500    98.2479    -0.0188
   29.5000   -57.4727    21.4571    43.3740   361.7765     8.1990  -999.2500  -999.2500    96.9410    -0.0261
   30.0000   -57.6561    20.4591    42.3498   353.1726     8.1026  -999.2500  -999.2500    95.5110    -0.0255
   30.5000   -57.9389    20.4591    39.8111   338.6122     8.0750  -999.2500  -999.2500    98.9660    -0.0100
   31.0000   -58.7759    22.9637    36.0263   333.8323     8.0491  -999.2500  -999.2500    99.4406     0.0024
   31.5000   -59.4815    25.8638    32.9667   336.9052     8.0223  -999.2500  -999.2500    97.6547     0.0129
   32.0000   -59.7067    28.7638    29.9377   350.3358     7.9955  -999.2500  -999.2500    95.9134     0.0263
   32.5000   -59.9384    31.6639    26.9002   370.7363     7.9686  -999.2500  -999.2500    94.1786     0.0265
   33.0000   -60.1655    34.5640    25.0935   391.1367     7.9418  -999.2500  -999.2500    92.4870     0.0446
   33.5000   -60.6602    37.4640    23.5335   398.7026     7.9149  -999.2500  -999.2500    92.6071     0.0411
   34.0000   -61.2228    40.3641    21.9814   387.9009     7.8881  -999.2500  -999.2500    95.4483     0.0298
   34.5000   -61.7966    43.2642    20.5324   354.7904     7.8613  -999.2500  -999.2500    96.2260     0.0212
   35.0000   -61.8647    46.1642    19.2837   374.1512     7.8348  -999.2500  -999.2500    94.5785     0.0111
   35.5000   -61.9102    49.0643    18.0311   405.6886     7.8200  -999.2500  -999.2500    92.9297     0.0034
   36.0000   -61.9605    51.6992    16.7799   396.6803     7.8017  -999.2500  -999.2500    93.1734    -0.0019
