~VERSION INFORMATION
 VERS.                2.0:   CWLS LOG ASCII STANDARD - VERSION 2.0
 WRAP.                 NO:   ONE LINE PER DEPTH STEP
~WELL INFORMATION
#MNEM.UNIT      DATA TYPE    INFORMATION
#----------   ------------   ------------------------------
 STRT.F           46.0000:   START DEPTH
 STOP.F          490.0000:   STOP DEPTH
 STEP.F            0.5000:   STEP LENGTH
 NULL.          -999.2500:   NO VALUE
 COMP.    FENIX & SCISSON:   COMPANY
 WELL.        NPR #55-S-3:   WELL
 FLD .              NPR 3:   FIELD
 LOC .       S3 T38N R78W:   LOCATION
 CNTY.            NATRONA:   COUNTY
 STAT.            WYOMING:   STATE
 CTRY. UNITED STATES OF AMERICA:   COUNTRY
 SRVC.      Dresser Atlas:   SERVICE COMPANY
 DATE.        12-MAR-1977:   LOGDATE
 API .       490251028700:   API NUMBER
~CURVE INFORMATION
#MNEM.UNIT       API CODE    CURVE DESCRIPTION
#----------   ------------   ------------------------------
 DEPT.F                  :   
 SPR .MV     07 010 01 00:   SPONTANEOUS POTENTIAL
 ILM .OHMM   07 120 44 00:   INDUCTION LOG MEDIUM
 ILD .OHMM   07 120 46 00:   INDUCTION LOG DEEP
 SFL .OHMM   07 220 01 00:   SHALLOW FOCUSED LOG RESISTIVITY
 CALD.IN     45 280 60 00:   CALIPER FROM DENSITY LOG
 GRD .GAPI   45 310 01 00:   GAMMA RAY FROM DENSITY LOG
 CORR.G/C3   45 356 01 00:   DENSITY CORRECTION
 DPHI.DEC    45 890 12 00:   DENSITY POROSITY SANDSTONE
 RHOB.G/C3   45 350 01 00:   BULK DENSITY
~PARAMETER INFORMATION
#MNEM.UNIT          VALUE    DESCRIPTION
#----------   ------------   ------------------------------
 PD  .                 GL:   PERMANENT DATUM
 EPD .F              5169:   ELEVATION PERMANENT DATUM
 LMF .                 GL:   LOG MEASURED FROM
 DMF .                 GL:   DRILLING MEASURED FROM
 EGL .F              5169:   GROUND LEVEL
 DATE.        12-MAR-1977:   RUN DATE
 RUN .                  1:   RUN NUMBER
 DD  .F               498:   DEPTH DRILLER
 DL  .F               492:   DEPTH LOGGER
 BLI .F               490:   BOTTOM LOG INTERVAL
 TLI .F               046:   TOP LOG INTERVAL
 CS  .IN            8.625:   CASING SIZE
 CBD .F                40:   CASING BOTTOM DRILLER
 CBL .F               046:   CASING BOTTOM LOGGER
 BS  .IN            7.875:   BIT SIZE
 BSD .F               498:   BIT SIZE AT DEPTH
 DFT .           CHEM GEL:   DRILLING FLUID TYPE
 DFD .                8.7:   DRILLING FLUID DENSITY
 DFV .                 35:   DRILLING FLUID VISCOSITY
 DFPH.                8.0:   DRILLING FLUID PH
 DFL .                7.2:   DRILLING FLUID LOSS
 MSS .           FLOWLINE:   MUD SAMPLE SOURCE
 RMS .OHMM            .35:   RESISTIVITY MUD SAMPLE
 MST .F                60:   MUD SAMPLE TEMPERATURE
 RMF .OHMM             .3:   RESISTIVITY MUD FILTRATE SAMPLE
 MFST.F                60:   MUD FILTRATE SAMPLE TEMPERATURE
 RMC .OHMM            .73:   RESISTIVITY MUD CAKE
 MCST.F                60:   MUD CAKE SAMPLE TEMPERATURE
 MFSS.               MEAS:   MUD FILTRATE SAMPLE SOURCE
 MCSS.               MEAS:   MUD CAKE SAMPLE SOURCE
 RMB .OHMM            .33:   RESISTIVITY MUD AT BHT
 BHT .F                63:   BOTTOM HOLE TEMPERATURE
 TCS .HRS            1400:   TIME CURCULATED STOPPED
 MRT .F                63:   MAXIMUM RECORDED TEMPERATURE
 LUN .               6134:   LOGGING UNIT NUMBER
 LUL .              GLTTE:   LOGGING UNIT LOCATION
 ENGI.              NOYER:   RECORDING ENGINEER
 WITN.         STUEBINGER:   WITNESSED BY
 CLNT.            A2DTECH:   CLIENT CODE
 ORIG.           5" PRINT:   ORIGIN OF DATA
 UWI .       490251028700:   UNIQUE WELL ID
 DICO. A2D Technologies, Inc.:   DIGITIZING COMPANY
~OTHER INFORMATION
~A   DEPT      SPR        ILM        ILD        SFL       CALD        GRD       CORR         DPHI       RHOB 
# ...
  119.0000   -66.1169     8.3400     8.6202    15.7893     7.7495    95.5720     0.0323     0.0955     2.4979
  119.5000   -66.1169     8.2276     8.5052    14.9461     7.7513    91.0944     0.0263     0.1036     2.4896
  120.0000   -66.1169     8.1743     8.5087    13.8578     7.7378    92.1557     0.0220     0.1072     2.4712
  120.5000   -66.2669     8.1770     8.3959    13.6730     7.7400    96.2161     0.0328     0.0928     2.4991
  121.0000   -66.5667     8.1797     8.3405    13.6798     7.7418    92.8962     0.0343     0.0969     2.4992
  121.5000   -66.8666     8.1825     8.2863    13.6852     7.7286    90.9983     0.0284     0.1036     2.4924
  122.0000   -67.1664     8.1858     8.2325    13.5951     7.7007    93.5968     0.0270     0.1062     2.4752
  122.5000   -67.3163     8.1321     8.1798    13.6018     7.7024    95.4292     0.0317     0.1047     2.4835
  123.0000   -67.6162     8.1348     8.1267    13.4205     7.7191    97.0266     0.0333     0.0981     2.4964
  123.5000   -67.7661     8.0808     8.1307    12.5910     7.7209    95.6927     0.0289     0.0939     2.5077
  124.0000   -67.9160     8.0841     8.0771    12.0266     7.7226    98.2515     0.0290     0.1050     2.4815
  124.5000   -67.9160     8.0311     8.0811    11.8651     7.7393    95.3308     0.0246     0.1107     2.4725
  125.0000   -67.7661     8.0344     8.0843    11.7881     7.7411    93.7869     0.0232     0.1131     2.4673
  125.5000   -67.3163     8.0371     8.0875    11.8757     7.7429    95.8967     0.0234     0.1145     2.4636
  126.0000   -66.8666     8.0397     8.0350    12.2142     7.7595    97.5596     0.0220     0.1205     2.4546
  126.5000   -66.8666     8.0424     8.0390    12.3891     7.7613    99.5157     0.0236     0.1166     2.4577
  127.0000   -67.3163     7.9897     8.0422    12.0561     7.7780    97.8824     0.0267     0.1094     2.4773
  127.5000   -68.2159     7.9930     8.0454    11.7322     7.8095    99.9950     0.0283     0.1130     2.4698
  128.0000   -68.9655     7.9956     8.0486    11.8182     7.8113    99.8554     0.0239     0.1157     2.4601
  128.5000   -69.1259     7.9983     8.0519    11.7427     7.8131   100.9201     0.0121     0.1286     2.4361
  129.0000   -69.5652     8.0009     7.9995    11.5849     7.7855   101.5323     0.0122     0.1370     2.4068
  129.5000   -69.7151     7.9484     7.7851    11.8335     7.7872   100.9436     0.0228     0.1252     2.4422
  130.0000   -69.7151     7.8348     7.4717    11.6757     7.7737   100.5079     0.0289     0.1045     2.4889
  130.5000   -69.8651     7.4748     7.2708    11.2836     7.7759   102.7668     0.0246     0.1018     2.5010
  131.0000   -70.1649     7.1736     7.0752    11.1272     7.7777    98.5919     0.0232     0.1069     2.4943
  131.5000   -70.1649     6.9323     6.8315    10.7602     7.7795    97.5541     0.0279     0.0994     2.4857
  132.0000   -70.7646     6.8867     6.6998     9.9080     7.7812    98.7685     0.0309     0.1017     2.5005
  132.5000   -71.3643     6.8417     6.6111     9.1232     7.7830   100.2789     0.0250     0.1056     2.4914
  133.0000   -71.8141     6.8445     6.5675     8.8169     7.7695   102.0887     0.0252     0.1104     2.4846
  133.5000   -71.9640     6.8468     6.5254     9.7172     7.7717   102.2485     0.0268     0.1128     2.4702
  134.0000   -71.9640     6.8490     6.6196    10.8574     7.7586    99.4209     0.0299     0.1116     2.4716
  134.5000   -71.8141     6.8988     6.8080    10.4929     7.7455    99.8835     0.0315     0.1029     2.4932
  135.0000   -71.5142     7.0456     6.8107    10.1406     7.7472   101.8430     0.0242     0.1095     2.4760
  135.5000   -71.0645     7.1517     6.8134    10.0748     7.7490   103.5031     0.0197     0.1142     2.4618
  136.0000   -70.7646     7.2987     6.7684    10.1592     7.7508   103.5165     0.0184     0.1127     2.4731
  136.5000   -70.3148     7.3517     6.7718    10.3664     7.7526   106.0749     0.0140     0.1106     2.4777
  137.0000   -70.3148     7.4565     6.8216    10.4424     7.7543   107.1362     0.0081     0.1214     2.4580
  137.5000   -70.0150     7.5107     6.9199    10.3736     7.7561   106.5508     0.0023     0.1235     2.4492
  138.0000   -69.7151     7.7237     7.0191    10.2361     7.7728   104.7678     0.0024     0.1244     2.4463
  138.5000   -69.2654     7.7269     7.1196    10.2414     7.7592   103.5803     0.0055     0.1310     2.4328
  139.0000   -68.9655     7.7295     7.2718    10.6056     7.7614   104.1925     0.0071     0.1223     2.4404
  139.5000   -68.5157     7.7856     7.3760    10.8321     7.7632   101.2152     0.0087     0.1162     2.4600
  140.0000   -68.3658     7.8966     7.4817    10.9115     7.7650   100.6265     0.0104     0.1186     2.4591
  140.5000   -68.3658     8.0646     7.5373    10.9158     7.7816   103.3379     0.0150     0.1162     2.4597
  141.0000   -68.9655     8.1850     7.5403    10.9202     7.7855   102.6028     0.0196     0.1003     2.4688
  141.5000   -69.1154     8.1823     7.5956    10.9246     7.7851   101.7147     0.0212     0.0945     2.4926
  142.0000   -69.4153     8.1286     7.6514    10.8547     7.8018   104.1266     0.0228     0.0996     2.5017
  142.5000   -68.9630     8.0753     7.6017    10.7832     7.8036   105.6371     0.0244     0.1041     2.4927
  143.0000   -68.3658     8.0224     7.5530    10.9386     7.8054   106.3956     0.0246     0.1032     2.4860
  143.5000   -68.3658     7.9155     7.5560    11.0952     7.8071   103.7178     0.0217     0.1005     2.4830
  144.0000   -68.5157     7.7557     7.5590    11.2541     7.8089   106.7252     0.0199     0.1059     2.4869
  144.5000   -68.9655     7.7048     7.5099    10.8624     7.8113   107.7865     0.0144     0.1113     2.4749
  145.0000   -69.1154     7.7080     7.4611    10.2965     7.8274   104.0574     0.0161     0.1077     2.4719
  145.5000   -69.1269     7.7106     7.3578    10.0883     7.8292   103.8758     0.0222     0.1124     2.4682
  146.0000   -69.2654     7.7131     7.2141    10.0933     7.8310   104.3837     0.0268     0.1112     2.4751
  146.5000   -69.2654     7.6625     7.2169    10.3088     7.8178   102.9001     0.0284     0.1037     2.4872
  147.0000   -69.2654     7.6123     7.2198    10.5289     7.7898    99.7698     0.0330     0.0956     2.5008
  147.5000   -69.1154     7.6154     7.2728    10.6896     7.7767   101.5796     0.0346     0.0999     2.5023
  148.0000   -68.9655     7.6180     7.2757    10.8325     7.7789    99.6469     0.0318     0.1041     2.4904
  148.5000   -68.5157     7.6733     7.3292    10.2551     7.7807    99.0464     0.0274     0.1089     2.4724
  149.0000   -68.3658     7.6759     7.3836    10.0477     7.7825    99.3842     0.0215     0.1132     2.4619
  149.5000   -68.0660     7.7317     7.4378    10.1224     7.7842   100.2860     0.0171     0.1162     2.4522
  150.0000   -68.0373     7.7232     7.3785    10.2673     7.7860   106.4174     0.0206     0.1147     2.4515
  150.5000   -67.8576     7.5856     7.3145    10.4145     7.7907   109.2932     0.0229     0.1075     2.4670
  151.0000   -67.6779     7.4800     7.2448    10.4196     7.7955   107.6317     0.0236     0.1064     2.4832
  151.5000   -67.3209     7.3306     7.1974    10.3509     7.8002   107.5202     0.0298     0.0981     2.4916
  152.0000   -67.3223     7.3355     7.2016    10.2130     7.8050   109.1815     0.0329     0.0963     2.4984
  152.5000   -67.3238     7.3903     7.1521     9.9395     7.8080   108.2950     0.0361     0.0897     2.5069
  153.0000   -67.7754     7.3942     7.0612     9.8070     7.8396   105.9115     0.0362     0.0822     2.5196
  153.5000   -67.9267     7.3472     7.0645     9.9475     7.8410   103.8274     0.0364     0.0836     2.5166
  154.0000   -67.9282     7.2996     7.0183    10.2314     7.8273   102.9380     0.0351     0.0872     2.5107
  154.5000   -67.9296     7.1545     7.0224    10.4498     7.8291   105.3479     0.0322     0.0929     2.5017
  155.0000   -68.0810     7.0116     6.9772    10.0990     7.8153   103.4135     0.0309     0.0992     2.4845
