~VERSION INFORMATION
 VERS.                2.0:   CWLS LOG ASCII STANDARD - VERSION 2.0
 WRAP.                 NO:   ONE LINE PER DEPTH STEP
~WELL INFORMATION
#MNEM.UNIT      DATA TYPE    INFORMATION
#----------   ------------   ------------------------------
 STRT.F          376.0000:   START DEPTH
 STOP.F         2400.0000:   STOP DEPTH
 STEP.F            0.5000:   STEP LENGTH
 NULL.          -999.2500:   NO VALUE
 COMP. LAWRENCE/ALLISON INC:   COMPANY
 WELL.        55 X #15-15:   WELL
 FLD .            WILDCAT:   FIELD
 LOC .      S15 T38N R78W:   LOCATION
 CNTY.            NATRONA:   COUNTY
 STAT.            WYOMING:   STATE
 CTRY. UNITED STATES OF AMERICA:   COUNTRY
 SRVC.            Unknown:   SERVICE COMPANY
 DATE.        12-APR-1988:   LOGDATE
 API .       490251119800:   API NUMBER
~CURVE INFORMATION
#MNEM.UNIT       API CODE    CURVE DESCRIPTION
#----------   ------------   ------------------------------
 DEPT.F                  :   
 GR  .GAPI   30 310 01 00:   GAMMA RAY
 TGAS.UNITS  91 830 01 00:   TOTAL GAS UNIT
 ROP .FT/HR  91 810 01 00:   RATE OF DRILLING PENETRATION
~PARAMETER INFORMATION
#MNEM.UNIT          VALUE    DESCRIPTION
#----------   ------------   ------------------------------
 PD  .                 GL:   PERMANENT DATUM
 EPD .F              5293:   ELEVATION PERMANENT DATUM
 LMF .                 GL:   LOG MEASURED FROM
 DMF .                 KB:   DRILLING MEASURED FROM
 EKB .F              5304:   KELLING BUSHING
 EGL .F              5293:   GROUND LEVEL
 DATE.        12-APR-1988:   RUN DATE
 RUN .                  1:   RUN NUMBER
 DD  .F              2400:   DEPTH DRILLER
 DL  .F               851:   DEPTH LOGGER
 BLI .F               846:   BOTTOM LOG INTERVAL
 TLI .F               372:   TOP LOG INTERVAL
 CS  .IN                7:   CASING SIZE
 CBL .F               890:   CASING BOTTOM LOGGER
 BSD .F              2400:   BIT SIZE AT DEPTH
 DFT .              WATER:   DRILLING FLUID TYPE
 TCS .HRS               1:   TIME CURCULATED STOPPED
 ENGI.          BANGERTER:   RECORDING ENGINEER
 WITN.             NORHAN:   WITNESSED BY
 CLNT.            A2DTECH:   CLIENT CODE
 ORIG.           5" PRINT:   ORIGIN OF DATA
 UWI .       490251119800:   UNIQUE WELL ID
 DICO. A2D Technologies, Inc.:   DIGITIZING COMPANY
~OTHER INFORMATION
~A   DEPT        GR      TGAS        ROP   
# ...
 2014.0000  -999.2500     0.0000     0.5768
 2014.5000  -999.2500     0.0000     0.5773
 2015.0000  -999.2500     0.0000     0.5683
 2015.5000  -999.2500     0.0000     0.5687
 2016.0000  -999.2500     0.0000     0.5691
 2016.5000  -999.2500     0.0000     0.5696
 2017.0000  -999.2500     0.0000     0.5606
 2017.5000  -999.2500     0.0000     0.5610
 2018.0000  -999.2500     0.0000     0.5614
 2018.5000  -999.2500     0.0000     0.5618
 2019.0000  -999.2500     0.0000     0.5528
 2019.5000  -999.2500     0.0000     0.5533
 2020.0000  -999.2500     0.0000     0.5537
 2020.5000  -999.2500     0.0000     0.5542
 2021.0000  -999.2500     0.0000     0.5545
 2021.5000  -999.2500     0.0000     0.5644
 2022.0000  -999.2500     0.0000     0.5648
 2022.5000  -999.2500     0.0000     0.5652
 2023.0000  -999.2500     0.0000     0.5657
 2023.5000  -999.2500     0.0000     0.5755
 2024.0000  -999.2500     0.0000     0.5759
 2024.5000  -999.2500     0.0000     0.5669
 2025.0000  -999.2500     0.0000     0.5579
 2025.5000  -999.2500     0.0000     0.5583
 2026.0000  -999.2500     0.0000     0.5399
 2026.5000  -999.2500     0.0000     0.5121
 2027.0000  -999.2500     0.0000     0.4826
 2027.5000  -999.2500     0.0000     0.4564
 2028.0000  -999.2500     0.0000     0.4474
 2028.5000  -999.2500     0.0000     0.4574
 2029.0000  -999.2500     0.0000     0.4578
 2029.5000  -999.2500     0.0000     0.4582
 2030.0000  -999.2500     0.0000     0.4586
 2030.5000  -999.2500     0.0000     0.4590
 2031.0000  -999.2500     0.0000     0.4594
 2031.5000  -999.2500     0.0000     0.4599
 2032.0000  -999.2500     0.0000     0.4603
 2032.5000  -999.2500     0.0000     0.4513
 2033.0000  -999.2500     0.0000     0.4517
 2033.5000  -999.2500     0.0000     0.4521
 2034.0000  -999.2500     0.0000     0.4525
 2034.5000  -999.2500     0.0000     0.4530
 2035.0000  -999.2500     0.0000     0.4535
 2035.5000  -999.2500     0.0000     0.4539
 2036.0000  -999.2500     0.0000     0.4542
 2036.5000  -999.2500     0.0000     0.4641
 2037.0000  -999.2500     0.0000     0.4646
 2037.5000  -999.2500     0.0000     0.4650
 2038.0000  -999.2500     0.0000     0.4654
 2038.5000  -999.2500     0.0000     0.4658
 2039.0000  -999.2500     0.0000     0.4662
 2039.5000  -999.2500     0.0000     0.4666
 2040.0000  -999.2500     0.0000     0.4671
 2040.5000  -999.2500     0.0000     0.4769
 2041.0000  -999.2500     0.0000     0.4867
 2041.5000  -999.2500     0.0000     0.4871
 2042.0000  -999.2500     0.0000     0.4970
 2042.5000  -999.2500     0.0000     0.4975
 2043.0000  -999.2500     0.0000     0.5073
 2043.5000  -999.2500     0.0000     0.5077
 2044.0000  -999.2500     0.0000     0.5176
 2044.5000  -999.2500     0.0000     0.5180
 2045.0000  -999.2500     0.3600     0.5278
 2045.5000  -999.2500     0.7636     0.5282
 2046.0000  -999.2500     0.7842     0.5381
 2046.5000  -999.2500     0.8047     0.5479
 2047.0000  -999.2500     0.8252     0.5577
 2047.5000  -999.2500     0.8457     0.5582
 2048.0000  -999.2500     0.4821     0.5586
 2048.5000  -999.2500     0.5078     0.5496
 2049.0000  -999.2500     0.5283     0.5501
 2049.5000  -999.2500     0.5488     0.5410
 2050.0000  -999.2500     0.5684     0.5320
 2050.5000  -999.2500     0.5898     0.5042
 2051.0000  -999.2500     0.6103     0.4857
 2051.5000  -999.2500     0.6310     0.4673
 2052.0000  -999.2500     0.6518     0.4583
 2052.5000  -999.2500     0.6726     0.4588
 2053.0000  -999.2500     0.6975     0.4687
 2053.5000  -999.2500     0.7143     0.4785
 2054.0000  -999.2500     0.7385     0.4883
 2054.5000  -999.2500     1.1379     0.4887
 2055.0000  -999.2500     1.5374     0.4878
 2055.5000  -999.2500     1.9368     0.4802
 2056.0000  -999.2500     1.9574     0.4807
 2056.5000  -999.2500     1.9779     0.4716
 2057.0000  -999.2500     1.9984     0.4627
 2057.5000  -999.2500     1.6348     0.4630
 2058.0000  -999.2500     1.2808     0.4635
 2058.5000  -999.2500     0.9227     0.4639
 2059.0000  -999.2500     0.5646     0.4549
 2059.5000  -999.2500     0.5855     0.4553
 2060.0000  -999.2500     0.6063     0.4462
 2060.5000  -999.2500     0.6313     0.4279
 2061.0000  -999.2500     0.6518     0.4284
 2061.5000  -999.2500     0.6723     0.4288
 2062.0000  -999.2500     0.6928     0.4292
 2062.5000  -999.2500     0.7133     0.4308
 2063.0000  -999.2500     0.7338     0.4490
 2063.5000  -999.2500     0.7543     0.4588
 2064.0000  -999.2500     0.7748     0.4686
 2064.5000  -999.2500     0.7953     0.4785
 2065.0000  -999.2500     0.8158     0.4883
 2065.5000  -999.2500     0.4574     0.4887
 2066.0000  -999.2500     0.4779     0.4891
 2066.5000  -999.2500     0.0000     0.4800
 2067.0000  -999.2500     0.0000     0.4710
 2067.5000  -999.2500     0.0000     0.4621
 2068.0000  -999.2500     0.0000     0.4625
 2068.5000  -999.2500     0.0000     0.4535
 2069.0000  -999.2500     0.0000     0.4540
 2069.5000  -999.2500     0.0000     0.4544
 2070.0000  -999.2500     0.0000     0.4454
 2070.5000  -999.2500     0.0000     0.4552
 2071.0000  -999.2500     0.0000     0.4557
 2071.5000  -999.2500     0.0000     0.4561
 2072.0000  -999.2500     0.0000     0.4566
 2072.5000  -999.2500     0.0000     0.4570
 2073.0000  -999.2500     0.0000     0.4574
 2073.5000  -999.2500     0.0000     0.4578
 2074.0000  -999.2500     0.0000     0.4582
 2074.5000  -999.2500     0.0000     0.4586
 2075.0000  -999.2500     0.0000     0.4591
 2075.5000  -999.2500     0.0000     0.4595
 2076.0000  -999.2500     0.0000     0.4599
 2076.5000  -999.2500     0.0000     0.4603
 2077.0000  -999.2500     0.0000     0.4607
 2077.5000  -999.2500     0.0000     0.4612
 2078.0000  -999.2500     0.0000     0.4616
 2078.5000  -999.2500     0.0000     0.4621
 2079.0000  -999.2500     0.0000     0.4625
 2079.5000  -999.2500     0.0000     0.4629
 2080.0000  -999.2500     0.3045     0.4633
 2080.5000  -999.2500     0.3250     0.4638
 2081.0000  -999.2500     0.7245     0.4642
 2081.5000  -999.2500     0.7450     0.4551
 2082.0000  -999.2500     0.7655     0.4556
 2082.5000  -999.2500     0.7863     0.4560
 2083.0000  -999.2500     0.8072     0.4564
 2083.5000  -999.2500     0.8322     0.4663
 2084.0000  -999.2500     0.4686     0.4667
 2084.5000  -999.2500     0.4942     0.4577
 2085.0000  -999.2500     0.5147     0.4581
 2085.5000  -999.2500     0.1512     0.4585
 2086.0000  -999.2500     0.1768     0.4589
 2086.5000  -999.2500     0.1973     0.4689
 2087.0000  -999.2500     0.2178     0.4693
 2087.5000  -999.2500     0.2383     0.4791
 2088.0000  -999.2500     0.0000     0.4700
 2088.5000  -999.2500     0.0000     0.4705
 2089.0000  -999.2500     0.0000     0.4520
 2089.5000  -999.2500     0.0000     0.4336
 2090.0000  -999.2500     0.0000     0.4152
 2090.5000  -999.2500     0.0000     0.4063
 2091.0000  -999.2500     0.0000     0.4067
 2091.5000  -999.2500     0.0000     0.4071
 2092.0000  -999.2500     0.0000     0.3981
 2092.5000  -999.2500     0.0000     0.3985
 2093.0000  -999.2500     0.0000     0.3990
 2093.5000  -999.2500     0.0000     0.3994
 2094.0000  -999.2500     0.0000     0.3999
 2094.5000  -999.2500     0.0000     0.3909
 2095.0000  -999.2500     0.0000     0.3913
 2095.5000  -999.2500     0.0000     0.3917
 2096.0000  -999.2500     0.0000     0.3921
 2096.5000  -999.2500     0.0000     0.3926
 2097.0000  -999.2500     0.0000     0.3929
 2097.5000  -999.2500     0.0000     0.3934
 2098.0000  -999.2500     0.0000     0.3938
 2098.5000  -999.2500     0.0000     0.3847
 2099.0000  -999.2500     0.0000     0.3852
 2099.5000  -999.2500     0.0000     0.3856
 2100.0000  -999.2500     0.1093     0.4237
 2100.5000  -999.2500     0.7690     0.4239
 2101.0000  -999.2500     0.4013     0.4240
 2101.5000  -999.2500     0.0335     0.4336
 2102.0000  -999.2500     0.0474     0.4337
 2102.5000  -999.2500     0.0586     0.4339
 2103.0000  -999.2500     0.0697     0.4340
 2103.5000  -999.2500     0.0809     0.4341
 2104.0000  -999.2500     0.0909     0.4343
 2104.5000  -999.2500     0.1032     0.4344
