~VERSION INFORMATION
 VERS.                2.0:   CWLS LOG ASCII STANDARD - VERSION 2.0
 WRAP.                 NO:   ONE LINE PER DEPTH STEP
~WELL INFORMATION
#MNEM.UNIT      DATA TYPE    INFORMATION
#----------   ------------   ------------------------------
 STRT.F           20.0000:   START DEPTH
 STOP.F         1363.5000:   STOP DEPTH
 STEP.F            0.5000:   STEP LENGTH
 NULL.          -999.2500:   NO VALUE
 COMP.   FLUOR DANIEL INC:   COMPANY
 WELL.   NPR 3 "S" #83-14:   WELL
 FLD .             TEAPOT:   FIELD
 LOC .      S14 T38N R78W:   LOCATION
 CNTY.            NATRONA:   COUNTY
 STAT.            WYOMING:   STATE
 CTRY. UNITED STATES OF AMERICA:   COUNTRY
 SRVC. Schlumberger Well Surveying Corp:   SERVICE COMPANY
 DATE.        22-AUG-1966:   LOGDATE
 API .       490250971000:   API NUMBER
~CURVE INFORMATION
#MNEM.UNIT       API CODE    CURVE DESCRIPTION
#----------   ------------   ------------------------------
 DEPT.F                  :   
 SPR .MV     05 010 01 00:   SPONTANEOUS POTENTIAL FROM RES.
 ASN .OHMM   05 041 16 00:   AMPLIFIED SHORT NORMAL 16"
 CILD.MMHO   05 110 00 00:   CONDUCTIVITY INDUCTION LOG
 ILD .OHMM   05 120 46 00:   INDUCTION LOG DEEP
 CALD.IN     45 280 60 00:   CALIPER
 GRD .GAPI   45 310 01 00:   GAMMA RAY FROM DENSITY LOG
 CORR.G/C3   45 356 01 00:   DENSITY CORRECTION
 RHOB.G/C3   45 350 01 00:   BULK DENSITY
 DPOR.DEC    45 890 12 00:   DENSITY POROSITY SANDSTONE
~PARAMETER INFORMATION
#MNEM.UNIT          VALUE    DESCRIPTION
#----------   ------------   ------------------------------
 PD  .                 GL:   PERMANENT DATUM
 EPD .F              5300:   ELEVATION PERMANENT DATUM
 LMF .                 KB:   LOG MEASURED FROM
 DAPD.F                 5:   FEET ABOVE PERMANENT DATUM
 DMF .                 KB:   DRILLING MEASURED FROM
 EKB .F              5305:   KELLING BUSHING
 EGL .F              5300:   GROUND LEVEL
 DATE.          8-22-1966:   RUN DATE
 RUN .                  1:   RUN NUMBER
 DD  .F              1365:   DEPTH DRILLER
 DL  .F              1363:   DEPTH LOGGER
 BLI .F              1362:   BOTTOM LOG INTERVAL
 TLI .F                20:   TOP LOG INTERVAL
 CS  .IN            8.625:   CASING SIZE
 CBD .F                15:   CASING BOTTOM DRILLER
 CBL .F                20:   CASING BOTTOM LOGGER
 BS  .IN            7.875:   BIT SIZE
 BSD .F              1365:   BIT SIZE AT DEPTH
 DFT .           GEL-CHEM:   DRILLING FLUID TYPE
 DFD .                 10:   DRILLING FLUID DENSITY
 DFV .                 55:   DRILLING FLUID VISCOSITY
 DFL .                  8:   DRILLING FLUID LOSS
 MSS .          FLOW LINE:   MUD SAMPLE SOURCE
 RMS .OHMM           1.86:   RESISTIVITY MUD SAMPLE
 MST .F                73:   MUD SAMPLE TEMPERATURE
 RMF .OHMM           1.13:   RESISTIVITY MUD FILTRATE SAMPLE
 MFST.F                70:   MUD FILTRATE SAMPLE TEMPERATURE
 MFSS.                  M:   MUD FILTRATE SAMPLE SOURCE
 RMB .OHMM           1.32:   RESISTIVITY MUD AT BHT
 BHT .F               102:   BOTTOM HOLE TEMPERATURE
 TCS .HRS               1:   TIME CURCULATED STOPPED
 MRT .F               102:   MAXIMUM RECORDED TEMPERATURE
 LUN .               3527:   LOGGING UNIT NUMBER
 LUL .               CSPR:   LOGGING UNIT LOCATION
 ENGI.          TOLLEFSON:   RECORDING ENGINEER
 WITN.         MAY/TUTTLE:   WITNESSED BY
 CLNT.            A2DTECH:   CLIENT CODE
 ORIG.       2", 5" PRINT:   ORIGIN OF DATA
 UWI .       490250971000:   UNIQUE WELL ID
 DICO. A2D Technologies, Inc.:   DIGITIZING COMPANY
~OTHER INFORMATION
~A   DEPT       SPR       ASN         CILD      ILD         CALD       GRD       CORR        RHOB     DPOR   
# ...
  275.5000   -59.3210     8.4730   139.0332     7.5070     8.0864    95.1976     0.0860     2.5200     0.1082
  276.0000   -59.3532     8.6400   137.2158     7.6125     8.0815    91.9911     0.0703     2.5285     0.1052
  276.5000   -58.9942     8.8762   135.3984     7.5790     8.0766    91.7743     0.0674     2.5079     0.1113
  277.0000   -58.8224     9.0083   133.7675     7.4690     8.0716    94.2614     0.0785     2.4869     0.1164
  277.5000   -59.2372     8.9338   137.3748     7.3569     8.0667    97.3662     0.0402     2.4935     0.1224
  278.0000   -59.6912     8.6920   141.3277     7.2450     8.0618   100.2809     0.0534     2.5040     0.1158
  278.5000   -60.0260     8.4491   145.2806     7.1332     8.0569   103.4560     0.0672     2.5159     0.1036
  279.0000   -59.9356     8.2081   148.7976     7.0214     8.0520   105.8677     0.0589     2.5200     0.1053
  279.5000   -59.6641     7.9991   150.3922     6.9096     8.0471   106.4268     0.0507     2.5092     0.1092
  280.0000   -59.6182     7.8890   152.0863     6.7979     8.0421   103.4636     0.0466     2.4985     0.1131
  280.5000   -59.6579     7.8474   153.7804     6.6861     8.0382    97.7294     0.0503     2.4874     0.1170
  281.0000   -59.7150     7.8918   155.4745     6.5743     8.0372    94.4736     0.0467     2.4764     0.1209
  281.5000   -59.7724     7.9412   157.1686     6.4626     8.0363    95.0903     0.0435     2.4659     0.1248
  282.0000   -59.8296     7.9547   158.8176     6.3508     8.0355    95.9671     0.0485     2.4569     0.1264
  282.5000   -59.8868     7.7863   161.7312     6.2389     8.0347    96.7221     0.0563     2.4482     0.1306
  283.0000   -59.9445     7.5893   164.5691     6.1270     8.0339    95.9873     0.0509     2.4403     0.1341
  283.5000   -60.0032     7.3921   167.4071     6.0160     8.0331    95.2698     0.0371     2.4322     0.1376
  284.0000   -60.0119     7.1952   170.2451     5.9492     8.0323    94.5355     0.0547     2.4240     0.1410
  284.5000   -59.4034     7.0498   172.8457     5.9496     8.0315    96.1697     0.0444     2.4161     0.1448
  285.0000   -59.4184     6.9794   173.8477     5.9649     8.0306   100.1902     0.0289     2.4079     0.1461
  285.5000   -59.4187     6.9157   173.4469     6.0820     8.0298   103.5152     0.0425     2.3997     0.1476
  286.0000   -59.4188     6.8650   169.6822     6.1993     8.0290   104.3827     0.0429     2.3945     0.1490
  286.5000   -59.4188     6.9069   165.9215     6.3162     8.0282    98.5502     0.0358     2.3910     0.1505
  287.0000   -59.4188     7.0956   162.1506     6.4331     8.0274    90.6889     0.0490     2.3948     0.1520
  287.5000   -59.4188     7.3597   158.3858     6.5500     8.0265    91.1954     0.0468     2.4048     0.1534
  288.0000   -59.4188     7.6248   154.8021     6.6671     8.0257    91.8020     0.0247     2.4132     0.1559
  288.5000   -59.4188     7.8995   153.1503     6.7836     8.0249    92.5512     0.0172     2.4224     0.1537
  289.0000   -59.4188     7.9732   151.5691     6.9017     8.0241    93.4132     0.0222     2.4312     0.1449
  289.5000   -59.4188     7.9332   149.9880     6.8777     8.0233    91.8247     0.0369     2.4402     0.1362
  290.0000   -59.4188     7.7700   148.7976     6.7564     8.0224    87.3333     0.0500     2.4491     0.1315
  290.5000   -59.4188     7.5916   151.7974     6.6332     8.0216    83.6740     0.0457     2.4581     0.1335
  291.0000   -59.4188     7.5104   154.6354     6.5100     8.0208    82.8438     0.0362     2.4669     0.1356
  291.5000   -59.4188     7.4764   157.7010     6.3871     8.0200    84.2251     0.0331     2.4739     0.1304
  292.0000   -59.4189     7.3785   162.0228     6.2641     8.0191    86.6161     0.0415     2.4808     0.1252
  292.5000   -59.4184     7.2139   166.3447     6.1412     8.0184    89.2659     0.0503     2.4876     0.1200
  293.0000   -59.4480     7.0510   170.6665     6.0182     8.0179    90.9431     0.0583     2.4948     0.1146
  293.5000   -59.4897     6.8877   174.9884     5.8952     8.0189    96.1759     0.0682     2.4987     0.1081
  294.0000   -59.5325     6.7237   179.3102     5.7723     8.0205   100.5391     0.0639     2.4867     0.1126
  294.5000   -59.5769     6.5539   183.6321     5.6493     8.0219    99.5307     0.0527     2.4766     0.1194
  295.0000   -59.6115     6.4582   187.9539     5.5264     8.0234    99.5350     0.0431     2.4639     0.1303
  295.5000   -59.1895     6.3633   192.2758     5.4033     8.0248    99.1445     0.0337     2.4604     0.1292
  296.0000   -59.0215     6.2678   196.5489     5.2794     8.0263    97.5483     0.0228     2.4698     0.1256
  296.5000   -59.1331     6.1730   200.9698     5.1553     8.0277    93.3954     0.0399     2.4774     0.1220
  297.0000   -59.6047     6.0954   202.8617     5.1649     8.0291    91.6992     0.0792     2.4866     0.1168
  297.5000   -59.3952     6.0553   203.9078     5.1827     8.0306    92.5860     0.0712     2.4896     0.1205
  298.0000   -59.0095     6.0367   202.8947     5.1999     8.0320    93.7525     0.0542     2.4715     0.1276
  298.5000   -58.8381     6.0190   201.9187     5.2167     8.0335    90.9072     0.0380     2.4545     0.1347
  299.0000   -58.9961     6.0314   200.9426     5.2329     8.0349    88.3026     0.0271     2.4366     0.1408
  299.5000   -59.1769     6.0530   199.9666     5.2545     8.0363    88.9495     0.0312     2.4216     0.1447
  300.0000   -59.3531     6.0890   198.8978     5.3799     8.0378    93.6883     0.0336     2.4029     0.1481
  300.5000   -59.0126     6.1258   195.2666     5.5057     8.0392    96.5307     0.0267     2.3943     0.1540
  301.0000   -59.0984     6.1883   191.2539     5.6308     8.0406    92.4446     0.0186     2.4035     0.1524
  301.5000   -59.1883     6.3077   187.2412     5.7558     8.0421    89.4227     0.0213     2.4104     0.1444
  302.0000   -59.2767     6.4286   183.2286     5.8809     8.0435    90.0340     0.0286     2.4190     0.1468
  302.5000   -59.3650     6.5500   180.4484     6.0064     8.0449    96.2432     0.0395     2.4250     0.1531
  303.0000   -59.4537     6.6248   178.5246     6.1335     8.0464   100.2047     0.0362     2.4133     0.1594
  303.5000   -59.5423     6.7090   176.6007     6.1033     8.0478    98.1740     0.0235     2.3913     0.1627
  304.0000   -59.6251     6.7717   174.8497     6.0472     8.0493    94.0093     0.0116     2.3936     0.1567
  304.5000   -59.4575     6.7444   176.1423     5.9910     8.0507    94.5160     0.0071     2.4068     0.1507
  305.0000   -59.2364     6.7079   178.7074     5.9351     8.0521    98.0089     0.0260     2.4173     0.1447
  305.5000   -59.0220     6.6733   181.2726     5.8792     8.0536    97.4854     0.0406     2.4292     0.1386
  306.0000   -59.1782     6.5877   183.8377     5.8234     8.0550    93.9626     0.0521     2.4403     0.1326
  306.5000   -59.4341     6.4794   186.4028     5.7675     8.0564    90.9531     0.0638     2.4519     0.1266
  307.0000   -59.6252     6.3713   188.8778     5.7117     8.0579    92.2480     0.0732     2.4633     0.1205
  307.5000   -59.5431     6.2841   191.1537     5.6556     8.0578    99.6337     0.0854     2.4757     0.1132
  308.0000   -59.4569     6.2338   192.8858     5.5995     8.0560    98.9421     0.0772     2.4838     0.1158
  308.5000   -59.3702     6.2376   194.2102     5.5525     8.0543    96.8166     0.0611     2.4881     0.1196
  309.0000   -59.2846     6.2491   194.6766     5.5932     8.0526    93.2501     0.0645     2.4769     0.1251
  309.5000   -59.2387     6.2997   194.8898     5.6322     8.0509    94.2577     0.0989     2.4637     0.1317
  310.0000   -59.3535     6.3928   192.1621     5.7726     8.0491    99.9851     0.0953     2.4504     0.1382
  310.5000   -59.4640     6.4281   189.8798     5.9875     8.0474   101.3524     0.0776     2.4371     0.1447
  311.0000   -59.5747     6.4736   181.7864     6.2035     8.0456    99.9888     0.0637     2.4240     0.1512
  311.5000   -59.6848     6.5136   173.7092     6.4173     8.0439    97.5583     0.0472     2.4105     0.1487
