~VERSION INFORMATION
 VERS.                2.0:   CWLS LOG ASCII STANDARD - VERSION 2.0
 WRAP.                 NO:   ONE LINE PER DEPTH STEP
~WELL INFORMATION
#MNEM.UNIT      DATA TYPE    INFORMATION
#----------   ------------   ------------------------------
 STRT.F           20.0000:   START DEPTH
 STOP.F          600.0000:   STOP DEPTH
 STEP.F            0.5000:   STEP LENGTH
 NULL.          -999.2500:   NO VALUE
 COMP. FENIX & SCISSON INC:   COMPANY
 WELL. TEAPOT DOME #23 SX 3-4:   WELL
 FLD .             TEAPOT:   FIELD
 LOC .       S4 T38N R78W:   LOCATION
 CNTY.            NATRONA:   COUNTY
 STAT.            WYOMING:   STATE
 CTRY. UNITED STATES OF AMERICA:   COUNTRY
 SRVC.            Unknown:   SERVICE COMPANY
 DATE.        31-JUL-1978:   LOGDATE
 API .       490251067600:   API NUMBER
~CURVE INFORMATION
#MNEM.UNIT       API CODE    CURVE DESCRIPTION
#----------   ------------   ------------------------------
 DEPT.F                  :   
 CALD.IN     45 280 60 00:   CALIPER FROM DENSITY LOG
 GRD .GAPI   45 310 01 00:   GAMMA RAY FROM DENSITY LOG
 CORR.G/C3   45 356 01 00:   DENSITY CORRECTION
 DPHI.DEC    45 890 12 00:   DENSITY POROSITY SANDSTONE
 RHOB.G/C3   45 350 01 00:   BULK DENSITY
 SPR .MV     07 010 01 00:   SPONTANEOUS POTENTIAL
 ILD .OHMM   07 120 46 00:   INDUCTION LOG DEEP
 SN  .OHMM   07 040 16 00:   SHORT NORMAL 16"
 CILD.MMHO   07 110 46 00:   CONDUCTIVITY INDUCTION LOG DEEP
~PARAMETER INFORMATION
#MNEM.UNIT          VALUE    DESCRIPTION
#----------   ------------   ------------------------------
 PD  .                 GL:   PERMANENT DATUM
 EPD .F              5181:   ELEVATION PERMANENT DATUM
 LMF .                 KB:   LOG MEASURED FROM
 DAPD.F                 4:   FEET ABOVE PERMANENT DATUM
 DMF .                 KB:   DRILLING MEASURED FROM
 EKB .F              5185:   KELLING BUSHING
 EGL .F              5181:   GROUND LEVEL
 DATE.        31-JUL-1978:   RUN DATE
 RUN .                  1:   RUN NUMBER
 DD  .F               595:   DEPTH DRILLER
 DL  .F               606:   DEPTH LOGGER
 BLI .F               600:   BOTTOM LOG INTERVAL
 TLI .F                40:   TOP LOG INTERVAL
 CBL .F                45:   CASING BOTTOM LOGGER
 BS  .IN            7.875:   BIT SIZE
 BSD .F               595:   BIT SIZE AT DEPTH
 DFT .                KCL:   DRILLING FLUID TYPE
 DFD .                9.0:   DRILLING FLUID DENSITY
 DFV .                 36:   DRILLING FLUID VISCOSITY
 DFPH.                9.0:   DRILLING FLUID PH
 DFL .                8.0:   DRILLING FLUID LOSS
 MSS .           FLOWLINE:   MUD SAMPLE SOURCE
 BHT .F                74:   BOTTOM HOLE TEMPERATURE
 TCS .HRS            0500:   TIME CURCULATED STOPPED
 MRT .F                74:   MAXIMUM RECORDED TEMPERATURE
 LUN .               2958:   LOGGING UNIT NUMBER
 LUL .               CASP:   LOGGING UNIT LOCATION
 ENGI.            POINTER:   RECORDING ENGINEER
 WITN.              AMEND:   WITNESSED BY
 CLNT.            A2DTECH:   CLIENT CODE
 ORIG.           5" PRINT:   ORIGIN OF DATA
 UWI .       490251067600:   UNIQUE WELL ID
 DICO. A2D Technologies, Inc.:   DIGITIZING COMPANY
~OTHER INFORMATION
~A   DEPT     CALD        GRD       CORR       DPHI       RHOB        SPR        ILD         SN       CILD   
# ...
  275.5000     7.3626    95.0885     0.0081     0.1203     2.4608   -33.2809     8.1823     8.9822   118.2728
  276.0000     7.3640   103.5380     0.0096     0.1104     2.4624   -33.2777     8.1288     8.9859   117.4476
  276.5000     7.3654   107.1614     0.0111     0.1085     2.4722   -33.2747     8.0758     8.9278   116.6224
  277.0000     7.3667   108.3823     0.0127     0.1077     2.4753   -33.1231     8.0786     8.9316   115.7973
  277.5000     7.3681   107.8015     0.0135     0.1076     2.4761   -33.1201     8.0815     8.9354   115.7211
  278.0000     7.3694   103.3118     0.0144     0.1076     2.4837   -33.1170     8.0843     8.8767   117.1622
  278.5000     7.4158   108.5917     0.0144     0.1049     2.4895   -33.2633     8.1432     8.7596   119.3142
  279.0000     7.4771   108.4279     0.0145     0.1040     2.4899   -33.5567     8.2025     8.7021   120.7553
  279.5000     7.4935   107.8069     0.0131     0.1048     2.4823   -33.7030     8.3194     8.5873   122.9264
  280.0000     7.4948   103.5030     0.0109     0.1069     2.4795   -33.8486     8.3800     8.5309   125.0974
  280.5000     7.4962   102.4426     0.0095     0.1084     2.4819   -33.8455     8.3829     8.4758   125.7704
  281.0000     7.5122   106.5122     0.0096     0.1116     2.4722   -33.8425     8.2702     8.5390   125.6929
  281.5000     7.4986   107.8671     0.0096     0.1113     2.4723   -33.8395     8.2087     8.6018   125.6180
  282.0000     7.5003   108.4736     0.0105     0.1068     2.4844   -33.9852     8.1063     8.6046   125.5421
  282.5000     7.5017   105.3375     0.0113     0.1064     2.4823   -33.9820     7.9980     8.6082   125.4660
  283.0000     7.5030   103.3971     0.0121     0.1112     2.4719   -33.8304     7.9457     8.5525   125.2583
  283.5000     7.5044   109.6940     0.0122     0.1148     2.4637   -33.8274     7.7855     8.4388   125.3327
  284.0000     7.5058   112.0968     0.0130     0.1138     2.4668   -33.6757     7.6286     8.3841   125.9867
  284.5000     7.5071   110.6074     0.0123     0.1105     2.4736   -33.6727     7.4749     8.2726   126.6787
  285.0000     7.5085   110.0143     0.0107     0.1159     2.4610   -33.8190     7.2738     8.2762   128.8307
  285.5000     7.5098   115.4131     0.0064     0.1290     2.4491   -34.2618     7.0295     8.2219   133.2490
  286.0000     7.5112   120.0595     0.0035     0.1260     2.4582   -34.4073     6.8404     8.1688   137.6673
  286.5000     7.5123   117.2930     0.0074     0.1161     2.4642   -34.4279     6.7498     8.2297   139.8574
  287.0000     7.5136   111.6017     0.0105     0.1181     2.4516   -34.5498     6.6229     8.2332   139.7622
  287.5000     7.5300   108.4057     0.0113     0.1205     2.4712   -34.5468     6.4961     8.2366   139.6861
  288.0000     7.5007   107.2157     0.0114     0.1125     2.4803   -34.5438     6.3692     8.2401   139.6255
  288.5000     7.4577   107.8221     0.0122     0.1106     2.4691   -34.5407     6.3743     8.2436   139.5506
  289.0000     7.4741   108.5782     0.0115     0.1156     2.4692   -34.5377     6.4176     8.2464   138.6817
  289.5000     7.4904   108.2864     0.0101     0.1168     2.4596   -34.5347     6.4477     8.2498   136.4044
  290.0000     7.4918   108.4437     0.0094     0.1180     2.4658   -34.5316     6.4477     8.2570   134.0811
  290.5000     7.5082   109.7987     0.0087     0.1110     2.4777   -34.5286     6.4477     8.3138   131.0088
  291.0000     7.5095   111.6027     0.0088     0.1131     2.4712   -34.5256     6.4477     8.2600   130.1836
  291.5000     7.5259   111.4606     0.0081     0.1158     2.4614   -34.5225     6.4477     8.2636   130.1075
  292.0000     7.5272   112.3664     0.0082     0.1155     2.4623   -34.6689     6.4637     8.2671   130.0314
  292.5000     7.5436   115.9649     0.0083     0.1193     2.4653   -34.6657     6.5077     8.2706   129.9552
  293.0000     7.5600   114.6271     0.0084     0.1154     2.4669   -34.8114     6.5565     8.2740   129.8792
  293.5000     7.5613   112.9865     0.0084     0.1148     2.4670   -34.8083     6.5565     8.2197   130.5711
  294.0000     7.5927   106.5170     0.0100     0.1135     2.4738   -34.9539     6.5565     8.1666   131.9931
  294.5000     7.6390   109.2988     0.0116     0.1058     2.5024   -34.9509     6.5565     8.1138   133.4151
  295.0000     7.6404   108.3683     0.0133     0.0956     2.5047   -34.7993     6.5565     8.1181   134.0881
  295.5000     7.6567   111.0705     0.0162     0.0994     2.4786   -34.7962     6.5565     8.1215   135.4911
  296.0000     7.6581   105.0901     0.0147     0.1117     2.4592   -34.7932     6.5565     8.0682   136.1831
  296.5000     7.7344   104.3488     0.0066     0.1197     2.4556   -34.9395     6.5565     8.0630   137.6856
  297.0000     7.7658   102.5604     0.0074     0.1208     2.4474   -35.0851     6.4288     7.9643   141.3429
  297.5000     7.7671    99.4243     0.0060     0.1250     2.4228   -35.3792     6.1626     7.9128   150.1870
  298.0000     7.7683    98.9809     0.0016     0.1414     2.4154   -35.5240     5.9072     7.8616   159.8487
  298.5000     7.7696   101.2359    -0.0006     0.1606     2.3848   -35.6696     5.6624     7.5981   168.0123
  299.0000     7.7709   103.3393    -0.0035     0.1707     2.3766   -35.6909     5.5076     7.4455   174.6777
  299.5000     7.7872   100.3529    -0.0065     0.1524     2.3857   -35.8128     5.4337     7.3457   176.1188
  300.0000     7.8636   106.9474     0.0064     0.0995     2.4929   -35.6606     5.3495     7.3496   176.7790
  300.5000     7.8804   111.1466     0.0268     0.0992     2.4870   -34.7615     5.4646     7.3527   175.9612
  301.0000     7.8966   112.4102     0.0238     0.1007     2.4817   -34.4568     5.6207     7.3558   175.1433
  301.5000     7.8830   112.1881     0.0157     0.1019     2.4804   -34.1520     5.7814     7.6701   174.3255
  302.0000     7.8846   107.3949     0.0120     0.1033     2.4819   -33.9959     6.0293     8.0533   169.0132
  302.5000     7.8861   105.6057     0.0112     0.1059     2.4853   -33.9883     6.3753     8.1125   151.7160
  303.0000     7.8877   106.2274     0.0098     0.1124     2.4649   -33.9808     6.7497     8.1721   132.1715
  303.5000     7.9042   107.7458     0.0069     0.1173     2.4589   -34.1237     7.0785     8.2322   129.1237
  304.0000     7.9057   109.7146     0.0047     0.1005     2.4725   -34.1159     7.1810     8.2920   130.5530
  304.5000     7.8923   114.2360     0.0086     0.0977     2.4883   -34.2572     7.2849     8.3529   129.7180
  305.0000     7.8938   111.4665     0.0124     0.1049     2.4899   -34.2496     7.3395     8.4143   128.9138
  305.5000     7.8951   109.7543     0.0132     0.1076     2.4825   -34.0935     7.2419     8.4761   127.2585
  306.0000     7.8965   108.4266     0.0096     0.1109     2.4757   -33.9373     7.2470     8.5384   126.5019
  306.5000     7.8831   106.1912     0.0081     0.1138     2.4713   -33.7812     7.4028     8.5420   126.4637
  307.0000     7.8696   106.1111     0.0067     0.1162     2.4677   -33.7736     7.5620     8.5456   124.8968
  307.5000     7.8411   108.0268     0.0075     0.1091     2.4828   -33.9166     7.7246     8.6084   123.3299
  308.0000     7.7977   109.9956     0.0098     0.0979     2.4903   -33.9071     7.9453     8.5519   123.2611
  308.5000     7.8292   111.3639     0.0099     0.1045     2.4837   -33.8996     8.1724     8.5564   123.1923
  309.0000     7.8758   109.7249     0.0077     0.1086     2.4763   -33.7434     8.2897     8.5600   122.3745
  309.5000     7.9373   110.0463     0.0033     0.1125     2.4748   -33.7359     8.3518     8.5636   122.3057
  310.0000     7.9088   109.4626     0.0064     0.1055     2.4906   -33.8788     8.3563     8.5672   122.2369
  310.5000     7.8776   108.8484     0.0087     0.1037     2.4915   -34.4637     8.1894     8.5708   122.1681
  311.0000     7.8516   106.5555     0.0088     0.1070     2.4870   -34.7552     7.9709     8.5145   122.0993
  311.5000     7.8981   102.2968     0.0089     0.0944     2.4909   -34.8962     7.9755     8.4595   122.1647
