~VERSION INFORMATION
 VERS.                2.0:   CWLS LOG ASCII STANDARD - VERSION 2.0
 WRAP.                 NO:   ONE LINE PER DEPTH STEP
~WELL INFORMATION
#MNEM.UNIT      DATA TYPE    INFORMATION
#----------   ------------   ------------------------------
 STRT.F           32.0000:   START DEPTH
 STOP.F          501.0000:   STOP DEPTH
 STEP.F            0.5000:   STEP LENGTH
 NULL.          -999.2500:   NO VALUE
 COMP. FENIX & SCISSON, INC., U.S. NAVY:   COMPANY
 WELL.     NPR-3 #82-S-10:   WELL
 FLD .             TEAPOT:   FIELD
 LOC .      S10 T38N R78W:   LOCATION
 CNTY.            NATRONA:   COUNTY
 STAT.            WYOMING:   STATE
 CTRY. UNITED STATES OF AMERICA:   COUNTRY
 SRVC.              Welex:   SERVICE COMPANY
 DATE.        10-MAY-1977:   LOGDATE
 API .       490251035300:   API NUMBER
~CURVE INFORMATION
#MNEM.UNIT       API CODE    CURVE DESCRIPTION
#----------   ------------   ------------------------------
 DEPT.F                  :   
 GURD.OHMM   07 220 05 00:   SHALLOW SHORT GUARD RESISTIVITY
 ILD .OHMM   07 120 46 00:   INDUCTION LOG DEEP
 ILM .OHMM   07 120 44 00:   INDUCTION LOG MEDIUM
 SPR .MV     07 010 01 00:   SPONTANEOUS POTENTIAL
 CALD.IN     45 280 60 00:   CALIPER FROM DENSITY LOG
 CORR.G/C3   45 356 01 00:   DENSITY CORRECTION
 DPHI.DEC    45 890 12 00:   DENSITY POROSITY SANDSTONE
 GRD .GAPI   45 310 01 00:   GAMMA RAY FROM DENSITY LOG
 RHOB.G/C3   45 350 01 00:   BULK DENSITY
~PARAMETER INFORMATION
#MNEM.UNIT          VALUE    DESCRIPTION
#----------   ------------   ------------------------------
 PD  .                 GL:   PERMANENT DATUM
 EPD .F              5134:   ELEVATION PERMANENT DATUM
 LMF .                 GL:   LOG MEASURED FROM
 DMF .                 GL:   DRILLING MEASURED FROM
 EGL .F              5134:   GROUND LEVEL
 DATE.        10-MAY-1977:   RUN DATE
 RUN .                  1:   RUN NUMBER
 DD  .F               505:   DEPTH DRILLER
 DL  .F               504:   DEPTH LOGGER
 BLI .F               502:   BOTTOM LOG INTERVAL
 TLI .F                30:   TOP LOG INTERVAL
 CS  .IN            8.625:   CASING SIZE
 CBD .F                40:   CASING BOTTOM DRILLER
 CBL .F                41:   CASING BOTTOM LOGGER
 BS  .IN            7.875:   BIT SIZE
 BSD .F               505:   BIT SIZE AT DEPTH
 DFT .            KCL MUD:   DRILLING FLUID TYPE
 DFD .                8.7:   DRILLING FLUID DENSITY
 DFV .                 29:   DRILLING FLUID VISCOSITY
 DFPH.                7.5:   DRILLING FLUID PH
 DFL .                6.6:   DRILLING FLUID LOSS
 MSS .           FLOWLINE:   MUD SAMPLE SOURCE
 RMS .OHMM           0.26:   RESISTIVITY MUD SAMPLE
 MST .F                72:   MUD SAMPLE TEMPERATURE
 RMF .OHMM           0.22:   RESISTIVITY MUD FILTRATE SAMPLE
 MFST.F                72:   MUD FILTRATE SAMPLE TEMPERATURE
 RMC .OHMM           0.42:   RESISTIVITY MUD CAKE
 MCST.F                72:   MUD CAKE SAMPLE TEMPERATURE
 MFSS.           FANN KIT:   MUD FILTRATE SAMPLE SOURCE
 MCSS.           FANN KIT:   MUD CAKE SAMPLE SOURCE
 RMB .OHMM           0.24:   RESISTIVITY MUD AT BHT
 BHT .F                78:   BOTTOM HOLE TEMPERATURE
 TCS .HRS               1:   TIME CURCULATED STOPPED
 MRT .F                78:   MAXIMUM RECORDED TEMPERATURE
 LUN .               8611:   LOGGING UNIT NUMBER
 LUL .             CASPER:   LOGGING UNIT LOCATION
 ENGI.            C. DOAK:   RECORDING ENGINEER
 WITN.         D. RHOADES:   WITNESSED BY
 CLNT.            A2DTECH:   CLIENT CODE
 ORIG.           5" PRINT:   ORIGIN OF DATA
 UWI .       490251035300:   UNIQUE WELL ID
 DICO. A2D Technologies, Inc.:   DIGITIZING COMPANY
~OTHER INFORMATION
~A   DEPT     GURD        ILD        ILM         SPR      CALD       CORR       DPHI        GRD       RHOB   
   32.0000  1947.2065  -999.2500  -999.2500    -0.8466  -999.2500  -999.2500  -999.2500  -999.2500  -999.2500
   32.5000  1939.3416  -999.2500  -999.2500    -3.6888  -999.2500  -999.2500  -999.2500  -999.2500  -999.2500
   33.0000  1900.6840  -999.2500  -999.2500    -1.7426  -999.2500  -999.2500  -999.2500  -999.2500  -999.2500
   33.5000   501.0947  -999.2500  -999.2500    -3.9631  -999.2500  -999.2500  -999.2500  -999.2500  -999.2500
   34.0000  1996.5314  -999.2500  -999.2500    -3.3561  -999.2500  -999.2500  -999.2500  -999.2500  -999.2500
   34.5000  1851.2886  -999.2500  -999.2500    -0.5200  -999.2500  -999.2500  -999.2500  -999.2500  -999.2500
   35.0000  1526.5498  -999.2500  -999.2500    -9.8833     7.8244    -0.1002  -999.2500    66.1291  -999.2500
   35.5000   897.1385  -999.2500  -999.2500    -6.4461     7.8554     0.0086  -999.2500    70.7446     2.1258
   36.0000   411.1317     3.8392    16.6200    -6.4187     7.9012     0.0282  -999.2500    72.0919     2.1536
   36.5000  1615.6072     0.9372    95.5419   -10.9167     7.9328     0.0193  -999.2500    70.4800     2.1402
   37.0000   923.5944     0.5660     2.9182   -15.7860     7.9780     0.0209  -999.2500    68.2706     2.1463
   37.5000  1853.1833     0.3688     3.5923    -9.7222     8.0263     0.0285  -999.2500    63.6873     2.1561
   38.0000  1976.8621     0.2647     4.3916    -4.7478     8.0547     0.0362  -999.2500    60.7360     2.1659
   38.5000   219.7838     0.1953     4.8739   -10.6914     8.0112     0.0423     0.2984    62.1053     2.1742
   39.0000   190.1818     0.3395     5.4843    -2.7899     8.1169     0.0469     0.2957    65.3482     2.1765
   39.5000   603.2544     0.5128     5.9617    -6.4984     8.2520     0.0515     0.2989    71.4679     2.1736
   40.0000  1071.0344     0.7482     6.3476   -10.0582     8.3871     0.0532     0.2998    75.4928     2.1684
   40.5000  1188.4185     1.8391     6.6200    -6.7727     8.4478     0.0516     0.3001    81.5920     2.1535
   41.0000   121.6129     3.9365     6.8634    -8.2491     8.4638     0.0441     0.3004    85.6140     2.1237
   41.5000   318.4360     5.3017     7.1576   -10.0231     8.3906     0.0175     0.3004    88.7459     2.0953
   42.0000   526.6645     5.2674     7.3558   -11.3507     8.2727    -0.0184     0.3003    91.7293     2.0677
   42.5000   338.5774     5.0904     7.2588   -12.6783     8.1399    -0.0318     0.3003    94.7128     2.0880
   43.0000   378.3497     5.3451     7.1137   -14.0059     8.0072    -0.0377     0.3000    98.4380     2.1427
   43.5000    54.3154     5.8908     6.9716   -15.4960     8.0530    -0.0406     0.2997   104.8340     2.1794
   44.0000   272.4281     6.5826     6.9264   -16.2321     8.1435    -0.0405     0.2850   112.2685     2.2064
   44.5000    68.7586     6.9119     6.8824   -17.3905     8.2043    -0.0374     0.2727   118.2193     2.2140
   45.0000   110.0659     6.7727     6.8387   -18.2717     8.2202    -0.0432     0.2685   123.5766     2.2246
   45.5000    22.6275     6.2789     6.8908   -18.7064     8.2065    -0.0446     0.2628   127.4503     2.2367
   46.0000    90.0231     6.4207     7.0878   -18.9953     8.1752    -0.0400     0.2481   127.9288     2.2506
   46.5000   131.1371     6.9051     7.3918   -19.2783     8.1050    -0.0322     0.2346   127.0373     2.2705
   47.0000    50.5079     7.4218     7.6558   -19.5642     8.0318    -0.0275     0.2223   125.7181     2.3005
   47.5000   218.5897     7.2230     7.8746   -19.9989     7.9734    -0.0216     0.2166   124.2359     2.3118
   48.0000    99.5168     6.3803     7.9886   -20.4337     7.8853    -0.0200     0.2154   123.3610     2.3171
   48.5000   320.8612     6.0394     7.9930   -21.0172     7.7525    -0.0199     0.2145   123.0958     2.3186
   49.0000    64.0119     5.9172     7.8885   -21.6008     7.6790    -0.0183     0.2136   123.4126     2.3210
   49.5000    19.7852     6.0863     7.7845   -22.1843     7.7251    -0.0197     0.2106   123.4287     2.3270
   50.0000     6.6900     6.3467     7.6289   -22.6190     7.7558    -0.0210     0.2073   122.9997     2.3308
   50.5000     6.5100     6.1335     7.5273   -22.2986     7.7570    -0.0224     0.2060   121.6805     2.3324
   51.0000     6.5139     6.0931     7.5324   -21.9782     7.7580    -0.0268     0.2105   119.1743     2.3243
   51.5000     6.6076     6.2672     7.5888   -21.5394     7.7740    -0.0297     0.2156   115.7780     2.3153
   52.0000     6.7028     6.3995     7.6986   -21.6765     7.7901    -0.0341     0.2224   112.3816     2.3034
   52.5000     6.8955     6.5380     7.8641   -22.8553     7.7911    -0.0371     0.2317   109.4303     2.2885
   53.0000     7.0469     6.5861     8.0888   -23.8853     7.7921    -0.0431     0.2385   106.6274     2.2781
   53.5000     7.2516     6.6617     8.3777   -24.4688     7.8080    -0.0502     0.2298   105.4566     2.2884
   54.0000     7.5014     6.7356     8.6769   -25.4988     7.7790    -0.0516     0.2226   106.5112     2.3000
   54.5000     7.6621     6.8267     8.7440   -25.7876     7.7803    -0.0485     0.2181   108.9012     2.3128
   55.0000     7.8263     6.8769     8.5082   -25.1778     7.8111    -0.0543     0.2169   113.0716     2.3166
   55.5000     7.9941     6.8797     8.5719   -25.1661     7.8270    -0.0602     0.2214   116.0551     2.3100
   56.0000     8.1654     6.7873     8.7065   -25.4520     7.7980    -0.0796     0.2226   119.1968     2.3085
   56.5000     8.1130     6.6968     8.8228   -25.5893     7.7544    -0.0720     0.2145   121.1424     2.3161
   57.0000     8.0055     6.6534     8.7668   -26.0278     7.7111    -0.0689     0.2049   121.9090     2.3252
   57.5000     7.8440     6.6568     8.6512   -26.4732     7.6972    -0.0688     0.1965   122.4993     2.3365
   58.0000     7.6346     6.6788     8.5371   -26.7698     7.6982    -0.0656     0.1976   118.3651     2.3485
   58.5000     7.6384     6.7550     8.4818   -27.1534     7.6844    -0.0610     0.2024   113.4850     2.3411
   59.0000     7.6950     6.7577     8.4875   -27.6369     7.6866    -0.0609     0.2075   112.9036     2.3337
   59.5000     7.7553     6.8575     8.4921   -27.8970     7.7013    -0.0608     0.2131   113.2205     2.3263
   60.0000     7.9256     6.9530     8.6150   -28.3318     7.7026    -0.0636     0.2089   113.9784     2.3256
   60.5000     8.1449     7.0533     8.8002   -28.7665     7.7054    -0.0680     0.2017   115.1814     2.3349
   61.0000     8.3194     7.1544     8.9275   -29.2013     7.7195    -0.0754     0.1981   116.6812     2.3430
   61.5000     8.4977     7.2154     8.9943   -29.4901     7.7205    -0.0738     0.1981   118.1810     2.3483
   62.0000     8.5607     7.3104     8.9992   -29.7731     7.7216    -0.0692     0.1993   119.6808     2.3446
   62.5000     8.5642     7.4152     8.9421   -30.0595     7.7075    -0.0616     0.2008   121.3289     2.3417
   63.0000     8.5688     7.5215     8.9469   -30.2639     7.7087    -0.0554     0.2019   122.0828     2.3403
   63.5000     8.5729     7.5760     8.8901   -30.5308     7.7098    -0.0478     0.2016   120.0258     2.3441
   64.0000     8.6364     7.5269     8.7741   -30.7680     7.7108    -0.0417     0.1959   116.7778     2.3502
   64.5000     8.8215     7.3761     8.7789   -30.8614     7.6969    -0.0323     0.1911   114.5683     2.3585
   65.0000     8.8869     7.3282     8.7836   -31.1979     7.6828    -0.0214     0.1872   114.7329     2.3668
   65.5000     8.9527     7.2807     8.8493   -31.3282     7.6692    -0.0098     0.1830   114.7489     2.3713
   66.0000     9.0816     7.2335     8.9155   -31.4653     7.6703     0.0024     0.1752   112.9416     2.3744
   66.5000     9.1490     7.2365     8.9822   -31.7483     7.6564     0.0130     0.1518   113.3014     2.4156
   67.0000     9.1535     7.2395     9.1122   -31.7748     7.6574     0.0191     0.1311   115.0979     2.4637
   67.5000     9.2222     7.2431     9.2440   -31.8767     7.6436     0.0237     0.1296   117.0428     2.4659
   68.0000     9.3550     7.2455     9.3131   -31.8620     7.6297     0.0239     0.1314   118.8393     2.4608
