~VERSION INFORMATION
 VERS.                2.0:   CWLS LOG ASCII STANDARD - VERSION 2.0
 WRAP.                 NO:   ONE LINE PER DEPTH STEP
~WELL INFORMATION
#MNEM.UNIT      DATA TYPE    INFORMATION
#----------   ------------   ------------------------------
 STRT.F           30.0000:   START DEPTH
 STOP.F         2423.0000:   STOP DEPTH
 STEP.F            0.5000:   STEP LENGTH
 NULL.          -999.2500:   NO VALUE
 COMP. DEPARTMENT OF ENERGY:   COMPANY
 WELL.   NPR-3 #35-1 X 10:   WELL
 FLD .        TEAPOT DOME:   FIELD
 LOC .      S10 T38N R78W:   LOCATION
 CNTY.            NATRONA:   COUNTY
 STAT.            WYOMING:   STATE
 CTRY. UNITED STATES OF AMERICA:   COUNTRY
 SRVC.       Schlumberger:   SERVICE COMPANY
 DATE.        15-JAN-1999:   LOGDATE
 API .       490252282200:   API NUMBER
~CURVE INFORMATION
#MNEM.UNIT       API CODE    CURVE DESCRIPTION
#----------   ------------   ------------------------------
 DEPT.F                  :   
 GRR .GAPI   06 310 01 00:   GAMMA RAY FROM RESISTIVITY
 SPR .MV     06 010 01 00:   SPONTANEOUS POTENTIAL FROM RES.
 HD  .IN     06 280 01 00:   HOLE DIAMETER
 AT90.OHMM   06 120 90 00:   90-IN. RESISTIVITY, 2-FT RESOLUTION
 AT30.OHMM   06 120 30 00:   30-IN. RESISTIVITY, 2-FT RESOLUTION
 AT10.OHMM   06 120 10 00:   10-IN. RESISTIVITY, 2-FT RESOLUTION
~PARAMETER INFORMATION
#MNEM.UNIT          VALUE    DESCRIPTION
#----------   ------------   ------------------------------
 PD  .                 GL:   PERMANENT DATUM
 EPD .F              5228:   ELEVATION PERMANENT DATUM
 LMF .                 KB:   LOG MEASURED FROM
 DAPD.F                10:   FEET ABOVE PERMANENT DATUM
 DMF .                 KB:   DRILLING MEASURED FROM
 EKB .F              5238:   KELLING BUSHING
 EDF .F              5237:   DRILLING FLOOR
 EGL .F              5228:   GROUND LEVEL
 DATE.        15-JAN-1999:   RUN DATE
 RUN .                  1:   RUN NUMBER
 DD  .F              2400:   DEPTH DRILLER
 DL  .F              2421:   DEPTH LOGGER
 BLI .F              2393:   BOTTOM LOG INTERVAL
 TLI .F                30:   TOP LOG INTERVAL
 CS  .IN            9.625:   CASING SIZE
 CBD .F               778:   CASING BOTTOM DRILLER
 CBL .F               773:   CASING BOTTOM LOGGER
 BS  .IN              8.5:   BIT SIZE
 BSD .F              2400:   BIT SIZE AT DEPTH
 DFT .            GEL/KCL:   DRILLING FLUID TYPE
 DFD .                8.9:   DRILLING FLUID DENSITY
 DFV .                 39:   DRILLING FLUID VISCOSITY
 DFPH.                  9:   DRILLING FLUID PH
 DFL .                8.8:   DRILLING FLUID LOSS
 MSS .            MUD PIT:   MUD SAMPLE SOURCE
 RMS .OHMM            .29:   RESISTIVITY MUD SAMPLE
 MST .F                65:   MUD SAMPLE TEMPERATURE
 RMF .OHMM            .22:   RESISTIVITY MUD FILTRATE SAMPLE
 MFST.F                65:   MUD FILTRATE SAMPLE TEMPERATURE
 RMC .OHMM            .43:   RESISTIVITY MUD CAKE
 MCST.F                65:   MUD CAKE SAMPLE TEMPERATURE
 MFSS.          MUD PRESS:   MUD FILTRATE SAMPLE SOURCE
 MCSS.         CALCULATED:   MUD CAKE SAMPLE SOURCE
 RMB .OHMM           .195:   RESISTIVITY MUD AT BHT
 BHT .F               100:   BOTTOM HOLE TEMPERATURE
 TCS .HRS            2015:   TIME CURCULATED STOPPED
 TLAB.HRS            2315:   TIME LOGGER AT BOTTOM
 MRT .F               100:   MAXIMUM RECORDED TEMPERATURE
 LUN .               2102:   LOGGING UNIT NUMBER
 LUL .             CASPER:   LOGGING UNIT LOCATION
 ENGI.    TISOVEC/PIERSON:   RECORDING ENGINEER
 WITN.           ESMERSON:   WITNESSED BY
 CLNT.            A2DTECH:   CLIENT CODE
 ORIG.       2", 5" PRINT:   ORIGIN OF DATA
 UWI .       490252282200:   UNIQUE WELL ID
 DICO. A2D Technologies, Inc.:   DIGITIZING COMPANY
~OTHER INFORMATION
~A   DEPT       GRR       SPR         HD       AT90       AT30       AT10   
# ...
 2266.0000   129.3308    -6.7741     8.4131    10.7878    10.1552     9.1762
 2266.5000   133.6409    -6.7670     8.4181     9.3423     7.3449     7.8497
 2267.0000   136.4126    -6.7719     8.4239     7.9607     7.4133     6.4504
 2267.5000   135.7568    -6.7577     8.4284     7.4302     6.8481     6.4504
 2268.0000   132.0085    -6.5836     8.4414     6.3930     5.7710     5.6620
 2268.5000   129.1922    -6.3633     8.4893     5.9891     5.7710     4.6009
 2269.0000   127.9836    -6.1473     8.5707     5.5608     5.2112     3.3699
 2269.5000   126.6961    -5.9244     8.9379     5.6543     5.2635     4.8079
 2270.0000   123.9192    -5.6936     9.3535     5.6417     5.3088     4.5627
 2270.5000   123.1932    -5.4107     9.4560     5.0113     3.3356     1.9623
 2271.0000   124.1335    -5.5694     9.1911     4.4038     2.4813     1.0324
 2271.5000   126.5549    -5.7852     8.5601     5.3732     4.1442     2.0246
 2272.0000   128.8274    -5.9688     8.4587     9.1891     6.7191     5.7044
 2272.5000   129.5864    -6.2570     8.4774     9.9167     9.0914     8.5066
 2273.0000   130.4439    -6.4589     8.4673     8.2918     7.4459     7.7494
 2273.5000   131.2762    -6.5352     8.4675     6.3552     5.3573     4.1980
 2274.0000   132.6185    -6.6322     8.4635     4.6319     3.3080     1.5970
 2274.5000   133.4738    -6.7280     8.4616     4.2493     4.0289     2.2075
 2275.0000   134.0273    -6.7740     8.4597     4.8836     7.9843     4.7712
 2275.5000   133.2511    -6.7636     8.4581     4.8042     6.1991     4.7234
 2276.0000   131.6599    -6.5495     8.4559     4.6220     3.6633     2.0348
 2276.5000   130.8234    -6.1671     8.4537     4.4925     4.5073     2.0653
 2277.0000   130.1907    -5.7075     8.4592     4.5085     5.8791     4.2481
 2277.5000   131.2932    -5.2383     8.5196     4.4675     5.3088     3.1061
 2278.0000   133.0682    -4.7819     8.6120     4.1652     4.2719     1.8961
 2278.5000   135.0432    -4.8064     8.6531     4.0340     3.9090     3.2172
 2279.0000   136.6134    -4.9970     8.5918     5.0165     4.5307     2.5991
 2279.5000   136.3908    -5.3604     8.5166     7.6604     6.5712     4.3692
 2280.0000   134.3478    -5.7484     8.4666     6.0402     5.6109     5.0682
 2280.5000   131.7859    -6.0079     8.4319     4.8812     3.3388     2.7735
 2281.0000   128.4344    -6.0712     8.8174     5.7432     4.2305     2.8850
 2281.5000   124.5691    -6.1763     9.4713     7.4133     5.7177     2.2286
 2282.0000   118.1599    -6.2614    10.0402     4.0862     2.3254     0.8061
 2282.5000   110.8012    -6.3744     9.5922     3.1875     2.3689     0.8372
 2283.0000   111.8549    -6.6986     8.6717     6.4738     5.3802     2.7117
 2283.5000   116.6946    -7.0670     8.3500    26.9111    11.9422     9.7208
 2284.0000   126.6746    -7.4499     8.3676    22.7866    20.1864     8.3777
 2284.5000   132.2664    -7.5566     8.3491    14.0022    11.7110     7.3665
 2285.0000   133.0141    -7.4626     8.3557     7.9843     8.1338     6.3242
 2285.5000   132.3288    -7.4129     8.3504     6.7447     6.1937     5.2316
 2286.0000   132.4627    -7.3168     8.3526     5.8791     4.8836     4.4007
 2286.5000   132.5025    -7.1999     8.3521     5.9338     4.8836     4.5101
 2287.0000   129.6052    -7.1022     8.3535     5.8131     4.8836     3.8840
 2287.5000   124.3221    -6.9050     8.3535     5.7710     6.8832     4.5662
 2288.0000   120.3197    -6.2096     8.3535     8.6795     6.2114     5.2305
 2288.5000   118.1881    -5.9469     8.3535     5.9435     4.3056     2.7225
 2289.0000   114.5766    -5.8032     8.3535     4.4510     2.9481     1.4761
 2289.5000   115.2633    -6.0598     8.3535     4.5766     4.4717     2.9121
 2290.0000   122.7521    -6.3154     8.3535    13.9293    12.6243    10.6442
 2290.5000   130.0055    -6.5623     8.3535    13.0100    11.4068     9.7986
 2291.0000   136.6032    -6.8373     8.3535    10.2794     8.9571     8.2517
 2291.5000   141.0109    -6.9738     8.3535     9.6117     7.7380     6.9490
 2292.0000   141.2769    -6.8159     8.3535     7.3919     6.2884     5.8791
 2292.5000   138.6896    -6.7717     8.3535     5.9154     5.1074     4.8419
 2293.0000   132.2235    -6.7656     8.3535     4.7338     4.2405     3.7364
 2293.5000   126.8667    -6.7583     8.3535     4.4510     4.1466     2.9835
 2294.0000   124.4457    -6.3109     8.3536     4.5766     4.4099     4.4421
 2294.5000   125.6180    -5.7852     8.3543     5.7177     4.8366     4.2821
 2295.0000   127.0450    -5.5530     8.3550     4.2257     3.4272     2.6928
 2295.5000   128.9705    -5.3248     8.3557     3.4330     2.7542     1.4770
 2296.0000   127.2844    -5.4567     8.3563     3.5299     2.8654     1.9843
 2296.5000   120.3876    -5.7370     8.3570     7.8680     5.5680     4.4097
 2297.0000   117.6151    -5.9967     8.3577    11.5767    10.7891     9.7013
 2297.5000   116.5211    -6.3074     8.3583    10.4279     9.1565     8.9268
 2298.0000   115.4786    -6.1231     8.3590     7.4408     6.5286     6.1388
 2298.5000   114.8433    -5.6424     8.3596     5.1195     4.6605     3.7994
 2299.0000   115.4834    -5.2637     8.3603     3.5297     3.3225     2.3689
 2299.5000   117.9985    -4.8145     8.3610     2.6268     2.4034     2.3034
 2300.0000   123.9173    -4.4328     8.3617     2.7261     2.4848     2.1590
 2300.5000   123.0034    -4.0289     8.3623     3.0278     2.9640     2.2239
 2301.0000   119.1238    -3.7666     8.3630     2.9546     2.9408     2.3772
 2301.5000   119.8689    -3.7280     8.3636     7.2306     6.2145     5.9657
 2302.0000   122.4438    -3.7318     8.3643     6.7906     4.7411     3.6501
 2302.5000   121.4923    -3.7770     8.3650     3.8886     3.6232     2.0254
 2303.0000   118.0498    -3.8760     8.3656     4.0837     3.7608     2.0087
 2303.5000   116.0327    -3.9626     8.3663     3.2038     3.0351     1.9872
 2304.0000   116.1106    -4.0484     8.3670     2.6959     2.5968     1.9596
 2304.5000   116.2718    -4.1750     8.3676     2.3910     2.2615     2.0721
 2305.0000   116.6729    -4.6504     8.3683     4.6884     3.1243     2.5498
 2305.5000   117.8529    -5.1475     8.3689     6.8196     5.9338     4.9751
 2306.0000   121.0372    -5.6395     8.3696     3.9822     3.3388     2.5991
 2306.5000   127.4485    -6.1365     8.3703     5.1151     4.2116     4.3407
 2307.0000   134.7041    -6.5852     8.3709     7.0120     6.3319     6.1581
 2307.5000   138.2815    -7.0005     8.3716     5.9449     5.2267     5.5095
 2308.0000   135.2262    -7.3882     8.3723     4.3997     4.2101     2.7479
 2308.5000   129.9670    -7.7457     8.3729     5.4430     5.0723     3.7775
 2309.0000   125.1225    -7.7262     8.3737     9.0764     6.1652     5.7710
 2309.5000   123.1393    -7.6610     8.3738     8.2670     6.1016     5.7710
 2310.0000   124.6904    -7.5993     8.3737     7.0103     6.1623     5.7710
 2310.5000   129.4647    -7.5748     8.3737     6.3703     5.8992     5.7177
 2311.0000   135.3230    -7.5771     8.3737     5.1829     5.3424     5.0092
 2311.5000   141.3160    -7.5752     8.3737     5.2776     5.0184     4.1327
 2312.0000   142.8794    -7.5790     8.3737     5.9338     5.3843     5.0096
 2312.5000   140.5604    -7.6389     8.3737     5.9660     5.7145     5.3229
 2313.0000   135.5364    -7.7135     8.3737     5.9891     5.9940     5.7069
 2313.5000   131.7793    -7.7873     8.3737     7.1595     6.7860     6.4535
 2314.0000   129.0444    -7.8588     8.3737     8.2096     7.6857     7.3046
 2314.5000   125.8657    -7.9370     8.3737     8.0587     8.0095     7.7466
 2315.0000   126.5149    -7.9914     8.3737     8.7752     7.9574     7.9803
 2315.5000   128.2147    -8.0423     8.3737    10.1873    10.4096     8.4040
 2316.0000   135.1069    -8.1088     8.3737    11.4641    10.3521     8.7603
 2316.5000   140.1877    -8.1494     8.3737    10.2299     9.6408     8.4573
 2317.0000   140.4952    -8.2924     8.3737     9.3480     9.0075     8.0998
 2317.5000   134.4717    -8.4979     8.3737     9.3890     9.0273     7.9106
