~VERSION INFORMATION
 VERS.                2.0:   CWLS LOG ASCII STANDARD - VERSION 2.0
 WRAP.                 NO:   ONE LINE PER DEPTH STEP
~WELL INFORMATION
#MNEM.UNIT      DATA TYPE    INFORMATION
#----------   ------------   ------------------------------
 STRT.F           95.0000:   START DEPTH
 STOP.F          914.0000:   STOP DEPTH
 STEP.F            0.5000:   STEP LENGTH
 NULL.          -999.2500:   NO VALUE
 COMP. LAWRENCE/ALLISON INC:   COMPANY
 WELL. NPR ##3 31-61 SX 2:   WELL
 FLD .             TEAPOT:   FIELD
 LOC .       S2 T38N R78W:   LOCATION
 CNTY.            NATRONA:   COUNTY
 STAT.            WYOMING:   STATE
 CTRY. UNITED STATES OF AMERICA:   COUNTRY
 SRVC.      Dresser Atlas:   SERVICE COMPANY
 DATE.        30-JAN-1986:   LOGDATE
 API .       490251106800:   API NUMBER
~CURVE INFORMATION
#MNEM.UNIT       API CODE    CURVE DESCRIPTION
#----------   ------------   ------------------------------
 DEPT.F                  :   
 RILD.OHMM   07 120 46 00:   INDUCTION LOG DEEP RESISTIVITY
 RILM.OHMM   07 120 44 00:   INDUCTION LOG MEDIUM RESISTIVITY
 CALD.IN     45 280 60 00:   CALIPER FROM DENSITY
 GRD .GAPI   45 310 01 00:   GAMMA RAY FROM DENSITY LOG
 CORR.G/C3   45 356 01 00:   DENSITY CORRECTION
 PORD.DEC    45 890 10 00:   POROSITY DENSITY LIMESTONE
 DEN .G/C3   45 350 01 00:   COMPENSATED BULK DENSITY
~PARAMETER INFORMATION
#MNEM.UNIT          VALUE    DESCRIPTION
#----------   ------------   ------------------------------
 PD  .                 GL:   PERMANENT DATUM
 EPD .F              5126:   ELEVATION PERMANENT DATUM
 LMF .                 GL:   LOG MEASURED FROM
 DMF .                 GL:   DRILLING MEASURED FROM
 EGL .F              5126:   GROUND LEVEL
 DATE.        30-JAN-1986:   RUN DATE
 RUN .                  1:   RUN NUMBER
 DD  .F               925:   DEPTH DRILLER
 DL  .F               918:   DEPTH LOGGER
 BLI .F               910:   BOTTOM LOG INTERVAL
 CS  .IN            8.625:   CASING SIZE
 CBD .F               127:   CASING BOTTOM DRILLER
 CBL .F               127:   CASING BOTTOM LOGGER
 BS  .IN             6.25:   BIT SIZE
 BSD .F               925:   BIT SIZE AT DEPTH
 DFT .                AIR:   DRILLING FLUID TYPE
 LUN .            HL-6264:   LOGGING UNIT NUMBER
 LUL .           GILLETTE:   LOGGING UNIT LOCATION
 ENGI.     P. M. FAHLSING:   RECORDING ENGINEER
 WITN.        LINOA FIVAS:   WITNESSED BY
 CLNT.            A2DTECH:   CLIENT CODE
 ORIG.           5" PRINT:   ORIGIN OF DATA
 UWI .       490251106800:   UNIQUE WELL ID
 DICO. A2D Technologies, Inc.:   DIGITIZING COMPANY
~OTHER INFORMATION
~A   DEPT     RILD       RILM       CALD         GRD      CORR       PORD        DEN   
# ...
  595.5000     7.6782     7.6783     6.6842   129.1987     0.1173     0.1279     2.4634
  596.0000     7.6226     7.6230     6.6842   127.9993     0.0992     0.1309     2.4596
  596.5000     7.6735     7.6209     6.6992   129.5249     0.0835     0.1327     2.4581
  597.0000     7.6714     7.6184     6.6992   129.8391     0.0750     0.1324     2.4588
  597.5000     7.6693     7.5637     6.6842   130.1503     0.0851     0.1303     2.4618
  598.0000     7.6672     7.5616     6.6842   129.5611     0.1157     0.1291     2.4625
  598.5000     7.6650     7.5595     6.6692   128.3647     0.1168     0.1294     2.4632
  599.0000     7.6629     7.5574     6.6692   125.3556     0.1061     0.1276     2.4662
  599.5000     7.6079     7.5554     6.6692   120.8359     0.1016     0.1244     2.4714
  600.0000     7.6061     7.4957     6.6684   119.9386     0.1180     0.1220     2.4759
  600.5000     7.5508     7.4473     6.6591   120.5513     0.1466     0.1208     2.4744
  601.0000     7.4961     7.3938     6.6547   122.9742     0.1495     0.1208     2.4743
  601.5000     7.3393     7.3407     6.6550   124.1887     0.1344     0.1232     2.4736
  602.0000     7.1858     7.1380     6.6553   121.1735     0.1133     0.1259     2.4698
  602.5000     6.9387     6.8930     6.6556   120.2702     0.0952     0.1226     2.4705
  603.0000     6.6538     6.5648     6.6560   124.2067     0.0921     0.1220     2.4742
  603.5000     6.4696     6.2090     6.6563   127.2338     0.0800     0.1250     2.4719
  604.0000     6.2906     5.8725     6.6566   129.6567     0.0694     0.1297     2.4629
  604.5000     6.1165     5.6318     6.6569   131.7775     0.0740     0.1300     2.4598
  605.0000     5.9885     5.4763     6.6572   132.9920     0.0953     0.1297     2.4605
  605.5000     5.9041     5.5898     6.6575   134.2065     0.1239     0.1297     2.4605
  606.0000     5.9020     5.7453     6.6728   133.6082     0.1373     0.1349     2.4582
  606.5000     5.9410     5.9052     6.6731   131.8015     0.1413     0.1364     2.4529
  607.0000     6.0219     6.0280     6.6734   130.8997     0.1187     0.1337     2.4574
  607.5000     6.1890     6.1525     6.6887   131.8135     0.1096     0.1274     2.4642
  608.0000     6.4050     6.2805     6.6890   130.6111     0.1201     0.1238     2.4710
  608.5000     6.6285     6.4548     6.7044   131.5234     0.1305     0.1211     2.4740
  609.0000     6.7188     6.5886     6.7047   132.7379     0.1350     0.1200     2.4754
  609.5000     6.8102     6.7256     6.7200   133.3481     0.1207     0.1224     2.4723
  610.0000     6.9029     6.8645     6.7203   130.3329     0.1033     0.1242     2.4730
  610.5000     6.9968     6.8626     6.7056   126.1093     0.1017     0.1210     2.4775
  611.0000     7.0430     6.9085     6.6908   125.5096     0.0987     0.1183     2.4798
  611.5000     7.0405     6.9065     6.6911   126.4234     0.0926     0.1186     2.4775
  612.0000     7.0381     6.9046     6.6914   128.8463     0.0835     0.1210     2.4752
  612.5000     6.9871     6.8077     6.6917   129.7572     0.0940     0.1208     2.4751
  613.0000     6.9358     6.6198     6.6921   128.5547     0.1105     0.1205     2.4766
  613.5000     6.7913     6.4818     6.6924   131.5849     0.1239     0.1187     2.4789
  614.0000     6.6918     6.3466     6.6776   133.0999     0.1690     0.1136     2.4879
  614.5000     6.5078     6.2576     6.6779   128.5757     0.1735     0.1109     2.4961
  615.0000     6.3300     6.1697     6.6782   126.7690     0.1508     0.1179     2.4870
  615.5000     6.1514     5.9994     6.6785   127.6814     0.1147     0.1242     2.4750
  616.0000     5.8501     5.7534     6.6788   129.1979     0.1041     0.1246     2.4689
  616.5000     5.4590     5.2929     6.6791   129.2039     0.1161     0.1243     2.4689
  617.0000     5.1977     4.7360     6.6794   127.0951     0.1130     0.1234     2.4696
  617.5000     4.9148     4.3569     6.6797   125.8912     0.0994     0.1257     2.4666
  618.0000     4.6843     4.0081     6.6800   127.4092     0.0978     0.1344     2.4552
  618.5000     4.5592     4.0349     6.6803   127.7143     0.1158     0.1518     2.4324
  619.0000     4.5577     4.3232     6.6806   123.7959     0.1368     0.1684     2.4086
  619.5000     4.6578     4.6644     6.6809   123.1946     0.1386     0.1755     2.3888
  620.0000     4.8810     4.9289     6.6812   125.3184     0.1096     0.1613     2.4024
  620.5000     5.1575     5.2465     6.6815   124.4166     0.0990     0.1469     2.4310
  621.0000     5.4875     5.5833     6.6818   124.7262     0.1261     0.1321     2.4490
  621.5000     5.8793     5.8585     6.6821   127.1491     0.1470     0.1270     2.4603
  622.0000     6.1694     6.1487     6.6824   129.5720     0.1408     0.1261     2.4655
  622.5000     6.4738     6.4125     6.6812   125.9526     0.1394     0.1174     2.4715
  623.0000     6.6535     6.6337     6.6680   125.3529     0.1471     0.1020     2.4873
  623.5000     6.7446     6.7719     6.6683   128.0794     0.1513     0.0909     2.5106
  624.0000     6.8833     6.9067     6.6686   131.4087     0.1392     0.1003     2.5242
  624.5000     6.9294     6.9529     6.6689   133.5295     0.1256     0.1105     2.5000
  625.0000     7.0237     6.9993     6.6692   133.5355     0.1090     0.1178     2.4872
  625.5000     7.1193     7.0460     6.6695   132.6351     0.0984     0.1224     2.4744
  626.0000     7.2657     7.1419     6.6698   132.6411     0.1149     0.1203     2.4713
  626.5000     7.3652     7.1901     6.6701   134.4598     0.1344     0.1176     2.4773
  627.0000     7.4654     7.2381     6.6704   135.6743     0.1359     0.1194     2.4818
  627.5000     7.5670     7.3371     6.6707   134.4718     0.1283     0.1258     2.4720
  628.0000     7.6170     7.4369     6.6710   130.5503     0.1207     0.1279     2.4622
  628.5000     7.6137     7.4865     6.6713   126.6288     0.1026     0.1141     2.4757
  629.0000     7.6111     7.5371     6.6716   127.2391     0.0830     0.0972     2.4999
  629.5000     7.6084     7.5345     6.6719   128.7556     0.0784     0.0876     2.5183
  630.0000     7.6058     7.5853     6.6722   130.8779     0.0919     0.0915     2.5328
  630.5000     7.6032     7.6359     6.6725   131.1830     0.0978     0.0979     2.5184
  631.0000     7.6006     7.6333     6.6728   126.6603     0.0827     0.1058     2.4989
  631.5000     7.5979     7.6312     6.6731   123.3431     0.0764     0.1154     2.4891
  632.0000     7.5953     7.5764     6.6734   122.4397     0.0871     0.1215     2.4785
  632.5000     7.5927     7.5220     6.6737   123.9593     0.1141     0.1200     2.4770
  633.0000     7.5901     7.4680     6.6740   128.4970     0.1351     0.1146     2.4860
  633.5000     7.5874     7.4143     6.6743   131.5241     0.1456     0.1080     2.4950
  634.0000     7.5848     7.3103     6.6746   131.5302     0.1500     0.1035     2.5025
  634.5000     7.5822     7.2077     6.6749   131.2310     0.1240     0.1059     2.5055
  635.0000     7.5796     7.1065     6.6752   134.2612     0.1029     0.1047     2.5009
  635.5000     7.5770     7.0067     6.6755   136.9862     0.0987     0.1039     2.5039
  636.0000     7.5220     6.9564     6.6758   135.4816     0.1062     0.1066     2.4986
  636.5000     7.3647     6.8588     6.6761   131.2580     0.1197     0.1100     2.4955
  637.0000     7.1114     6.7625     6.6764   130.3562     0.1407     0.1073     2.4970
  637.5000     6.7723     6.4405     6.6767   131.5721     0.1541     0.1052     2.5008
  638.0000     6.4049     6.0914     6.6770   133.3908     0.1435     0.1067     2.4985
  638.5000     5.9740     5.8417     6.6773   133.9995     0.1360     0.1071     2.4969
  639.0000     5.4954     5.5251     6.6776   132.1944     0.1329     0.1074     2.4984
  639.5000     5.0551     5.1182     6.6779   131.8967     0.1313     0.1089     2.4953
  640.0000     4.3387     4.5797     6.6782   133.7169     0.1268     0.1159     2.4823
  640.5000     3.8286     3.9583     6.6785   134.6293     0.1252     0.1256     2.4748
