~VERSION INFORMATION
 VERS.                2.0:   CWLS LOG ASCII STANDARD - VERSION 2.0
 WRAP.                 NO:   ONE LINE PER DEPTH STEP
~WELL INFORMATION
#MNEM.UNIT      DATA TYPE    INFORMATION
#----------   ------------   ------------------------------
 STRT.F            8.0000:   START DEPTH
 STOP.F          614.0000:   STOP DEPTH
 STEP.F            0.5000:   STEP LENGTH
 NULL.          -999.2500:   NO VALUE
 COMP. FENIX & SCISSON INC:   COMPANY
 WELL.       SX 10 #34-10:   WELL
 FLD .             TEAPOT:   FIELD
 LOC .      S10 T38N R78W:   LOCATION
 CNTY.            NATRONA:   COUNTY
 STAT.            WYOMING:   STATE
 CTRY. UNITED STATES OF AMERICA:   COUNTRY
 SRVC.            Unknown:   SERVICE COMPANY
 DATE.        29-JUN-1992:   LOGDATE
 API .       490251065800:   API NUMBER
~CURVE INFORMATION
#MNEM.UNIT       API CODE    CURVE DESCRIPTION
#----------   ------------   ------------------------------
 DEPT.F                  :   
 SPR .MV     05 010 01 00:   SPONTANEOUS POTENTIAL
 ILD .OHMM   05 120 46 00:   INDUCTION LOG DEEP
 SN  .OHMM   05 040 16 00:   SHORT NORMAL 16"
 GR  .GAPI   30 310 01 00:   GAMMA RAY
~PARAMETER INFORMATION
#MNEM.UNIT          VALUE    DESCRIPTION
#----------   ------------   ------------------------------
 PD  .                 GL:   PERMANENT DATUM
 EPD .F              5244:   ELEVATION PERMANENT DATUM
 LMF .                 KB:   LOG MEASURED FROM
 DMF .                 KB:   DRILLING MEASURED FROM
 EKB .F              5246:   KELLING BUSHING
 EGL .F              5244:   GROUND LEVEL
 DATE.        29-JUN-1992:   RUN DATE
 RUN .                  1:   RUN NUMBER
 DD  .F               620:   DEPTH DRILLER
 DL  .F               381:   DEPTH LOGGER
 BLI .F               381:   BOTTOM LOG INTERVAL
 TLI .F                 8:   TOP LOG INTERVAL
 BS  .IN            7.875:   BIT SIZE
 BSD .F               620:   BIT SIZE AT DEPTH
 DFT .                KCL:   DRILLING FLUID TYPE
 LUN .                509:   LOGGING UNIT NUMBER
 LUL .           GILLETTE:   LOGGING UNIT LOCATION
 ENGI.          O. METORF:   RECORDING ENGINEER
 WITN.         JEFF CLARK:   WITNESSED BY
 CLNT.            A2DTECH:   CLIENT CODE
 ORIG.           5" PRINT:   ORIGIN OF DATA
 UWI .       490251065800:   UNIQUE WELL ID
 DICO. A2D Technologies, Inc.:   DIGITIZING COMPANY
~OTHER INFORMATION
~A    DEPT     SPR        ILD         SN          GR  
# ...
   81.0000   -62.6687     5.5327     6.8364   105.8892
   81.5000   -62.6687     5.4928     6.8347   104.3796
   82.0000   -62.6687     5.4913     6.8807   101.0730
   82.5000   -62.5187     5.4521     6.8793   103.4635
   83.0000   -62.5616     5.4506     6.8312   101.0543
   83.5000   -62.6151     5.4116     6.8292    98.3474
   84.0000   -62.6687     5.4480     6.8278    96.1680
   84.5000   -62.5187     5.4840     6.8741    98.3287
   85.0000   -62.3688     5.5977     6.9204    99.2220
   85.5000   -62.2189     5.7526     7.0635    97.4105
   86.0000   -62.0690     5.8307     7.5148    98.0019
   86.5000   -62.2189     5.8704     7.6707    99.1930
   87.0000   -62.2189     5.9091     7.7762   100.0843
   87.5000   -62.0690     5.9893     7.7743    92.8775
   88.0000   -62.0690     6.0710     7.6133    90.4725
   88.5000   -62.0690     6.0694     7.4043    97.0568
   89.0000   -62.0690     5.9845     7.3518    98.8476
   89.5000   -62.0690     5.8198     7.2997   100.3385
   90.0000   -62.0690     5.5816     7.1481   100.9300
   90.5000   -61.9190     5.5035     7.1467    98.8206
   91.0000   -61.4693     5.4265     7.1453    94.6144
   91.5000   -61.3193     5.3877     7.1438    94.0044
   92.0000   -61.3193     5.3863     7.0444    93.3964
   92.5000   -61.1694     5.3478     6.9945    90.3896
   93.0000   -61.1694     5.3095     6.9449    89.1819
   93.5000   -61.0195     5.2350     6.9435    91.2705
   94.0000   -61.0195     5.2336     6.9418    94.8604
   94.5000   -61.0195     5.2688     6.9404    97.8485
   95.0000   -61.0289     5.3774     6.9390    96.3410
   95.5000   -61.0757     5.4507     6.9376    99.0314
   96.0000   -61.1226     5.6799     6.9362    99.6228
   96.5000   -61.1694     6.0427     7.0800    99.0148
   97.0000   -61.2162     6.2531     7.2770    99.9040
   97.5000   -61.2631     6.3823     7.5835   100.4954
   98.0000   -61.3193     6.5142     7.7944   100.4850
   98.5000   -61.3193     6.6031     7.8473   104.9745
   99.0000   -61.1694     6.6937     7.8449   107.6628
   99.5000   -61.0195     6.6453     7.8985   109.1537
  100.0000   -61.0195     6.5346     7.8965   106.1469
  100.5000   -60.8349     6.3729     7.8957   103.7357
  101.0000   -60.7250     6.0712     7.7868   100.0556
  101.5000   -60.7293     5.9049     7.6794    96.5136
  102.0000   -60.5823     5.7828     7.4696    96.8020
  102.5000   -60.4345     5.6634     7.3159    97.6929
  103.0000   -60.2875     5.5850     7.1653    97.0789
  103.5000   -60.1405     5.5076     7.0665    97.3673
  104.0000   -60.1731     5.4689     6.9689   101.2510
  104.5000   -60.2003     5.4682     6.9685   102.4419
  105.0000   -60.2275     5.4675     6.9680   102.7303
  105.5000   -60.2546     5.5044     6.9676   102.7160
  106.0000   -60.2818     5.5805     7.0154   109.0013
  106.5000   -60.3090     5.7359     7.0636   107.2854
  107.0000   -60.0128     5.8959     7.0631   103.5811
  107.5000   -59.8643     5.9361     7.1608   106.5682
  108.0000   -59.7173     5.9765     7.2599    99.0605
  108.5000   -59.7217     5.9755     7.3605   100.9074
  109.0000   -59.7246     6.0163     7.5662   109.5295
  109.5000   -59.5768     6.0151     7.6711   104.1179
  110.0000   -59.5805     6.0562     7.6705   102.6100
  110.5000   -59.5841     6.0552     7.7233   108.5927
  111.0000   -59.5870     6.0544     7.7225   108.5813
  111.5000   -59.5899     6.0536     7.7220   108.4923
  112.0000   -59.5928     6.0950     7.7215    98.9603
  112.5000   -59.5957     6.0937     7.7210    98.6519
  113.0000   -59.4487     6.0929     7.7205   101.3362
  113.5000   -59.4516     6.0921     7.7199   102.8240
  114.0000   -59.3038     6.0913     7.7193   103.4164
  114.5000   -59.4581     6.0486     7.6656    99.7997
  115.0000   -59.6109     6.0477     7.5079    99.1886
  115.5000   -59.6138     6.0053     7.4557    99.4770
  116.0000   -59.7667     5.9630     7.4038    99.4655
  116.5000   -59.7696     5.9211     7.3524    99.1542
  117.0000   -59.7725     5.8795     7.3519    98.5048
  117.5000   -59.6247     5.8788     7.3513    93.7340
  118.0000   -59.6291     5.8780     7.3002    94.9220
  118.5000   -59.6312     5.7965     7.2997    92.8116
  119.0000   -59.6341     5.7559     7.2992    98.4944
  119.5000   -59.6370     5.7549     7.1985   103.5804
  120.0000   -59.4910     5.7541     7.1981    99.0684
  120.5000   -59.1926     5.7534     7.1976    98.4572
  121.0000   -59.1969     5.7925     7.2471    98.1488
  121.5000   -59.0499     5.8723     7.2969   101.1358
  122.0000   -59.0528     5.8715     7.2962   101.4214
  122.5000   -59.0557     5.8707     7.2957   100.8102
  123.0000   -58.9087     5.8697     7.2952   102.5950
  123.5000   -58.7609     5.8690     7.3453   104.0828
  124.0000   -58.6139     5.8682     7.3448   104.6739
  124.5000   -58.6183     5.8674     7.3442   104.3597
  125.0000   -58.6212     5.8666     7.3948   102.2494
  125.5000   -58.4734     5.8658     7.4456   113.3295
  126.0000   -58.3271     5.8650     7.4449   107.0212
  126.5000   -57.8795     5.9051     7.4444   103.7114
  127.0000   -57.8839     5.9863     7.4956   101.3011
  127.5000   -58.0367     6.0272     7.6520   104.7274
  128.0000   -58.0389     6.0262     7.7579   108.1719
  128.5000   -58.0418     6.0672     7.8112   111.4588
  129.0000   -57.8948     6.0662     7.8648   111.1475
  129.5000   -57.8980     6.0653     7.8643   107.2380
  130.0000   -57.9013     6.1066     7.9183   108.1261
  130.5000   -57.7543     6.1058     7.9177   101.5151
  131.0000   -57.7572     6.1899     7.9171    98.5052
  131.5000   -57.7603     6.2320     7.9715   100.5927
  132.0000   -57.7633     6.3617     8.0713   105.9785
  132.5000   -57.7664     6.4270     8.3078   108.3709
  133.0000   -57.7694     6.5381     8.3648   110.4505
  133.5000   -57.7722     6.5824     8.3642   113.7403
  134.0000   -57.6251     6.6731     8.3637   105.6329
  134.5000   -57.6280     6.7651     8.3631   108.0173
  135.0000   -57.6309     6.7642     8.3624   109.8553
  135.5000   -57.5592     6.7633     8.3043   100.7035
  136.0000   -57.4875     6.7624     8.3613   103.1825
  136.5000   -57.4905     6.8082     8.3608   109.7678
  137.0000   -57.3434     6.9019     8.4182   115.4535
  137.5000   -57.1964     6.9488     8.4176   116.4165
  138.0000   -57.0494     6.9479     8.4753   112.9677
  138.5000   -57.0523     6.9952     8.5335   108.2199
  139.0000   -57.2051     7.0427     8.7116   103.1110
  139.5000   -57.2084     7.1398     8.8322   109.9961
  140.0000   -57.3616     7.1635     8.8929   109.0851
  140.5000   -57.3645     7.1871     9.0160   105.4069
  141.0000   -57.3674     7.1861     9.0154   112.9574
  141.5000   -57.3703     7.1357     9.0772   109.0479
  142.0000   -57.3732     7.1348     9.0766   100.9405
  142.5000   -57.3761     7.1338     9.1389    99.4298
  143.0000   -57.3793     7.1329     9.2654    99.7182
  143.5000   -57.3826     7.1318     9.2648    96.7053
  144.0000   -57.3855     7.1308     9.2642    96.9937
  144.5000   -57.3884     7.1298     9.2636   102.9793
  145.0000   -57.3913     7.1289     9.2629   103.8703
  145.5000   -57.3942     7.1279     9.1351    94.8605
  146.0000   -57.5470     7.0778     9.0716    92.4058
  146.5000   -57.5499     7.0767     9.0710    91.5363
  147.0000   -57.5532     7.0758     9.0079    92.1246
  147.5000   -57.5565     6.9777     8.8837    97.2106
  148.0000   -57.5594     6.9288     8.8831    98.6987
  148.5000   -57.4123     6.9278     8.8825    98.0869
  149.0000   -57.4152     6.9269     8.8206    97.4732
  149.5000   -57.4181     6.9259     8.8200    95.0630
  150.0000   -57.5710     6.9248     8.8194   104.6477
  150.5000   -57.4447     6.9234     8.8182   103.4123
  151.0000   -57.3184     6.9219     8.8170    99.9161
  151.5000   -57.4167     6.9206     8.8158    98.9241
  152.0000   -57.4153     6.8714     8.8146   103.4109
  152.5000   -57.4138     6.7757     8.8133    96.5077
  153.0000   -57.5623     6.7277     8.8121   103.6931
  153.5000   -57.5609     6.7310     8.8109   106.6828
