~VERSION INFORMATION
 VERS.                2.0:   CWLS LOG ASCII STANDARD - VERSION 2.0
 WRAP.                 NO:   ONE LINE PER DEPTH STEP
~WELL INFORMATION
#MNEM.UNIT      DATA TYPE    INFORMATION
#----------   ------------   ------------------------------
 STRT.F            8.0000:   START DEPTH
 STOP.F          508.0000:   STOP DEPTH
 STEP.F            0.1000:   STEP LENGTH
 NULL.          -999.2500:   NO VALUE
 COMP. LAWRENCE/ALLISON INC:   COMPANY
 WELL. NPR 3 47-12 SX #3-3:   WELL
 FLD .             TEAPOT:   FIELD
 LOC .       S3 T38N R78W:   LOCATION
 CNTY.            NATRONA:   COUNTY
 STAT.            WYOMING:   STATE
 CTRY. UNITED STATES OF AMERICA:   COUNTRY
 SRVC.           Gearhart:   SERVICE COMPANY
 DATE.        12-AUG-1988:   LOGDATE
 API .       490251124100:   API NUMBER
~CURVE INFORMATION
#MNEM.UNIT       API CODE    CURVE DESCRIPTION
#----------   ------------   ------------------------------
 DEPT.F                  :   
 GRR .GAPI   07 310 01 00:   GAMMA RAY
 RILD.OHMM   07 120 46 00:   INDUCTION LOG DEEP RESISTIVITY
 RILM.OHMM   07 120 44 00:   INDUCTION LOG MEDIUM RESISTIVITY
~PARAMETER INFORMATION
#MNEM.UNIT          VALUE    DESCRIPTION
#----------   ------------   ------------------------------
 PD  .                 GL:   PERMANENT DATUM
 EPD .F              5208:   ELEVATION PERMANENT DATUM
 LMF .                 KB:   LOG MEASURED FROM
 DAPD.F                10:   FEET ABOVE PERMANENT DATUM
 DMF .                 KB:   DRILLING MEASURED FROM
 EKB .F              5218:   KELLING BUSHING
 EDF .F              5216:   DRILLING FLOOR
 EGL .F              5208:   GROUND LEVEL
 DATE.        12-AUG-1988:   RUN DATE
 RUN .                  1:   RUN NUMBER
 DD  .F               515:   DEPTH DRILLER
 DL  .F               516:   DEPTH LOGGER
 BLI .F               508:   BOTTOM LOG INTERVAL
 TLI .F                50:   TOP LOG INTERVAL
 CS  .IN            9.625:   CASING SIZE
 CBD .F                50:   CASING BOTTOM DRILLER
 CBL .F                50:   CASING BOTTOM LOGGER
 BS  .IN             8.75:   BIT SIZE
 BSD .F               515:   BIT SIZE AT DEPTH
 DFT .                AIR:   DRILLING FLUID TYPE
 TCS .HRS            1500:   TIME CURCULATED STOPPED
 TLAB.HRS            1640:   TIME LOGGER AT BOTTOM
 MRT .F                70:   MAXIMUM RECORDED TEMPERATURE
 LUN .               7597:   LOGGING UNIT NUMBER
 LUL .           GILLETTE:   LOGGING UNIT LOCATION
 ENGI.         WEATHERMON:   RECORDING ENGINEER
 WITN.             STRONG:   WITNESSED BY
 CLNT.            A2DTECH:   CLIENT CODE
 ORIG.       2", 5" PRINT:   ORIGIN OF DATA
 UWI .       490251124100:   UNIQUE WELL ID
 DICO. A2D Technologies, Inc.:   DIGITIZING COMPANY
~OTHER INFORMATION
~A    DEPT      GRR      RILD       RILM   
# ...
  190.0000   120.2825     8.4876     8.6188
  190.1000   120.5350     8.4872     8.6185
  190.2000   120.7876     8.4868     8.6183
  190.3000   121.0401     8.4376     8.6181
  190.4000   121.3120     8.4274     8.5979
  190.5000   121.8790     8.4270     8.5578
  190.6000   122.5416     8.4072     8.5576
  190.7000   123.2980     8.3680     8.5080
  190.8000   123.9351     8.3677     8.4586
  190.9000   124.5083     8.3093     8.4096
  191.0000   125.2284     8.2707     8.3652
  191.1000   125.5135     8.2512     8.3278
  191.2000   125.9529     8.2318     8.2904
  191.3000   126.2886     8.1840     8.2529
  191.4000   126.5411     8.1364     8.2155
  191.5000   126.7262     8.0891     8.1781
  191.6000   126.7436     8.0421     8.1406
  191.7000   127.0300     7.9953     8.1032
  191.8000   127.2487     7.9489     8.0658
  191.9000   127.3337     7.9026     8.0358
  192.0000   127.2175     7.8567     8.0355
  192.1000   126.9661     7.8019     7.9796
  192.2000   126.7304     7.7299     7.9426
  192.3000   126.7311     7.6671     7.9240
  192.4000   126.5146     7.6225     7.8872
  192.5000   126.2631     7.5695     7.8050
  192.6000   126.0118     7.4819     7.7598
  192.7000   125.7605     7.3956     7.7147
  192.8000   125.5091     7.3440     7.6346
  192.9000   125.2219     7.2762     7.5465
  193.0000   125.0065     7.2087     7.4765
  193.1000   124.7551     7.1585     7.4246
  193.2000   124.5038     7.0757     7.3388
  193.3000   124.2525     6.9941     7.2541
  193.4000   124.0012     6.9453     7.2037
  193.5000   123.7126     6.9050     7.1371
  193.6000   123.4985     6.8491     7.0710
  193.7000   123.2472     6.7855     7.0219
  193.8000   123.1093     6.7852     6.9407
  193.9000   123.0471     6.6913     6.8446
  194.0000   122.7957     6.6602     6.7815
  194.1000   122.5060     6.6214     6.7032
  194.2000   122.2931     6.5830     6.6258
  194.3000   122.0418     6.5447     6.5492
  194.4000   121.9026     6.5066     6.4735
  194.5000   121.8417     6.5064     6.3620
  194.6000   121.6012     6.5061     6.2524
  194.7000   121.6019     6.4833     6.1445
  194.8000   121.3903     6.4605     6.0523
  194.9000   121.3005     6.4602     5.9755
  195.0000   121.1902     6.4600     5.8722
  195.1000   120.9388     6.4596     5.8314
  195.2000   120.6971     6.4594     5.7510
  195.3000   120.6978     6.4816     5.6910
  195.4000   120.4875     6.5039     5.6710
  195.5000   120.2360     6.5036     5.6643
  195.6000   120.0944     6.5034     5.6314
  195.7000   120.0358     6.5031     5.6312
  195.8000   119.7845     6.5330     5.6311
  195.9000   119.4912     6.5479     5.6505
  196.0000   119.4917     6.5476     5.6700
  196.1000   119.3331     6.5549     5.6765
  196.2000   119.0818     6.5927     5.7093
  196.3000   118.8304     6.5925     5.7423
  196.4000   118.5791     6.5921     5.8024
  196.5000   118.2845     6.5919     5.8699
  196.6000   118.2850     6.6069     5.9381
  196.7000   118.2857     6.6450     6.0072
  196.8000   118.1789     6.6833     6.0769
  196.9000   117.9843     6.6829     6.1617
  197.0000   117.9910     6.7138     6.2482
  197.1000   118.2882     6.7525     6.3353
  197.2000   118.2887     6.7913     6.4089
  197.3000   118.4460     6.8305     6.4758
  197.4000   118.6985     6.8698     6.5132
  197.5000   118.9511     6.9496     6.6274
  197.6000   119.2036     7.0303     6.6810
  197.7000   119.5021     7.1369     6.7197
  197.8000   119.9147     7.2615     6.7743
  197.9000   120.4192     7.3796     6.8450
  198.0000   120.8188     7.4651     6.8845
  198.1000   121.1255     7.5692     7.0294
  198.2000   121.6266     7.6395     7.0619
  198.3000   121.9263     7.7281     7.1276
  198.4000   121.9268     7.7996     7.2104
  198.5000   122.0816     7.8445     7.2942
  198.6000   122.3342     7.8897     7.3789
  198.7000   122.5869     7.9352     7.4216
  198.8000   122.8394     7.9810     7.4645
  198.9000   123.1402     8.0269     7.5339
  199.0000   123.1407     8.0732     7.6215
  199.1000   122.9881     8.1198     7.7010
  199.2000   122.7368     8.1665     7.7455
  199.3000   122.4854     8.2136     7.8357
  199.4000   122.2342     8.2227     7.9268
  199.5000   121.9336     8.2510     7.9910
  199.6000   121.9341     8.2986     8.0560
  199.7000   121.7827     8.3367     8.1400
  199.8000   121.5314     8.3363     8.1871
  199.9000   121.3307     8.3940     8.2439
  200.0000   121.3313     8.4117     8.2246
  200.1000   121.2773     8.4338     8.2005
  200.2000   121.2232     8.4560     8.1764
  200.3000   121.1692     8.4781     8.1523
  200.4000   121.1152     8.5003     8.1290
  200.5000   121.0612     8.5224     8.1288
  200.6000   121.0324     8.5445     8.1687
  200.7000   121.1031     8.5696     8.1850
  200.8000   121.3588     8.5695     8.2069
  200.9000   121.6394     8.5694     8.2547
  201.0000   121.8699     8.5693     8.3028
  201.1000   122.3076     8.5692     8.3566
  201.2000   122.8183     8.5748     8.3564
  201.3000   123.3290     8.6287     8.4248
  201.4000   123.7999     8.6285     8.4729
  201.5000   124.0636     8.6284     8.4884
  201.6000   124.5581     8.6283     8.5378
  201.7000   124.8692     8.6464     8.5908
  201.8000   125.2764     8.6882     8.5906
  201.9000   125.5788     8.6881     8.6279
  202.0000   125.5794     8.6879     8.6782
  202.1000   125.5890     8.6878     8.7101
  202.2000   125.8833     8.6877     8.7188
  202.3000   125.8838     8.6876     8.7703
  202.4000   125.7158     8.6875     8.7701
  202.5000   125.5825     8.6874     8.8106
  202.6000   125.5096     8.6872     8.8307
  202.7000   125.2295     8.6871     8.8305
  202.8000   124.6766     8.7208     8.8303
  202.9000   124.2107     8.7474     8.8301
  203.0000   123.7015     8.7473     8.8298
  203.1000   123.3302     8.7522     8.8296
  203.2000   122.9855     8.8080     8.8293
  203.3000   122.5188     8.8079     8.8529
  203.4000   122.2596     8.8078     8.8904
  203.5000   122.0102     8.8351     8.8943
  203.6000   121.9583     8.8689     8.9519
  203.7000   121.8039     8.8688     8.9517
  203.8000   121.6569     8.8687     8.9514
  203.9000   121.6575     8.9188     8.9778
  204.0000   121.6581     8.9303     9.0133
  204.1000   121.6588     8.9302     9.0131
  204.2000   121.6593     8.9510     9.0128
  204.3000   121.6599     8.9922     9.0126
  204.4000   121.6605     8.9932     9.0517
  204.5000   121.6611     9.0545     9.0750
  204.6000   121.6618     9.0544     9.0747
  204.7000   121.6624     9.0885     9.0745
  204.8000   121.6629     9.1173     9.0742
  204.9000   121.6635     9.1315     9.0740
  205.0000   121.6641     9.1806     9.0737
  205.1000   121.6647     9.1804     9.1055
  205.2000   121.6653     9.1803     9.1586
  205.3000   121.6660     9.1802     9.1999
  205.4000   121.6667     9.2077     9.2014
  205.5000   121.6672     9.2439     9.2636
  205.6000   121.6678     9.2512     9.2634
  205.7000   121.6684     9.3081     9.2984
  205.8000   121.6690     9.3079     9.3275
  205.9000   121.6696     9.3493     9.3420
  206.0000   121.6703     9.3726     9.3920
  206.1000   121.6708     9.3934     9.3917
  206.2000   121.6714     9.4377     9.4404
  206.3000   121.6720     9.4375     9.4567
  206.4000   121.6726     9.4374     9.4565
  206.5000   121.7053     9.4373     9.4738
  206.6000   121.9764     9.4371     9.5219
  206.7000   121.9770     9.4613     9.5216
  206.8000   122.1695     9.5027     9.5214
  206.9000   122.4251     9.5025     9.5627
  207.0000   122.5839     9.5024     9.5873
  207.1000   122.5845     9.5509     9.5870
  207.2000   122.5837     9.5683     9.5867
  207.3000   122.2833     9.5682     9.5864
  207.4000   122.0748     9.5681     9.6415
  207.5000   121.9819     9.5680     9.6528
  207.6000   121.8688     9.5678     9.6525
  207.7000   121.6144     9.5676     9.6523
  207.8000   121.3785     9.5675     9.6519
  207.9000   121.3792     9.5674     9.6517
  208.0000   121.3797     9.5673     9.6514
  208.1000   121.3803     9.5672     9.6512
