~VERSION INFORMATION
 VERS.                2.0:   CWLS LOG ASCII STANDARD - VERSION 2.0
 WRAP.                 NO:   ONE LINE PER DEPTH STEP
~WELL INFORMATION
#MNEM.UNIT      DATA TYPE    INFORMATION
#----------   ------------   ------------------------------
 STRT.F           10.0000:   START DEPTH
 STOP.F         2599.5000:   STOP DEPTH
 STEP.F            0.5000:   STEP LENGTH
 NULL.          -999.2500:   NO VALUE
 COMP. FENIX & SCISSON INC:   COMPANY
 WELL.   34-SHX-33 #34-33:   WELL
 FLD .             TEAPOT:   FIELD
 LOC .      S33 T39N R78W:   LOCATION
 CNTY.            NATRONA:   COUNTY
 STAT.            WYOMING:   STATE
 CTRY. UNITED STATES OF AMERICA:   COUNTRY
 SRVC.           BIRDWELL:   SERVICE COMPANY
 DATE.        20-FEB-1978:   LOGDATE
 API .       490251058400:   API NUMBER
~CURVE INFORMATION
#MNEM.UNIT       API CODE    CURVE DESCRIPTION
#----------   ------------   ------------------------------
 DEPT.F                  :   
 GR  .GAPI   30 310 01 00:   GAMMA RAY
 CALI.IN     70 280 01 00:   CALIPER
~PARAMETER INFORMATION
#MNEM.UNIT          VALUE    DESCRIPTION
#----------   ------------   ------------------------------
 PD  .                 GL:   PERMANENT DATUM
 EPD .F              5174:   ELEVATION PERMANENT DATUM
 LMF .                 KB:   LOG MEASURED FROM
 DAPD.F                10:   FEET ABOVE PERMANENT DATUM
 DMF .                 KB:   DRILLING MEASURED FROM
 EKB .F              5184:   KELLING BUSHING
 EGL .F              5174:   GROUND LEVEL
 DATE.            2-20-78:   RUN DATE
 RUN .                  1:   RUN NUMBER
 DD  .F              2590:   DEPTH DRILLER
 DL  .F              2600:   DEPTH LOGGER
 BLI .F              2600:   BOTTOM LOG INTERVAL
 CS  .IN            8.625:   CASING SIZE
 CBD .F               737:   CASING BOTTOM DRILLER
 BS  .IN            8.625:   BIT SIZE
 BSD .F              2590:   BIT SIZE AT DEPTH
 TCS .HRS               2:   TIME CURCULATED STOPPED
 LUL .             CASPER:   LOGGING UNIT LOCATION
 ENGI.             MILLER:   RECORDING ENGINEER
 WITN.           MCGINLEY:   WITNESSED BY
 CLNT.            A2DTECH:   CLIENT CODE
 ORIG.           5" PRINT:   ORIGIN OF DATA
 UWI .       490251058400:   UNIQUE WELL ID
 DICO. A2D Technologies, Inc.:   DIGITIZING COMPANY
~OTHER INFORMATION
~A   DEPT        GR      CALI   
# ...
 1103.5000   152.9858    11.8093
 1104.0000   155.2822    11.8282
 1104.5000   159.6158    11.8470
 1105.0000   163.8861    11.8660
 1105.5000   166.5436    11.8845
 1106.0000   164.0967    11.9016
 1106.5000   160.0820    11.9215
 1107.0000   156.0405    11.8805
 1107.5000   151.9758    11.8405
 1108.0000   147.8814    11.8617
 1108.5000   143.6071    11.9052
 1109.0000   142.8985    11.9216
 1109.5000   146.9045    11.8838
 1110.0000   151.7209    11.8811
 1110.5000   155.4058    11.9070
 1111.0000   154.3005    11.8764
 1111.5000   153.2106    11.8348
 1112.0000   151.7442    11.7885
 1112.5000   150.2162    11.7748
 1113.0000   148.7014    11.7849
 1113.5000   147.4342    11.8035
 1114.0000   147.1398    11.7804
 1114.5000   150.2515    11.7525
 1115.0000   155.2498    11.7245
 1115.5000   160.2625    11.6954
 1116.0000   163.3345    11.6779
 1116.5000   160.4857    11.7793
 1117.0000   157.5612    11.6510
 1117.5000   154.8211    11.6643
 1118.0000   153.9853    11.6685
 1118.5000   153.0691    11.5732
 1119.0000   152.1515    11.4757
 1119.5000   150.4701    11.4620
 1120.0000   148.5054    11.4516
 1120.5000   146.5571    11.4678
 1121.0000   145.6343    11.4887
 1121.5000   149.5587    11.5098
 1122.0000   155.2701    11.5309
 1122.5000   153.1804    11.5520
 1123.0000   150.4024    11.5714
 1123.5000   149.5428    11.5718
 1124.0000   161.4624    11.5715
 1124.5000   162.0959    11.5480
 1125.0000   154.7084    11.4909
 1125.5000   148.6172    11.4301
 1126.0000   143.7975    11.2766
 1126.5000   146.8227    11.1179
 1127.0000   151.6656    11.1902
 1127.5000   156.5181    11.1418
 1128.0000   159.8304    11.0727
 1128.5000   161.9013    11.0036
 1129.0000   160.5579    10.9529
 1129.5000   154.3006    10.9542
 1130.0000   147.4248    10.9565
 1130.5000   144.2226    10.9921
 1131.0000   149.6349    11.1734
 1131.5000   154.9192    11.4458
 1132.0000   159.6511    11.6448
 1132.5000   158.0986    11.7287
 1133.0000   161.6372    11.7732
 1133.5000   162.8133    11.7825
 1134.0000   158.9264    11.7592
 1134.5000   155.4148    11.7359
 1135.0000   151.9377    11.7116
 1135.5000   148.5216    11.7312
 1136.0000   147.5623    11.7593
 1136.5000   148.4922    11.7875
 1137.0000   149.4581    11.7788
 1137.5000   149.1527    11.7614
 1138.0000   144.2843    11.7584
 1138.5000   140.2355    11.7703
 1139.0000   143.4813    11.7380
 1139.5000   150.0491    11.7105
 1140.0000   156.7774    11.7380
 1140.5000   160.3523    11.7821
 1141.0000   163.0204    11.8160
 1141.5000   164.6869    11.8296
 1142.0000   166.1557    11.8441
 1142.5000   166.3646    11.8599
 1143.0000   161.9365    11.8895
 1143.5000   157.4934    11.8767
 1144.0000   153.1632    11.8751
 1144.5000   150.5770    11.9675
 1145.0000   150.1932    11.9061
 1145.5000   149.7539    11.8313
 1146.0000   148.6429    11.7651
 1146.5000   146.3965    11.7657
 1147.0000   145.9795    11.7878
 1147.5000   145.7109    11.8091
 1148.0000   142.2211    11.7727
 1148.5000   137.8353    11.7328
 1149.0000   139.4080    11.7383
 1149.5000   141.3881    11.7465
 1150.0000   141.5907    11.7207
 1150.5000   138.7019    11.6617
 1151.0000   137.2709    11.6385
 1151.5000   141.4010    11.6519
 1152.0000   145.9446    11.6652
 1152.5000   151.2017    11.6790
 1153.0000   156.6122    11.6898
 1153.5000   158.0207    11.6561
 1154.0000   150.0690    11.6214
 1154.5000   149.3350    11.6119
 1155.0000   148.9471    11.6115
 1155.5000   144.6321    11.5854
 1156.0000   140.3757    11.5546
 1156.5000   137.5933    11.5116
 1157.0000   135.6085    11.4221
 1157.5000   133.5962    11.4424
 1158.0000   134.0631    11.5030
 1158.5000   135.0427    11.3098
 1159.0000   133.7624    11.3321
 1159.5000   131.3487    11.2910
 1160.0000   130.5397    11.2924
 1160.5000   133.6862    11.0672
 1161.0000   136.9902    10.7939
 1161.5000   140.2554    10.7967
 1162.0000   142.1958    10.9597
 1162.5000   140.7571    11.2848
 1163.0000   139.3264    11.4698
 1163.5000   137.5884    11.4913
 1164.0000   134.8127    11.5098
 1164.5000   132.2953    11.5280
 1165.0000   130.9422    11.5920
 1165.5000   130.8801    11.5174
 1166.0000   130.9752    11.4631
 1166.5000   131.1406    11.4925
 1167.0000   131.2338    11.4578
 1167.5000   133.6194    11.4139
 1168.0000   136.9382    11.4117
 1168.5000   140.2820    11.4143
 1169.0000   143.6384    11.4958
 1169.5000   146.3883    11.5441
 1170.0000   143.9115    11.3598
 1170.5000   140.6223    11.3249
 1171.0000   137.3367    11.3278
 1171.5000   134.0275    11.4156
 1172.0000   132.2478    11.4122
 1172.5000   132.0784    11.4124
 1173.0000   132.0529    11.4204
 1173.5000   132.7301    11.4129
 1174.0000   133.5096    11.3008
 1174.5000   134.3077    11.7395
 1175.0000   135.1579    11.5003
 1175.5000   133.9689    12.2395
 1176.0000   129.1014    11.2561
 1176.5000   123.9670    11.6019
 1177.0000   124.1403    11.5670
 1177.5000   125.3659    11.5819
 1178.0000   124.5977    11.6011
 1178.5000   126.4054    11.6131
 1179.0000   128.5270    11.6166
 1179.5000   128.6224    11.6200
 1180.0000   134.5281    11.6236
 1180.5000   140.2802    11.6308
 1181.0000   138.5018    11.6327
 1181.5000   135.6783    11.5987
 1182.0000   128.7834    12.0921
 1182.5000   124.0079    11.5908
 1183.0000   125.8621    11.5511
 1183.5000   128.9049    11.5785
 1184.0000   132.2860    11.6102
 1184.5000   135.6311    11.5234
 1185.0000   135.4252    11.9846
 1185.5000   134.1530    11.6914
 1186.0000   132.8772    11.7286
 1186.5000   131.6844    11.6094
 1187.0000   132.5318    11.6148
 1187.5000   133.0616    11.6310
 1188.0000   132.1685    11.6319
 1188.5000   131.6489    11.6453
 1189.0000   131.8841    11.7194
 1189.5000   137.5554    11.7992
 1190.0000   143.2751    11.6540
 1190.5000   146.2147    11.6504
 1191.0000   140.6883    11.6517
 1191.5000   136.4756    11.6845
 1192.0000   132.1993    11.6822
 1192.5000   130.0892    11.6364
 1193.0000   129.3728    11.6035
 1193.5000   128.6092    11.8748
 1194.0000   130.1132    11.2408
 1194.5000   132.1410    11.9991
 1195.0000   134.1911    11.5402
 1195.5000   136.2200    11.6197
 1196.0000   138.2644    11.7919
 1196.5000   137.2651    11.8083
 1197.0000   133.7813    11.7131
 1197.5000   130.2440    11.8039
 1198.0000   130.0794    11.7522
 1198.5000   130.0984    11.6167
 1199.0000   129.6324    11.6106
 1199.5000   125.7288    11.6113
 1200.0000   121.8097    11.6114
 1200.5000   118.8736    11.5937
 1201.0000   119.0233    11.5583
 1201.5000   119.7955    11.5218
 1202.0000   120.5853    11.5091
 1202.5000   121.9406    11.5042
 1203.0000   124.7458    11.4993
 1203.5000   128.5936    11.4914
 1204.0000   130.3435    11.4998
 1204.5000   131.4174    11.8209
 1205.0000   133.6516    11.3244
 1205.5000   135.0001    11.5568
 1206.0000   135.1124    11.4940
 1206.5000   131.7401    11.5445
 1207.0000   128.3527    11.5094
 1207.5000   124.2426    11.4763
 1208.0000   126.0004    11.4421
 1208.5000   129.4184    11.4283
 1209.0000   132.8452    11.4187
 1209.5000   135.1315    11.5036
 1210.0000   131.2546    11.3419
 1210.5000   128.0942    11.3628
 1211.0000   130.0953    11.4357
 1211.5000   135.9024    11.2565
 1212.0000   141.6108    11.2564
 1212.5000   145.1474    11.3588
 1213.0000   143.1343    11.4973
 1213.5000   136.9476    12.0638
 1214.0000   130.7810    12.4883
 1214.5000   125.9586    11.3349
 1215.0000   131.4508    11.4919
 1215.5000   139.5094    11.3158
 1216.0000   144.4510    11.8052
 1216.5000   137.9325    10.9072
 1217.0000   133.0607    11.2670
 1217.5000   128.4065    11.1625
 1218.0000   126.2486    11.1073
 1218.5000   126.0947    11.0941
 1219.0000   128.3123    11.0671
 1219.5000   130.5531    11.0266
 1220.0000   132.4153    11.0114
 1220.5000   131.9984    11.0939
 1221.0000   131.5807    11.1528
 1221.5000   131.5450    12.0303
 1222.0000   132.4976    11.5225
 1222.5000   133.5031    10.8936
 1223.0000   130.8126    10.8826
 1223.5000   126.9066    10.8893
 1224.0000   124.6801    10.8930
 1224.5000   123.8102    10.8884
