~VERSION INFORMATION
 VERS.                2.0:   CWLS LOG ASCII STANDARD - VERSION 2.0
 WRAP.                 NO:   ONE LINE PER DEPTH STEP
~WELL INFORMATION
#MNEM.UNIT      DATA TYPE    INFORMATION
#----------   ------------   ------------------------------
 STRT.F           28.0000:   START DEPTH
 STOP.F          463.0000:   STOP DEPTH
 STEP.F            0.5000:   STEP LENGTH
 NULL.          -999.2500:   NO VALUE
 COMP.    FENIX & SCISSON:   COMPANY
 WELL.  NPR-3 #74 S 10-10:   WELL
 FLD .        TEAPOT DOME:   FIELD
 LOC .      S10 T38N R78W:   LOCATION
 CNTY.            NATRONA:   COUNTY
 STAT.            WYOMING:   STATE
 CTRY. UNITED STATES OF AMERICA:   COUNTRY
 SRVC.           BIRDWELL:   SERVICE COMPANY
 DATE.        12-FEB-1978:   LOGDATE
 API .       490251057000:   API NUMBER
~CURVE INFORMATION
#MNEM.UNIT       API CODE    CURVE DESCRIPTION
#----------   ------------   ------------------------------
 DEPT.F                  :   
 ILD .OHMM   05 120 46 00:   INDUCTION LOG DEEP
 SN  .OHMM   05 040 16 00:   SHORT NORMAL 16"
 SPR .MV     05 010 01 00:   SPONTANEOUS POTENTIAL FROM RES.
 CALD.IN     45 280 60 00:   CALIPER FROM DENSITY LOG
 CORR.G/C3   45 356 01 00:   DENSITY CORRECTION
 DPHI.DEC    45 890 12 00:   DENSITY POROSITY SANDSTONE
 GRD .GAPI   45 310 01 00:   GAMMA RAY FROM DENSITY LOG
 RHOB.G/C3   45 350 01 00:   BULK DENSITY
~PARAMETER INFORMATION
#MNEM.UNIT          VALUE    DESCRIPTION
#----------   ------------   ------------------------------
 PD  .                 GL:   PERMANENT DATUM
 EPD .F              5183:   ELEVATION PERMANENT DATUM
 LMF .                 KB:   LOG MEASURED FROM
 DAPD.F                 4:   FEET ABOVE PERMANENT DATUM
 DMF .                 KB:   DRILLING MEASURED FROM
 EKB .F              5187:   KELLING BUSHING
 EGL .F              5183:   GROUND LEVEL
 DATE.        12-FEB-1978:   RUN DATE
 RUN .                  1:   RUN NUMBER
 DD  .F               465:   DEPTH DRILLER
 DL  .F               465:   DEPTH LOGGER
 BLI .F               463:   BOTTOM LOG INTERVAL
 TLI .F                40:   TOP LOG INTERVAL
 CS  .IN            8.625:   CASING SIZE
 CBD .F                39:   CASING BOTTOM DRILLER
 BS  .IN            7.875:   BIT SIZE
 BSD .F               465:   BIT SIZE AT DEPTH
 DFT .         LIGNO-SULF:   DRILLING FLUID TYPE
 DFD .                8.8:   DRILLING FLUID DENSITY
 DFV .                 34:   DRILLING FLUID VISCOSITY
 DFPH.                 10:   DRILLING FLUID PH
 DFL .                4.0:   DRILLING FLUID LOSS
 MSS .                PIT:   MUD SAMPLE SOURCE
 RMS .OHMM            1.3:   RESISTIVITY MUD SAMPLE
 MST .F                62:   MUD SAMPLE TEMPERATURE
 RMF .OHMM            1.4:   RESISTIVITY MUD FILTRATE SAMPLE
 MFST.F                62:   MUD FILTRATE SAMPLE TEMPERATURE
 MCST.F                62:   MUD CAKE SAMPLE TEMPERATURE
 MFSS.               MEAS:   MUD FILTRATE SAMPLE SOURCE
 RMB .OHMM            1.3:   RESISTIVITY MUD AT BHT
 BHT .F                62:   BOTTOM HOLE TEMPERATURE
 TCS .HRS               2:   TIME CURCULATED STOPPED
 MRT .F                70:   MAXIMUM RECORDED TEMPERATURE
 LUN .               2953:   LOGGING UNIT NUMBER
 LUL .             CASPER:   LOGGING UNIT LOCATION
 ENGI.            POINTER:   RECORDING ENGINEER
 WITN.          MC GINLEY:   WITNESSED BY
 CLNT.            A2DTECH:   CLIENT CODE
 ORIG.           5" PRINT:   ORIGIN OF DATA
 UWI .       490251057000:   UNIQUE WELL ID
 DICO. A2D Technologies, Inc.:   DIGITIZING COMPANY
~OTHER INFORMATION
~A   DEPT      ILD         SN        SPR       CALD       CORR       DPHI         GRD      RHOB   
# ...
  109.0000     7.7846     8.2731   -43.2127     8.1436     0.0354     0.1186    81.6753     2.4609
  109.5000     7.7325     8.1614   -43.0465     8.1589     0.0431     0.1171    84.2415     2.4666
  110.0000     7.7345     8.1066   -43.0289     8.1592     0.0477     0.1213    90.7234     2.4738
  110.5000     7.7361     8.1094   -43.1642     8.1745     0.0589     0.1210    92.9884     2.4670
  111.0000     7.7377     8.1026   -43.4393     8.1748     0.0809     0.1267    92.6931     2.4685
  111.5000     7.6859     8.0577   -43.7232     8.1901     0.0945     0.1285    92.3979     2.4677
  112.0000     7.6875     8.0600   -43.7012     8.1904     0.1157     0.1276    92.5544     2.4586
  112.5000     7.6891     8.1183   -43.8365     8.1907     0.1339     0.1204    93.1628     2.4541
  113.0000     7.7441     8.1205   -43.6659     8.1760     0.1460     0.1243    92.7169     2.4601
  113.5000     7.7994     8.1228   -43.4996     8.1613     0.1566     0.1318    91.9699     2.4556
  114.0000     7.9096     8.1250   -43.4820     8.1616     0.1748     0.1330    92.2872     2.4488
  114.5000     7.8563     8.2413   -43.4643     8.1601     0.2232     0.1261    91.9292     2.4488
  115.0000     7.8038     8.3586   -43.2981     8.1471     0.2383     0.1186    90.2811     2.4510
  115.5000     7.8600     8.5367   -43.1318     8.1475     0.2384     0.1075    89.2843     2.4752
  116.0000     7.9711     8.7186   -42.9656     8.1327     0.2385     0.1126    89.5915     2.4888
  116.5000     8.0837     8.8428   -42.7993     8.1180     0.2416     0.1183    90.8022     2.4684
  117.0000     8.2549     9.0312   -42.7776     8.1184     0.2462     0.1182    91.8624     2.4691
  117.5000     8.4296     9.2878   -42.4666     8.1187     0.2523     0.1215    92.6213     2.4691
  118.0000     8.6678     9.6181   -42.4487     8.1039     0.2569     0.1311    94.1333     2.4631
  118.5000     8.8513     9.9602   -42.4309     8.0892     0.2600     0.1281    93.6875     2.4570
  119.0000     9.0387    10.1724   -42.4131     8.0445     0.2630     0.1001    93.2401     2.4569
  119.5000     9.2301    10.2460   -42.2432     8.0297     0.2571     0.0960    92.6437     2.4839
  120.0000     9.4255    10.3920   -42.3786     8.0301     0.2451     0.0947    90.8439     2.5107
  120.5000     9.6918    10.6872   -42.5051     8.0304     0.2256     0.0875    91.7534     2.5123
  121.0000     9.9016    10.9149   -42.6405     8.0306     0.2015     0.0726    92.0591     2.5276
  121.5000    10.1136    10.9939   -42.7714     8.0159     0.1859     0.0861    89.8075     2.5696
  122.0000    10.3301    11.1505   -42.7493     8.0012     0.1494     0.0738    87.8556     2.5635
  122.5000    10.5391    11.2364   -42.8847     7.9865     0.1183     0.0684    84.3977     2.5477
  123.0000    10.7626    11.3125   -42.7140     7.9868     0.0592     0.0987    83.0482     2.5091
  123.5000    10.8395    11.3157   -42.6964     7.9873     0.0345     0.0969    77.1682     2.5083
  124.0000    10.9928    11.1635   -42.5301     8.0174     0.0300     0.0996    74.7770     2.5061
  124.5000    10.9950    11.0886   -42.5125     8.0177     0.0316     0.1176    75.1019     2.4962
  125.0000    10.9209    11.0157   -42.1976     8.0330     0.0317     0.1233    76.0442     2.4758
  125.5000    10.8479    10.8670   -42.1800     8.0334     0.0303     0.1166    78.2602     2.4539
  126.0000    10.7759    10.7941   -42.3153     8.0337     0.0318     0.1208    82.6336     2.4675
  126.5000    10.5569    10.7978   -42.2933     8.0340     0.0319     0.1202    83.8444     2.4690
  127.0000    10.4863    10.8007   -42.1278     8.0343     0.0320     0.1184    84.0009     2.4629
  127.5000    10.4884    10.8037   -42.1100     8.0346     0.0321     0.1136    83.5551     2.4697
  128.0000    10.4906    10.7312   -42.0917     8.0349     0.0367     0.1094    81.7538     2.4795
  128.5000    10.4928    10.5863   -42.0741     8.0352     0.0428     0.1028    80.4028     2.4947
  129.0000    10.4949    10.5899   -42.0564     8.0355     0.0459     0.0992    80.4103     2.5015
  129.5000    10.4242    10.5928   -42.0386     8.0358     0.0444     0.1067    80.7174     2.4924
  130.0000    10.4269    10.6695   -42.0109     8.0361     0.0445     0.1181    81.9282     2.4735
  130.5000    10.3566    10.6724   -41.8544     8.0364     0.0491     0.1178    83.4402     2.4719
  131.0000    10.5036    10.6015   -41.6880     8.0367     0.0552     0.1160    84.8016     2.4719
  131.5000    10.5786    10.6044   -41.6424     8.0219     0.0583     0.1139    85.1087     2.4734
  132.0000    10.7281    10.6074   -41.5003     8.0072     0.0614     0.1090    85.1345     2.4750
  132.5000    10.8798    10.7685   -41.4826     7.9775     0.0660     0.1009    84.3676     2.4795
  133.0000    10.8820    10.9118   -41.3164     7.9628     0.0691     0.0949    83.3193     2.4961
  133.5000    10.8842    10.9154   -41.4473     7.9180     0.0707     0.0918    81.8017     2.5135
  134.0000    10.7370    10.7680   -41.8799     7.9173     0.0692     0.0886    78.2511     2.5263
  134.5000    10.6651    10.6219   -42.1594     7.8886     0.0616     0.0895    75.7721     2.5172
  135.0000    10.5939    10.5513   -42.1373     7.8739     0.0503     0.1012    75.0351     2.5067
  135.5000    10.5961    10.4820   -42.1197     7.8742     0.0330     0.1048    74.7647     2.4923
  136.0000    10.6718    10.3404   -42.1020     7.8745     0.0318     0.1018    74.9228     2.4794
  136.5000    10.5931    10.2711   -41.7872     7.8748     0.0410     0.1192    75.5311     2.4749
  137.0000    10.3754    10.2746   -41.4723     7.8901     0.0441     0.1327    78.5491     2.4666
  137.5000    10.0922    10.0658   -41.0089     7.9054     0.0441     0.1411    80.2117     2.4507
  138.0000     9.8306     9.9983   -40.6941     7.9208     0.0472     0.1480    81.4225     2.4333
  138.5000     9.6307    10.0017   -40.3793     7.9661     0.0518     0.1495    82.6333     2.4235
  139.0000     9.4345    10.1442   -40.2130     7.9964     0.0609     0.1459    81.1332     2.4189
  139.5000     9.3073    10.2176   -40.1954     8.0268     0.0746     0.1366    79.0307     2.4221
  140.0000     9.2446    10.2203   -40.0291     8.0271     0.0883     0.1405    79.6390     2.4356
  140.5000     9.2470    10.0823   -39.8629     8.0123     0.1004     0.1261    84.3137     2.4272
  141.0000     9.2489    10.0851   -39.6966     8.0126     0.1020     0.1306    86.7293     2.4499
  141.5000     9.2508    10.0181   -40.1248     8.0279     0.1051     0.1375    86.7625     2.4567
  142.0000     9.1884    10.0312   -40.7015     8.0433     0.1217     0.1393    85.3857     2.4415
  142.5000     9.2546    10.0236   -40.6835     8.0586     0.1384     0.1407    82.5302     2.4385
  143.0000     9.2565    10.0270   -40.6657     8.0889     0.1656     0.1410    79.5241     2.4355
  143.5000     9.2584    10.0996   -40.6478     8.1042     0.2215     0.1398    77.7229     2.4324
  144.0000     9.2603    10.1024   -40.6300     8.1205     0.2502     0.1365    78.3715     2.4324
  144.5000     9.2622    10.1051   -40.6088     8.1498     0.2714     0.1338    80.3127     2.4377
  145.0000     9.1998    10.1079   -40.5911     8.1652     0.2760     0.1314    80.9036     2.4498
  145.5000     9.2660    10.1107   -40.4249     8.1655     0.2776     0.1290    81.2105     2.4506
  146.0000     9.2036    10.0428   -40.2615     8.1658     0.2807     0.1290    78.8083     2.4506
  146.5000     9.2059    10.0463   -40.2410     8.1661     0.2808     0.1315    72.6396     2.4505
  147.0000     9.2717     9.9789   -40.2233     8.1513     0.2854     0.1387    68.7299     2.4445
  147.5000     9.2736     9.9133   -40.2057     8.1067     0.3035     0.1484    68.2825     2.4233
  148.0000     9.3399     9.9160   -40.0394     8.0919     0.3368     0.1569    70.6996     2.4210
  148.5000     9.4066     9.8502   -40.0218     8.0471     0.3399     0.1641    78.2357     2.4173
  149.0000     9.3437     9.7847   -40.1571     7.9873     0.3400     0.1665    79.2943     2.3870
