~VERSION INFORMATION
 VERS.                2.0:   CWLS LOG ASCII STANDARD - VERSION 2.0
 WRAP.                 NO:   ONE LINE PER DEPTH STEP
~WELL INFORMATION
#MNEM.UNIT      DATA TYPE    INFORMATION
#----------   ------------   ------------------------------
 STRT.F           30.0000:   START DEPTH
 STOP.F          526.0000:   STOP DEPTH
 STEP.F            0.5000:   STEP LENGTH
 NULL.          -999.2500:   NO VALUE
 COMP. FENIX & SCISSON INC:   COMPANY
 WELL.       NPR #37-SX-3:   WELL
 FLD .             TEAPOT:   FIELD
 LOC .       S3 T38N R78W:   LOCATION
 CNTY.            NATRONA:   COUNTY
 STAT.            WYOMING:   STATE
 CTRY. UNITED STATES OF AMERICA:   COUNTRY
 SRVC.              Welex:   SERVICE COMPANY
 DATE.        10-MAR-1977:   LOGDATE
 API .       490251028600:   API NUMBER
~CURVE INFORMATION
#MNEM.UNIT       API CODE    CURVE DESCRIPTION
#----------   ------------   ------------------------------
 DEPT.F                  :   
 ILD .OHMM   07 120 46 00:   INDUCTION LOG DEEP
 ILM .OHMM   07 120 44 00:   INDUCTION LOG MEDIUM
 SPR .MV     07 010 01 00:   SPONTANEOUS POTENTIAL
 SGRD.OHMM   07 220 05 00:   SHALLOW RESISTIVITY
 GRD .GAPI   45 310 01 00:   GAMMA RAY FROM DENSITY LOG
 CALD.IN     45 280 60 00:   CALIPER
 CORR.G/C3   45 356 01 00:   DENSITY CORRECTION
 RHOB.G/C3   45 350 01 00:   BULK DENSITY
 DPOR.DEC    45 890 12 00:   DENSITY POROSITY SANDSTONE
~PARAMETER INFORMATION
#MNEM.UNIT          VALUE    DESCRIPTION
#----------   ------------   ------------------------------
 PD  .                 GL:   PERMANENT DATUM
 EPD .F              5232:   ELEVATION PERMANENT DATUM
 LMF .                 GL:   LOG MEASURED FROM
 DMF .                 GL:   DRILLING MEASURED FROM
 EGL .F              5232:   GROUND LEVEL
 DATE.            3-10-77:   RUN DATE
 RUN .                  1:   RUN NUMBER
 DD  .F               530:   DEPTH DRILLER
 DL  .F               528:   DEPTH LOGGER
 BLI .F               526:   BOTTOM LOG INTERVAL
 TLI .F                35:   TOP LOG INTERVAL
 CS  .IN            8.625:   CASING SIZE
 CBD .F                40:   CASING BOTTOM DRILLER
 CBL .F                42:   CASING BOTTOM LOGGER
 BS  .IN            7.875:   BIT SIZE
 BSD .F               530:   BIT SIZE AT DEPTH
 DFT .            KCL MUD:   DRILLING FLUID TYPE
 DFD .                8.8:   DRILLING FLUID DENSITY
 DFV .                 32:   DRILLING FLUID VISCOSITY
 DFPH.                  8:   DRILLING FLUID PH
 DFL .                7.7:   DRILLING FLUID LOSS
 MSS .            MUD PIT:   MUD SAMPLE SOURCE
 RMS .OHMM            .48:   RESISTIVITY MUD SAMPLE
 MST .F                47:   MUD SAMPLE TEMPERATURE
 RMF .OHMM            .43:   RESISTIVITY MUD FILTRATE SAMPLE
 MFST.F                47:   MUD FILTRATE SAMPLE TEMPERATURE
 RMC .OHMM            .52:   RESISTIVITY MUD CAKE
 MCST.F                47:   MUD CAKE SAMPLE TEMPERATURE
 MFSS.           FANN KIT:   MUD FILTRATE SAMPLE SOURCE
 MCSS.           FANN KIT:   MUD CAKE SAMPLE SOURCE
 RMB .OHMM            .41:   RESISTIVITY MUD AT BHT
 BHT .F                55:   BOTTOM HOLE TEMPERATURE
 TCS .HRS             1.5:   TIME CURCULATED STOPPED
 MRT .F                55:   MAXIMUM RECORDED TEMPERATURE
 LUN .               8611:   LOGGING UNIT NUMBER
 LUL .           GILLETTE:   LOGGING UNIT LOCATION
 ENGI.               DOAK:   RECORDING ENGINEER
 WITN.              BURKE:   WITNESSED BY
 CLNT.            A2DTECH:   CLIENT CODE
 ORIG.       2", 5" PRINT:   ORIGIN OF DATA
 UWI .       490251028600:   UNIQUE WELL ID
 DICO. A2D Technologies, Inc.:   DIGITIZING COMPANY
~OTHER INFORMATION
~A   DEPT      ILD        ILM        SPR       SGRD         GRD        CALD      CORR        RHOB     DPOR   
# ...
  468.0000    11.9180    15.6393   -40.5786    17.1071   107.7078     8.0208     0.0590     2.4739     0.9829
  468.5000    11.9310    15.6180   -40.6277    17.0056   104.5901     8.0234     0.0562     2.4704     0.9807
  469.0000    11.9439    15.5968   -40.6767    16.8724   101.5287     8.0261     0.0546     2.4763     0.9798
  469.5000    11.9568    15.5756   -40.7257    16.9751   100.2499     8.0287     0.0571     2.4835     0.9938
  470.0000    11.9698    15.5547   -40.7747    17.1273   104.2530     8.0314     0.0595     2.4907     1.0102
  470.5000    11.9826    15.5357   -40.8238    17.3442   105.9146     8.0340     0.0618     2.4976     1.0258
  471.0000    11.9957    15.2773   -40.8728    17.2673   104.5350     8.0367     0.0600     2.4903     1.0058
  471.5000    12.0081    14.9721   -40.9219    17.1380   102.9958     8.0393     0.0575     2.4807     0.9849
  472.0000    12.0831    15.3845   -40.9709    17.0096   101.5306     8.0417     0.0565     2.4774     0.9882
  472.5000    12.1552    15.8210   -41.0199    16.8724   102.5993     8.0396     0.0575     2.4825     0.9907
  473.0000    12.2309    15.5403   -41.0690    16.6715   105.6690     8.0375     0.0584     2.4800     0.9851
  473.5000    12.0746    15.2417   -41.1180    16.4564   108.7394     8.0353     0.0594     2.4750     0.9795
  474.0000    11.9135    14.9491   -41.1670    16.3823   108.4909     8.0331     0.0595     2.4694     0.9693
  474.5000    11.7546    14.6628   -41.2161    16.3434   106.7822     8.0310     0.0563     2.4615     0.9570
  475.0000    11.5978    14.3778   -41.2651    16.3045   105.0610     8.0288     0.0531     2.4537     0.9447
  475.5000    11.4431    13.9950   -41.3142    16.2633   103.6651     8.0267     0.0499     2.4459     0.9325
  476.0000    11.2904    13.4084   -41.3632    16.1520   105.2613     8.0245     0.0467     2.4409     0.9285
  476.5000    11.1398    13.4441   -41.4122    16.0341   109.4005     8.0224     0.0484     2.4500     0.9381
  477.0000    11.0171    13.5052   -41.4613    15.9021   112.9927     8.0211     0.0522     2.4590     0.9498
  477.5000    10.9300    13.5666   -41.5103    15.6291   114.0844     8.0201     0.0560     2.4609     0.9618
  478.0000    10.8436    13.6572   -41.5593    15.3609   113.8688     8.0190     0.0598     2.4636     0.9737
  478.5000    10.7579    13.4119   -41.6084    15.0972   112.3596     8.0180     0.0636     2.4715     0.9863
  479.0000    10.6729    12.9635   -41.6573    14.8351   110.8071     8.0170     0.0640     2.4802     0.9796
  479.5000    10.5885    12.5300   -41.7062    14.7650   110.4347     8.0160     0.0575     2.4602     0.9619
  480.0000    10.3436    12.1110   -41.7527    14.6774   111.4713     8.0149     0.0511     2.4478     0.9435
  480.5000    10.0158    11.8306   -41.9227    14.5903   112.8274     8.0139     0.0492     2.4518     0.9349
  481.0000     9.6983    11.6906   -42.1219    14.3018   114.1930     8.0129     0.0510     2.4572     0.9478
  481.5000     9.3909    11.5522   -42.3215    13.9377   115.5557     8.0118     0.0529     2.4596     0.9546
  482.0000     9.0933    11.4156   -42.5208    13.5828   116.9140     8.0108     0.0548     2.4591     0.9544
  482.5000     8.8050    11.2805   -42.7199    13.2370   118.2789     8.0098     0.0567     2.4617     0.9596
  483.0000     8.5461    11.1567   -42.9149    12.9244   119.5185     8.0087     0.0585     2.4670     0.9696
  483.5000     7.9832    10.4432   -43.2521    12.8737   120.4491     8.0077     0.0604     2.4723     0.9796
  484.0000     7.4921     9.8133   -43.6155    12.8266   125.6598     8.0067     0.0621     2.4701     0.9765
  484.5000     7.0312     9.2243   -43.9794    12.3967   131.2301     8.0056     0.0612     2.4603     0.9536
  485.0000     6.6400     8.6703   -44.3430    11.7024   132.6670     8.0046     0.0602     2.4504     0.9336
  485.5000     6.2978     8.1499   -44.7073    11.0470   129.8979     8.0036     0.0591     2.4404     0.9197
  486.0000     5.9751     7.4880   -45.0701    10.4282   132.7211     8.0026     0.0581     2.4304     0.9058
  486.5000     5.7032     6.2523   -45.3428     7.3692   131.4124     8.0020     0.0571     2.4213     0.8879
  487.0000     5.7646     6.5772   -45.2793     5.0349   128.8151     8.0020     0.0562     2.4239     0.9050
  487.5000     5.8197     7.1807   -45.0735     4.6164   124.9007     8.0020     0.0584     2.4448     0.9315
  488.0000     5.9598     7.8396   -44.8703    13.4084   121.0386     8.0020     0.0607     2.4654     0.9583
  488.5000     6.4057     8.5590   -44.6671    14.4316   118.2126     8.0020     0.0630     2.4789     0.9851
  489.0000     6.8849     9.3443   -44.4641    13.5636   116.7577     8.0020     0.0652     2.4833     0.9929
  489.5000     7.3999    10.2017   -44.2610    13.9567   115.1066     8.0020     0.0674     2.4877     1.0032
  490.0000     7.9537    11.1567   -44.0580    14.0390   112.7561     8.0020     0.0697     2.4974     1.0221
  490.5000     8.5498    11.4871   -43.8549    14.0383   110.4178     8.0020     0.0720     2.5073     1.0412
  491.0000     9.1880    11.7932   -43.6519    14.1175   108.0885     8.0020     0.0740     2.5041     1.0450
  491.5000     9.6699    12.0534   -43.4488    14.2452   106.5296     8.0020     0.0710     2.5013     1.0321
  492.0000     9.8785    12.3193   -43.2458    14.4307   107.7105     8.0020     0.0677     2.5047     1.0310
  492.5000     9.9780    12.5912   -43.0425    14.4058   108.9458     8.0020     0.0645     2.5174     1.0762
  493.0000    10.0786    12.8689   -42.8397    14.3567   110.1189     8.0020     0.0613     2.5162     1.0722
  493.5000    10.1769    13.1529   -42.6351    14.2995   113.3136     8.0020     0.0580     2.5162     1.0657
  494.0000    10.4998    13.4431   -42.5605    14.8466   116.9222     8.0020     0.0548     2.5251     1.0811
  494.5000    10.8229    13.7400   -42.5591    15.5271   119.4080     8.0020     0.0538     2.5338     1.1036
  495.0000    11.1558    14.0421   -42.5594    16.5604   118.0294     8.0020     0.0533     2.5404     1.1103
  495.5000    11.4990    14.3219   -42.5597    16.3786   116.5682     8.0020     0.0528     2.5337     1.1004
  496.0000    11.7579    14.4408   -42.5598    15.9712   115.1120     8.0020     0.0524     2.5273     1.0860
  496.5000    11.9960    14.5626   -42.5581    16.4729   113.6576     8.0020     0.0529     2.5208     1.0712
  497.0000    12.2389    14.6855   -42.4772    17.0539   112.1946     8.0020     0.0555     2.5141     1.0537
  497.5000    12.4606    15.1729   -42.2949    17.8345   110.7252     8.0020     0.0580     2.5165     1.0523
  498.0000    12.4600    15.9671   -42.1136    17.6325   108.4673     8.0020     0.0604     2.5217     1.0717
  498.5000    12.4577    15.8804   -41.9317    17.3422   106.1698     8.0020     0.0611     2.5179     1.0762
  499.0000    12.4578    15.7299   -41.7499    17.9160   108.5194     8.0020     0.0570     2.5112     1.0601
  499.5000    12.4578    15.5328   -41.5664    18.5179   110.9184     8.0020     0.0532     2.5044     1.0421
  500.0000    12.7488    15.9424   -41.3784    19.1862   113.1127     8.0020     0.0492     2.4976     1.0241
  500.5000    12.9544    16.5083   -41.4221    18.6870   113.5886     8.0020     0.0486     2.4908     1.0086
  501.0000    13.1632    16.8724   -41.4845    18.1333   111.5986     8.0020     0.0493     2.4840     0.9958
  501.5000    13.3755    16.6353   -41.5456    17.8320   109.2182     8.0020     0.0501     2.4772     0.9831
  502.0000    13.6444    16.4135   -41.6066    18.6052   106.8561     8.0020     0.0509     2.4732     0.9728
  502.5000    13.5603    16.6922   -41.6679    19.1726   104.5034     8.0020     0.0516     2.4746     0.9757
  503.0000    13.4209    17.2570   -41.7261    19.5456   102.4956     8.0020     0.0523     2.4813     0.9864
  503.5000    13.2830    17.8291   -41.6553    19.0971   102.7056     8.0020     0.0531     2.4927     1.0040
  504.0000    13.1469    17.5688   -41.3510    18.7210   105.6130     8.0020     0.0538     2.5040     1.0215
