~VERSION INFORMATION
 VERS.                2.0:   CWLS LOG ASCII STANDARD - VERSION 2.0
 WRAP.                 NO:   ONE LINE PER DEPTH STEP
~WELL INFORMATION
#MNEM.UNIT      DATA TYPE    INFORMATION
#----------   ------------   ------------------------------
 STRT.F           89.0000:   START DEPTH
 STOP.F         2840.5000:   STOP DEPTH
 STEP.F            0.5000:   STEP LENGTH
 NULL.          -999.2500:   NO VALUE
 COMP. U S NAVY/INTEX OIL CO:   COMPANY
 WELL. RES3 TEAPO DOME AX #41-29:   WELL
 FLD .             TEAPOT:   FIELD
 LOC .      S29 T39N R78W:   LOCATION
 CNTY.            NATRONA:   COUNTY
 STAT.            WYOMING:   STATE
 CTRY. UNITED STATES OF AMERICA:   COUNTRY
 SRVC.       Schlumberger:   SERVICE COMPANY
 DATE.        02-JUN-1966:   LOGDATE
 API .       490250945000:   API NUMBER
~CURVE INFORMATION
#MNEM.UNIT       API CODE    CURVE DESCRIPTION
#----------   ------------   ------------------------------
 DEPT.F                  :   
 GRD .GAPI   45 310 01 00:   GAMMA RAY FROM DENSITY LOG
 CALD.IN     45 280 60 00:   CALIPER FROM DENSITY LOG
 DPHI.DEC    45 890 12 00:   DENSITY POROSITY SANDSTONE
 RHOB.G/C3   45 350 01 00:   BULK DENSITY
 CORR.G/C3   45 356 01 00:   DENSITY CORRECTION
 SPR .MV     05 010 01 00:   SPONTANEOUS POTENTIAL FROM RES.
 ASN .OHMM   05 041 16 00:   AMPLIFIED SHORT NORMAL 16"
 ILD .OHMM   05 120 46 00:   INDUCTION LOG DEEP
 CILD.MMHO   05 110 46 00:   CONDUCTIVITY INDUCTION LOG DEEP
~PARAMETER INFORMATION
#MNEM.UNIT          VALUE    DESCRIPTION
#----------   ------------   ------------------------------
 PD  .                 GL:   PERMANENT DATUM
 EPD .F              5007:   ELEVATION PERMANENT DATUM
 LMF .                 KB:   LOG MEASURED FROM
 DAPD.F              10.3:   FEET ABOVE PERMANENT DATUM
 DMF .                 KB:   DRILLING MEASURED FROM
 EKB .F            5017.3:   KELLING BUSHING
 EGL .F              5007:   GROUND LEVEL
 DATE.             6-2-66:   RUN DATE
 RUN .                  1:   RUN NUMBER
 DD  .F              2840:   DEPTH DRILLER
 DL  .F              2838:   DEPTH LOGGER
 BLI .F              2837:   BOTTOM LOG INTERVAL
 TLI .F                88:   TOP LOG INTERVAL
 CS  .IN            10.75:   CASING SIZE
 CBD .F                30:   CASING BOTTOM DRILLER
 BS  .IN            7.875:   BIT SIZE
 BSD .F              2840:   BIT SIZE AT DEPTH
 DFT .  LIGNO-SULFATE LCM:   DRILLING FLUID TYPE
 DFD .                9.9:   DRILLING FLUID DENSITY
 DFV .                 48:   DRILLING FLUID VISCOSITY
 DFPH.                7.6:   DRILLING FLUID PH
 DFL .                8.1:   DRILLING FLUID LOSS
 MSS .         CIRCULATED:   MUD SAMPLE SOURCE
 RMS .OHMM           1.62:   RESISTIVITY MUD SAMPLE
 MST .F                73:   MUD SAMPLE TEMPERATURE
 RMF .OHMM           1.06:   RESISTIVITY MUD FILTRATE SAMPLE
 MFST.F                72:   MUD FILTRATE SAMPLE TEMPERATURE
 MFSS.                 FP:   MUD FILTRATE SAMPLE SOURCE
 RMB .OHMM           1.13:   RESISTIVITY MUD AT BHT
 BHT .F               105:   BOTTOM HOLE TEMPERATURE
 TCS .HRS               2:   TIME CURCULATED STOPPED
 MRT .F               105:   MAXIMUM RECORDED TEMPERATURE
 LUN .               4507:   LOGGING UNIT NUMBER
 LUL .               CSPR:   LOGGING UNIT LOCATION
 ENGI.               HAUG:   RECORDING ENGINEER
 WITN.             TUTTLE:   WITNESSED BY
 CLNT.            A2DTECH:   CLIENT CODE
 ORIG.        2" 5" PRINT:   ORIGIN OF DATA
 UWI .       490250945000:   UNIQUE WELL ID
 DICO. A2D Technologies, Inc.:   DIGITIZING COMPANY
~OTHER INFORMATION
~A   DEPT      GRD       CALD       DPHI       RHOB       CORR        SPR          ASN      ILD        CILD  
# ...
 2644.0000   129.9384     9.6373     0.1014     2.4808    -0.0061   -31.6527     7.3445     5.3119   194.7222
 2644.5000   128.9738     9.5859     0.1000     2.4854    -0.0017   -31.4543     7.3213     5.2961   194.4846
 2645.0000   128.0100     9.5345     0.0985     2.4901     0.0028   -31.6170     7.2614     5.2824   194.9596
 2645.5000   126.9760     9.4831     0.0976     2.4940     0.0074   -31.7624     7.2012     5.2656   196.0190
 2646.0000   125.5107     9.4323     0.0987     2.4834     0.0111   -31.9355     7.1430     5.2545   198.6314
 2646.5000   126.2729     9.3963     0.0997     2.4740     0.0038   -31.9949     7.0798     5.2127   201.2438
 2647.0000   130.3541     9.3977     0.0998     2.4846    -0.0034   -31.7928     7.0290     5.1442   203.8561
 2647.5000   135.2987     9.4183     0.0988     2.4865     0.0048   -31.6886     6.9390     5.0818   206.2937
 2648.0000   137.4717     9.4171     0.0974     2.4799     0.0139   -31.4462     6.8183     5.0165   211.8621
 2648.5000   139.1955     9.4168     0.0961     2.4853     0.0230   -31.8747     6.7107     4.9528   217.0812
 2649.0000   136.4353     9.4168     0.0947     2.4913     0.0321   -31.9482     6.5976     4.8882   222.3002
 2649.5000   135.5021     9.4167     0.0934     2.4946     0.0407   -31.7333     6.4866     4.8239   227.5193
 2650.0000   139.3432     9.4169     0.0952     2.4917     0.0322   -31.5986     6.3787     4.7595   232.7384
 2650.5000   140.1813     9.4343     0.1000     2.4823     0.0225   -31.4442     6.3138     4.6952   237.9575
 2651.0000   138.3094     9.4537     0.1051     2.4729     0.0128   -31.5095     6.2663     4.6307   243.2567
 2651.5000   138.1948     9.4731     0.1088     2.4641     0.0029   -31.6195     6.1809     4.5670   245.5065
 2652.0000   140.5536     9.4925     0.1116     2.4552     0.0051   -31.6941     6.0771     4.5006   247.5884
 2652.5000   140.7626     9.5118     0.1144     2.4466     0.0094   -31.8271     5.9671     4.4524   248.2518
 2653.0000   136.1215     9.5312     0.1166     2.4415     0.0109   -31.5170     5.9541     4.4942   248.2518
 2653.5000   129.8800     9.5506     0.1107     2.4539     0.0054   -30.8659     5.9903     4.5389   245.1813
 2654.0000   131.0927     9.5700     0.1011     2.4640     0.0104   -30.6756     6.0215     4.5843   241.1517
 2654.5000   133.6722     9.5893     0.1053     2.4710     0.0172   -31.3902     6.0830     4.6288   237.1222
 2655.0000   136.1905     9.6087     0.1123     2.4553     0.0130   -31.2302     6.1550     4.6740   233.0927
 2655.5000   134.4722     9.6231     0.1152     2.4463     0.0086   -30.5165     6.2265     4.7187   229.0632
 2656.0000   132.4924     9.6338     0.1171     2.4521     0.0016   -30.3585     6.2982     4.7636   224.2757
 2656.5000   129.5980     9.6445     0.1191     2.4429    -0.0059   -30.9917     6.3697     4.8085   222.7106
 2657.0000   126.5569     9.6551     0.1173     2.4373    -0.0051   -31.2703     6.4418     4.8532   220.7829
 2657.5000   127.6835     9.6657     0.1145     2.4469    -0.0001   -31.4703     6.5141     4.8980   218.8552
 2658.0000   129.0443     9.6764     0.1118     2.4560     0.0032   -31.6020     6.5412     4.9429   216.9275
 2658.5000   128.3323     9.6870     0.1111     2.4623     0.0002   -31.3970     6.5687     4.9877   214.9998
 2659.0000   127.5163     9.6976     0.1145     2.4537    -0.0027   -31.2624     6.5933     5.0329   213.7208
 2659.5000   126.7820     9.7083     0.1178     2.4435    -0.0055   -31.4386     6.6192     5.0773   212.8234
 2660.0000   129.8031     9.7189     0.1130     2.4560     0.0013   -31.6154     6.6445     5.1231   211.9260
 2660.5000   132.4777     9.7296     0.1038     2.4755     0.0295   -31.0380     6.6700     5.1661   211.0286
 2661.0000   132.6395     9.7402     0.0945     2.4941     0.0401   -30.4345     6.6958     5.2155   210.1313
 2661.5000   130.7905     9.7508     0.0955     2.4858     0.0278   -30.4191     6.7209     5.2245   209.2907
 2662.0000   127.3939     9.7615     0.0989     2.4955     0.0258   -30.4941     6.7485     5.1489   210.5929
 2662.5000   125.8832     9.7721     0.0938     2.5126     0.0229   -30.7633     6.7691     5.0739   211.8176
 2663.0000   124.9693     9.7828     0.0978     2.4962     0.0088   -31.0249     6.7731     4.9964   213.2867
 2663.5000   126.5174     9.7934     0.1057     2.4627    -0.0064   -31.2130     6.7837     4.9206   216.6194
 2664.0000   128.1565     9.8040     0.1118     2.4597    -0.0102   -31.0844     6.7341     4.8438   220.7832
 2664.5000   128.3928     9.8147     0.1104     2.4636    -0.0044   -31.0127     6.6885     4.7675   224.9471
 2665.0000   128.1270     9.8253     0.1087     2.4678     0.0014   -30.8479     6.5647     4.6909   229.2707
 2665.5000   128.6749     9.8360     0.1070     2.4705     0.0069   -31.0107     6.3691     4.6143   236.7782
 2666.0000   129.8201     9.8467     0.1081     2.4671     0.0092   -31.1363     6.1951     4.5381   242.5894
 2666.5000   130.6085     9.8573     0.1100     2.4636     0.0067   -30.7761     6.0391     4.4612   245.7123
 2667.0000   129.6468     9.8550     0.1120     2.4599     0.0063   -30.5228     5.8934     4.3854   248.8352
 2667.5000   127.0532     9.8519     0.1076     2.4657     0.0124   -30.3860     5.7609     4.3080   250.7243
 2668.0000   124.4074     9.8489     0.0989     2.4746     0.0276   -30.6032     5.7004     4.2323   251.5917
 2668.5000   125.7916     9.8459     0.1017     2.4797     0.0397   -30.9359     5.6652     4.1554   251.8687
 2669.0000   128.7624     9.8428     0.1063     2.4744     0.0252   -31.2886     5.6228     4.1826   250.2037
 2669.5000   131.7525     9.8399     0.1098     2.4692     0.0113   -31.3045     5.5832     4.2318   248.5305
 2670.0000   134.8092     9.8436     0.1084     2.4640     0.0126   -30.9207     5.5428     4.2770   247.1295
 2670.5000   135.0999     9.8721     0.1105     2.4588     0.0166   -30.9037     5.5060     4.3246   242.4824
 2671.0000   131.0046     9.8996     0.1126     2.4533     0.0106   -31.0902     5.5073     4.3693   238.4869
 2671.5000   128.1421     9.9274     0.1117     2.4597     0.0078   -31.1968     5.5374     4.4204   234.4784
 2672.0000   126.3512     9.9321     0.1064     2.4690     0.0106   -30.9637     5.6387     4.4272   233.1066
 2672.5000   124.9591     9.9233     0.1011     2.4782     0.0067   -30.6401     5.7471     4.3186   237.6679
 2673.0000   124.9131     9.9142     0.0989     2.4874     0.0027   -30.4523     5.8465     4.2768   247.2527
 2673.5000   128.5565     9.9050     0.0970     2.4882     0.0046   -30.6446     5.9776     4.0154   265.2074
 2674.0000   132.5291     9.8960     0.1006     2.4790     0.0106   -30.8255     5.9073     3.5621   293.6968
 2674.5000   136.4772     9.8869     0.0991     2.4825     0.0166   -31.0077     5.5280     3.3344   322.1862
 2675.0000   142.1195     9.8778     0.1040     2.4849     0.0225   -31.1982     5.1252     3.1028   356.1439
 2675.5000   148.2518     9.8686     0.1119     2.4627     0.0264   -31.0810     4.7036     2.8585   375.0699
 2676.0000   148.7422     9.8590     0.1199     2.4346     0.0185   -30.8928     4.3116     2.7309   399.1009
 2676.5000   170.4560     9.8705     0.1278     2.4053     0.0114   -30.6970     3.8495     2.7506   396.8019
 2677.0000   162.5431     9.8866     0.1338     2.3900     0.0342   -30.6972     3.6149     2.7359   392.1079
 2677.5000   152.0902     9.9027     0.1258     2.4280     0.0582   -30.9488     3.5814     2.8063   380.8969
 2678.0000   138.3930     9.9188     0.1194     2.4504     0.0800   -30.9035     3.8253     2.9944   366.0140
 2678.5000   123.3018     9.9349     0.1166     2.4436     0.0099   -30.6436     4.1236     3.1440   338.1618
 2679.0000   113.8679     9.9511     0.0902     2.4859     0.0124   -30.8225     4.6214     3.4936   304.5580
 2679.5000   112.4594     9.9669     0.0794     2.5237     0.0166   -31.0512     5.1750     4.0477   267.1485
 2680.0000   113.1525     9.9746     0.0845     2.5086     0.0094   -31.2238     5.7392     4.5353   223.2767
