~VERSION INFORMATION
 VERS.                2.0:   CWLS LOG ASCII STANDARD - VERSION 2.0
 WRAP.                 NO:   ONE LINE PER DEPTH STEP
~WELL INFORMATION
#MNEM.UNIT      DATA TYPE    INFORMATION
#----------   ------------   ------------------------------
 STRT.F           28.0000:   START DEPTH
 STOP.F          659.0000:   STOP DEPTH
 STEP.F            0.5000:   STEP LENGTH
 NULL.          -999.2500:   NO VALUE
 COMP. FENIX & SCISSON INC:   COMPANY
 WELL.    NPR 3 #46-SX-34:   WELL
 FLD .             TEAPOT:   FIELD
 LOC .      S34 T39N R78W:   LOCATION
 CNTY.            NATRONA:   COUNTY
 STAT.            WYOMING:   STATE
 CTRY. UNITED STATES OF AMERICA:   COUNTRY
 SRVC.              Welex:   SERVICE COMPANY
 DATE.        01-MAY-1977:   LOGDATE
 API .       490251035600:   API NUMBER
~CURVE INFORMATION
#MNEM.UNIT       API CODE    CURVE DESCRIPTION
#----------   ------------   ------------------------------
 DEPT.F                  :   
 CALD.IN     45 280 60 00:   CALIPER FROM DENSITY
 GRD .GAPI   45 310 01 00:   GAMMA RAY FROM DENSITY LOG
 CORR.G/C3   45 356 01 00:   DENSITY CORRECTION
 DPHI.DEC    45 890 12 00:   DENSITY POROSITY SANDSTONE
 RHOB.G/C3   45 350 01 00:   BULK DENSITY
 SPR .MV     07 010 01 00:   SPONTANEOUS POTENTIAL
 ILD .OHMM   07 120 46 00:   INDUCTION LOG DEEP
 ILM .OHMM   07 120 44 00:   INDUCTION LOG MEDIUM
 SGRD.OHMM   07 221 05 00:   SHALLOW SHORT GUARD RESISTIVITY
~PARAMETER INFORMATION
#MNEM.UNIT          VALUE    DESCRIPTION
#----------   ------------   ------------------------------
 PD  .                 GL:   PERMANENT DATUM
 EPD .F              5120:   ELEVATION PERMANENT DATUM
 LMF .                 GL:   LOG MEASURED FROM
 DMF .                 GL:   DRILLING MEASURED FROM
 EGL .F              5120:   GROUND LEVEL
 DATE.        01-MAY-1977:   RUN DATE
 RUN .                  1:   RUN NUMBER
 DD  .F               660:   DEPTH DRILLER
 DL  .F               663:   DEPTH LOGGER
 BLI .F               661:   BOTTOM LOG INTERVAL
 TLI .F                28:   TOP LOG INTERVAL
 CS  .IN            8.625:   CASING SIZE
 BS  .IN               12:   BIT SIZE
 BSD .F               660:   BIT SIZE AT DEPTH
 DFT .            KCL MUD:   DRILLING FLUID TYPE
 DFD .                8.7:   DRILLING FLUID DENSITY
 TCS .HRS            0100:   TIME CURCULATED STOPPED
 MRT .F                71:   MAXIMUM RECORDED TEMPERATURE
 ENGI.          T. JOYNER:   RECORDING ENGINEER
 WITN.            R. LYON:   WITNESSED BY
 CLNT.            A2DTECH:   CLIENT CODE
 ORIG.           5" PRINT:   ORIGIN OF DATA
 UWI .       490251035600:   UNIQUE WELL ID
 DICO. A2D Technologies, Inc.:   DIGITIZING COMPANY
~OTHER INFORMATION
~A   DEPT     CALD        GRD        CORR      DPHI       RHOB        SPR        ILD        ILM       SGRD   
# ...
  539.0000     7.7543    93.8109     0.0307     0.1653     2.3881   -23.5119    18.8983    20.9888    24.3747
  539.5000     7.7689    91.4101     0.0277     0.1802     2.3685   -22.7679    19.4280    22.0265    29.1207
  540.0000     7.7684    84.8050     0.0247     0.2022     2.3415   -22.1726    19.9725    23.5986    31.0919
  540.5000     7.7680    83.9056     0.0201     0.2115     2.3287   -21.7262    20.2509    25.1092    29.7734
  541.0000     7.7675    83.1564     0.0156     0.2190     2.3136   -21.4286    20.3927    26.5329    28.4266
  541.5000     7.7670    81.8065     0.0171     0.2196     2.3099   -21.1310    21.2554    28.0373    29.2544
  542.0000     7.7666    80.7570     0.0187     0.2121     2.3227   -20.9821    22.0023    28.8212    30.2462
  542.5000     7.7511    79.2570     0.0187     0.2088     2.3299   -20.9821    22.7755    29.2214    30.0006
  543.0000     7.7506    78.6317     0.0187     0.2094     2.3325   -20.8333    23.5759    29.2214    29.2214
  543.5000     7.7502    77.9084     0.0187     0.2093     2.3325   -20.8333    24.7432    28.8212    29.4235
  544.0000     7.7497    77.6096     0.0172     0.2078     2.3363   -20.8333    25.6127    28.4266    32.4049
  544.5000     7.7493    79.7132     0.0157     0.2058     2.3355   -20.8333    24.9166    27.8447    33.7734
  545.0000     7.7489    83.6186     0.0142     0.2006     2.3363   -20.8333    23.5769    27.2747    33.5414
  545.5000     7.7635    85.1217     0.0127     0.2003     2.3446   -20.9821    22.9325    26.5329    31.0919
  546.0000     7.7630    86.0241     0.0112     0.1931     2.3528   -20.9821    22.7864    25.8112    26.1696
  546.5000     7.7625    84.9746     0.0097     0.1949     2.3566   -20.9821    22.9457    25.2829    24.2584
  547.0000     7.7621    83.9250     0.0082     0.1952     2.3461   -20.9821    23.2905    24.7653    24.7653
  547.5000     7.7616    83.3256     0.0082     0.1982     2.3423   -20.9821    23.4284    24.0917    27.6534
  548.0000     7.7612    86.3305     0.0083     0.2015     2.3408   -20.9821    22.9507    23.5986    30.2462
  548.5000     7.7457    84.8305     0.0098     0.2030     2.3393   -20.9821    22.7942    22.9567    30.0384
  549.0000     7.7452    83.9311     0.0098     0.2024     2.3423   -20.9821    22.0238    22.6424    27.6534
  549.5000     7.7298    83.6320     0.0098     0.1985     2.3476   -21.1310    21.5741    22.3323    25.8112
  550.0000     7.7611    84.7457     0.0098     0.1934     2.3567   -21.4286    21.1148    21.8752    25.0624
  550.5000     7.7808    87.2429     0.0099     0.1892     2.3627   -21.6944    20.8845    21.9270    24.5001
  551.0000     7.8042    89.7401     0.0099     0.1859     2.3680   -21.9603    20.6541    21.9789    23.7690
  551.5000     7.8040    90.2535     0.0099     0.1828     2.3744   -22.3080    20.4135    22.0265    22.6523
  552.0000     7.7889    87.6617     0.0100     0.1711     2.3810   -22.6012    20.4121    22.0265    22.1909
  552.5000     7.7887    88.3408     0.0101     0.1699     2.3892   -22.8943    20.2704    21.8752    22.0415
  553.0000     7.7735    89.6746     0.0101     0.1687     2.3966   -23.1875    20.4096    21.7249    23.6187
  553.5000     7.7734    90.2728     0.0117     0.1626     2.4026   -23.1830    20.4078    21.2802    28.2593
  554.0000     7.7582    90.4265     0.0117     0.1593     2.4071   -23.1785    20.5479    20.9888    33.3486
  554.5000     7.7580    89.5301     0.0133     0.1593     2.4102   -23.0253    20.5464    20.9888    33.5839
  555.0000     7.7579    88.4836     0.0133     0.1593     2.4109   -22.7232    20.5450    20.9888    30.9238
  555.5000     7.7577    88.2568     0.0149     0.1599     2.4102   -22.5699    20.4025    21.1340    27.0767
  556.0000     7.7576    90.8952     0.0149     0.1662     2.3989   -22.2678    20.4011    21.4274    24.1817
  556.5000     7.7574    92.2511     0.0150     0.1765     2.3808   -21.9657    20.2595    21.7249    22.0664
  557.0000     7.7573    92.4058     0.0150     0.1822     2.3741   -21.6636    20.1051    21.8752    21.9171
  557.5000     7.7571    92.1100     0.0151     0.1843     2.3696   -21.3616    19.9793    22.0265    21.9209
  558.0000     7.7570    91.8143     0.0151     0.1852     2.3658   -21.0595    19.9780    21.8752    22.3821
  558.5000     7.7719    91.5174     0.0136     0.1906     2.3628   -20.7574    19.9766    21.7249    22.6960
  559.0000     7.7717    91.0715     0.0137     0.1906     2.3621   -20.7529    19.9752    21.7249    22.8561
  559.5000     7.7716    90.6268     0.0137     0.1902     2.3651   -20.8973    19.8366    21.5757    22.8593
  560.0000     7.7564    90.1809     0.0138     0.1872     2.3673   -20.8928    19.6990    21.4274    22.7054
  560.5000     7.7562    89.7350     0.0123     0.1858     2.3674   -20.8883    19.6976    21.1340    22.5525
  561.0000     7.7410    89.1389     0.0108     0.1861     2.3682   -20.8838    19.6962    20.9888    22.4007
  561.5000     7.7108    88.5429     0.0094     0.1864     2.3697   -21.0282    19.6949    20.9888    22.2498
  562.0000     7.6956    88.6976     0.0064     0.1861     2.3704   -21.1726    19.5582    20.8446    22.0993
  562.5000     7.7255    89.1767     0.0110     0.1849     2.3704   -21.4657    19.5568    20.7014    21.8004
  563.0000     7.7555    90.2613     0.0140     0.1812     2.3742   -21.7589    19.5691    20.5592    21.8035
  563.5000     7.7704    91.4239     0.0156     0.1800     2.3840   -22.0521    19.5541    20.5592    21.6559
  564.0000     7.7702    92.7967     0.0172     0.1746     2.3915   -22.3452    19.4185    20.4179    21.5101
  564.5000     7.7550    92.9295     0.0174     0.1704     2.3975   -22.6383    19.4171    20.4179    21.2192
  565.0000     7.7699    91.4265     0.0189     0.1659     2.3998   -22.9314    19.1499    20.2777    21.2222
  565.5000     7.7547    88.8785     0.0218     0.1662     2.4043   -23.0759    18.8864    20.0000    20.9345
  566.0000     7.7696    86.6308     0.0219     0.1592     2.4103   -23.2202    18.3714    19.7261    20.7928
  566.5000     7.7695    88.1369     0.0204     0.1541     2.4179   -23.5133    17.9941    19.4560    20.6528
  567.0000     7.7693    90.6940     0.0189     0.1562     2.4164   -23.6576    17.7465    19.3223    20.5137
  567.5000     7.7692    89.3472     0.0190     0.1628     2.4073   -23.6531    17.3820    19.0578    20.3756
  568.0000     7.7690    84.9974     0.0190     0.1562     2.4111   -23.9463    17.0250    18.9268    20.2384
  568.5000     7.7689    84.2501     0.0206     0.1550     2.4171   -24.0908    16.7907    18.9268    20.1022
  569.0000     7.7537    86.6582     0.0221     0.1529     2.4194   -24.3838    16.4459    18.9268    19.9450
  569.5000     7.7686    88.7648     0.0222     0.1535     2.4171   -24.6769    16.2196    18.9268    19.6764
  570.0000     7.7534    93.7243     0.0238     0.1517     2.4164   -24.8214    16.2185    18.9268    19.5457
  570.5000     7.7532    94.6298     0.0253     0.1505     2.4247   -25.1146    16.3298    18.7714    19.2825
  571.0000     7.7531    95.3851     0.0254     0.1513     2.4247   -25.4077    16.3284    18.5147    19.0367
  571.5000     7.7529    98.2425     0.0254     0.1541     2.4231   -25.7007    16.3273    18.2855    18.7666
  572.0000     7.7528    99.4471     0.0239     0.1551     2.4187   -25.8452    16.3261    18.0120    18.5240
  572.5000     7.7677    98.7021     0.0225     0.1593     2.4142   -25.9896    15.9908    17.6660    18.5181
  573.0000     7.7675    98.4052     0.0195     0.1604     2.4142   -26.4314    15.6624    17.3044    18.3951
  573.5000     7.7824    97.9593     0.0165     0.1565     2.4142   -26.5759    15.3408    17.1855    18.1524
  574.0000     7.7822    97.4995     0.0120     0.1556     2.4150   -27.0177    15.0257    17.0471    18.0302
  574.5000     7.7821    96.9104     0.0075     0.1577     2.4150   -27.1622    14.6842    17.0674    18.0327
  575.0000     7.7819    95.8709     0.0045     0.1570     2.4150   -27.6040    14.2974    17.2053    17.9112
