~VERSION INFORMATION
 VERS.                2.0:   CWLS LOG ASCII STANDARD - VERSION 2.0
 WRAP.                 NO:   ONE LINE PER DEPTH STEP
~WELL INFORMATION
#MNEM.UNIT      DATA TYPE    INFORMATION
#----------   ------------   ------------------------------
 STRT.F           70.0000:   START DEPTH
 STOP.F         1043.0000:   STOP DEPTH
 STEP.F            0.5000:   STEP LENGTH
 NULL.          -999.2500:   NO VALUE
 COMP. U S NAVY/INTEX OIL CO:   COMPANY
 WELL.       NPR 3 #54S-2:   WELL
 FLD .             TEAPOT:   FIELD
 LOC .       S2 T38N R78W:   LOCATION
 CNTY.            NATRONA:   COUNTY
 STAT.            WYOMING:   STATE
 CTRY. UNITED STATES OF AMERICA:   COUNTRY
 SRVC.         Lane Wells:   SERVICE COMPANY
 DATE.        14-JUN-1960:   LOGDATE
 API .       490250643300:   API NUMBER
~CURVE INFORMATION
#MNEM.UNIT       API CODE    CURVE DESCRIPTION
#----------   ------------   ------------------------------
 DEPT.F                  :   
 CILD.MMHO   05 110 46 00:   CONDUCTIVITY INDUCTION LOG DEEP
 ILD .OHMM   05 120 46 00:   INDUCTION LOG DEEP
 ASN .OHMM   05 041 16 00:   AMPLIFIED SHORT NORMAL 16"
 SPR .MV     05 010 01 00:   SPONTANEOUS POTENTIAL FROM RES.
~PARAMETER INFORMATION
#MNEM.UNIT          VALUE    DESCRIPTION
#----------   ------------   ------------------------------
 PD  .                 GL:   PERMANENT DATUM
 EPD .F              6164:   ELEVATION PERMANENT DATUM
 LMF .                 KB:   LOG MEASURED FROM
 DAPD.F                 5:   FEET ABOVE PERMANENT DATUM
 DMF .                 KB:   DRILLING MEASURED FROM
 EKB .F              6169:   KELLING BUSHING
 EGL .F              6164:   GROUND LEVEL
 DATE.            6-14-60:   RUN DATE
 RUN .                  1:   RUN NUMBER
 DD  .F              1045:   DEPTH DRILLER
 DL  .F              1045:   DEPTH LOGGER
 BLI .F              1043:   BOTTOM LOG INTERVAL
 TLI .F                70:   TOP LOG INTERVAL
 CS  .IN            8.625:   CASING SIZE
 CBD .F                12:   CASING BOTTOM DRILLER
 BS  .IN            7.875:   BIT SIZE
 BSD .F              1045:   BIT SIZE AT DEPTH
 DFT .   GEL/OIL EMULSION:   DRILLING FLUID TYPE
 DFD .                9.7:   DRILLING FLUID DENSITY
 DFV .                 45:   DRILLING FLUID VISCOSITY
 DFPH.                  8:   DRILLING FLUID PH
 DFL .               11.6:   DRILLING FLUID LOSS
 MSS .          FLOW LINE:   MUD SAMPLE SOURCE
 RMS .OHMM            1.6:   RESISTIVITY MUD SAMPLE
 MST .F                62:   MUD SAMPLE TEMPERATURE
 RMF .OHMM            1.4:   RESISTIVITY MUD FILTRATE SAMPLE
 MFST.F                60:   MUD FILTRATE SAMPLE TEMPERATURE
 RMC .OHMM           1.75:   RESISTIVITY MUD CAKE
 MCST.F                60:   MUD CAKE SAMPLE TEMPERATURE
 MFSS.                MUD:   MUD FILTRATE SAMPLE SOURCE
 MCSS.              PRESS:   MUD CAKE SAMPLE SOURCE
 RMB .OHMM            1.4:   RESISTIVITY MUD AT BHT
 BHT .F                72:   BOTTOM HOLE TEMPERATURE
 MRT .F                72:   MAXIMUM RECORDED TEMPERATURE
 LUN .             C-4474:   LOGGING UNIT NUMBER
 LUL .             CASPER:   LOGGING UNIT LOCATION
 ENGI.      NELSON/GRIGGS:   RECORDING ENGINEER
 WITN.   JORGENSEN/HUDSON:   WITNESSED BY
 CLNT.            A2DTECH:   CLIENT CODE
 ORIG.       2", 5" PRINT:   ORIGIN OF DATA
 UWI .       490250643300:   UNIQUE WELL ID
 DICO. A2D Technologies, Inc.:   DIGITIZING COMPANY
~OTHER INFORMATION
~A   DEPT     CILD          ILD        ASN      SPR   
# ...
  654.0000   142.5613     7.4938     7.9189   -40.3497
  654.5000   142.6399     7.4515     7.9009   -40.4063
  655.0000   143.9948     7.4260     7.9294   -40.4595
  655.5000   145.3497     7.4142     7.9739   -40.5141
  656.0000   146.7046     7.3918     8.0171   -40.5684
  656.5000   147.8090     7.3728     8.0077   -40.6211
  657.0000   148.3649     7.3520     7.9683   -40.6778
  657.5000   148.9207     7.3322     7.9228   -40.7264
  658.0000   149.4766     7.3119     7.8780   -40.7905
  658.5000   150.0325     7.2918     7.8312   -40.7460
  659.0000   150.6007     7.2715     7.7883   -40.6257
  659.5000   151.2333     7.2533     7.7359   -40.5197
  660.0000   150.1665     7.2977     7.7695   -40.4150
  660.5000   147.1331     7.3606     7.8789   -40.2966
  661.0000   144.1043     7.4200     7.9830   -40.3369
  661.5000   142.0725     7.4808     8.0900   -40.4861
  662.0000   141.7798     7.5418     8.1965   -40.6062
  662.5000   141.4915     7.6018     8.3011   -40.7391
  663.0000   141.2005     7.6176     8.4130   -40.8663
  663.5000   140.9031     7.6333     8.5187   -40.9944
  664.0000   140.6033     7.6542     8.5034   -41.1230
  664.5000   140.8145     7.6678     8.4705   -41.1646
  665.0000   141.8169     7.6950     8.4424   -41.1602
  665.5000   142.8185     7.6351     8.4449   -41.1607
  666.0000   143.8197     7.5809     8.4567   -41.1747
  666.5000   144.8232     7.5305     8.4386   -41.3175
  667.0000   145.8199     7.4694     8.3521   -41.4225
  667.5000   146.8166     7.4136     8.2414   -41.6795
  668.0000   147.8133     7.3548     8.1188   -41.6504
  668.5000   148.8100     7.2977     8.0392   -41.5289
  669.0000   149.8067     7.2395     8.0086   -41.2743
  669.5000   150.8035     7.1826     7.9795   -40.8182
  670.0000   151.8002     7.1237     7.9450   -40.4358
  670.5000   152.7969     7.0684     7.8264   -40.0505
  671.0000   153.7936     7.0056     7.6902   -39.5995
  671.5000   154.8250     6.9804     7.5647   -39.4284
  672.0000   154.8250     6.9963     7.5259   -39.6967
  672.5000   154.8250     7.0054     7.5043   -39.9383
  673.0000   154.8250     7.0180     7.5077   -40.1451
  673.5000   154.8250     7.0287     7.5223   -40.2422
  674.0000   154.3552     7.0403     7.5686   -40.3731
  674.5000   153.4095     7.0518     7.6237   -40.4880
  675.0000   152.4388     7.0628     7.6727   -40.6121
  675.5000   151.4661     7.0770     7.7313   -40.7297
  676.0000   150.4945     7.0943     7.7427   -40.8531
  676.5000   149.5260     7.1111     7.7236   -40.9679
  677.0000   148.5617     7.1282     7.7816   -41.0999
  677.5000   147.6260     7.1451     7.8345   -41.1680
  678.0000   144.0315     7.1621     7.8909   -41.1615
  678.5000   144.0346     7.1790     7.9423   -41.1495
  679.0000   144.0305     7.1960     8.0017   -40.9504
  679.5000   144.0209     7.2130     8.0227   -40.7139
  680.0000   144.0106     7.2300     8.0551   -40.4846
  680.5000   144.8616     7.2469     8.1319   -40.2505
  681.0000   146.4130     7.2639     8.1934   -40.0214
  681.5000   147.9699     7.2808     8.2691   -39.7841
  682.0000   149.4324     7.2978     8.2757   -39.5800
  682.5000   149.4324     7.3147     8.2277   -39.6592
  683.0000   149.4324     7.3316     8.1903   -39.7805
  683.5000   149.4324     7.3422     8.1472   -39.8924
  684.0000   148.8539     7.3685     8.1083   -40.0089
  684.5000   147.8685     7.3966     8.0650   -40.1225
  685.0000   146.8831     7.4249     8.0277   -40.2382
  685.5000   145.8977     7.4515     7.9801   -40.3517
  686.0000   144.9124     7.4818     8.0015   -40.4685
  686.5000   144.0397     7.5040     8.0707   -40.5796
  687.0000   142.6976     7.5654     8.1131   -40.7013
  687.5000   141.4932     7.6571     8.1323   -40.7908
  688.0000   140.2889     7.7385     8.2204   -40.8724
  688.5000   139.0845     7.8248     8.3624   -41.0207
  689.0000   136.9215     7.9079     8.4865   -41.1460
  689.5000   134.2117     7.9937     8.6104   -41.2927
  690.0000   131.5019     8.0759     8.7561   -41.3265
  690.5000   128.7921     8.1631     8.8945   -41.1405
  691.0000   126.0823     8.3209     9.0309   -40.9640
  691.5000   123.3725     8.4701     9.1702   -40.7785
  692.0000   121.3357     8.6194     9.3042   -40.6319
  692.5000   119.6355     8.7683     9.4491   -40.6459
  693.0000   117.9352     8.9179     9.5726   -40.6920
  693.5000   116.2350     9.0663     9.7360   -40.7277
  694.0000   114.5347     9.2171     9.8223   -40.7732
  694.5000   112.8344     9.3596    10.3895   -40.7905
  695.0000   111.1342     9.4656    10.7202   -40.7118
  695.5000   109.4339     9.5527    10.8398   -40.6260
  696.0000   108.0889     9.6359    11.0331   -40.5555
  696.5000   105.9049     9.7189    11.1906   -40.4572
  697.0000   104.0984     9.8040    11.3630   -40.5705
  697.5000   102.2919     9.8844    11.5372   -40.8139
  698.0000   100.4853     9.9691    11.6566   -41.0124
  698.5000    98.6788    10.0520    11.6803   -41.2340
  699.0000    97.3037     9.9839    11.7044   -41.4375
  699.5000    99.1012     9.9396    11.7406   -41.6611
  700.0000   100.5751     9.8924    11.6752   -41.8548
  700.5000   102.5501     9.8411    11.5739   -42.1090
  701.0000   104.5251     9.7942    11.5180   -42.1665
  701.5000   106.5251     9.7449    11.4475   -41.8625
  702.0000   108.5208     9.6966    11.3848   -41.5850
  702.5000   109.9390     9.6482    11.3179   -41.2913
  703.0000   110.3391     9.5963    11.2531   -40.9948
  703.5000   110.8409     9.5875    11.1874   -40.7014
  704.0000   111.3417     9.5584    11.1222   -40.7315
  704.5000   111.8476     9.5149    11.0568   -41.0983
  705.0000   112.3597     9.4748    10.9914   -41.4730
  705.5000   112.8819     9.4329    10.9262   -41.5995
  706.0000   113.4816     9.3921    10.8586   -41.6784
  706.5000   113.4816     9.3506    10.8498   -41.7748
  707.0000   113.4816     9.3098    10.8516   -41.8619
  707.5000   114.5151     9.2679    10.8517   -41.9560
  708.0000   115.7225     9.2279    10.8507   -42.0435
  708.5000   117.0766     9.1844    10.8548   -42.0614
  709.0000   117.0766     9.1474    10.8318   -42.0480
  709.5000   117.5747     9.1103    10.5676   -42.0703
  710.0000   118.8530     9.0311    10.2036   -41.9043
  710.5000   120.1314     8.9546     9.9359   -41.4878
  711.0000   121.4098     8.8757     9.7723   -41.1013
  711.5000   122.6881     8.7990     9.5541   -40.6846
  712.0000   123.9665     8.7195     9.4011   -40.3150
  712.5000   125.2449     8.6439     9.3221   -40.1418
  713.0000   126.5232     8.5277     9.2290   -40.2970
  713.5000   127.8619     8.5049     9.1461   -40.5634
  714.0000   127.6701     8.5110     9.0984   -40.7803
  714.5000   127.4689     8.5082     9.0200   -41.0562
  715.0000   127.2677     8.5098     8.9770   -41.1122
  715.5000   127.0665     8.5092     8.9427   -40.9963
  716.0000   126.8652     8.5093     8.9059   -40.8557
  716.5000   126.6640     8.5100     8.8694   -40.8545
  717.0000   126.4615     8.5088     8.8342   -40.9406
  717.5000   126.2664     8.5118     8.7880   -40.9955
  718.0000   126.0787     8.4886     8.7296   -41.0665
  718.5000   126.0878     8.4400     8.6745   -41.1290
  719.0000   126.0933     8.3961     8.6162   -41.1965
  719.5000   128.2369     8.3498     8.5667   -41.2608
  720.0000   130.3036     8.3049     8.5492   -41.3285
  720.5000   132.3652     8.2593     8.5518   -41.3908
  721.0000   133.2545     8.2139     8.5663   -41.4632
  721.5000   132.7037     8.1686     8.5799   -41.4933
  722.0000   132.1862     8.1231     8.5921   -41.2899
  722.5000   131.6688     8.0779     8.6086   -41.0689
  723.0000   132.8830     8.0321     8.6085   -40.8570
  723.5000   135.2977     7.9882     8.5319   -40.6327
  724.0000   137.7124     7.9469     8.4398   -40.4628
  724.5000   140.1271     7.9064     8.2454   -40.5038
  725.0000   142.5418     7.8687     8.0529   -40.5595
  725.5000   144.9565     7.8284     7.8641   -40.6129
  726.0000   147.3712     7.7922     7.6697   -40.6674
  726.5000   149.4324     7.7486     7.4849   -40.7210
