~VERSION INFORMATION
 VERS.                2.0:   CWLS LOG ASCII STANDARD - VERSION 2.0
 WRAP.                 NO:   ONE LINE PER DEPTH STEP
~WELL INFORMATION
#MNEM.UNIT      DATA TYPE    INFORMATION
#----------   ------------   ------------------------------
 STRT.F           26.0000:   START DEPTH
 STOP.F          476.0000:   STOP DEPTH
 STEP.F            0.5000:   STEP LENGTH
 NULL.          -999.2500:   NO VALUE
 COMP. FENIX & SCISSON INC:   COMPANY
 WELL.         SX-3 #66-3:   WELL
 FLD .             TEAPOT:   FIELD
 LOC .       S3 T38N R78W:   LOCATION
 CNTY.            NATRONA:   COUNTY
 STAT.            WYOMING:   STATE
 CTRY. UNITED STATES OF AMERICA:   COUNTRY
 SRVC.              Welex:   SERVICE COMPANY
 DATE.        02-APR-1977:   LOGDATE
 API .       490251032800:   API NUMBER
~CURVE INFORMATION
#MNEM.UNIT       API CODE    CURVE DESCRIPTION
#----------   ------------   ------------------------------
 DEPT.F                  :   
 CALD.IN     45 280 60 00:   CALIPER FROM DENSITY LOG
 GRD .GAPI   45 310 01 00:   GAMMA RAY FROM DENSITY LOG
 CORR.G/C3   45 356 01 00:   DENSITY CORRECTION
 DPHI.DEC    45 890 12 00:   DENSITY POROSITY SANDSTONE
 RHOB.G/C3   45 350 01 00:   BULK DENSITY
~PARAMETER INFORMATION
#MNEM.UNIT          VALUE    DESCRIPTION
#----------   ------------   ------------------------------
 PD  .                 GL:   PERMANENT DATUM
 LMF .                 GL:   LOG MEASURED FROM
 DMF .                 GL:   DRILLING MEASURED FROM
 EGL .F              5152:   GROUND LEVEL
 DATE.        02-APR-1977:   RUN DATE
 RUN .                  1:   RUN NUMBER
 DD  .F               485:   DEPTH DRILLER
 DL  .F               480:   DEPTH LOGGER
 BLI .F               478:   BOTTOM LOG INTERVAL
 TLI .F                34:   TOP LOG INTERVAL
 CS  .IN            8.625:   CASING SIZE
 BS  .IN            7.875:   BIT SIZE
 BSD .F               485:   BIT SIZE AT DEPTH
 DFT .                KCL:   DRILLING FLUID TYPE
 DFD .                8.9:   DRILLING FLUID DENSITY
 BHT .F                61:   BOTTOM HOLE TEMPERATURE
 TCS .HRS            0300:   TIME CURCULATED STOPPED
 MRT .F                61:   MAXIMUM RECORDED TEMPERATURE
 ENGI.            C. DOAK:   RECORDING ENGINEER
 WITN.   R. B. HARRINGTON:   WITNESSED BY
 CLNT.            A2DTECH:   CLIENT CODE
 ORIG.           5" PRINT:   ORIGIN OF DATA
 UWI .       490251032800:   UNIQUE WELL ID
 DICO. A2D Technologies, Inc.:   DIGITIZING COMPANY
~OTHER INFORMATION
~A   DEPT       CALD      GRD       CORR       DPHI       RHOB   
# ...
  392.0000     7.5286    85.5483     0.0559     0.1523     2.3903
  392.5000     7.5446    84.6780     0.0529     0.1521     2.3918
  393.0000     7.5603    83.9445     0.0500     0.1499     2.3941
  393.5000     7.5612    83.5082     0.0441     0.1448     2.4001
  394.0000     7.5769    84.7428     0.0381     0.1377     2.4076
  394.5000     7.5926    85.1996     0.0337     0.1395     2.4129
  395.0000     7.6380    85.6638     0.0307     0.1424     2.4137
  395.5000     7.6982    86.2729     0.0279     0.1442     2.4055
  396.0000     7.7436    85.8382     0.0263     0.1418     2.4002
  396.5000     7.7742    86.4509     0.0205     0.1394     2.3959
  397.0000     7.7899    87.9515     0.0158     0.1379     2.4091
  397.5000     7.7908    89.4521     0.0144     0.1376     2.4194
  398.0000     7.8091    90.0575     0.0117     0.1402     2.4169
  398.5000     7.8521    87.2527     0.0118     0.1435     2.4057
  399.0000     7.8678    86.5245     0.0104     0.1450     2.3990
  399.5000     7.8835    85.9412     0.0089     0.1453     2.3931
  400.0000     7.9139    86.7682     0.0075     0.1429     2.3945
  400.5000     7.9139    87.1589     0.0061     0.1427     2.4103
  401.0000     7.9139    84.1636     0.0031     0.1434     2.4089
  401.5000     7.9139    82.9955     0.0032     0.1440     2.4066
  402.0000     7.9139    85.8158     0.0033     0.1452     2.4014
  402.5000     7.9139    88.8039     0.0034     0.1476     2.3977
  403.0000     7.8991    91.3105     0.0053     0.1475     2.3985
  403.5000     7.8843    92.7304     0.0065     0.1466     2.4015
  404.0000     7.8694    92.7422     0.0076     0.1372     2.4083
  404.5000     7.8694    92.0111     0.0087     0.1319     2.4178
  405.0000     7.8546    90.8312     0.0098     0.1331     2.4225
  405.5000     7.8546    92.6290     0.0096     0.1307     2.4173
  406.0000     7.8568    92.0465     0.0142     0.1268     2.4345
  406.5000     7.8694    91.0182     0.0172     0.1247     2.4390
  407.0000     7.8546    90.4356     0.0218     0.1226     2.4435
  407.5000     7.8546    90.5960     0.0219     0.1205     2.4503
  408.0000     7.8546    92.2422     0.0159     0.1238     2.4429
  408.5000     7.8546    92.6998     0.0100     0.1279     2.4346
  409.0000     7.8249    95.0890     0.0070     0.1294     2.4308
  409.5000     7.7953    98.0726     0.0041     0.1309     2.4263
  410.0000     7.7656    99.8645     0.0012     0.1321     2.4218
  410.5000     7.7359    96.4617     0.0030     0.1338     2.4163
  411.0000     7.7359    95.1333     0.0103     0.1329     2.4145
  411.5000     7.7211    96.1881     0.0149     0.1284     2.4303
  412.0000     7.7211    95.0112     0.0179     0.1263     2.4363
  412.5000     7.7359    93.6857     0.0225     0.1254     2.4385
  413.0000     7.7953    92.6574     0.0225     0.1245     2.4408
  413.5000     7.8249    91.7777     0.0226     0.1225     2.4431
  414.0000     7.8546    91.9381     0.0211     0.1203     2.4453
  414.5000     7.8694    93.1386     0.0167     0.1241     2.4491
  415.0000     7.8843    93.8933     0.0153     0.1220     2.4521
  415.5000     7.8834    94.0537     0.0138     0.1178     2.4596
  416.0000     7.8814    95.8486     0.0154     0.1151     2.4648
  416.5000     7.8794    96.0104     0.0170     0.1178     2.4619
  417.0000     7.8774    95.8722     0.0170     0.1196     2.4582
  417.5000     7.8754    97.6894     0.0186     0.1207     2.4530
  418.0000     7.8734    99.4619     0.0216     0.1216     2.4470
  418.5000     7.8714    97.9554     0.0247     0.1210     2.4469
  419.0000     7.8694    96.7697     0.0262     0.1195     2.4508
  419.5000     7.8675    96.3769     0.0278     0.1186     2.4590
  420.0000     7.8655    97.7290     0.0278     0.1183     2.4680
  420.5000     7.8635    99.0780     0.0249     0.1182     2.4718
  421.0000     7.8615   100.4271     0.0220     0.1194     2.4590
  421.5000     7.8595   102.3706     0.0159     0.1215     2.4411
  422.0000     7.8575   102.8252     0.0100     0.1251     2.4359
  422.5000     7.8555   101.9455     0.0087     0.1253     2.4352
  423.0000     7.8546   103.1489     0.0102     0.1229     2.4400
  423.5000     7.8546   103.9037     0.0133     0.1200     2.4495
  424.0000     7.8546   104.6584     0.0164     0.1180     2.4585
  424.5000     7.8398   105.7103     0.0179     0.1150     2.4660
  425.0000     7.8249   107.3566     0.0225     0.1120     2.4712
  425.5000     7.7953   109.1515     0.0240     0.1139     2.4720
  426.0000     7.7804   111.9864     0.0241     0.1182     2.4548
  426.5000     7.7656   113.1869     0.0226     0.1219     2.4414
  427.0000     7.7656   114.6846     0.0167     0.1282     2.4265
  427.5000     7.7656   116.9253     0.0108     0.1333     2.4048
  428.0000     7.7507   120.0545     0.0063     0.1455     2.4026
  428.5000     7.7507   115.9087     0.0124     0.1416     2.4161
  429.0000     7.7359   107.4510     0.0170     0.1341     2.4393
  429.5000     7.7359   102.5594     0.0215     0.1048     2.4662
  430.0000     7.7359   101.5281     0.0246     0.0916     2.4931
  430.5000     7.7359   106.8920     0.0291     0.0898     2.4954
  431.0000     7.7359   109.2812     0.0277     0.0993     2.4820
  431.5000     7.7359   111.8190     0.0202     0.1086     2.4633
  432.0000     7.7359   113.0431     0.0113     0.1127     2.4551
  432.5000     7.7359   110.5053     0.0069     0.1091     2.4626
  433.0000     7.7359   108.5855     0.0114     0.1058     2.4716
  433.5000     7.7359   106.8098     0.0160     0.1025     2.4783
  434.0000     7.7359   104.5735     0.0176     0.1007     2.4768
  434.5000     7.7359   102.3283     0.0191     0.1001     2.4707
  435.0000     7.7359    99.8366     0.0192     0.1052     2.4655
  435.5000     7.7359    98.3537     0.0175     0.1081     2.4604
  436.0000     7.7359    97.7860     0.0133     0.1105     2.4590
  436.5000     7.7211    99.0951     0.0089     0.1093     2.4628
  437.0000     7.7211    98.1331     0.0074     0.1057     2.4673
  437.5000     7.7211    97.2533     0.0075     0.1048     2.4688
  438.0000     7.7211    98.3052     0.0075     0.1104     2.4643
  438.5000     7.7211    99.9515     0.0076     0.1146     2.4569
  439.0000     7.7211   100.7063     0.0081     0.1182     2.4502
  439.5000     7.7359   101.1638     0.0107     0.1218     2.4427
  440.0000     7.7359   100.8784     0.0123     0.1248     2.4375
  440.5000     7.7211   100.1473     0.0138     0.1268     2.4338
  441.0000     7.7211    99.8590     0.0154     0.1271     2.4323
  441.5000     7.7211    99.5736     0.0199     0.1235     2.4398
  442.0000     7.7211    99.2912     0.0215     0.1175     2.4541
  442.5000     7.7062    98.4114     0.0261     0.1100     2.4638
  443.0000     7.7211    97.5317     0.0276     0.1031     2.4720
  443.5000     7.7211    96.5034     0.0292     0.0995     2.4751
  444.0000     7.7211    95.7693     0.0294     0.1114     2.4586
  444.5000     7.7062    97.1213     0.0248     0.1186     2.4489
  445.0000     7.6914    95.3501     0.0159     0.1230     2.4385
  445.5000     7.6766    94.9131     0.0129     0.1224     2.4303
  446.0000     7.6766    96.5624     0.0100     0.1203     2.4370
  446.5000     7.6617    98.2086     0.0101     0.1179     2.4461
  447.0000     7.6320    99.1120     0.0101     0.1197     2.4528
  447.5000     7.6172    99.7181     0.0117     0.1185     2.4416
  448.0000     7.6172   100.3243     0.0120     0.1149     2.4518
  448.5000     7.6172   100.9304     0.0148     0.1107     2.4656
  449.0000     7.6469   101.9823     0.0194     0.1055     2.4760
  449.5000     7.6766   102.8857     0.0269     0.0999     2.4895
  450.0000     7.6914    99.1828     0.0330     0.0933     2.4897
  450.5000     7.6902    95.1115     0.0341     0.0953     2.4886
  451.0000     7.6891    95.6328     0.0330     0.1016     2.4773
  451.5000     7.6880    98.7603     0.0286     0.1060     2.4651
  452.0000     7.6869   103.3737     0.0271     0.1087     2.4569
  452.5000     7.7007   105.0153     0.0226     0.1099     2.4599
