~VERSION INFORMATION
 VERS.                2.0:   CWLS LOG ASCII STANDARD - VERSION 2.0
 WRAP.                 NO:   ONE LINE PER DEPTH STEP
~WELL INFORMATION
#MNEM.UNIT      DATA TYPE    INFORMATION
#----------   ------------   ------------------------------
 STRT.F            0.0000:   START DEPTH
 STOP.F          416.0000:   STOP DEPTH
 STEP.F            0.5000:   STEP LENGTH
 NULL.          -999.2500:   NO VALUE
 COMP. DEPARTMENT OF ENERGY:   COMPANY
 WELL. NPR 3 #55-61 SX 3 C1:   WELL
 FLD . TEAPOT NAVAL RESERVE:   FIELD
 LOC .       S3 T38N R78W:   LOCATION
 CNTY.            NATRONA:   COUNTY
 STAT.            WYOMING:   STATE
 CTRY. UNITED STATES OF AMERICA:   COUNTRY
 SRVC.      Dresser Atlas:   SERVICE COMPANY
 DATE.        26-JUN-1985:   LOGDATE
 API .       490251134400:   API NUMBER
~CURVE INFORMATION
#MNEM.UNIT       API CODE    CURVE DESCRIPTION
#----------   ------------   ------------------------------
 DEPT.F                  :   
 RILD.OHMM   07 120 46 00:   INDUCTION LOG DEEP RESISTIVITY
 RILM.OHMM   07 120 44 00:   INDUCTION LOG MEDIUM RESISTIVITY
 GRD .GAPI   45 310 01 00:   GAMMA RAY FROM DENSITY LOG
 NPHI.DEC    42 890 03 00:   NEUTRON POROSITY SANDSTONE
~PARAMETER INFORMATION
#MNEM.UNIT          VALUE    DESCRIPTION
#----------   ------------   ------------------------------
 PD  .                 GL:   PERMANENT DATUM
 EPD .F            5160.8:   ELEVATION PERMANENT DATUM
 LMF .                 GL:   LOG MEASURED FROM
 DMF .                 GL:   DRILLING MEASURED FROM
 EGL .F            5160.8:   GROUND LEVEL
 DATE.        26-JUN-1985:   RUN DATE
 RUN .                  1:   RUN NUMBER
 DD  .F               420:   DEPTH DRILLER
 DL  .F               420:   DEPTH LOGGER
 BLI .F               416:   BOTTOM LOG INTERVAL
 CS  .IN            8.625:   CASING SIZE
 CBD .F                79:   CASING BOTTOM DRILLER
 CBL .F                79:   CASING BOTTOM LOGGER
 BS  .IN            4.875:   BIT SIZE
 BSD .F               420:   BIT SIZE AT DEPTH
 DFT .           FOAM AIR:   DRILLING FLUID TYPE
 TCS .HRS               2:   TIME CURCULATED STOPPED
 MRT .F                60:   MAXIMUM RECORDED TEMPERATURE
 LUN .            HL 6274:   LOGGING UNIT NUMBER
 LUL .           GILLETTE:   LOGGING UNIT LOCATION
 ENGI.             RAUTIO:   RECORDING ENGINEER
 WITN.             TAYLOR:   WITNESSED BY
 CLNT.            A2DTECH:   CLIENT CODE
 ORIG.           5" PRINT:   ORIGIN OF DATA
 UWI .       490251134400:   UNIQUE WELL ID
 DICO. A2D Technologies, Inc.:   DIGITIZING COMPANY
~OTHER INFORMATION
~A    DEPT    RILD       RILM         GRD      NPHI   
# ...
  146.0000     8.8055     8.7990   127.3715     0.0764
  146.5000     8.8070     8.6286   131.5560     0.0755
  147.0000     8.6862     8.5693   136.7700     0.0794
  147.5000     8.6270     8.5700   136.4826     0.0845
  148.0000     8.5680     8.5706   133.7782     0.0884
  148.5000     8.5695     8.5712   134.0950     0.0908
  149.0000     8.5706     8.5717   133.5054     0.0887
  149.5000     8.5718     8.5723   131.1032     0.0823
  150.0000     8.5730     8.5729   131.4199     0.0796
  150.5000     8.5742     8.5735   132.3414     0.0802
  151.0000     8.5753     8.5741   131.7551     0.0822
  151.5000     8.5765     8.5151   131.1618     0.0852
  152.0000     8.5777     8.4565   129.9717     0.0864
  152.5000     8.5789     8.4571   128.7779     0.0846
  153.0000     8.5204     8.3974   128.1847     0.0816
  153.5000     8.4624     8.3361   126.9939     0.0794
  154.0000     8.3947     8.3417   129.4261     0.0779
  154.5000     8.3475     8.3424   131.8580     0.0798
  155.0000     8.3489     8.4014   131.3025     0.0833
  155.5000     8.2918     8.4020   129.5074     0.0851
  156.0000     8.2932     8.2862   125.8996     0.0854
  156.5000     8.2943     8.1152   123.1981     0.0847
  157.0000     8.3535     8.0593   120.4967     0.0856
  157.5000     8.3547     8.2303   119.8640     0.0886
  158.0000     8.1260     8.2309   123.5530     0.0910
  158.5000     7.7941     7.7308   127.8590     0.0903
  159.0000     7.4758     7.3119   129.9326     0.0831
  159.5000     7.2207     7.0128   127.2355     0.0824
  160.0000     6.9743     6.8681   126.6445     0.0903
  160.5000     6.8786     6.7735   128.7812     0.1009
  161.0000     6.7344     6.6801   130.3094     0.1081
  161.5000     6.6913     6.6806   130.9312     0.1146
  162.0000     6.6456     6.6811   134.8763     0.1181
  162.5000     6.6468     6.6815   137.0087     0.1078
  163.0000     6.7882     6.7759   130.9884     0.0981
  163.5000     7.0300     6.8715   126.1721     0.0960
  164.0000     7.2803     7.1656   123.7728     0.0969
  164.5000     7.4378     7.4722   122.2798     0.0993
  165.0000     7.5935     7.6841   121.3867     0.0987
  165.5000     7.6478     7.8470   122.9192     0.0959
  166.0000     7.6489     7.9213   126.5622     0.0921
  166.5000     7.6499     7.9952   130.2689     0.0908
  167.0000     7.7045     7.9408   131.4312     0.0929
  167.5000     7.7594     7.8328   130.5468     0.0962
  168.0000     7.7066     7.7800   129.6581     0.0977
  168.5000     7.6541     7.7275   129.9777     0.0965
  169.0000     7.5491     7.6221   130.2975     0.0937
  169.5000     7.3941     7.4143   131.2214     0.0971
  170.0000     7.2418     7.3128   132.4474     0.1001
  170.5000     7.0931     7.2130   130.6355     0.0992
  171.0000     6.8989     7.2148   128.8572     0.0983
  171.5000     6.6632     6.7303   127.3686     0.1013
  172.0000     6.3469     6.2783   126.4755     0.1055
  172.5000     6.0454     5.9389   128.9144     0.1097
  173.0000     5.7569     5.6558   130.7446     0.1149
  173.5000     5.4790     5.4588   132.5749     0.1212
  174.0000     5.2243     5.3155   133.8009     0.1262
  174.5000     5.1167     5.4289   129.4976     0.1348
  175.0000     5.1533     5.5836   122.1048     0.1342
  175.5000     5.2998     5.7028   118.7480     0.1218
  176.0000     5.5270     5.9063   125.4165     0.1033
  176.5000     5.8042     6.1171   132.6848     0.1012
  177.0000     6.1380     6.3797   134.2130     0.1033
  177.5000     6.5898     6.7550   132.7200     0.1045
  178.0000     7.0586     7.1359   128.8101     0.1051
  178.5000     7.4645     7.4422   126.7039     0.1057
  179.0000     7.6766     7.6543   128.6827     0.1054
  179.5000     7.6777     7.8723   131.5863     0.1045
  180.0000     7.6787     7.8739   131.3017     0.1011
  180.5000     7.7876     7.9861   128.2982     0.0984
  181.0000     7.8432     8.0999   127.4050     0.0969
  181.5000     7.9000     8.2738   130.1460     0.0968
  182.0000     8.0672     8.3986   131.9763     0.0975
  182.5000     8.1818     8.5702   130.4733     0.0971
  183.0000     8.3559     8.6923   126.7492     0.0956
  183.5000     8.4155     8.7549   125.3825     0.0935
  184.0000     8.5945     8.8180   129.3320     0.0892
  184.5000     8.6558     8.8815   133.5792     0.0865
  185.0000     8.7176     8.8833   133.8945     0.0850
  185.5000     8.7188     8.9473   132.7080     0.0877
  186.0000     8.6594     8.8869   132.6888     0.0919
  186.5000     8.6004     8.8274   133.9527     0.0940
  187.0000     8.4824     8.7678   135.2165     0.0934
  187.5000     8.4246     8.7082   134.2933     0.0928
  188.0000     8.3094     8.6495   131.8940     0.0925
  188.5000     8.1954     8.5319   130.4010     0.0931
  189.0000     8.1393     8.3570   129.5079     0.0940
  189.5000     8.0279     8.3006   128.9212     0.0952
  190.0000     7.9733     8.2446   129.5474     0.0970
  190.5000     7.9189     8.2463   130.7735     0.0982
  191.0000     7.8650     8.2484   131.4642     0.0988
  191.5000     7.8114     8.1923   134.7405     0.0970
  192.0000     7.7043     8.1371   135.0602     0.0964
  192.5000     7.5989     8.0264   135.6820     0.0985
  193.0000     7.4426     7.6456   136.9081     0.1006
  193.5000     7.1386     7.2829   137.8320     0.1018
  194.0000     6.8950     6.9860   135.1306     0.1030
  194.5000     6.5173     6.6965   132.7312     0.1072
  195.0000     5.9785     6.2225   130.9064     0.1116
  195.5000     5.5186     5.4769   130.3495     0.1163
  196.0000     4.9367     4.9685   130.6736     0.1190
  196.5000     4.3855     4.3834   130.9933     0.1253
  197.0000     3.7362     3.8943   131.0108     0.1308
  197.5000     3.3423     3.4357   131.0284     0.1362
  198.0000     2.9485     3.0523   131.0460     0.1426
  198.5000     2.7122     2.7883   131.0636     0.1550
  199.0000     2.5798     2.6542   131.3837     0.1677
  199.5000     2.4607     2.6381   130.8011     0.1804
  200.0000     2.4611     2.6946   124.4742     0.1831
  200.5000     2.5310     2.7907   119.0537     0.1755
  201.0000     2.6395     2.8903   115.7481     0.1513
  201.5000     2.9105     3.0781   123.9228     0.1389
  202.0000     3.4411     3.3242   133.9101     0.1337
  202.5000     3.9018     3.7958   138.1274     0.1410
  203.0000     4.2756     4.3994   137.8371     0.1227
  203.5000     4.6608     4.6858   134.2175     0.1100
  204.0000     5.0877     5.1621   136.1772     0.1076
  204.5000     5.3803     5.6137   139.6882     0.1155
  205.0000     5.6897     5.7736   138.4915     0.1170
  205.5000     5.9335     6.1061   137.8961     0.1176
  206.0000     6.1449     6.5028   139.7236     0.1176
  206.5000     6.3637     6.6416   138.5269     0.1173
  207.0000     6.4540     6.6430   135.5175     0.1178
  207.5000     6.5000     6.5982   136.1336     0.1190
  208.0000     6.2348     6.5537   140.3750     0.1184
  208.5000     6.0220     6.3307   147.0333     0.1169
  209.0000     5.7760     6.0726   144.2598     0.1175
  209.5000     5.5401     5.7981   141.5166     0.1196
  210.0000     5.2403     5.4012   145.2590     0.1226
  210.5000     4.9913     5.0263   148.8961     0.1281
  211.0000     4.8210     4.9229   149.5122     0.1360
  211.5000     4.6885     4.8217   150.1282     0.1541
  212.0000     4.6897     4.8223   148.0252     0.1498
  212.5000     4.6903     4.8230   140.4841     0.1425
  213.0000     4.7570     4.8914   135.9642     0.1383
  213.5000     4.8922     5.0357   133.5591     0.1371
  214.0000     5.1735     5.4323   137.8490     0.1340
  214.5000     5.3952     5.8254   141.4794     0.1267
  215.0000     5.7055     6.0329   142.9630     0.1255
  215.5000     6.0336     6.2914   144.7875     0.1255
  216.0000     6.3854     6.5611   145.7027     0.1219
  216.5000     6.8425     6.8423   140.5815     0.1140
  217.0000     7.1857     7.0860   137.5721     0.1088
  217.5000     7.4416     7.2917   135.1670     0.1064
  218.0000     7.5999     7.6532   134.2695     0.1049
  218.5000     7.7077     7.8707   137.6075     0.1036
