~VERSION INFORMATION
 VERS.                2.0:   CWLS LOG ASCII STANDARD - VERSION 2.0
 WRAP.                 NO:   ONE LINE PER DEPTH STEP
~WELL INFORMATION
#MNEM.UNIT      DATA TYPE    INFORMATION
#----------   ------------   ------------------------------
 STRT.F           28.0000:   START DEPTH
 STOP.F          630.0000:   STOP DEPTH
 STEP.F            0.5000:   STEP LENGTH
 NULL.          -999.2500:   NO VALUE
 COMP. FENIX & SCISSON INC:   COMPANY
 WELL. NAVAL PETROLEUM RESERVE 3 SX-1 #81-15:   WELL
 FLD .             TEAPOT:   FIELD
 LOC .      S15 T38N R78W:   LOCATION
 CNTY.            NATRONA:   COUNTY
 STAT.            WYOMING:   STATE
 CTRY. UNITED STATES OF AMERICA:   COUNTRY
 SRVC.           BIRDWELL:   SERVICE COMPANY
 DATE.        03-JUN-1978:   LOGDATE
 API .       490251063900:   API NUMBER
~CURVE INFORMATION
#MNEM.UNIT       API CODE    CURVE DESCRIPTION
#----------   ------------   ------------------------------
 DEPT.F                  :   
 SPR .MV     05 010 01 00:   SPONTANEOUS POTENTIAL FROM RES.
 SN  .OHMM   05 040 16 00:   SHORT NORMAL 16"
 ILD .OHMM   05 120 46 00:   INDUCTION LOG DEEP
 CALD.IN     45 280 60 00:   CALIPER FROM DENSITY LOG
 GRD .GAPI   45 310 01 00:   GAMMA RAY FROM DENSITY LOG
 CORR.G/C3   45 356 01 00:   DENSITY CORRECTION
 DPHI.DEC    45 890 12 00:   DENSITY POROSITY SANDSTONE
 DEN .G/C3   45 350 01 00:   COMPENSATED BULK DENSITY
~PARAMETER INFORMATION
#MNEM.UNIT          VALUE    DESCRIPTION
#----------   ------------   ------------------------------
 PD  .                 GL:   PERMANENT DATUM
 EPD .F              5263:   ELEVATION PERMANENT DATUM
 LMF .                 KB:   LOG MEASURED FROM
 DAPD.F                 4:   FEET ABOVE PERMANENT DATUM
 DMF .                 KB:   DRILLING MEASURED FROM
 EKB .F              5267:   KELLING BUSHING
 EGL .F              5263:   GROUND LEVEL
 DATE.        03-JUN-1978:   RUN DATE
 RUN .                  1:   RUN NUMBER
 DD  .F               632:   DEPTH DRILLER
 DL  .F               636:   DEPTH LOGGER
 BLI .F               630:   BOTTOM LOG INTERVAL
 TLI .F                40:   TOP LOG INTERVAL
 CS  .IN            8.625:   CASING SIZE
 CBD .F                40:   CASING BOTTOM DRILLER
 CBL .F                40:   CASING BOTTOM LOGGER
 BS  .IN            7.875:   BIT SIZE
 BSD .F               632:   BIT SIZE AT DEPTH
 DFT .                KCL:   DRILLING FLUID TYPE
 DFD .                8.7:   DRILLING FLUID DENSITY
 DFV .                 31:   DRILLING FLUID VISCOSITY
 DFPH.                 10:   DRILLING FLUID PH
 DFL .                9.2:   DRILLING FLUID LOSS
 MSS .           FLOWLINE:   MUD SAMPLE SOURCE
 RMS .OHMM            .26:   RESISTIVITY MUD SAMPLE
 MST .F                66:   MUD SAMPLE TEMPERATURE
 RMF .OHMM            .24:   RESISTIVITY MUD FILTRATE SAMPLE
 MFST.F                74:   MUD FILTRATE SAMPLE TEMPERATURE
 RMC .OHMM            .34:   RESISTIVITY MUD CAKE
 MCST.F                75:   MUD CAKE SAMPLE TEMPERATURE
 MFSS.               MEAS:   MUD FILTRATE SAMPLE SOURCE
 MCSS.               MEAS:   MUD CAKE SAMPLE SOURCE
 RMB .OHMM            .23:   RESISTIVITY MUD AT BHT
 BHT .F                74:   BOTTOM HOLE TEMPERATURE
 TCS .HRS            0100:   TIME CURCULATED STOPPED
 MRT .F                74:   MAXIMUM RECORDED TEMPERATURE
 LUN .               2958:   LOGGING UNIT NUMBER
 LUL .               CASP:   LOGGING UNIT LOCATION
 ENGI.             MILLER:   RECORDING ENGINEER
 WITN.           MCGINLEY:   WITNESSED BY
 CLNT.            A2DTECH:   CLIENT CODE
 ORIG.           5" PRINT:   ORIGIN OF DATA
 UWI .       490251063900:   UNIQUE WELL ID
 DICO. A2D Technologies, Inc.:   DIGITIZING COMPANY
~OTHER INFORMATION
~A   DEPT      SPR         SN        ILD       CALD         GRD      CORR       DPHI        DEN   
# ...
  230.5000   -24.5406     9.5846     8.4841     8.3378    79.9919     0.0358     0.1023     2.5134
  231.0000   -24.5465     9.5169     8.4824     8.3964    76.6255     0.0356     0.0996     2.5164
  231.5000   -24.5537     9.5156     8.4806     8.4402    76.4652     0.0354     0.0999     2.5140
  232.0000   -24.5594     9.4487     8.4787     8.4688    77.0682     0.0352     0.1027     2.5086
  232.5000   -24.5652     9.4474     8.4768     8.4974    77.5186     0.0350     0.1118     2.4903
  233.0000   -24.5710     9.3810     8.5344     8.5261    76.4423     0.0363     0.1182     2.4803
  233.5000   -24.5768     9.3049     8.5324     8.5547    75.8240     0.0407     0.1165     2.4863
  234.0000   -24.5826     9.1853     8.5306     8.5686    75.8164     0.0465     0.1107     2.4961
  234.5000   -24.5886     9.1207     8.5287     8.5969    74.5874     0.0463     0.1123     2.5013
  235.0000   -24.7458     9.0566     8.5866     8.6108    75.8011     0.0507     0.1166     2.4890
  235.5000   -24.7507     8.9929     8.5846     8.6087    78.6943     0.0505     0.1144     2.4943
  236.0000   -24.7574     8.9917     8.5826     8.6226    79.2974     0.0503     0.1085     2.5041
  236.5000   -24.7632     8.9284     8.5808     8.6205    78.9844     0.0486     0.1097     2.5009
  237.0000   -24.7690     8.9272     8.5199     8.6188    78.5188     0.0453     0.1071     2.5008
  237.5000   -24.7748     8.8029     8.5182     8.6327    78.2058     0.0451     0.1040     2.5038
  238.0000   -24.7808     8.8018     8.5165     8.6155    78.8089     0.0480     0.1056     2.5075
  238.5000   -24.7878     8.8006     8.4560     8.6127    80.9386     0.0508     0.0989     2.5127
  239.0000   -24.7936     8.7387     8.4539     8.6087    81.3890     0.0537     0.0988     2.5157
  239.5000   -24.7994     8.7375     8.3939     8.6047    80.6181     0.0550     0.0937     2.5186
  240.0000   -24.8052     8.7363     8.3922     8.6007    76.9463     0.0563     0.0843     2.5311
  240.5000   -24.8110     8.7352     8.3905     8.5967    74.6486     0.0561     0.0683     2.5621
  241.0000   -24.8168     8.7337     8.3888     8.5927    76.3204     0.0542     0.0581     2.5938
  241.5000   -24.8240     8.7932     8.3871     8.5887    78.6028     0.0251     0.0712     2.5584
  242.0000   -24.8298     8.7920     8.3854     8.5871    79.3586     0.0236     0.0926     2.5175
  242.5000   -24.8356     8.7909     8.4420     8.5854    78.7403     0.0328     0.1083     2.5029
  243.0000   -24.8414     8.8510     8.4986     8.5837    76.9006     0.0401     0.1175     2.4906
  243.5000   -24.8472     8.8496     8.5559     8.5821    76.1296     0.0428     0.1209     2.4852
  244.0000   -24.8530     8.9099     8.6141     8.5804    75.6640     0.0426     0.1167     2.4874
  244.5000   -24.8589     8.9706     8.7325     8.5636    75.6563     0.0424     0.1128     2.4926
  245.0000   -24.8660     9.0942     8.9135     8.5316    76.7174     0.0422     0.1104     2.4994
  245.5000   -24.8718     9.1565     9.0360     8.4845    76.7098     0.0420     0.1071     2.5054
  246.0000   -24.7260     9.2189     9.0970     8.4677    73.8014     0.0402     0.1077     2.5022
  246.5000   -24.7333     9.2173     9.1584     8.4357    71.9617     0.0385     0.1129     2.4953
  247.0000   -24.7390     9.2802     9.1561     8.3886    71.3434     0.0368     0.1166     2.4891
  247.5000   -24.5946     9.2789     9.2183     8.3415    71.3358     0.0366     0.1167     2.4837
  248.0000   -24.6006     9.3421     9.2160     8.2944    72.3969     0.0349     0.1149     2.4859
  248.5000   -24.7579     9.4058     9.2142     8.2473    73.1526     0.0347     0.1167     2.4896
  249.0000   -24.6121     9.4696     9.2123     8.2002    72.6870     0.0345     0.1183     2.4835
  249.5000   -24.6193     9.4683     9.2100     8.1530    72.3740     0.0343     0.1180     2.4834
  250.0000   -24.4247     9.3365     9.2005     8.1366    71.9084     0.0342     0.1159     2.4886
  250.5000   -24.1213     9.3340     9.0988     8.1652    73.3407     0.0351     0.1203     2.4764
  251.0000   -23.8889     9.3964     8.9972     8.1793    74.6380     0.0338     0.1206     2.4816
  251.5000   -23.7461     9.3939     8.8956     8.2080    76.4610     0.0336     0.1194     2.4792
  252.0000   -23.7552     9.5223     8.8235     8.2369    77.6733     0.0334     0.1231     2.4731
  252.5000   -23.7624     9.6526     8.8211     8.2508    75.7560     0.0332     0.1222     2.4715
  253.0000   -23.7697     9.7170     8.8800     8.2645    74.7534     0.0391     0.1198     2.4813
  253.5000   -23.7769     9.7138     8.9394     8.2935    74.8970     0.0435     0.1186     2.4850
  254.0000   -23.7842     9.7112     8.9995     8.3073    76.1093     0.0433     0.1220     2.4766
  254.5000   -23.6413     9.7761     9.0592     8.3059    76.7110     0.0431     0.1232     2.4750
  255.0000   -23.6486     9.7735     9.1829     8.3197    73.0378     0.0429     0.1196     2.4810
  255.5000   -23.6576     9.8388     9.2443     8.3335    73.0287     0.0428     0.1190     2.4840
  256.0000   -23.6648     9.9045     9.3767     8.3321    73.3250     0.0426     0.1218     2.4801
  256.5000   -23.6721    10.0393     9.4990     8.3460    73.4687     0.0394     0.1219     2.4808
  257.0000   -23.6794    10.1773     9.5625     8.3443    73.4596     0.0392     0.1204     2.4815
  257.5000   -23.5346    10.3875     9.6926     8.3430    73.1452     0.0390     0.1177     2.4875
  258.0000   -23.5437    10.5296     9.7573     8.3568    72.8308     0.0403     0.1137     2.4988
  258.5000   -23.5511    10.7477     9.8908     8.3568    71.9058     0.0417     0.1123     2.4957
  259.0000   -23.4081    10.8947     9.9568     8.3568    70.6753     0.0430     0.1114     2.4948
  259.5000   -23.4171    11.0437    10.0923     8.3567    69.2922     0.0428     0.1066     2.5001
  260.0000   -23.4244    11.2718    10.1604     8.3567    69.2832     0.0405     0.1054     2.5076
  260.5000   -23.4316    11.5053    10.2283     8.3567    69.2742     0.0303     0.1103     2.4973
  261.0000   -23.4389    11.7445    10.3675     8.3567    69.7983     0.0240     0.1152     2.4834
  261.5000   -23.4462    12.0704    10.4367     8.3567    71.0870     0.0239     0.1188     2.4761
  262.0000   -23.4535    12.3205    10.5065     8.3567    72.1467     0.0237     0.1204     2.4776
  262.5000   -23.4610    12.4890    10.6494     8.3567    71.8322     0.0296     0.1177     2.4867
  263.0000   -23.4697    12.6589    10.7206     8.3567    71.0587     0.0340     0.1104     2.5048
  263.5000   -23.4770    12.6555    10.7177     8.3567    70.4390     0.0368     0.1065     2.5040
  264.0000   -23.4842    12.6522    10.7148     8.3557    69.6666     0.0397     0.1091     2.4956
  264.5000   -23.4915    12.6488    10.7120     8.3544    67.2148     0.0395     0.1124     2.4925
  265.0000   -23.4987    12.6454    10.7091     8.3530    62.4729     0.0393     0.1127     2.4947
  265.5000   -23.5060    12.6412    10.6317     8.3517    60.0211     0.0376     0.1118     2.4977
  266.0000   -23.5135    12.5506    10.6288     8.3966    60.1647     0.0359     0.1125     2.4922
  266.5000   -23.5223    12.4607    10.5527     8.4565    61.8351     0.0357     0.1219     2.4663
  267.0000   -23.5296    12.3714    10.4770     8.5012    66.8642     0.0340     0.1289     2.4678
  267.5000   -23.5368    12.2827    10.4742     8.5432    68.3819     0.0338     0.1253     2.4738
  268.0000   -23.5441    12.1947    10.4714     8.5570    68.3728     0.0337     0.1229     2.4768
  268.5000   -23.5513    12.0964    10.3963     8.5708    68.3638     0.0335     0.1278     2.4675
  269.0000   -23.5586    12.0198    10.3929     8.5692    68.0494     0.0333     0.1279     2.4652
  269.5000   -23.5661    11.9337    10.3906     8.5833    67.8877     0.0346     0.1258     2.4712
  270.0000   -23.5749    11.8481    10.3874     8.5816    67.7259     0.0345     0.1279     2.4666
  270.5000   -23.5822    11.8450    10.3131     8.5803    67.7169     0.0359     0.1282     2.4634
