~VERSION INFORMATION
 VERS.                2.0:   CWLS LOG ASCII STANDARD - VERSION 2.0
 WRAP.                 NO:   ONE LINE PER DEPTH STEP
~WELL INFORMATION
#MNEM.UNIT      DATA TYPE    INFORMATION
#----------   ------------   ------------------------------
 STRT.F            2.0000:   START DEPTH
 STOP.F          522.0000:   STOP DEPTH
 STEP.F            0.5000:   STEP LENGTH
 NULL.          -999.2500:   NO VALUE
 COMP. LAWRENCE/ALLISON INC:   COMPANY
 WELL.      47-45 SX #3-3:   WELL
 FLD .             TEAPOT:   FIELD
 LOC .       S3 T38N R78W:   LOCATION
 CNTY.            NATRONA:   COUNTY
 STAT.            WYOMING:   STATE
 CTRY. UNITED STATES OF AMERICA:   COUNTRY
 SRVC.           Gearhart:   SERVICE COMPANY
 DATE.        17-JUN-1988:   LOGDATE
 API .       490251123600:   API NUMBER
~CURVE INFORMATION
#MNEM.UNIT       API CODE    CURVE DESCRIPTION
#----------   ------------   ------------------------------
 DEPT.F                  :   
 GRR .GAPI   07 310 01 00:   GAMMA RAY
 RILD.OHMM   07 120 46 00:   INDUCTION LOG DEEP RESISTIVITY
 RILM.OHMM   07 120 44 00:   INDUCTION LOG MEDIUM RESISTIVITY
~PARAMETER INFORMATION
#MNEM.UNIT          VALUE    DESCRIPTION
#----------   ------------   ------------------------------
 PD  .                 GL:   PERMANENT DATUM
 EPD .F              5197:   ELEVATION PERMANENT DATUM
 LMF .                 KB:   LOG MEASURED FROM
 DAPD.F                10:   FEET ABOVE PERMANENT DATUM
 DMF .                 KB:   DRILLING MEASURED FROM
 EKB .F              5207:   KELLING BUSHING
 EGL .F              5197:   GROUND LEVEL
 DATE.        17-JUN-1988:   RUN DATE
 RUN .                  1:   RUN NUMBER
 DD  .F               530:   DEPTH DRILLER
 DL  .F               530:   DEPTH LOGGER
 BLI .F             521.5:   BOTTOM LOG INTERVAL
 TLI .F                48:   TOP LOG INTERVAL
 CS  .IN            9.625:   CASING SIZE
 CBD .F                48:   CASING BOTTOM DRILLER
 CBL .F                48:   CASING BOTTOM LOGGER
 BS  .IN             8.75:   BIT SIZE
 BSD .F               530:   BIT SIZE AT DEPTH
 DFT .                AIR:   DRILLING FLUID TYPE
 TLAB.HRS            0600:   TIME LOGGER AT BOTTOM
 MRT .F                70:   MAXIMUM RECORDED TEMPERATURE
 LUN .               7597:   LOGGING UNIT NUMBER
 LUL .           GILLETTE:   LOGGING UNIT LOCATION
 ENGI.          HUCKFELDT:   RECORDING ENGINEER
 WITN.             STRONG:   WITNESSED BY
 CLNT.            A2DTECH:   CLIENT CODE
 ORIG.           5" PRINT:   ORIGIN OF DATA
 UWI .       490251123600:   UNIQUE WELL ID
 DICO. A2D Technologies, Inc.:   DIGITIZING COMPANY
~OTHER INFORMATION
~A    DEPT      GRR      RILD       RILM   
    2.0000    16.1219  -999.2500  -999.2500
    2.5000    20.0761  -999.2500  -999.2500
    3.0000    25.2824  -999.2500  -999.2500
    3.5000    28.9848  -999.2500  -999.2500
    4.0000    31.0330  -999.2500  -999.2500
    4.5000    31.0477  -999.2500  -999.2500
    5.0000    30.1497  -999.2500  -999.2500
    5.5000    30.1681  -999.2500  -999.2500
    6.0000    30.7889  -999.2500  -999.2500
    6.5000    31.4096  -999.2500  -999.2500
    7.0000    33.2425  -999.2500  -999.2500
    7.5000    36.1109  -999.2500  -999.2500
    8.0000    45.6999  -999.2500  -999.2500
    8.5000    52.0783  -999.2500  -999.2500
    9.0000    56.6385  -999.2500  -999.2500
    9.5000    60.2895  -999.2500  -999.2500
   10.0000    62.7285  -999.2500  -999.2500
   10.5000    64.2584  -999.2500  -999.2500
   11.0000    64.2731  -999.2500  -999.2500
   11.5000    63.9799  -999.2500  -999.2500
   12.0000    62.7874  -999.2500  -999.2500
   12.5000    61.8967  -999.2500  -999.2500
   13.0000    61.0023  -999.2500  -999.2500
   13.5000    61.0171  -999.2500  -999.2500
   14.0000    61.3348  -999.2500  -999.2500
   14.5000    61.3495  -999.2500  -999.2500
   15.0000    60.7576  -999.2500  -999.2500
   15.5000    59.5608  -999.2500  -999.2500
   16.0000    59.2725  -999.2500  -999.2500
   16.5000    60.2000  -999.2500  -999.2500
   17.0000    61.4268  -999.2500  -999.2500
   17.5000    62.9567  -999.2500  -999.2500
   18.0000    64.1835  -999.2500  -999.2500
   18.5000    64.5013  -999.2500  -999.2500
   19.0000    64.2093  -999.2500  -999.2500
   19.5000    64.2277  -999.2500  -999.2500
   20.0000    64.5455  -999.2500  -999.2500
   20.5000    64.2571  -999.2500  -999.2500
   21.0000    64.2756  -999.2500  -999.2500
   21.5000    65.1994  -999.2500  -999.2500
   22.0000    66.1232  -999.2500  -999.2500
   22.5000    67.0470  -999.2500  -999.2500
   23.0000    67.9708  -999.2500  -999.2500
   23.5000    67.9855  -999.2500  -999.2500
   24.0000    67.0909  -999.2500  -999.2500
   24.5000    66.7878  -999.2500  -999.2500
   25.0000    66.8182  -999.2500  -999.2500
   25.5000    68.3511  -999.2500  -999.2500
   26.0000    69.5780  -999.2500  -999.2500
   26.5000    70.1987  -999.2500  -999.2500
   27.0000    70.2135  -999.2500  -999.2500
   27.5000    69.6185  -999.2500  -999.2500
   28.0000    69.0308  -999.2500  -999.2500
   28.5000    67.8334  -999.2500  -999.2500
   29.0000    66.9390  -999.2500  -999.2500
   29.5000    66.9574  -999.2500  -999.2500
   30.0000    66.9722  -999.2500  -999.2500
   30.5000    66.9869  -999.2500  -999.2500
   31.0000    67.0016  -999.2500  -999.2500
   31.5000    67.0163  -999.2500  -999.2500
   32.0000    67.3341  -999.2500  -999.2500
   32.5000    67.6518  -999.2500  -999.2500
   33.0000    68.2727  -999.2500  -999.2500
   33.5000    69.2424  -999.2500  -999.2500
   34.0000    72.5482  -999.2500  -999.2500
   34.5000    75.5932  -999.2500  -999.2500
   35.0000    77.7291  -999.2500  -999.2500
   35.5000    76.8347  -999.2500  -999.2500
   36.0000    73.2131  -999.2500  -999.2500
   36.5000    72.0157  -999.2500  -999.2500
   37.0000    72.0304  -999.2500  -999.2500
   37.5000    72.0454  -999.2500  -999.2500
   38.0000    72.0636  -999.2500  -999.2500
   38.5000    71.1692  -999.2500  -999.2500
   39.0000    70.5778  -999.2500  -999.2500
   39.5000    68.7744  -999.2500  -999.2500
   40.0000    66.3649  -999.2500  -999.2500
   40.5000    63.9553  -999.2500  -999.2500
   41.0000    61.5454  -999.2500  -999.2500
   41.5000    63.3838  -999.2500  -999.2500
   42.0000    64.3434  -999.2500  -999.2500
   42.5000    64.0179  -999.2500  -999.2500
   43.0000    61.9114  -999.2500  -999.2500
   43.5000    60.4110  -999.2500  -999.2500
   44.0000    60.1190  -999.2500  -999.2500
   44.5000    60.4404  -999.2500  -999.2500
   45.0000    62.2733  -999.2500  -999.2500
   45.5000    66.2275  -999.2500  -999.2500
   46.0000    72.4646  -999.2500  -999.2500
   46.5000    84.7454  -999.2500  -999.2500
   47.0000    95.3662  -999.2500  -999.2500
   47.5000   108.4112  -999.2500  -999.2500
   48.0000   114.7896     2.2754    12.9424
   48.5000   114.8043     2.1820     4.8819
   49.0000   114.5123     3.4727     3.2240
   49.5000   114.5307     6.5843     3.0702
   50.0000   116.9697    18.4862     4.0523
   50.5000   119.3970    21.2346     5.0596
   51.0000   120.9152    19.5310     6.5568
   51.5000   117.8884    14.2876    10.5587
   52.0000   114.8609     8.3118    13.2751
   52.5000   113.6510     8.6029    13.4580
   53.0000   115.7758     8.9043    10.6235
   53.5000   118.5066     9.0264     9.4371
   54.0000   120.0247     8.5802     8.3257
   54.5000   121.8457     7.7433     7.8190
   55.0000   120.9395     7.7951     7.6556
   55.5000   120.3363     8.4112     7.8774
   56.0000   122.4611     9.0133     8.5502
   56.5000   123.3731     8.8159     8.7285
   57.0000   123.0729     8.7005     8.7255
   57.5000   120.9545     8.6981     8.6627
   58.0000   120.9576     8.6957     8.6602
   58.5000   122.1732     8.6933     8.6574
   59.0000   121.5700     8.6904     8.7159
   59.5000   120.6638     8.6880     8.7129
   60.0000   120.0606     8.6856     8.7105
   60.5000   120.0642     8.6232     8.7075
   61.0000   119.7633     8.5611     8.5851
   61.5000   118.5548     8.4990     8.5233
   62.0000   118.8607     8.4967     8.5210
   62.5000   119.7728     8.4356     8.4596
   63.0000   120.0793     8.4333     8.3401
   63.5000   120.3852     8.4897     8.2801
   64.0000   120.3881     8.4281     8.2205
   64.5000   119.7849     8.3096     8.2182
   65.0000   119.7885     8.2499     8.2154
   65.5000   120.7004     8.2476     8.2132
   66.0000   122.2185     8.2448     8.2687
   66.5000   122.2213     8.2425     8.2087
   67.0000   122.2242     8.1833     8.2064
   67.5000   122.2278     8.4699     8.0904
   68.0000   122.5337     8.6458     8.0882
   68.5000   123.4457     8.6428     8.1429
   69.0000   123.7516     8.6404     8.1969
   69.5000   125.6433     8.6988     8.2517
   70.0000   128.0005     8.8788     8.4226
   70.5000   128.3064     8.9382     8.4795
   71.0000   124.6729     9.0607     8.6551
   71.5000   122.5546     9.1213     8.7738
   72.0000   119.5278     9.1181     8.9554
   72.5000   117.7125     9.1791     9.0160
   73.0000   116.5033     9.1760     9.1390
   73.5000   117.4153     9.1735     9.1365
   74.0000   120.7717     9.1075     9.1340
   74.5000   123.4823     9.1684     9.1951
   75.0000   124.6973     9.1653     9.1920
   75.5000   124.3972     9.1628     9.1894
   76.0000   122.5819     9.0969     9.1869
   76.5000   120.9787     9.0944     9.1207
   77.0000   120.1634     9.0290     9.0546
   77.5000   122.2882     8.9635     8.9272
   78.0000   122.2911     8.8991     8.8630
   78.5000   121.3848     8.8351     8.7373
   79.0000   121.0847     8.6506     8.6148
   79.5000   121.3913     8.5221     8.4348
   80.0000   125.3336     8.3504     8.3162
   80.5000   127.4577     8.2904     8.1992
   81.0000   128.4001     8.1739     8.1969
   81.5000   126.5550     8.1151     8.1941
   82.0000   124.1337     8.1123     8.3065
   82.5000   122.6207     8.1671     8.3627
   83.0000   122.3212     8.2785     8.4767
   83.5000   121.7188     8.3339     8.5335
   84.0000   119.9035     8.3896     8.5906
   84.5000   117.4821     8.4451     8.5876
   85.0000   116.8782     8.5608     8.5853
   85.5000   117.7909     8.6187     8.7030
   86.0000   119.0066     8.7970     8.8217
   86.5000   121.1307     8.8558     8.8193
   87.0000   122.3457     8.9765     8.8789
   87.5000   122.6516     9.0372     8.8759
   88.0000   122.6545     9.0970     9.0059
   88.5000   120.8399     9.0945     9.0578
   89.0000   119.0246     9.1554     9.0547
   89.5000   119.9365     9.1522     9.0522
   90.0000   120.5455     9.1497     9.0497
   90.5000   121.7612     9.0839     9.0466
   91.0000   119.0368     9.0185     9.0441
   91.5000   119.6457     9.0155     9.0417
   92.0000   120.8607     8.9507     9.0392
   92.5000   121.7981     8.9483     9.0366
