~VERSION INFORMATION
 VERS.                2.0:   CWLS LOG ASCII STANDARD - VERSION 2.0
 WRAP.                 NO:   ONE LINE PER DEPTH STEP
~WELL INFORMATION
#MNEM.UNIT      DATA TYPE    INFORMATION
#----------   ------------   ------------------------------
 STRT.F          190.0000:   START DEPTH
 STOP.F         3246.0000:   STOP DEPTH
 STEP.F            0.5000:   STEP LENGTH
 NULL.          -999.2500:   NO VALUE
 COMP. BROWN JOHN E&C INC:   COMPANY
 WELL.      STX-15 #84-15:   WELL
 FLD .             TEAPOT:   FIELD
 LOC .      S15 T38N R78W:   LOCATION
 CNTY.            NATRONA:   COUNTY
 STAT.            WYOMING:   STATE
 CTRY. UNITED STATES OF AMERICA:   COUNTRY
 SRVC.           BIRDWELL:   SERVICE COMPANY
 DATE.        17-MAR-1978:   LOGDATE
 API .       490251111600:   API NUMBER
~CURVE INFORMATION
#MNEM.UNIT       API CODE    CURVE DESCRIPTION
#----------   ------------   ------------------------------
 DEPT.F                  :   
 ILD .OHMM   05 120 46 00:   INDUCTION LOG DEEP
 SN  .OHMM   05 040 16 00:   SHORT NORMAL 16"
 SPR .MV     05 010 01 00:   SPONTANEOUS POTENTIAL FROM RES.
 GRD .GAPI   45 310 01 00:   GAMMA RAY FROM DENSITY LOG
 CALD.IN     45 280 60 00:   CALIPER
 RHOB.G/C3   45 350 01 00:   BULK DENSITY
 CORR.G/C3   45 356 01 00:   DENSITY CORRECTION
 DPHI.DEC    45 890 12 00:   DENSITY POROSITY SANDSTONE
~PARAMETER INFORMATION
#MNEM.UNIT          VALUE    DESCRIPTION
#----------   ------------   ------------------------------
 PD  .                 GL:   PERMANENT DATUM
 EPD .F              5241:   ELEVATION PERMANENT DATUM
 LMF .                 KB:   LOG MEASURED FROM
 DAPD.F                10:   FEET ABOVE PERMANENT DATUM
 DMF .                 KB:   DRILLING MEASURED FROM
 EKB .F              5251:   KELLING BUSHING
 EGL .F              5241:   GROUND LEVEL
 DATE.            3-17-78:   RUN DATE
 RUN .                  1:   RUN NUMBER
 DD  .F              3250:   DEPTH DRILLER
 DL  .F              3250:   DEPTH LOGGER
 BLI .F              3244:   BOTTOM LOG INTERVAL
 TLI .F               224:   TOP LOG INTERVAL
 CS  .IN            8.625:   CASING SIZE
 CBL .F               224:   CASING BOTTOM LOGGER
 BS  .IN            7.875:   BIT SIZE
 BSD .F              3250:   BIT SIZE AT DEPTH
 DFD .                8.9:   DRILLING FLUID DENSITY
 DFV .                 31:   DRILLING FLUID VISCOSITY
 DFPH.               10.5:   DRILLING FLUID PH
 DFL .                  8:   DRILLING FLUID LOSS
 MSS .           FLOWLINE:   MUD SAMPLE SOURCE
 RMS .OHMM            1.3:   RESISTIVITY MUD SAMPLE
 MST .F                70:   MUD SAMPLE TEMPERATURE
 RMF .OHMM            1.1:   RESISTIVITY MUD FILTRATE SAMPLE
 MFST.F                70:   MUD FILTRATE SAMPLE TEMPERATURE
 RMC .OHMM            1.4:   RESISTIVITY MUD CAKE
 MCST.F                70:   MUD CAKE SAMPLE TEMPERATURE
 MFSS.               MEAS:   MUD FILTRATE SAMPLE SOURCE
 MCSS.               MEAS:   MUD CAKE SAMPLE SOURCE
 RMB .OHMM            .77:   RESISTIVITY MUD AT BHT
 BHT .F               118:   BOTTOM HOLE TEMPERATURE
 TCS .HRS               6:   TIME CURCULATED STOPPED
 MRT .F               118:   MAXIMUM RECORDED TEMPERATURE
 LUN .               2958:   LOGGING UNIT NUMBER
 LUL .               CASP:   LOGGING UNIT LOCATION
 ENGI.             MILLER:   RECORDING ENGINEER
 WITN.           MCGINLEY:   WITNESSED BY
 CLNT.            A2DTECH:   CLIENT CODE
 ORIG.     1", 2.5" PRINT:   ORIGIN OF DATA
 UWI .       490251111600:   UNIQUE WELL ID
 DICO. A2D Technologies, Inc.:   DIGITIZING COMPANY
~OTHER INFORMATION
~A   DEPT      ILD         SN        SPR         GRD      CALD       RHOB       CORR       DPHI   
# ...
 2417.5000     8.5470    10.7900   -30.1566   125.4005     8.4320     2.4644     0.0050     0.1076
 2418.0000     8.5857    10.8204   -30.1762   125.2451     8.4206     2.4620     0.0069     0.1108
 2418.5000     8.5602    10.8503   -30.1959   123.0410     8.4101     2.4690     0.0088     0.1091
 2419.0000     8.5073    10.8806   -30.2155   121.0361     8.3997     2.4741     0.0118     0.1071
 2419.5000     8.4542    10.9115   -30.2352   118.8480     8.3891     2.4790     0.0143     0.1050
 2420.0000     8.4010    10.8553   -30.2549   119.8727     8.3786     2.4832     0.0148     0.1030
 2420.5000     8.3496    10.7717   -30.2745   117.9255     8.3680     2.4877     0.0102     0.1010
 2421.0000     8.2761    10.6888   -30.2942   109.7328     8.3591     2.4925     0.0059     0.1004
 2421.5000     8.3346    10.6065   -30.3138   104.6713     8.3561     2.4642     0.0013     0.1047
 2422.0000     8.4383    10.5229   -30.3335   104.1403     8.3535     2.4484     0.0027     0.1095
 2422.5000     8.5433    10.7908   -30.3531   102.9436     8.3510     2.4533     0.0067     0.1143
 2423.0000     8.6496    11.0725   -30.3729   100.7281     8.3484     2.4566     0.0106     0.1155
 2423.5000     8.7572    11.5366   -30.3924    98.3416     8.3459     2.4523     0.0146     0.1163
 2424.0000     8.8662    11.5157   -30.4120    97.3344     8.3433     2.4559     0.0182     0.1135
 2424.5000     8.9597    11.4380   -30.4330    97.3918     8.3407     2.4626     0.0228     0.1101
 2425.0000     9.0433    11.3298   -30.4446    97.2645     8.3382     2.4693     0.0215     0.1068
 2425.5000     9.1277    11.3892   -30.4433    95.9094     8.3356     2.4762     0.0181     0.1034
 2426.0000     9.2129    11.4882   -30.4436    94.0899     8.3330     2.4834     0.0145     0.0988
 2426.5000     9.2989    11.5884   -30.4437    91.4760     8.3305     2.4898     0.0113     0.1018
 2427.0000     9.3855    11.6904   -30.4435    89.1342     8.3278     2.4928     0.0083     0.1065
 2427.5000     9.4369    11.7925   -30.4436    86.9271     8.3253     2.4720     0.0106     0.1112
 2428.0000     9.4660    11.8955   -30.4436    84.4288     8.3231     2.4507     0.0128     0.1159
 2428.5000     9.4952    11.9757   -30.4436    92.0395     8.3187     2.4409     0.0154     0.1211
 2429.0000     9.5246    11.9757   -30.4436   103.3419     8.3339     2.4413     0.0177     0.1211
 2429.5000     9.5541    11.9757   -30.4436   116.3244     8.3609     2.4411     0.0201     0.1198
 2430.0000     9.5837    11.9757   -30.4436   128.4321     8.3858     2.4435     0.0228     0.1186
 2430.5000     9.6325    11.9757   -30.4436   122.2368     8.4104     2.4489     0.0232     0.1174
 2431.0000     9.6922    11.9754   -30.4436   114.0161     8.4355     2.4539     0.0200     0.1163
 2431.5000     9.7523    11.9754   -30.4436   112.1175     8.4614     2.4529     0.0171     0.1147
 2432.0000     9.8128    11.9760   -30.4436   112.0182     8.4957     2.4462     0.0134     0.1154
 2432.5000     9.8722    11.9757   -30.4437   112.9669     8.5477     2.4381     0.0165     0.1167
 2433.0000     9.9333    11.9782   -30.4439   114.2140     8.6012     2.4433     0.0302     0.1178
 2433.5000    10.0264    11.9720   -30.4435   115.5124     8.6543     2.4559     0.0432     0.1102
 2434.0000    10.1368    12.0593   -30.4446   116.4758     8.7073     2.4678     0.0451     0.1039
 2434.5000    10.2485    12.2478   -30.4438   114.7822     8.7643     2.4792     0.0258     0.0975
 2435.0000    10.3617    12.4265   -30.4427   113.0294     8.8032     2.4934     0.0328     0.0912
 2435.5000    10.4764    12.3748   -30.4508   111.3486     8.8142     2.5069     0.0343     0.0848
 2436.0000    10.5903    12.3270   -30.3683   110.8222     8.8290     2.5207     0.0295     0.0784
 2436.5000    10.7191    12.2795   -30.1914   106.5972     8.8353     2.5346     0.0252     0.0725
 2437.0000    10.7191    12.2321   -30.0247   102.1842     8.8071     2.5371     0.0207     0.0735
 2437.5000    10.5229    11.9836   -29.8542    98.3735     8.7713     2.5214     0.0224     0.0750
 2438.0000    10.1136    11.2900   -29.6874    97.8330     8.7355     2.5043     0.0258     0.0764
 2438.5000     9.6777    10.6365   -29.5191    98.9164     8.6998     2.4890     0.0289     0.0779
 2439.0000     9.2606     9.9756   -29.3330   101.6946     8.6638     2.4841     0.0393     0.0793
 2439.5000     8.8615    10.0025   -29.2630   105.3045     8.6321     2.4869     0.0669     0.0808
 2440.0000     8.4823    10.0785   -29.4087   106.6171     8.6121     2.5072     0.0754     0.0822
 2440.5000     8.1178    10.1556   -29.5349   103.0230     8.5917     2.5277     0.0374     0.0837
 2441.0000     7.7685    10.2333   -29.6651    99.8237     8.5720     2.4943     0.0197     0.0845
 2441.5000     7.4112    10.3112   -29.7975    96.2208     8.5519     2.5129     0.0263     0.0845
 2442.0000     7.6710    10.3895   -29.9274    94.6481     8.5311     2.5170     0.0292     0.0854
 2442.5000     7.9591    10.4681   -30.0584    95.4304     8.5237     2.5111     0.0332     0.0865
 2443.0000     8.2579    10.5467   -30.1900    95.7928     8.5464     2.5201     0.0375     0.0877
 2443.5000     8.5851    10.6259   -30.3206    96.3759     8.5678     2.5212     0.0378     0.0888
 2444.0000     8.5405    10.7057   -30.4496    93.8063     8.5904     2.4981     0.0288     0.0900
 2444.5000     8.4912    10.7861   -30.5858    90.7077     8.6001     2.4936     0.0201     0.0903
 2445.0000     8.4421    10.8670   -30.7083    87.2260     8.6037     2.5053     0.0108     0.0883
 2445.5000     8.4864    10.9190   -30.8308    85.6892     8.6077     2.5143     0.0086     0.0863
 2446.0000     8.5605    10.9190   -30.6494    87.4912     8.6118     2.5180     0.0115     0.0845
 2446.5000     8.6352    10.9184   -30.4535    88.8941     8.6156     2.5223     0.0143     0.0849
 2447.0000     8.7107    10.9348   -30.2463    90.0985     8.6197     2.5122     0.0169     0.0890
 2447.5000     8.7867    10.9648   -30.0433    88.9397     8.6238     2.5010     0.0196     0.0930
 2448.0000     8.8569    10.9948   -29.8440    88.9522     8.6272     2.4915     0.0226     0.0940
 2448.5000     9.0691    11.0245   -29.6444    90.0341     8.6324     2.4958     0.0231     0.0913
 2449.0000     8.9310    11.0533   -29.5717    88.7087     8.6361     2.4989     0.0193     0.0922
 2449.5000     8.7943    11.0819   -29.5007    85.6381     8.6748     2.5023     0.0163     0.0946
 2450.0000     8.7410    11.1180   -29.4360    83.4141     8.7285     2.4925     0.0125     0.0970
 2450.5000     8.4766    10.8372   -29.3666    83.7208     8.7583     2.4821     0.0173     0.0993
 2451.0000     8.2627    10.4910   -29.3000    83.9129     8.7548     2.4717     0.0242     0.1017
 2451.5000     8.0557    10.1559   -29.2372    83.8158     8.7556     2.4618     0.0308     0.1041
 2452.0000     7.9306     9.7732   -29.2333    87.7627     8.7558     2.4639     0.0352     0.1065
 2452.5000     7.8574     9.7732   -29.2305    94.7770     8.7554     2.4659     0.0236     0.1089
 2453.0000     7.7849     9.8765   -29.2394   101.8437     8.7556     2.4667     0.0144     0.1108
 2453.5000     7.7130     9.9788   -29.2219   105.9078     8.7556     2.4575     0.0045     0.1124
 2454.0000     7.5338    10.1411   -29.2386   105.0559     8.7555     2.4569     0.0051     0.1139
 2454.5000     7.2974     9.9390   -29.2965   100.3929     8.7555     2.4605     0.0063     0.1154
 2455.0000     7.0684     9.4886   -29.8183    96.7214     8.7555     2.4631     0.0071     0.1189
 2455.5000     6.8466     9.0586   -30.0450    97.6855     8.7555     2.4602     0.0110     0.1224
 2456.0000     6.6318     8.6481   -30.3070   103.8557     8.7555     2.4567     0.0164     0.1267
 2456.5000     6.4237     8.2562   -30.5377   110.2554     8.7555     2.4533     0.0245     0.1267
 2457.0000     6.2729     7.6865   -30.9410   116.9863     8.7555     2.4485     0.0357     0.1259
 2457.5000     6.4626     7.9074   -30.9730   122.5525     8.7555     2.4477     0.0482     0.1259
