~VERSION INFORMATION
 VERS.                2.0:   CWLS LOG ASCII STANDARD - VERSION 2.0
 WRAP.                 NO:   ONE LINE PER DEPTH STEP
~WELL INFORMATION
#MNEM.UNIT      DATA TYPE    INFORMATION
#----------   ------------   ------------------------------
 STRT.F           16.0000:   START DEPTH
 STOP.F          900.0000:   STOP DEPTH
 STEP.F            0.5000:   STEP LENGTH
 NULL.          -999.2500:   NO VALUE
 COMP. FENIX & SCISSON INC:   COMPANY
 WELL.    NPR-3 #65S15-15:   WELL
 FLD .             TEAPOT:   FIELD
 LOC .      S15 T38N R78W:   LOCATION
 CNTY.            NATRONA:   COUNTY
 STAT.            WYOMING:   STATE
 CTRY. UNITED STATES OF AMERICA:   COUNTRY
 SRVC.            Unknown:   SERVICE COMPANY
 DATE.        11-MAY-1978:   LOGDATE
 API .       490251062400:   API NUMBER
~CURVE INFORMATION
#MNEM.UNIT       API CODE    CURVE DESCRIPTION
#----------   ------------   ------------------------------
 DEPT.F                  :   
 RHOB.G/C3   45 350 01 00:   BULK DENSITY
 DPHI.DEC    45 890 12 00:   DENSITY POROSITY SANDSTONE
 CORR.G/C3   45 356 01 00:   DENSITY CORRECTION
 GRD .GAPI   45 310 01 00:   GAMMA RAY FROM DENSITY LOG
 CALD.IN     45 280 60 00:   CALIPER FROM DENSITY LOG
 SPR .MV     05 010 01 00:   SPONTANEOUS POTENTIAL FROM RES.
 SN  .OHMM   05 040 16 00:   SHORT NORMAL 16"
 IL  .OHMM   05 120 00 00:   INDUCTION LOG
~PARAMETER INFORMATION
#MNEM.UNIT          VALUE    DESCRIPTION
#----------   ------------   ------------------------------
 PD  .                 GL:   PERMANENT DATUM
 EPD .F              5289:   ELEVATION PERMANENT DATUM
 LMF .                 KB:   LOG MEASURED FROM
 DAPD.F                 4:   FEET ABOVE PERMANENT DATUM
 DMF .                 KB:   DRILLING MEASURED FROM
 EKB .F              5293:   KELLING BUSHING
 EDF .F                  :   DRILLING FLOOR
 EGL .F              5289:   GROUND LEVEL
 DATE.          5-11-1978:   RUN DATE
 RUN .                  1:   RUN NUMBER
 DD  .F               887:   DEPTH DRILLER
 DL  .F               889:   DEPTH LOGGER
 BLI .F               883:   BOTTOM LOG INTERVAL
 TLI .F                40:   TOP LOG INTERVAL
 CS  .IN            8.625:   CASING SIZE
 CBD .F                40:   CASING BOTTOM DRILLER
 CBL .F                40:   CASING BOTTOM LOGGER
 BS  .IN            7.875:   BIT SIZE
 BSD .F               887:   BIT SIZE AT DEPTH
 DFT .                KCL:   DRILLING FLUID TYPE
 DFD .                8.6:   DRILLING FLUID DENSITY
 DFV .                 30:   DRILLING FLUID VISCOSITY
 DFPH.                9.5:   DRILLING FLUID PH
 DFL .                  8:   DRILLING FLUID LOSS
 MSS .                   :   MUD SAMPLE SOURCE
 RMS .OHMM            .42:   RESISTIVITY MUD SAMPLE
 MST .F                68:   MUD SAMPLE TEMPERATURE
 RMF .OHMM            .38:   RESISTIVITY MUD FILTRATE SAMPLE
 MFST.F                68:   MUD FILTRATE SAMPLE TEMPERATURE
 RMC .OHMM            .68:   RESISTIVITY MUD CAKE
 MCST.F                66:   MUD CAKE SAMPLE TEMPERATURE
 MFSS.           MEASURED:   MUD FILTRATE SAMPLE SOURCE
 MCSS.                   :   MUD CAKE SAMPLE SOURCE
 RMB .OHMM               :   RESISTIVITY MUD AT BHT
 BHT .F                72:   BOTTOM HOLE TEMPERATURE
 TCS .HRS               2:   TIME CURCULATED STOPPED
 TLAB.HRS                :   TIME LOGGER AT BOTTOM
 MRT .F                72:   MAXIMUM RECORDED TEMPERATURE
 LUN .              CASP.:   LOGGING UNIT NUMBER
 LUL .               2958:   LOGGING UNIT LOCATION
 ENGI.             MILLER:   RECORDING ENGINEER
 WITN.           MCGINLEY:   WITNESSED BY
 CLNT.            A2DTECH:   CLIENT CODE
 ORIG.      2" & 5" PRINT:   ORIGIN OF DATA
 UWI .       490251062400:   UNIQUE WELL ID
 DICO. A2D Technologies, Inc.:   DIGITIZING COMPANY
 OS  .                   :   OTHER SERVICES
 PWI .                   :   PRIMARY WELL IDENTIFIER
 R1  .                   :   REMARKS 1
 R2  .                   :   REMARKS 2
~OTHER INFORMATION
~A   DEPT     RHOB       DPHI       CORR         GRD      CALD        SPR         SN         IL   
# ...
  826.0000     2.5180     0.0949     0.0252    73.4588     7.6407   -40.1327    10.7766    10.2371
  826.5000     2.5211     0.0931     0.0274    70.8341     7.6313   -40.1637    10.8444    10.2271
  827.0000     2.5241     0.0915     0.0297    70.3247     7.6220   -40.2744    10.9127    10.2171
  827.5000     2.5238     0.0913     0.0322    70.1114     7.6127   -40.3816    10.9810    10.2071
  828.0000     2.5229     0.0952     0.0288    69.9274     7.6034   -40.4888    11.0425    10.1971
  828.5000     2.5201     0.1018     0.0241    68.9890     7.5941   -40.5959    11.0372    10.1871
  829.0000     2.5147     0.1027     0.0225    67.5181     7.5848   -40.7031    11.1486    10.1771
  829.5000     2.5080     0.1025     0.0225    66.8563     7.5754   -40.8105    11.1437    10.1671
  830.0000     2.5020     0.1040     0.0225    67.3692     7.5661   -40.9185    11.0777    10.1572
  830.5000     2.5008     0.1071     0.0225    67.0269     7.5659   -40.9547    11.0304    10.1472
  831.0000     2.4997     0.1085     0.0225    66.2230     7.5672   -40.9768    10.9833    10.1372
  831.5000     2.4987     0.1062     0.0231    66.2450     7.5685   -40.9988    10.9364    10.1273
  832.0000     2.4999     0.1039     0.0271    66.2474     7.5697   -41.0209    10.8897    10.1174
  832.5000     2.5053     0.1016     0.0311    66.2479     7.5710   -41.0430    10.8400    10.1075
  833.0000     2.5107     0.0993     0.0351    66.2532     7.5723   -41.0651    10.8035    10.0976
  833.5000     2.5161     0.0980     0.0344    66.2903     7.5736   -41.0873    10.7645    10.0877
  834.0000     2.5208     0.0980     0.0310    64.6777     7.5748   -41.1094    10.7256    10.0778
  834.5000     2.5171     0.0980     0.0276    63.1208     7.5761   -41.1315    10.6868    10.0699
  835.0000     2.5133     0.1012     0.0242    64.3901     7.5773   -41.1536    10.6482    10.0700
  835.5000     2.5096     0.1044     0.0208    66.3867     7.5786   -41.1758    10.5872    10.0700
  836.0000     2.5071     0.1029     0.0186    68.1164     7.5799   -41.1979    10.5224    10.0700
  836.5000     2.5083     0.1016     0.0194    68.4594     7.5811   -41.2200    10.4580    10.0700
  837.0000     2.5095     0.1016     0.0201    67.8504     7.5824   -41.2422    10.3940    10.0700
  837.5000     2.5094     0.1016     0.0209    67.0972     7.5838   -41.2643    10.3521    10.0702
  838.0000     2.5076     0.1016     0.0216    66.9788     7.5856   -41.2864    10.2572    10.0709
  838.5000     2.5058     0.1016     0.0224    67.2500     7.5580   -41.3086    10.1964    10.0710
  839.0000     2.5052     0.1014     0.0231    67.4447     7.5271   -41.3307    10.0926     9.9345
  839.5000     2.5069     0.1005     0.0239    67.4544     7.4960   -41.3528     9.9899     9.7991
  840.0000     2.5108     0.0996     0.0246    68.1374     7.4669   -41.3749     9.8882     9.6658
  840.5000     2.5145     0.0974     0.0254    70.0355     7.4981   -41.3971     9.7875     9.5345
  841.0000     2.5176     0.0944     0.0261    71.3465     7.5326   -41.4192     9.6879     9.4049
  841.5000     2.5191     0.0940     0.0269    71.7221     7.5668   -41.4413     9.5893     9.2771
  842.0000     2.5207     0.0937     0.0276    72.1294     7.6006   -41.4635     9.4917     9.1511
  842.5000     2.5206     0.0924     0.0283    71.7039     7.6343   -41.4856     9.3951     9.0267
  843.0000     2.5199     0.0896     0.0338    70.9579     7.6658   -41.5078     9.2994     8.9041
  843.5000     2.5261     0.0857     0.0404    70.1976     7.6984   -41.5303     9.2048     8.7831
  844.0000     2.5313     0.0825     0.0470    69.4974     7.6979   -41.5273     9.1111     8.6637
  844.5000     2.5364     0.0812     0.0506    71.2628     7.6892   -41.5168     9.0183     8.5460
  845.0000     2.5394     0.0800     0.0506    73.9466     7.6803   -41.5062     8.9337     8.4299
  845.5000     2.5408     0.0795     0.0458    75.4364     7.6715   -41.4957     8.8925     8.3153
  846.0000     2.5418     0.0798     0.0366    75.4042     7.6628   -41.4852     8.8518     8.2023
  846.5000     2.5307     0.0846     0.0281    75.3073     7.6541   -41.4746     8.8518     8.0909
  847.0000     2.5185     0.0893     0.0225    75.2351     7.6446   -41.4641     8.8518     7.9951
  847.5000     2.5061     0.0940     0.0230    76.0689     7.6150   -41.4536     8.8518     7.9724
  848.0000     2.5032     0.0968     0.0235    78.7482     7.5836   -41.4430     8.8520     7.9497
  848.5000     2.5042     0.0968     0.0239    81.4517     7.5612   -41.4325     8.8534     7.9270
  849.0000     2.5066     0.0949     0.0243    82.1552     7.5527   -41.4220     8.7936     7.9044
  849.5000     2.5135     0.0899     0.0297    80.8123     7.5457   -41.4114     8.7247     7.8819
  850.0000     2.5236     0.0848     0.0373    79.0177     7.5623   -41.4009     8.6563     7.8594
  850.5000     2.5336     0.0796     0.0450    77.3899     7.5789   -41.3904     8.5885     7.7898
  851.0000     2.5438     0.0752     0.0470    77.5272     7.5954   -41.3798     8.5211     7.6680
  851.5000     2.5486     0.0803     0.0433    77.6038     7.6119   -41.3693     8.4544     7.5482
  852.0000     2.5488     0.0895     0.0351    76.7678     7.6285   -41.3587     8.3881     7.4303
  852.5000     2.5388     0.0988     0.0287    76.0078     7.6438   -41.3482     8.3223     7.3141
  853.0000     2.5282     0.0968     0.0308    77.4574     7.6304   -41.3377     8.2571     7.1999
  853.5000     2.5175     0.0947     0.0328    84.2945     7.6157   -41.3271     8.1924     7.0963
  854.0000     2.5171     0.0927     0.0348    88.1905     7.6011   -41.3166     8.1282     7.0588
  854.5000     2.5184     0.0912     0.0365    84.5532     7.5866   -41.3061     8.0645     7.0177
  855.0000     2.5198     0.0912     0.0352    80.9696     7.5720   -41.2955     8.0012     6.9764
  855.5000     2.5211     0.0921     0.0340    79.5721     7.5681   -41.2850     7.9385     6.9353
  856.0000     2.5224     0.0940     0.0328    79.5469     7.5742   -41.2745     7.8763     6.8945
  856.5000     2.5223     0.0959     0.0315    79.4952     7.5803   -41.2639     7.8018     6.8539
  857.0000     2.5201     0.0969     0.0307    79.4493     7.5865   -41.2534     7.7203     6.8135
  857.5000     2.5180     0.0978     0.0321    78.7430     7.5927   -41.2429     7.6397     6.7734
  858.0000     2.5158     0.0988     0.0383    77.8883     7.5989   -41.2323     7.5599     6.7335
  858.5000     2.5158     0.0997     0.0455    77.1949     7.6050   -41.2218     7.4807     6.6936
  859.0000     2.5176     0.1008     0.0466    78.2835     7.6112   -41.2113     7.4021     6.6532
  859.5000     2.5195     0.1020     0.0465    79.8806     7.6174   -41.2007     7.2957     6.6523
  860.0000     2.5164     0.1002     0.0453    81.2155     7.6235   -41.1902     7.4070     6.6519
  860.5000     2.5122     0.0981     0.0373    79.9733     7.6297   -41.1796     7.5960     6.8122
  861.0000     2.5145     0.1014     0.0271    78.2087     7.6359   -41.1691     7.7899     7.0100
  861.5000     2.5129     0.1059     0.0198    76.4300     7.6422   -41.1584     7.9887     7.2136
  862.0000     2.5069     0.1091     0.0146    75.5213     7.6350   -41.1471     8.1925     7.4233
  862.5000     2.5008     0.1122     0.0132    76.1943     7.6181   -41.1286     8.4016     7.6390
  863.0000     2.4954     0.1136     0.0141    76.8077     7.6014   -41.4649     8.6160     7.8621
  863.5000     2.5036     0.1078     0.0195    76.7343     7.5852   -41.8752     8.8359     8.0072
  864.0000     2.5123     0.1021     0.0272    76.5892     7.5692   -42.2821     9.0998     8.0311
  864.5000     2.5209     0.0964     0.0350    75.6449     7.5531   -42.4019     9.0892     8.0533
  865.0000     2.5295     0.0911     0.0411    74.6785     7.5370   -42.4793     9.0766     8.0762
  865.5000     2.5373     0.0867     0.0419    74.6085     7.5209   -42.5366     9.0640     8.0991
  866.0000     2.5356     0.0824     0.0363    75.2819     7.5048   -42.5528     9.0514     8.1221
