~VERSION INFORMATION
 VERS.                2.0:   CWLS LOG ASCII STANDARD - VERSION 2.0
 WRAP.                 NO:   ONE LINE PER DEPTH STEP
~WELL INFORMATION
#MNEM.UNIT      DATA TYPE    INFORMATION
#----------   ------------   ------------------------------
 STRT.F           47.0000:   START DEPTH
 STOP.F          790.0000:   STOP DEPTH
 STEP.F            0.5000:   STEP LENGTH
 NULL.          -999.2500:   NO VALUE
 COMP. LAWRENCE/ALLISON INC:   COMPANY
 WELL. NPR #3 #21-16 SX 2:   WELL
 FLD .             NPR #3:   FIELD
 LOC .       S2 T38N R78W:   LOCATION
 CNTY.            NATRONA:   COUNTY
 STAT.            WYOMING:   STATE
 CTRY. UNITED STATES OF AMERICA:   COUNTRY
 SRVC.           Gearhart:   SERVICE COMPANY
 DATE.        16-MAY-1986:   LOGDATE
 API .       490251106700:   API NUMBER
~CURVE INFORMATION
#MNEM.UNIT       API CODE    CURVE DESCRIPTION
#----------   ------------   ------------------------------
 DEPT.F                  :   
 CNS .DEC    42 890 00 00:   NEUTRON POROSITY
 GRD .GAPI   45 310 01 00:   GAMMA RAY FROM DENSITY LOG
~PARAMETER INFORMATION
#MNEM.UNIT          VALUE    DESCRIPTION
#----------   ------------   ------------------------------
 PD  .                 GL:   PERMANENT DATUM
 LMF .                 GL:   LOG MEASURED FROM
 DATE.        16-MAY-1986:   RUN DATE
 RUN .                  1:   RUN NUMBER
 DD  .F               835:   DEPTH DRILLER
 DL  .F               835:   DEPTH LOGGER
 BLI .F               835:   BOTTOM LOG INTERVAL
 TLI .F                70:   TOP LOG INTERVAL
 CS  .IN              4.5:   CASING SIZE
 DFT .              WATER:   DRILLING FLUID TYPE
 LUN .               6084:   LOGGING UNIT NUMBER
 LUL .           GILLETTE:   LOGGING UNIT LOCATION
 ENGI.                COX:   RECORDING ENGINEER
 WITN.             STRONG:   WITNESSED BY
 CLNT.            A2DTECH:   CLIENT CODE
 ORIG.           5" PRINT:   ORIGIN OF DATA
 UWI .       490251106700:   UNIQUE WELL ID
 DICO. A2D Technologies, Inc.:   DIGITIZING COMPANY
 R1  .                 NE:   REMARKS 1
~OTHER INFORMATION
~A   DEPT        CNS       GRD  
# ...
  533.0000     0.3224    93.2653
  533.5000     0.3196    93.5826
  534.0000     0.2934    93.8975
  534.5000     0.2710    93.2950
  535.0000     0.2656    92.0809
  535.5000     0.2650    89.0319
  536.0000     0.2674    85.9829
  536.5000     0.2695    85.0723
  537.0000     0.2705    88.4477
  537.5000     0.2690    90.9033
  538.0000     0.2653    93.4146
  538.5000     0.2620    97.0385
  539.0000     0.2590    98.8825
  539.5000     0.2571   100.7265
  540.0000     0.2477    95.2310
  540.5000     0.2369    97.0750
  541.0000     0.2303    98.9190
  541.5000     0.2261    97.0933
  542.0000     0.2292    92.5153
  542.5000     0.2040    91.9105
  543.0000     0.2010    92.8393
  543.5000     0.1993    96.5182
  544.0000     0.2121   100.1970
  544.5000     0.2592   101.7329
  545.0000     0.2676   100.8246
  545.5000     0.2567    99.6128
  546.0000     0.2452    98.3964
  546.5000     0.2404    97.1823
  547.0000     0.2356    96.2740
  547.5000     0.2317    96.2854
  548.0000     0.2302    98.4352
  548.5000     0.2562    99.3618
  549.0000     0.2580    98.4535
  549.5000     0.2583    94.1812
  550.0000     0.2505    91.1300
  550.5000     0.2308    93.8950
  551.0000     0.2302    95.7515
  551.5000     0.2310    97.5872
  552.0000     0.2541    98.8012
  552.5000     0.2671    99.7247
  553.0000     0.2608   100.0367
  553.5000     0.2574    99.7368
  554.0000     0.2553    99.4371
  554.5000     0.2532    99.3516
  555.0000     0.2514    97.8694
  555.5000     0.2499    95.9796
  556.0000     0.2478    94.2627
  556.5000     0.2454    96.1052
  557.0000     0.2430    97.6403
  557.5000     0.2406    99.4813
  558.0000     0.2385   100.4048
  558.5000     0.2252   101.0225
  559.0000     0.2210    99.8054
  559.5000     0.2204    97.0591
  560.0000     0.2270    96.7579
  560.5000     0.2796    97.6830
  561.0000     0.2874    98.3007
  561.5000     0.2817    98.9184
  562.0000     0.2539    99.5361
  562.5000     0.2352    99.8480
  563.0000     0.2298    99.8541
  563.5000     0.2304    99.8602
  564.0000     0.2465    98.9488
  564.5000     0.2547    97.7317
  565.0000     0.2589    96.5145
  565.5000     0.2641    94.3799
  566.0000     0.2664    94.6918
  566.5000     0.2573    96.2270
  567.0000     0.2495    99.5970
  567.5000     0.2428   102.3554
  568.0000     0.2404   103.8905
  568.5000     0.2458   102.9792
  569.0000     0.2588   100.8446
  569.5000     0.2749    97.7926
  570.0000     0.2685    96.5739
  570.5000     0.2589    96.8873
  571.0000     0.2537    97.8109
  571.5000     0.2568    98.4286
  572.0000     0.2833    99.0463
  572.5000     0.2951    99.6640
  573.0000     0.2973    99.9759
  573.5000     0.2955    99.9820
  574.0000     0.2900    99.6807
  574.5000     0.2876    99.3822
  575.0000     0.2882    99.0826
  575.5000     0.2928    98.7829
  576.0000     0.2961    97.2601
  576.5000     0.2849    93.5965
  577.0000     0.2686    90.5445
  577.5000     0.2583    88.4099
  578.0000     0.2541    89.0276
  578.5000     0.2579    93.0093
  579.0000     0.2662    94.2386
  579.5000     0.2627    93.9389
  580.0000     0.2541    93.6391
  580.5000     0.2496    94.2671
  581.0000     0.2457    95.8024
  581.5000     0.2415    97.9695
  582.0000     0.2397   101.3497
  582.5000     0.2620   103.1498
  583.0000     0.2814   103.1252
  583.5000     0.2850    99.7268
  584.0000     0.2723    98.5808
  584.5000     0.2596   100.1621
  585.0000     0.2575   101.7025
  585.5000     0.2545   102.9368
  586.0000     0.2461   101.6648
  586.5000     0.2385    98.0012
  587.0000     0.2328    96.1724
  587.5000     0.2301    95.2596
  588.0000     0.2343    94.9598
  588.5000     0.2417    95.5791
  589.0000     0.2410    96.8084
  589.5000     0.2419    97.4261
  590.0000     0.2461    98.0438
  590.5000     0.2461    98.6615
  591.0000     0.2467    99.2793
  591.5000     0.2470   100.2028
  592.0000     0.2377   100.8205
  592.5000     0.2269   101.1324
  593.0000     0.2222   100.8311
  593.5000     0.2192   100.8388
  594.0000     0.2174   100.5375
  594.5000     0.2265    99.9335
  595.0000     0.2440    99.6338
  595.5000     0.2586    97.4992
  596.0000     0.2936    95.6704
  596.5000     0.3117    95.0634
  597.0000     0.3163    95.0710
  597.5000     0.3238    95.0771
  598.0000     0.3840    94.4700
  598.5000     0.3976    93.5602
  599.0000     0.3988    92.9547
  599.5000     0.3988    92.6534
  600.0000     0.3900    93.5321
  600.5000     0.3160    98.7879
  601.0000     0.3021   104.0253
  601.5000     0.2779   107.0643
  602.0000     0.2559   108.2690
  602.5000     0.2526   105.7542
  603.0000     0.2523   102.3787
  603.5000     0.2550   101.2445
  604.0000     0.2628   103.8083
  604.5000     0.2749   106.4501
  605.0000     0.2798   108.5939
  605.5000     0.2758   110.1259
  606.0000     0.2692   110.4348
  606.5000     0.2668   110.7436
  607.0000     0.2737   110.4401
  607.5000     0.2825   109.5265
  608.0000     0.2873   108.3063
  608.5000     0.2864   104.6396
  609.0000     0.2813   101.8904
  609.5000     0.2792    99.1411
  610.0000     0.3287    98.5318
  610.5000     0.3776    99.7588
  611.0000     0.3770   100.9851
  611.5000     0.3432   101.9055
  612.0000     0.3003   102.5202
  612.5000     0.2949   101.9116
  613.0000     0.3033   100.0798
  613.5000     0.3050    99.1647
  614.0000     0.2943   100.6975
  614.5000     0.2918   102.2296
  615.0000     0.2924   103.4559
  615.5000     0.2927   104.3764
  616.0000     0.2906   104.9910
  616.5000     0.2885   105.6057
  617.0000     0.2852   105.6087
  617.5000     0.2813   105.6118
  618.0000     0.2671   105.6148
  618.5000     0.2586   104.7004
  619.0000     0.2550   103.4802
  619.5000     0.2511   102.2600
  620.0000     0.2477   101.9572
  620.5000     0.2502   102.2661
  621.0000     0.2556   102.5749
  621.5000     0.2619   103.4954
  622.0000     0.2677   104.1185
  622.5000     0.2698   105.0459
  623.0000     0.2707   106.2792
  623.5000     0.2704   107.1774
  624.0000     0.2743   107.7921
  624.5000     0.2976   107.4455
  625.0000     0.2967   106.5240
  625.5000     0.2952   105.9662
  626.0000     0.3172   105.9700
  626.5000     0.3208   105.9731
  627.0000     0.3069   105.9761
  627.5000     0.2867   105.9791
  628.0000     0.2696   105.6756
  628.5000     0.2571   105.0678
  629.0000     0.2562   104.7650
  629.5000     0.2580   104.7681
  630.0000     0.2758   104.7711
  630.5000     0.2746   104.7741
  631.0000     0.2737   104.7772
  631.5000     0.2616   104.7802
  632.0000     0.2426   104.7833
  632.5000     0.2372   104.7863
  633.0000     0.2384   105.4010
  633.5000     0.2423   106.0156
  634.0000     0.2502   107.2419
  634.5000     0.2550   109.0798
  635.0000     0.2572   110.6119
  635.5000     0.2554   111.8382
  636.0000     0.2501   112.4528
  636.5000     0.2506   110.9268
  637.0000     0.2562   109.4008
  637.5000     0.2889   108.4857
  638.0000     0.2940   110.6301
  638.5000     0.2900   110.9390
  639.0000     0.2844   111.1772
  639.5000     0.2816   109.0212
  640.0000     0.2854   104.4262
  640.5000     0.3281   100.1366
  641.0000     0.3311    96.7630
  641.5000     0.3163    95.2214
  642.0000     0.2931    96.8141
  642.5000     0.2897   100.3789
  643.0000     0.3062   103.4175
  643.5000     0.3376   105.5401
  644.0000     0.3378   107.0520
  644.5000     0.3249   108.5638
  645.0000     0.3184   107.9383
  645.5000     0.3153   106.7021
  646.0000     0.3000   106.3819
  646.5000     0.2809   108.5008
  647.0000     0.2764   109.7073
  647.5000     0.2764   110.9139
  648.0000     0.2791   109.6777
  648.5000     0.3339   108.1361
  649.0000     0.3396   106.5946
  649.5000     0.3402   104.7477
  650.0000     0.3308   102.5954
  650.5000     0.2970   101.3592
  651.0000     0.2882   105.3101
  651.5000     0.2716   108.6541
  652.0000     0.2613   108.6392
  652.5000     0.2598   108.6244
  653.0000     0.2673   108.6096
  653.5000     0.2767   108.5947
  654.0000     0.2763   107.9692
