~VERSION INFORMATION
 VERS.                2.0:   CWLS LOG ASCII STANDARD - VERSION 2.0
 WRAP.                 NO:   ONE LINE PER DEPTH STEP
~WELL INFORMATION
#MNEM.UNIT      DATA TYPE    INFORMATION
#----------   ------------   ------------------------------
 STRT.F           90.0000:   START DEPTH
 STOP.F          712.0000:   STOP DEPTH
 STEP.F            0.5000:   STEP LENGTH
 NULL.          -999.2500:   NO VALUE
 COMP. U S NAVY-INTEX OIL:   COMPANY
 WELL. RES 3 TEAPOT DOM #76S-34:   WELL
 FLD .             TEAPOT:   FIELD
 LOC .      S34 T39N R78W:   LOCATION
 CNTY.            NATRONA:   COUNTY
 STAT.            WYOMING:   STATE
 CTRY. UNITED STATES OF AMERICA:   COUNTRY
 SRVC.       Schlumberger:   SERVICE COMPANY
 DATE.        08-AUG-1961:   LOGDATE
 API .       490250651700:   API NUMBER
~CURVE INFORMATION
#MNEM.UNIT       API CODE    CURVE DESCRIPTION
#----------   ------------   ------------------------------
 DEPT.F                  :   
 SPR .MV     05 010 01 00:   SPONTANEOUS POTENTIAL FROM RES.
 ASN .OHMM   05 041 16 00:   AMPLIFIED SHORT NORMAL 16"
 CILD.MMHO   05 110 46 00:   CONDUCTIVITY INDUCTION LOG DEEP
 ILD .OHMM   05 120 46 00:   INDUCTION LOG DEEP
~PARAMETER INFORMATION
#MNEM.UNIT          VALUE    DESCRIPTION
#----------   ------------   ------------------------------
 LMF .                 KB:   LOG MEASURED FROM
 DMF .                 KB:   DRILLING MEASURED FROM
 EKB .F              5092:   KELLING BUSHING
 EGL .F              5087:   GROUND LEVEL
 DATE.        08-AUG-1961:   RUN DATE
 RUN .                  1:   RUN NUMBER
 DD  .F               710:   DEPTH DRILLER
 DL  .F               713:   DEPTH LOGGER
 BLI .F               712:   BOTTOM LOG INTERVAL
 TLI .F               100:   TOP LOG INTERVAL
 BS  .IN             6.75:   BIT SIZE
 BSD .F               710:   BIT SIZE AT DEPTH
 DFT .       OIL EMULSION:   DRILLING FLUID TYPE
 DFD .               10.4:   DRILLING FLUID DENSITY
 DFV .                 45:   DRILLING FLUID VISCOSITY
 RMS .OHMM           1.21:   RESISTIVITY MUD SAMPLE
 MST .F                78:   MUD SAMPLE TEMPERATURE
 TCS .HRS               1:   TIME CURCULATED STOPPED
 LUN .               2544:   LOGGING UNIT NUMBER
 LUL .                 NC:   LOGGING UNIT LOCATION
 ENGI.             QUINBY:   RECORDING ENGINEER
 WITN.          JORGENSON:   WITNESSED BY
 CLNT.            A2DTECH:   CLIENT CODE
 ORIG.      2" , 5" PRINT:   ORIGIN OF DATA
 UWI .       490250651700:   UNIQUE WELL ID
 DICO. A2D Technologies, Inc.:   DIGITIZING COMPANY
~OTHER INFORMATION
~A   DEPT      SPR        ASN       CILD        ILD   
# ...
  236.0000   -50.2696     8.1377   123.3640     8.3705
  236.5000   -50.1144     7.8577   124.9253     8.0566
  237.0000   -50.0146     7.7308   126.8107     7.3006
  237.5000   -49.8038     7.6356   134.3335     6.5639
  238.0000   -49.6490     7.5529   138.4539     6.3035
  238.5000   -49.5789     7.4648   142.1731     6.3277
  239.0000   -49.3292     7.4024   146.1295     6.3273
  239.5000   -49.1834     7.3709   148.6412     6.4155
  240.0000   -49.1432     7.4523   150.0000     6.5619
  240.5000   -49.0298     7.5743   149.4562     6.6401
  241.0000   -49.0313     7.2770   146.8313     6.6397
  241.5000   -49.1897     6.9800   144.3855     6.6393
  242.0000   -49.3483     7.0579   143.6646     6.5484
  242.5000   -49.5507     7.3382   148.3669     6.4030
  243.0000   -49.6647     7.4961   153.6452     6.3242
  243.5000   -49.7429     7.1518   157.7789     6.3238
  244.0000   -49.8245     7.1306   155.2935     6.4019
  244.5000   -49.8263     7.1518   150.9054     6.5725
  245.0000   -49.8276     7.2825   146.7358     6.7150
  245.5000   -49.8292     7.4536   142.9704     6.9021
  246.0000   -49.8307     7.7621   140.4245     7.1067
  246.5000   -49.6754     7.8847   137.8996     7.2318
  247.0000   -49.5207     7.9812   135.3642     7.3574
  247.5000   -49.4723     8.0125   132.5261     7.4980
  248.0000   -49.2101     7.9887   130.2935     7.5761
  248.5000   -49.1296     7.9030   127.7581     7.5757
  249.0000   -49.0366     7.9364   126.2028     7.5754
  249.5000   -48.7448     8.0595   128.1223     7.4785
  250.0000   -48.5893     8.1808   130.8950     7.2606
  250.5000   -48.5910     8.2618   134.7183     7.1914
  251.0000   -48.4357     8.3568   135.7258     6.9424
  251.5000   -48.4373     8.0793   139.7419     6.8161
  252.0000   -48.4391     7.9656   142.2537     6.7096
  252.5000   -48.4953     7.9562   144.9872     6.6307
  253.0000   -48.5988     7.8656   147.2773     6.5939
  253.5000   -48.6003     7.6213   148.2167     6.5514
  254.0000   -48.6019     7.5554   148.6111     6.5510
  254.5000   -48.6037     7.5117   147.6480     6.5506
  255.0000   -48.5475     7.5117   143.3561     6.5502
  255.5000   -48.4498     7.5307   139.4326     6.6283
  256.0000   -48.2947     7.5743   135.3250     6.7211
  256.5000   -47.9826     7.6056   130.7407     6.9414
  257.0000   -47.8278     7.5900   128.2050     7.1457
  257.5000   -47.8292     7.6288   124.4294     7.3332
  258.0000   -47.8307     7.8301   120.4665     7.4919
  258.5000   -47.8323     8.0125   116.3587     7.6650
  259.0000   -47.9906     8.1578   113.3863     7.8814
  259.5000   -47.9924     8.4541   112.8604     7.9853
  260.0000   -48.2132     8.6494   113.3643     8.0377
  260.5000   -48.4660     8.8411   115.7718     7.9528
  261.0000   -48.8140     8.9202   120.0812     7.7789
  261.5000   -49.1285     8.9809   125.9062     7.4870
  262.0000   -49.5676     8.9787   130.7076     7.3019
  262.5000   -49.7257     8.8080   136.8904     7.0938
  263.0000   -49.8840     8.6114   141.7952     6.9707
  263.5000   -49.5334     8.3099   144.9934     6.8443
  264.0000   -49.0324     8.0384   146.2893     6.6216
  264.5000   -48.4782     7.7882   146.2775     6.5916
  265.0000   -48.1870     7.6686   146.2656     6.5424
  265.5000   -47.8485     7.5975   145.3289     6.5420
  266.0000   -47.5988     7.5743   144.3658     6.6201
  266.5000   -47.3869     7.6191   141.5119     6.6197
  267.0000   -47.3889     7.7561   139.2950     6.7295
  267.5000   -47.5470     7.9608   136.7597     6.8550
  268.0000   -47.7137     8.0965   134.2243     6.9806
  268.5000   -47.9666     8.2160   131.3456     7.1062
  269.0000   -48.4169     8.2935   128.8745     7.2456
  269.5000   -48.6506     8.3099   126.6182     7.2789
  270.0000   -48.6520     8.2629   124.1352     7.4045
  270.5000   -48.6426     8.2070   123.1197     7.5301
  271.0000   -48.3929     8.1690   122.1567     7.6557
  271.5000   -48.1432     8.2928   120.9541     7.7147
  272.0000   -47.8747     8.4766   120.2306     7.8284
  272.5000   -47.6437     8.6854   119.2675     7.8709
  273.0000   -47.3939     8.8027   117.7752     7.8705
  273.5000   -47.2523     8.9045   117.7634     7.8701
  274.0000   -47.0512     8.9594   117.7506     7.8697
  274.5000   -46.9420     8.9844   117.7398     7.7533
  275.0000   -46.7868     9.0141   117.7280     7.6334
  275.5000   -46.7884     9.0141   117.7139     7.5545
  276.0000   -46.7903     9.0141   119.2789     7.5081
  276.5000   -46.7915     9.0060   122.4088     7.3968
  277.0000   -46.7932     8.9579   124.7615     7.3179
  277.5000   -46.9514     8.7480   128.6761     7.2390
  278.0000   -47.1285     8.5410   130.2337     7.2385
  278.5000   -47.2683     8.3099   132.2969     7.2382
  279.0000   -47.4263     8.1903   134.9287     7.2378
  279.5000   -47.5847     8.1180   136.5788     7.2374
  280.0000   -47.7430     8.0751   138.2601     7.2370
  280.5000   -47.7445     8.0386   139.6108     7.3151
  281.0000   -47.7463     8.0125   141.1714     7.3148
  281.5000   -47.5909     7.9812   141.1592     7.3144
  282.0000   -47.4358     8.0237   142.0178     7.3140
  282.5000   -47.4373     8.1847   142.7095     7.3921
  283.0000   -47.2820     8.3058   141.1225     7.3916
  283.5000   -47.1272     8.4038   141.1124     7.4698
  284.0000   -46.9154     8.4837   139.5281     7.4694
  284.5000   -46.8166     8.5446   138.2757     7.4690
  285.0000   -46.9070     8.1221   136.0719     7.4830
  285.5000   -47.0031     8.2355   134.7744     7.5467
  286.0000   -47.2918     8.4507   132.5734     7.5463
  286.5000   -47.5679     8.5154   131.6077     7.5459
  287.0000   -48.0784     8.5499   130.0236     7.4670
  287.5000   -48.3281     8.5915   128.4395     7.4666
  288.0000   -48.3950     8.6619   128.4263     7.4662
  288.5000   -48.2400     8.7480   127.7581     7.5443
  289.0000   -48.0846     8.8534   126.8318     7.5440
  289.5000   -47.7727     8.5691   125.8320     7.6477
  290.0000   -47.5235     8.2473   124.8689     7.7211
  290.5000   -47.2738     8.3208   123.6505     7.8567
  291.0000   -46.9939     8.5759   122.9428     7.8935
  291.5000   -46.8386     8.7345   122.0558     8.0190
  292.0000   -46.9969     8.9257   121.0168     8.1695
  292.5000   -46.9984     9.1393   120.4599     8.1692
  293.0000   -47.0000     9.4543   118.8748     8.2472
  293.5000   -47.0017     9.7142   118.1277     8.3254
  294.0000   -47.0031     9.9844   115.7076     8.3250
  294.5000   -47.1614    10.1971   114.6292     8.4030
  295.0000   -47.1630    10.0993   112.5393     8.4262
  295.5000   -47.3213     9.9844   110.9544     8.5592
  296.0000   -47.3230     9.5618   108.5954     8.6771
  296.5000   -47.4812     9.6108   106.0600     8.8112
  297.0000   -47.8109     9.7340   103.0560     9.1075
  297.5000   -48.3150     9.8736   101.4741     9.2105
  298.0000   -48.7795    10.0395    99.8893     9.4207
  298.5000   -49.0550    10.2481    96.7335     9.5773
  299.0000   -49.2853    10.4567    94.9555     9.6654
  299.5000   -49.1850    10.6653    91.9909     9.7335
  300.0000   -48.6416    10.8739    90.4088     9.8901
  300.5000   -48.0784    11.0825    88.8242     9.9682
  301.0000   -47.4954    11.2911    86.3863    10.0102
  301.5000   -47.8102    11.4997    84.0841    10.0460
  302.0000   -47.4987    11.7083    82.4982    10.0455
  302.5000   -47.4451    11.8936    82.4882    10.0451
  303.0000   -47.1881    11.8936    82.4762    10.0447
  303.5000   -46.8762    11.8936    82.4646    10.1665
  304.0000   -46.8777    11.8936    82.1802    10.2010
  304.5000   -46.8795    11.8475    80.8671    10.1220
  305.0000   -46.9958    11.8003    80.8569    10.0432
  305.5000   -47.1960    11.7371    80.8450    10.0428
  306.0000   -47.3542    11.6278    79.2610    10.0424
  306.5000   -47.3558    11.5806    79.2492    10.0420
  307.0000   -47.3576    11.4553    79.2360    10.0415
  307.5000   -47.3589    11.4081    79.2256    10.0412
  308.0000   -47.3605    11.3459    79.2138    10.0408
  308.5000   -47.2696    11.3138    79.2020     9.9619
