~VERSION INFORMATION
 VERS.                2.0:   CWLS LOG ASCII STANDARD - VERSION 2.0
 WRAP.                 NO:   ONE LINE PER DEPTH STEP
~WELL INFORMATION
#MNEM.UNIT      DATA TYPE    INFORMATION
#----------   ------------   ------------------------------
 STRT.F            0.0000:   START DEPTH
 STOP.F          814.0000:   STOP DEPTH
 STEP.F            0.5000:   STEP LENGTH
 NULL.          -999.2500:   NO VALUE
 COMP.   FLUOR DANIEL INC:   COMPANY
 WELL. NAVAL PETROLEUM RESERVE 3 SHX- #1-34:   WELL
 FLD .          N.P.R. #3:   FIELD
 LOC .      S34 T39N R78W:   LOCATION
 CNTY.            NATRONA:   COUNTY
 STAT.            WYOMING:   STATE
 CTRY. UNITED STATES OF AMERICA:   COUNTRY
 SRVC.      Western Atlas:   SERVICE COMPANY
 DATE.        24-JAN-1995:   LOGDATE
 API .       490252269400:   API NUMBER
~CURVE INFORMATION
#MNEM.UNIT       API CODE    CURVE DESCRIPTION
#----------   ------------   ------------------------------
 DEPT.F                  :   
 GRR .GAPI   07 310 01 00:   GAMMA RAY FROM RES. LOG.
 RILD.OHMM   07 120 46 00:   INDUCTION LOG DEEP RESISTIVITY
 RILM.OHMM   07 120 44 00:   INDUCTION LOG MEDIUM RESISTIVITY
~PARAMETER INFORMATION
#MNEM.UNIT          VALUE    DESCRIPTION
#----------   ------------   ------------------------------
 PD  .                 GL:   PERMANENT DATUM
 EPD .F              5089:   ELEVATION PERMANENT DATUM
 LMF .                 KB:   LOG MEASURED FROM
 DAPD.F                10:   FEET ABOVE PERMANENT DATUM
 DMF .                 KB:   DRILLING MEASURED FROM
 EKB .F              5099:   KELLING BUSHING
 EDF .F              5098:   DRILLING FLOOR
 EGL .F              5089:   GROUND LEVEL
 DATE.        24-JAN-1995:   RUN DATE
 RUN .                  1:   RUN NUMBER
 DD  .F               826:   DEPTH DRILLER
 DL  .F               824:   DEPTH LOGGER
 BLI .F               817:   BOTTOM LOG INTERVAL
 CS  .IN            9.625:   CASING SIZE
 CBD .F                95:   CASING BOTTOM DRILLER
 CBL .F                94:   CASING BOTTOM LOGGER
 BS  .IN             8.75:   BIT SIZE
 BSD .F               826:   BIT SIZE AT DEPTH
 DFT .                AIR:   DRILLING FLUID TYPE
 MRT .F                90:   MAXIMUM RECORDED TEMPERATURE
 LUN .            HL 6321:   LOGGING UNIT NUMBER
 LUL .         FT. MORGAN:   LOGGING UNIT LOCATION
 ENGI.  MARSHALL BENFIELD:   RECORDING ENGINEER
 WITN.        GARY STRONG:   WITNESSED BY
 CLNT.            A2DTECH:   CLIENT CODE
 ORIG.           5" PRINT:   ORIGIN OF DATA
 UWI .       490252269400:   UNIQUE WELL ID
 DICO. A2D Technologies, Inc.:   DIGITIZING COMPANY
~OTHER INFORMATION
~A    DEPT      GRR      RILD       RILM   
# ...
  364.0000   134.8717     8.0226     8.0795
  364.5000   132.9362     7.8499     7.8820
  365.0000   135.6086     7.6801     7.6894
  365.5000   138.7232     7.5139     7.5014
  366.0000   138.4755     7.3514     7.3180
  366.5000   136.7203     7.1923     7.1391
  367.0000   137.0831     7.0367     6.9646
  367.5000   138.5757     6.8845     6.8491
  368.0000   140.0959     6.7861     6.7861
  368.5000   140.8267     6.7861     6.9148
  369.0000   140.9144     6.8789     7.0531
  369.5000   137.7378     6.9768     7.1941
  370.0000   134.5642     7.1069     7.3380
  370.5000   131.3964     7.2421     7.4847
  371.0000   128.7637     7.3771     7.6344
  371.5000   127.5225     7.5147     7.7870
  372.0000   127.8846     7.6555     7.8789
  372.5000   128.5503     7.7941     7.9202
  373.0000   128.0829     7.9401     8.0138
  373.5000   125.8656     7.9138     7.9872
  374.0000   123.6568     7.8650     7.9380
  374.5000   122.3882     7.8165     7.8890
  375.0000   121.5599     7.7683     7.8404
  375.5000   120.6745     7.7203     7.7920
  376.0000   121.6637     7.6727     7.7439
  376.5000   126.9913     7.6254     7.6961
  377.0000   131.8176     7.5817     7.6513
  377.5000   130.8582     7.6369     7.7078
  378.0000   129.2556     7.7005     7.7720
  378.5000   129.9692     7.7647     7.8368
  379.0000   132.2694     7.8294     7.9021
  379.5000   131.5423     7.8946     7.9679
  380.0000   129.3376     7.9604     8.0343
  380.5000   128.3762     8.0138     8.0882
  381.0000   130.0001     7.9234     7.9969
  381.5000   131.1994     7.8958     7.9691
  382.0000   130.0228     7.8684     7.9414
  382.5000   126.2984     7.8410     7.9138
  383.0000   122.9879     7.8138     7.8863
  383.5000   124.1192     7.7866     7.8589
  384.0000   124.0336     7.7595     7.8315
  384.5000   119.7802     7.7325     7.8043
  385.0000   116.1321     7.7057     7.7772
  385.5000   118.7095     7.6789     7.7516
  386.0000   122.9859     7.6521     7.7317
  386.5000   125.4861     7.5817     7.6488
  387.0000   126.3763     7.5817     7.6529
  387.5000   128.6615     7.5817     7.6521
  388.0000   133.0796     7.5817     7.6521
  388.5000   134.2195     7.5819     7.6519
  389.0000   133.0516     7.5804     7.6537
  389.5000   130.5459     7.5889     7.6573
  390.0000   128.1857     7.5050     7.5746
  390.5000   126.5061     7.5043     7.5779
  391.0000   129.9494     7.4975     7.5671
  391.5000   132.5940     7.4907     7.5602
  392.0000   131.5546     7.4839     7.5534
  392.5000   130.6546     7.4772     7.5465
  393.0000   133.3549     7.4704     7.5397
  393.5000   132.5002     7.4637     7.5329
  394.0000   130.5704     7.4569     7.5261
  394.5000   131.7538     7.4501     7.5193
  395.0000   136.3000     7.4432     7.5122
  395.5000   136.0183     7.4099     7.4787
  396.0000   134.9427     7.3646     7.4329
  396.5000   136.9995     7.3195     7.3875
  397.0000   139.6987     7.2748     7.3423
  397.5000   141.3362     7.2395     7.3067
  398.0000   141.8485     7.2395     7.3067
  398.5000   141.0559     7.2395     7.3067
  399.0000   137.0066     7.2722     7.3462
  399.5000   133.7237     7.3445     7.4337
  400.0000   131.8284     7.4175     7.5223
  400.5000   132.1103     7.4913     7.6119
  401.0000   133.4848     7.5658     7.7026
  401.5000   134.6558     7.6410     7.7948
  402.0000   132.8134     7.7170     7.8507
  402.5000   129.9439     7.7938     7.9070
  403.0000   127.3823     7.8713     7.9633
  403.5000   128.0924     7.9401     8.0135
  404.0000   130.5204     7.8838     7.9570
  404.5000   131.2566     7.8338     7.9065
  405.0000   131.6150     7.7842     7.8564
  405.5000   132.2083     7.7349     7.8067
  406.0000   133.1211     7.6859     7.7572
  406.5000   134.0226     7.6372     7.7081
  407.0000   134.6964     7.5888     7.6592
  407.5000   134.9259     7.5407     7.6107
  408.0000   134.5113     7.4921     7.5616
  408.5000   133.8344     7.3961     7.4649
  409.0000   135.0127     7.3016     7.3693
  409.5000   137.4410     7.2081     7.2750
  410.0000   139.5084     7.1158     7.1818
  410.5000   137.5203     7.0247     7.0899
  411.0000   134.3500     6.9348     6.9992
  411.5000   131.1903     6.8491     6.9127
  412.0000   132.6437     6.8491     6.9127
  412.5000   135.5760     6.8613     6.9250
  413.0000   135.3918     6.8865     6.9504
  413.5000   133.1111     6.9118     6.9759
  414.0000   130.9167     6.9372     7.0016
  414.5000   129.7450     6.9629     7.0276
  415.0000   130.8817     6.9936     7.0619
  415.5000   132.2255     7.0606     7.1476
  416.0000   135.2131     7.1282     7.2331
  416.5000   137.0569     7.1965     7.3198
  417.0000   135.4491     7.2655     7.4076
  417.5000   132.9858     7.3351     7.4964
  418.0000   132.3852     7.4053     7.5819
  418.5000   133.4703     7.4763     7.6314
  419.0000   133.8556     7.5479     7.6791
  419.5000   131.8522     7.6205     7.7271
  420.0000   129.8929     7.7228     7.7945
  420.5000   127.9245     7.6938     7.7650
  421.0000   127.8274     7.6426     7.7135
  421.5000   129.4833     7.5925     7.6630
  422.0000   129.5048     7.5428     7.6128
  422.5000   128.4104     7.4933     7.5629
  423.0000   128.4289     7.4429     7.5120
  423.5000   129.9245     7.4429     7.5120
  424.0000   131.4833     7.4538     7.5229
  424.5000   130.4384     7.4645     7.5338
  425.0000   128.7408     7.4753     7.5446
  425.5000   128.7313     7.4861     7.5556
  426.0000   128.9893     7.4969     7.5665
  426.5000   129.2538     7.5129     7.5825
  427.0000   128.7356     7.5107     7.5817
  427.5000   126.0444     7.6379     7.7088
  428.0000   122.1918     7.7427     7.8145
  428.5000   118.5221     7.8421     7.9316
  429.0000   121.4845     7.9949     8.1405
  429.5000   125.4551     8.1506     8.3155
  430.0000   127.0090     8.3094     8.4597
  430.5000   126.4424     8.4713     8.6096
  431.0000   125.8266     8.6364     8.7613
  431.5000   124.9705     8.8046     8.9158
  432.0000   123.1249     8.9758     9.0730
  432.5000   121.3407     9.1488     9.2407
  433.0000   119.9181     9.3102     9.4486
  433.5000   119.2955     9.4753     9.6611
  434.0000   117.5116     9.6431     9.8784
  434.5000   115.7584     9.8140    10.1006
  435.0000   115.3000     9.9880    10.3294
  435.5000   115.7369    10.1649    10.4893
  436.0000   117.2285    10.3805    10.5309
  436.5000   116.4209    10.3795    10.5705
  437.0000   115.4663    10.3175    10.6109
  437.5000   114.9599    10.2444    10.6515
  438.0000   113.8084    10.1718    10.6712
  438.5000   110.7021    10.0997    10.5213
  439.0000   110.8003    10.0281    10.4093
  439.5000   116.0144     9.9570    10.2985
  440.0000   120.2830     9.8864    10.1889
  440.5000   117.8530     9.8163    10.0804
  441.0000   115.0647     9.7467     9.9731
  441.5000   112.9529     9.6776     9.8669
  442.0000   111.5875     9.6089     9.7617
  442.5000   111.3107     9.5405     9.6391
  443.0000   111.5039     9.4636     9.6389
  443.5000   111.8024     9.5191     9.8157
  444.0000   112.0652     9.6035     9.9592
  444.5000   111.9555     9.6887    10.1050
  445.0000   111.8439     9.7747    10.2848
  445.5000   111.7342     9.8625    10.1780
  446.0000   111.6247     9.9104    10.0016
  446.5000   111.5160     9.7263     9.8283
  447.0000   111.4048     9.5985     9.6580
  447.5000   111.2928     9.4726     9.4907
  448.0000   110.7062     9.3485     9.3263
  448.5000   110.0527     9.2261     9.2512
  449.0000   110.5826     9.1052     9.1827
  449.5000   110.5120     8.9859     9.1157
  450.0000   108.8377     8.8682     9.0491
  450.5000   109.6282     8.7086     8.9830
  451.0000   111.9077     8.6613     8.9175
  451.5000   113.2069     8.6112     8.8526
  452.0000   114.1746     8.5613     8.7883
  452.5000   116.5984     8.5117     8.7244
  453.0000   115.0374     8.4624     8.6610
  453.5000   110.7611     8.4134     8.5980
  454.0000   107.0087     8.3647     8.5355
  454.5000   109.3997     8.3162     8.4734
